[
  {
    "slug": "abu-dhabi",
    "nom": "Abu Dhabi",
    "pays": "Émirats Arabes Unis",
    "lat": 24.4539,
    "lng": 54.3773
  },
  {
    "slug": "accra",
    "nom": "Accra",
    "pays": "Ghana",
    "lat": 5.6037,
    "lng": -0.187
  },
  {
    "slug": "addis-abeba",
    "nom": "Addis-Abeba",
    "pays": "Éthiopie",
    "lat": 9.024,
    "lng": 38.7469
  },
  {
    "slug": "agadir",
    "nom": "Agadir",
    "pays": "Maroc",
    "lat": 30.4278,
    "lng": -9.5981
  },
  {
    "slug": "alexandrie",
    "nom": "Alexandrie",
    "pays": "Égypte",
    "lat": 31.2001,
    "lng": 29.9187
  },
  {
    "slug": "alger",
    "nom": "Alger",
    "pays": "Algérie",
    "lat": 36.7372,
    "lng": 3.0865
  },
  {
    "slug": "almaty",
    "nom": "Almaty",
    "pays": "Kazakhstan",
    "lat": 43.2389,
    "lng": 76.8897
  },
  {
    "slug": "amman",
    "nom": "Amman",
    "pays": "Jordanie",
    "lat": 31.9539,
    "lng": 35.9106
  },
  {
    "slug": "amsterdam",
    "nom": "Amsterdam",
    "pays": "Pays-Bas",
    "lat": 52.3676,
    "lng": 4.9041
  },
  {
    "slug": "ankara",
    "nom": "Ankara",
    "pays": "Turquie",
    "lat": 39.9334,
    "lng": 32.8597
  },
  {
    "slug": "antalya",
    "nom": "Antalya",
    "pays": "Turquie",
    "lat": 36.8969,
    "lng": 30.7133
  },
  {
    "slug": "aqaba",
    "nom": "Aqaba",
    "pays": "Jordanie",
    "lat": 29.5267,
    "lng": 35.0078
  },
  {
    "slug": "bagdad",
    "nom": "Bagdad",
    "pays": "Irak",
    "lat": 33.3152,
    "lng": 44.3661
  },
  {
    "slug": "bakou",
    "nom": "Bakou",
    "pays": "Azerbaïdjan",
    "lat": 40.4093,
    "lng": 49.8671
  },
  {
    "slug": "bali",
    "nom": "Bali",
    "pays": "Indonésie",
    "lat": -8.3405,
    "lng": 115.092
  },
  {
    "slug": "banda-aceh",
    "nom": "Banda Aceh",
    "pays": "Indonésie",
    "lat": 5.5483,
    "lng": 95.3238
  },
  {
    "slug": "bangkok",
    "nom": "Bangkok",
    "pays": "Thaïlande",
    "lat": 13.7563,
    "lng": 100.5018
  },
  {
    "slug": "barcelone",
    "nom": "Barcelone",
    "pays": "Espagne",
    "lat": 41.3851,
    "lng": 2.1734
  },
  {
    "slug": "berlin",
    "nom": "Berlin",
    "pays": "Allemagne",
    "lat": 52.52,
    "lng": 13.405
  },
  {
    "slug": "beyrouth",
    "nom": "Beyrouth",
    "pays": "Liban",
    "lat": 33.8938,
    "lng": 35.5018
  },
  {
    "slug": "bordeaux",
    "nom": "Bordeaux",
    "pays": "France",
    "lat": 44.8378,
    "lng": -0.5792
  },
  {
    "slug": "boukhara",
    "nom": "Boukhara",
    "pays": "Ouzbékistan",
    "lat": 39.7747,
    "lng": 64.4286
  },
  {
    "slug": "bruxelles",
    "nom": "Bruxelles",
    "pays": "Belgique",
    "lat": 50.8503,
    "lng": 4.3517
  },
  {
    "slug": "bursa",
    "nom": "Bursa",
    "pays": "Turquie",
    "lat": 40.1885,
    "lng": 29.061
  },
  {
    "slug": "cappadoce",
    "nom": "Cappadoce",
    "pays": "Turquie",
    "lat": 38.6431,
    "lng": 34.8289
  },
  {
    "slug": "casablanca",
    "nom": "Casablanca",
    "pays": "Maroc",
    "lat": 33.5731,
    "lng": -7.5898
  },
  {
    "slug": "chefchaouen",
    "nom": "Chefchaouen",
    "pays": "Maroc",
    "lat": 35.1688,
    "lng": -5.2636
  },
  {
    "slug": "chicago",
    "nom": "Chicago",
    "pays": "États-Unis",
    "lat": 41.8781,
    "lng": -87.6298
  },
  {
    "slug": "cordoue",
    "nom": "Cordoue",
    "pays": "Espagne",
    "lat": 37.8882,
    "lng": -4.7794
  },
  {
    "slug": "dacca",
    "nom": "Dacca",
    "pays": "Bangladesh",
    "lat": 23.8103,
    "lng": 90.4125
  },
  {
    "slug": "dakar",
    "nom": "Dakar",
    "pays": "Sénégal",
    "lat": 14.7167,
    "lng": -17.4677
  },
  {
    "slug": "dearborn",
    "nom": "Dearborn",
    "pays": "États-Unis",
    "lat": 42.3223,
    "lng": -83.1763
  },
  {
    "slug": "delhi",
    "nom": "Delhi",
    "pays": "Inde",
    "lat": 28.6139,
    "lng": 77.209
  },
  {
    "slug": "djerba",
    "nom": "Djerba",
    "pays": "Tunisie",
    "lat": 33.8076,
    "lng": 10.8451
  },
  {
    "slug": "doha",
    "nom": "Doha",
    "pays": "Qatar",
    "lat": 25.2854,
    "lng": 51.531
  },
  {
    "slug": "dubai",
    "nom": "Dubaï",
    "pays": "Émirats Arabes Unis",
    "lat": 25.2048,
    "lng": 55.2708
  },
  {
    "slug": "fes",
    "nom": "Fès",
    "pays": "Maroc",
    "lat": 34.0181,
    "lng": -5.0078
  },
  {
    "slug": "gaziantep",
    "nom": "Gaziantep",
    "pays": "Turquie",
    "lat": 37.0662,
    "lng": 37.3833
  },
  {
    "slug": "grenade",
    "nom": "Grenade",
    "pays": "Espagne",
    "lat": 37.1773,
    "lng": -3.5986
  },
  {
    "slug": "houston",
    "nom": "Houston",
    "pays": "États-Unis",
    "lat": 29.7604,
    "lng": -95.3698
  },
  {
    "slug": "hyderabad-inde",
    "nom": "Hyderabad",
    "pays": "Inde",
    "lat": 17.385,
    "lng": 78.4867
  },
  {
    "slug": "islamabad",
    "nom": "Islamabad",
    "pays": "Pakistan",
    "lat": 33.6844,
    "lng": 73.0479
  },
  {
    "slug": "istanbul",
    "nom": "Istanbul",
    "pays": "Turquie",
    "lat": 41.0082,
    "lng": 28.9784
  },
  {
    "slug": "jakarta",
    "nom": "Jakarta",
    "pays": "Indonésie",
    "lat": -6.2088,
    "lng": 106.8456
  },
  {
    "slug": "jeddah",
    "nom": "Jeddah",
    "pays": "Arabie Saoudite",
    "lat": 21.4858,
    "lng": 39.1925
  },
  {
    "slug": "karachi",
    "nom": "Karachi",
    "pays": "Pakistan",
    "lat": 24.8607,
    "lng": 67.0011
  },
  {
    "slug": "konya",
    "nom": "Konya",
    "pays": "Turquie",
    "lat": 37.8746,
    "lng": 32.4932
  },
  {
    "slug": "kota-kinabalu",
    "nom": "Kota Kinabalu",
    "pays": "Malaisie",
    "lat": 5.9804,
    "lng": 116.0735
  },
  {
    "slug": "koweit-city",
    "nom": "Koweït City",
    "pays": "Koweït",
    "lat": 29.3759,
    "lng": 47.9774
  },
  {
    "slug": "kuala-lumpur",
    "nom": "Kuala Lumpur",
    "pays": "Malaisie",
    "lat": 3.139,
    "lng": 101.6869
  },
  {
    "slug": "la-mecque",
    "nom": "La Mecque",
    "pays": "Arabie Saoudite",
    "lat": 21.3891,
    "lng": 39.8579
  },
  {
    "slug": "lagos",
    "nom": "Lagos",
    "pays": "Nigéria",
    "lat": 6.5244,
    "lng": 3.3792
  },
  {
    "slug": "lahore",
    "nom": "Lahore",
    "pays": "Pakistan",
    "lat": 31.5204,
    "lng": 74.3587
  },
  {
    "slug": "le-caire",
    "nom": "Le Caire",
    "pays": "Égypte",
    "lat": 30.0444,
    "lng": 31.2357
  },
  {
    "slug": "lombok",
    "nom": "Lombok",
    "pays": "Indonésie",
    "lat": -8.65,
    "lng": 116.3249
  },
  {
    "slug": "londres",
    "nom": "Londres",
    "pays": "Royaume-Uni",
    "lat": 51.5074,
    "lng": -0.1278
  },
  {
    "slug": "los-angeles",
    "nom": "Los Angeles",
    "pays": "États-Unis",
    "lat": 34.0522,
    "lng": -118.2437
  },
  {
    "slug": "louxor",
    "nom": "Louxor",
    "pays": "Égypte",
    "lat": 25.6872,
    "lng": 32.6396
  },
  {
    "slug": "lyon",
    "nom": "Lyon",
    "pays": "France",
    "lat": 45.764,
    "lng": 4.8357
  },
  {
    "slug": "maldives",
    "nom": "Maldives",
    "pays": "Maldives",
    "lat": 3.2028,
    "lng": 73.2207
  },
  {
    "slug": "manama",
    "nom": "Manama",
    "pays": "Bahreïn",
    "lat": 26.2235,
    "lng": 50.5876
  },
  {
    "slug": "marrakech",
    "nom": "Marrakech",
    "pays": "Maroc",
    "lat": 31.6295,
    "lng": -7.9811
  },
  {
    "slug": "marseille",
    "nom": "Marseille",
    "pays": "France",
    "lat": 43.2965,
    "lng": 5.3698
  },
  {
    "slug": "mascate",
    "nom": "Mascate",
    "pays": "Oman",
    "lat": 23.588,
    "lng": 58.3829
  },
  {
    "slug": "medine",
    "nom": "Médine",
    "pays": "Arabie Saoudite",
    "lat": 24.5247,
    "lng": 39.5692
  },
  {
    "slug": "montreal",
    "nom": "Montréal",
    "pays": "Canada",
    "lat": 45.5017,
    "lng": -73.5673
  },
  {
    "slug": "nairobi",
    "nom": "Nairobi",
    "pays": "Kenya",
    "lat": -1.2864,
    "lng": 36.8172
  },
  {
    "slug": "new-york",
    "nom": "New York",
    "pays": "États-Unis",
    "lat": 40.7128,
    "lng": -74.006
  },
  {
    "slug": "osaka",
    "nom": "Osaka",
    "pays": "Japon",
    "lat": 34.6937,
    "lng": 135.5023
  },
  {
    "slug": "paris",
    "nom": "Paris",
    "pays": "France",
    "lat": 48.8566,
    "lng": 2.3522
  },
  {
    "slug": "penang",
    "nom": "Penang",
    "pays": "Malaisie",
    "lat": 5.4164,
    "lng": 100.3327
  },
  {
    "slug": "phuket",
    "nom": "Phuket",
    "pays": "Thaïlande",
    "lat": 7.8804,
    "lng": 98.3923
  },
  {
    "slug": "riyadh",
    "nom": "Riyadh",
    "pays": "Arabie Saoudite",
    "lat": 24.7136,
    "lng": 46.6753
  },
  {
    "slug": "rome",
    "nom": "Rome",
    "pays": "Italie",
    "lat": 41.9028,
    "lng": 12.4964
  },
  {
    "slug": "salalah",
    "nom": "Salalah",
    "pays": "Oman",
    "lat": 17.0151,
    "lng": 54.0924
  },
  {
    "slug": "samarkand",
    "nom": "Samarkand",
    "pays": "Ouzbékistan",
    "lat": 39.627,
    "lng": 66.975
  },
  {
    "slug": "sarajevo",
    "nom": "Sarajevo",
    "pays": "Bosnie",
    "lat": 43.8563,
    "lng": 18.4131
  },
  {
    "slug": "seoul",
    "nom": "Séoul",
    "pays": "Corée du Sud",
    "lat": 37.5665,
    "lng": 126.978
  },
  {
    "slug": "singapour",
    "nom": "Singapour",
    "pays": "Singapour",
    "lat": 1.3521,
    "lng": 103.8198
  },
  {
    "slug": "tachkent",
    "nom": "Tachkent",
    "pays": "Ouzbékistan",
    "lat": 41.2995,
    "lng": 69.2401
  },
  {
    "slug": "tanger",
    "nom": "Tanger",
    "pays": "Maroc",
    "lat": 35.7595,
    "lng": -5.834
  },
  {
    "slug": "tokyo",
    "nom": "Tokyo",
    "pays": "Japon",
    "lat": 35.6762,
    "lng": 139.6503
  },
  {
    "slug": "toronto",
    "nom": "Toronto",
    "pays": "Canada",
    "lat": 43.6532,
    "lng": -79.3832
  },
  {
    "slug": "trabzon",
    "nom": "Trabzon",
    "pays": "Turquie",
    "lat": 41.0027,
    "lng": 39.7168
  },
  {
    "slug": "tunis",
    "nom": "Tunis",
    "pays": "Tunisie",
    "lat": 36.819,
    "lng": 10.1658
  },
  {
    "slug": "vienne",
    "nom": "Vienne",
    "pays": "Autriche",
    "lat": 48.2082,
    "lng": 16.3738
  },
  {
    "slug": "yogyakarta",
    "nom": "Yogyakarta",
    "pays": "Indonésie",
    "lat": -7.7956,
    "lng": 110.3695
  },
  {
    "slug": "zanzibar",
    "nom": "Zanzibar",
    "pays": "Tanzanie",
    "lat": -6.1659,
    "lng": 39.2026
  },
  {
    "slug": "berkane",
    "nom": "Berkane",
    "pays": "Maroc",
    "lat": 34.92,
    "lng": -2.32
  },
  {
    "slug": "saidia",
    "nom": "Saïdia",
    "pays": "Maroc",
    "lat": 35.0897,
    "lng": -2.23
  },
  {
    "slug": "tafoughalt",
    "nom": "Tafoughalt",
    "pays": "Maroc",
    "lat": 34.7833,
    "lng": -2.4333
  },
  {
    "slug": "fezouane",
    "nom": "Fezouane",
    "pays": "Maroc",
    "lat": 34.95,
    "lng": -2.5
  },
  {
    "slug": "oujda",
    "nom": "Oujda",
    "pays": "Maroc",
    "lat": 34.6814,
    "lng": -1.9086
  },
  {
    "slug": "tetouan",
    "nom": "Tétouan",
    "pays": "Maroc",
    "lat": 35.5785,
    "lng": -5.3684
  },
  {
    "slug": "al-hoceima",
    "nom": "Al Hoceïma",
    "pays": "Maroc",
    "lat": 35.2517,
    "lng": -3.9372
  },
  {
    "slug": "nador",
    "nom": "Nador",
    "pays": "Maroc",
    "lat": 35.1681,
    "lng": -2.9335
  },
  {
    "slug": "asilah",
    "nom": "Asilah",
    "pays": "Maroc",
    "lat": 35.465,
    "lng": -6.0341
  },
  {
    "slug": "larache",
    "nom": "Larache",
    "pays": "Maroc",
    "lat": 35.1932,
    "lng": -6.1557
  },
  {
    "slug": "rabat",
    "nom": "Rabat",
    "pays": "Maroc",
    "lat": 34.0209,
    "lng": -6.8416
  },
  {
    "slug": "meknes",
    "nom": "Meknès",
    "pays": "Maroc",
    "lat": 33.8935,
    "lng": -5.5473
  },
  {
    "slug": "ifrane",
    "nom": "Ifrane",
    "pays": "Maroc",
    "lat": 33.5228,
    "lng": -5.1106
  },
  {
    "slug": "el-jadida",
    "nom": "El Jadida",
    "pays": "Maroc",
    "lat": 33.2316,
    "lng": -8.5007
  },
  {
    "slug": "kenitra",
    "nom": "Kénitra",
    "pays": "Maroc",
    "lat": 34.261,
    "lng": -6.5802
  },
  {
    "slug": "essaouira",
    "nom": "Essaouira",
    "pays": "Maroc",
    "lat": 31.5085,
    "lng": -9.7595
  },
  {
    "slug": "ouarzazate",
    "nom": "Ouarzazate",
    "pays": "Maroc",
    "lat": 30.9335,
    "lng": -6.937
  },
  {
    "slug": "merzouga",
    "nom": "Merzouga",
    "pays": "Maroc",
    "lat": 31.0996,
    "lng": -4.0124
  },
  {
    "slug": "zagora",
    "nom": "Zagora",
    "pays": "Maroc",
    "lat": 30.3324,
    "lng": -5.8386
  },
  {
    "slug": "tiznit",
    "nom": "Tiznit",
    "pays": "Maroc",
    "lat": 29.6974,
    "lng": -9.7316
  },
  {
    "slug": "taroudant",
    "nom": "Taroudant",
    "pays": "Maroc",
    "lat": 30.4711,
    "lng": -8.877
  },
  {
    "slug": "dakhla",
    "nom": "Dakhla",
    "pays": "Maroc",
    "lat": 23.6848,
    "lng": -15.9579
  },
  {
    "slug": "beni-mellal",
    "nom": "Béni Mellal",
    "pays": "Maroc",
    "lat": 32.3373,
    "lng": -6.3498
  },
  {
    "slug": "safi",
    "nom": "Safi",
    "pays": "Maroc",
    "lat": 32.2994,
    "lng": -9.2372
  },
  {
    "slug": "taza",
    "nom": "Taza",
    "pays": "Maroc",
    "lat": 34.21,
    "lng": -4.01
  },
  {
    "slug": "guelmim",
    "nom": "Guelmim",
    "pays": "Maroc",
    "lat": 28.987,
    "lng": -10.0574
  },
  {
    "slug": "errachidia",
    "nom": "Errachidia",
    "pays": "Maroc",
    "lat": 31.9314,
    "lng": -4.4244
  },
  {
    "slug": "sharjah",
    "nom": "Sharjah",
    "pays": "Émirats Arabes Unis",
    "lat": 25.3463,
    "lng": 55.4209
  },
  {
    "slug": "nizwa",
    "nom": "Nizwa",
    "pays": "Oman",
    "lat": 22.9333,
    "lng": 57.5333
  },
  {
    "slug": "damas",
    "nom": "Damas",
    "pays": "Syrie",
    "lat": 33.5138,
    "lng": 36.2765
  },
  {
    "slug": "al-quds",
    "nom": "Al-Quds (Jérusalem)",
    "pays": "Palestine",
    "lat": 31.7767,
    "lng": 35.2345
  },
  {
    "slug": "ispahan",
    "nom": "Ispahan",
    "pays": "Iran",
    "lat": 32.6539,
    "lng": 51.666
  },
  {
    "slug": "chiraz",
    "nom": "Chiraz",
    "pays": "Iran",
    "lat": 29.5918,
    "lng": 52.5837
  },
  {
    "slug": "machhad",
    "nom": "Machhad",
    "pays": "Iran",
    "lat": 36.2605,
    "lng": 59.6168
  },
  {
    "slug": "khiva",
    "nom": "Khiva",
    "pays": "Ouzbékistan",
    "lat": 41.3783,
    "lng": 60.3639
  },
  {
    "slug": "astana",
    "nom": "Astana",
    "pays": "Kazakhstan",
    "lat": 51.1694,
    "lng": 71.4491
  },
  {
    "slug": "agra",
    "nom": "Agra",
    "pays": "Inde",
    "lat": 27.1767,
    "lng": 78.0081
  },
  {
    "slug": "mumbai",
    "nom": "Mumbai",
    "pays": "Inde",
    "lat": 19.076,
    "lng": 72.8777
  },
  {
    "slug": "lucknow",
    "nom": "Lucknow",
    "pays": "Inde",
    "lat": 26.8467,
    "lng": 80.9462
  },
  {
    "slug": "multan",
    "nom": "Multan",
    "pays": "Pakistan",
    "lat": 30.1575,
    "lng": 71.5249
  },
  {
    "slug": "peshawar",
    "nom": "Peshawar",
    "pays": "Pakistan",
    "lat": 34.0151,
    "lng": 71.5249
  },
  {
    "slug": "malacca",
    "nom": "Malacca",
    "pays": "Malaisie",
    "lat": 2.1896,
    "lng": 102.2501
  },
  {
    "slug": "johor-bahru",
    "nom": "Johor Bahru",
    "pays": "Malaisie",
    "lat": 1.4927,
    "lng": 103.7414
  },
  {
    "slug": "surabaya",
    "nom": "Surabaya",
    "pays": "Indonésie",
    "lat": -7.2575,
    "lng": 112.7521
  },
  {
    "slug": "bandung",
    "nom": "Bandung",
    "pays": "Indonésie",
    "lat": -6.9175,
    "lng": 107.6191
  },
  {
    "slug": "medan",
    "nom": "Medan",
    "pays": "Indonésie",
    "lat": 3.5952,
    "lng": 98.6722
  },
  {
    "slug": "bandar-seri-begawan",
    "nom": "Bandar Seri Begawan",
    "pays": "Brunei",
    "lat": 4.9031,
    "lng": 114.9398
  },
  {
    "slug": "izmir",
    "nom": "Izmir",
    "pays": "Turquie",
    "lat": 38.4237,
    "lng": 27.1428
  },
  {
    "slug": "sanliurfa",
    "nom": "Sanliurfa",
    "pays": "Turquie",
    "lat": 37.1674,
    "lng": 38.7955
  },
  {
    "slug": "mardin",
    "nom": "Mardin",
    "pays": "Turquie",
    "lat": 37.3122,
    "lng": 40.7351
  },
  {
    "slug": "mostar",
    "nom": "Mostar",
    "pays": "Bosnie-Herzégovine",
    "lat": 43.3438,
    "lng": 17.8078
  },
  {
    "slug": "skopje",
    "nom": "Skopje",
    "pays": "Macédoine du Nord",
    "lat": 41.9981,
    "lng": 21.4254
  },
  {
    "slug": "tirana",
    "nom": "Tirana",
    "pays": "Albanie",
    "lat": 41.3275,
    "lng": 19.8187
  },
  {
    "slug": "seville",
    "nom": "Séville",
    "pays": "Espagne",
    "lat": 37.3891,
    "lng": -5.9845
  },
  {
    "slug": "madrid",
    "nom": "Madrid",
    "pays": "Espagne",
    "lat": 40.4168,
    "lng": -3.7038
  },
  {
    "slug": "lisbonne",
    "nom": "Lisbonne",
    "pays": "Portugal",
    "lat": 38.7223,
    "lng": -9.1393
  },
  {
    "slug": "manchester",
    "nom": "Manchester",
    "pays": "Royaume-Uni",
    "lat": 53.4808,
    "lng": -2.2426
  },
  {
    "slug": "birmingham",
    "nom": "Birmingham",
    "pays": "Royaume-Uni",
    "lat": 52.4862,
    "lng": -1.8904
  },
  {
    "slug": "francfort",
    "nom": "Francfort",
    "pays": "Allemagne",
    "lat": 50.1109,
    "lng": 8.6821
  },
  {
    "slug": "munich",
    "nom": "Munich",
    "pays": "Allemagne",
    "lat": 48.1351,
    "lng": 11.582
  },
  {
    "slug": "sousse",
    "nom": "Sousse",
    "pays": "Tunisie",
    "lat": 35.8256,
    "lng": 10.6369
  },
  {
    "slug": "oran",
    "nom": "Oran",
    "pays": "Algérie",
    "lat": 35.6971,
    "lng": -0.6308
  },
  {
    "slug": "constantine",
    "nom": "Constantine",
    "pays": "Algérie",
    "lat": 36.365,
    "lng": 6.6147
  },
  {
    "slug": "sharm-el-sheikh",
    "nom": "Charm el-Cheikh",
    "pays": "Égypte",
    "lat": 27.9158,
    "lng": 34.33
  },
  {
    "slug": "hurghada",
    "nom": "Hurghada",
    "pays": "Égypte",
    "lat": 27.2579,
    "lng": 33.8116
  },
  {
    "slug": "le-cap",
    "nom": "Le Cap",
    "pays": "Afrique du Sud",
    "lat": -33.9249,
    "lng": 18.4241
  },
  {
    "slug": "mombasa",
    "nom": "Mombasa",
    "pays": "Kenya",
    "lat": -4.0435,
    "lng": 39.6682
  },
  {
    "slug": "sydney",
    "nom": "Sydney",
    "pays": "Australie",
    "lat": -33.8688,
    "lng": 151.2093
  },
  {
    "slug": "melbourne",
    "nom": "Melbourne",
    "pays": "Australie",
    "lat": -37.8136,
    "lng": 144.9631
  },
  {
    "slug": "milan",
    "nom": "Milan",
    "pays": "Italie",
    "lat": 45.4642,
    "lng": 9.19
  },
  {
    "slug": "venise",
    "nom": "Venise",
    "pays": "Italie",
    "lat": 45.4408,
    "lng": 12.3155
  },
  {
    "slug": "florence",
    "nom": "Florence",
    "pays": "Italie",
    "lat": 43.7696,
    "lng": 11.2558
  },
  {
    "slug": "naples",
    "nom": "Naples",
    "pays": "Italie",
    "lat": 40.8518,
    "lng": 14.2681
  },
  {
    "slug": "nice",
    "nom": "Nice",
    "pays": "France",
    "lat": 43.7102,
    "lng": 7.262
  },
  {
    "slug": "cannes",
    "nom": "Cannes",
    "pays": "France",
    "lat": 43.5528,
    "lng": 7.0174
  },
  {
    "slug": "strasbourg",
    "nom": "Strasbourg",
    "pays": "France",
    "lat": 48.5734,
    "lng": 7.7521
  },
  {
    "slug": "lille",
    "nom": "Lille",
    "pays": "France",
    "lat": 50.6292,
    "lng": 3.0573
  },
  {
    "slug": "toulouse",
    "nom": "Toulouse",
    "pays": "France",
    "lat": 43.6047,
    "lng": 1.4442
  },
  {
    "slug": "geneve",
    "nom": "Genève",
    "pays": "Suisse",
    "lat": 46.2044,
    "lng": 6.1432
  },
  {
    "slug": "zurich",
    "nom": "Zurich",
    "pays": "Suisse",
    "lat": 47.3769,
    "lng": 8.5417
  },
  {
    "slug": "prague",
    "nom": "Prague",
    "pays": "Tchéquie",
    "lat": 50.0755,
    "lng": 14.4378
  },
  {
    "slug": "budapest",
    "nom": "Budapest",
    "pays": "Hongrie",
    "lat": 47.4979,
    "lng": 19.0402
  },
  {
    "slug": "athenes",
    "nom": "Athènes",
    "pays": "Grèce",
    "lat": 37.9838,
    "lng": 23.7275
  },
  {
    "slug": "santorin",
    "nom": "Santorin",
    "pays": "Grèce",
    "lat": 36.3932,
    "lng": 25.4615
  },
  {
    "slug": "copenhague",
    "nom": "Copenhague",
    "pays": "Danemark",
    "lat": 55.6761,
    "lng": 12.5683
  },
  {
    "slug": "stockholm",
    "nom": "Stockholm",
    "pays": "Suède",
    "lat": 59.3293,
    "lng": 18.0686
  },
  {
    "slug": "oslo",
    "nom": "Oslo",
    "pays": "Norvège",
    "lat": 59.9139,
    "lng": 10.7522
  },
  {
    "slug": "helsinki",
    "nom": "Helsinki",
    "pays": "Finlande",
    "lat": 60.1699,
    "lng": 24.9384
  },
  {
    "slug": "dublin",
    "nom": "Dublin",
    "pays": "Irlande",
    "lat": 53.3498,
    "lng": -6.2603
  },
  {
    "slug": "edimbourg",
    "nom": "Édimbourg",
    "pays": "Royaume-Uni",
    "lat": 55.9533,
    "lng": -3.1883
  },
  {
    "slug": "hambourg",
    "nom": "Hambourg",
    "pays": "Allemagne",
    "lat": 53.5511,
    "lng": 9.9937
  },
  {
    "slug": "cologne",
    "nom": "Cologne",
    "pays": "Allemagne",
    "lat": 50.9375,
    "lng": 6.9603
  },
  {
    "slug": "rotterdam",
    "nom": "Rotterdam",
    "pays": "Pays-Bas",
    "lat": 51.9244,
    "lng": 4.4777
  },
  {
    "slug": "anvers",
    "nom": "Anvers",
    "pays": "Belgique",
    "lat": 51.2194,
    "lng": 4.4025
  },
  {
    "slug": "moscou",
    "nom": "Moscou",
    "pays": "Russie",
    "lat": 55.7558,
    "lng": 37.6173
  },
  {
    "slug": "saint-petersbourg",
    "nom": "Saint-Pétersbourg",
    "pays": "Russie",
    "lat": 59.9311,
    "lng": 30.3609
  },
  {
    "slug": "varsovie",
    "nom": "Varsovie",
    "pays": "Pologne",
    "lat": 52.2297,
    "lng": 21.0122
  },
  {
    "slug": "cracovie",
    "nom": "Cracovie",
    "pays": "Pologne",
    "lat": 50.0647,
    "lng": 19.945
  },
  {
    "slug": "porto",
    "nom": "Porto",
    "pays": "Portugal",
    "lat": 41.1579,
    "lng": -8.6291
  },
  {
    "slug": "valence",
    "nom": "Valence",
    "pays": "Espagne",
    "lat": 39.4699,
    "lng": -0.3763
  },
  {
    "slug": "malaga",
    "nom": "Malaga",
    "pays": "Espagne",
    "lat": 36.7213,
    "lng": -4.4214
  },
  {
    "slug": "salou",
    "nom": "Salou",
    "pays": "Espagne",
    "lat": 41.0763,
    "lng": 1.1417
  },
  {
    "slug": "san-francisco",
    "nom": "San Francisco",
    "pays": "États-Unis",
    "lat": 37.7749,
    "lng": -122.4194
  },
  {
    "slug": "washington",
    "nom": "Washington",
    "pays": "États-Unis",
    "lat": 38.9072,
    "lng": -77.0369
  },
  {
    "slug": "boston",
    "nom": "Boston",
    "pays": "États-Unis",
    "lat": 42.3601,
    "lng": -71.0589
  },
  {
    "slug": "miami",
    "nom": "Miami",
    "pays": "États-Unis",
    "lat": 25.7617,
    "lng": -80.1918
  },
  {
    "slug": "seattle",
    "nom": "Seattle",
    "pays": "États-Unis",
    "lat": 47.6062,
    "lng": -122.3321
  },
  {
    "slug": "las-vegas",
    "nom": "Las Vegas",
    "pays": "États-Unis",
    "lat": 36.1699,
    "lng": -115.1398
  },
  {
    "slug": "atlanta",
    "nom": "Atlanta",
    "pays": "États-Unis",
    "lat": 33.749,
    "lng": -84.388
  },
  {
    "slug": "vancouver",
    "nom": "Vancouver",
    "pays": "Canada",
    "lat": 49.2827,
    "lng": -123.1207
  },
  {
    "slug": "ottawa",
    "nom": "Ottawa",
    "pays": "Canada",
    "lat": 45.4215,
    "lng": -75.6972
  },
  {
    "slug": "mexico",
    "nom": "Mexico",
    "pays": "Mexique",
    "lat": 19.4326,
    "lng": -99.1332
  },
  {
    "slug": "hong-kong",
    "nom": "Hong Kong",
    "pays": "Chine",
    "lat": 22.3193,
    "lng": 114.1694
  },
  {
    "slug": "shanghai",
    "nom": "Shanghai",
    "pays": "Chine",
    "lat": 31.2304,
    "lng": 121.4737
  },
  {
    "slug": "pekin",
    "nom": "Pékin",
    "pays": "Chine",
    "lat": 39.9042,
    "lng": 116.4074
  },
  {
    "slug": "kyoto",
    "nom": "Kyoto",
    "pays": "Japon",
    "lat": 35.0116,
    "lng": 135.7681
  },
  {
    "slug": "fukuoka",
    "nom": "Fukuoka",
    "pays": "Japon",
    "lat": 33.5904,
    "lng": 130.4017
  },
  {
    "slug": "sapporo",
    "nom": "Sapporo",
    "pays": "Japon",
    "lat": 43.0618,
    "lng": 141.3545
  },
  {
    "slug": "busan",
    "nom": "Busan",
    "pays": "Corée du Sud",
    "lat": 35.1796,
    "lng": 129.0756
  },
  {
    "slug": "taipei",
    "nom": "Taipei",
    "pays": "Taïwan",
    "lat": 25.033,
    "lng": 121.5654
  },
  {
    "slug": "ho-chi-minh",
    "nom": "Hô Chi Minh-Ville",
    "pays": "Vietnam",
    "lat": 10.8231,
    "lng": 106.6297
  },
  {
    "slug": "hanoi",
    "nom": "Hanoï",
    "pays": "Vietnam",
    "lat": 21.0278,
    "lng": 105.8342
  },
  {
    "slug": "colombo",
    "nom": "Colombo",
    "pays": "Sri Lanka",
    "lat": 6.9271,
    "lng": 79.8612
  },
  {
    "slug": "katmandou",
    "nom": "Katmandou",
    "pays": "Népal",
    "lat": 27.7172,
    "lng": 85.324
  },
  {
    "slug": "chennai",
    "nom": "Chennai",
    "pays": "Inde",
    "lat": 13.0827,
    "lng": 80.2707
  },
  {
    "slug": "bangalore",
    "nom": "Bangalore",
    "pays": "Inde",
    "lat": 12.9716,
    "lng": 77.5946
  },
  {
    "slug": "jaipur",
    "nom": "Jaipur",
    "pays": "Inde",
    "lat": 26.9124,
    "lng": 75.7873
  },
  {
    "slug": "goa",
    "nom": "Goa",
    "pays": "Inde",
    "lat": 15.2993,
    "lng": 74.124
  },
  {
    "slug": "pattaya",
    "nom": "Pattaya",
    "pays": "Thaïlande",
    "lat": 12.9236,
    "lng": 100.8825
  },
  {
    "slug": "chiang-mai",
    "nom": "Chiang Mai",
    "pays": "Thaïlande",
    "lat": 18.7883,
    "lng": 98.9853
  },
  {
    "slug": "siem-reap",
    "nom": "Siem Reap",
    "pays": "Cambodge",
    "lat": 13.3671,
    "lng": 103.8448
  },
  {
    "slug": "brisbane",
    "nom": "Brisbane",
    "pays": "Australie",
    "lat": -27.4698,
    "lng": 153.0251
  },
  {
    "slug": "perth",
    "nom": "Perth",
    "pays": "Australie",
    "lat": -31.9523,
    "lng": 115.8613
  },
  {
    "slug": "auckland",
    "nom": "Auckland",
    "pays": "Nouvelle-Zélande",
    "lat": -36.8485,
    "lng": 174.7633
  },
  {
    "slug": "johannesburg",
    "nom": "Johannesburg",
    "pays": "Afrique du Sud",
    "lat": -26.2041,
    "lng": 28.0473
  },
  {
    "slug": "durban",
    "nom": "Durban",
    "pays": "Afrique du Sud",
    "lat": -29.8587,
    "lng": 31.0218
  },
  {
    "slug": "rio-de-janeiro",
    "nom": "Rio de Janeiro",
    "pays": "Brésil",
    "lat": -22.9068,
    "lng": -43.1729
  },
  {
    "slug": "sao-paulo",
    "nom": "São Paulo",
    "pays": "Brésil",
    "lat": -23.5505,
    "lng": -46.6333
  },
  {
    "slug": "buenos-aires",
    "nom": "Buenos Aires",
    "pays": "Argentine",
    "lat": -34.6037,
    "lng": -58.3816
  },
  {
    "slug": "lima",
    "nom": "Lima",
    "pays": "Pérou",
    "lat": -12.0464,
    "lng": -77.0428
  }
]