{
  "slug": "abidjan",
  "nom": "Abidjan",
  "pays": "Côte d'Ivoire",
  "pays_slug": "cote-divoire",
  "continent": "Afrique",
  "region": "Côte d'Ivoire",
  "coordonnees": {
    "lat": 5.36,
    "lng": -4.0083
  },
  "codeISO": "CI",
  "score_halal": 3.2,
  "halalScore": 6.4,
  "description": "Abidjan, Côte d'Ivoire. Repérez les restaurants halal et les mosquées via l'application.",
  "metaDescription": "Abidjan, Côte d'Ivoire. Repérez les restaurants halal et les mosquées via l'application.",
  "image": "https://upload.wikimedia.org/wikipedia/commons/thumb/e/ef/Visite_du_mus%C3%A9e_de_civilisation_de_C%C3%B4te_d%27Ivoire_08.jpg/1600px-Visite_du_mus%C3%A9e_de_civilisation_de_C%C3%B4te_d%27Ivoire_08.jpg",
  "image_hero": "https://upload.wikimedia.org/wikipedia/commons/thumb/e/ef/Visite_du_mus%C3%A9e_de_civilisation_de_C%C3%B4te_d%27Ivoire_08.jpg/1600px-Visite_du_mus%C3%A9e_de_civilisation_de_C%C3%B4te_d%27Ivoire_08.jpg",
  "imageCredit": "Wikimedia Commons",
  "scoreIndicatif": true,
  "statistiques": {
    "restaurants_halal": 56,
    "mosquees": 143,
    "hotels": 120
  },
  "infoPratique": {
    "transport": "Accessible par avion et transports locaux.",
    "meilleureEpoque": "Selon la saison.",
    "conseilHalal": "Repérez restaurants halal et mosquées via l'application."
  },
  "tags": [
    "halal",
    "afrique"
  ],
  "restaurants": [
    {
      "nom": "Restaurant Chez Romano Cocody Attoban",
      "type": "coffee shop, pizza, sandwich, french, burger, chicken, seafood, tea, grill, juice, frozen yogurt, brunch, riz, boisson",
      "priceRange": "€€",
      "mapsUrl": "https://maps.google.com/?q=5.3752745,-3.9753339",
      "lat": 5.3752745,
      "lng": -3.9753339,
      "halalConfidence": "yes",
      "source": "osm"
    },
    {
      "nom": "Chez Thalia",
      "type": "nouriture local",
      "priceRange": "€€",
      "mapsUrl": "https://maps.google.com/?q=5.443008,-4.008896",
      "lat": 5.443008,
      "lng": -4.008896,
      "halalConfidence": "yes",
      "source": "osm"
    },
    {
      "nom": "Ganalé",
      "type": "tiep, tchep, african, sénégalaise",
      "priceRange": "€€",
      "mapsUrl": "https://maps.google.com/?q=5.2829222,-3.9751788",
      "lat": 5.2829222,
      "lng": -3.9751788,
      "halalConfidence": "yes",
      "source": "osm"
    },
    {
      "nom": "Chez Pichi",
      "type": "pizza",
      "priceRange": "€€",
      "mapsUrl": "https://maps.google.com/?q=5.281062,-3.978143",
      "lat": 5.281062,
      "lng": -3.978143,
      "halalConfidence": "yes",
      "source": "osm"
    },
    {
      "nom": "ZeytOon",
      "type": "lebanese",
      "priceRange": "€€",
      "mapsUrl": "https://maps.google.com/?q=5.3445517,-4.0106594",
      "lat": 5.3445517,
      "lng": -4.0106594,
      "halalConfidence": "likely",
      "source": "osm"
    },
    {
      "nom": "Phénicia",
      "type": "lebanese",
      "priceRange": "€€",
      "mapsUrl": "https://maps.google.com/?q=5.3586947,-3.9896974",
      "lat": 5.3586947,
      "lng": -3.9896974,
      "halalConfidence": "likely",
      "source": "osm"
    },
    {
      "nom": "Layali",
      "type": "american, arab",
      "priceRange": "€€",
      "mapsUrl": "https://maps.google.com/?q=5.3680277,-3.9895837",
      "lat": 5.3680277,
      "lng": -3.9895837,
      "halalConfidence": "likely",
      "source": "osm"
    },
    {
      "nom": "Eto'o Food",
      "type": "burger, chicken, kebab, pizza, sandwich",
      "priceRange": "€€",
      "mapsUrl": "https://maps.google.com/?q=5.339951,-4.0030012",
      "lat": 5.339951,
      "lng": -4.0030012,
      "halalConfidence": "likely",
      "source": "osm"
    },
    {
      "nom": "66 Kif",
      "type": "arab, local",
      "priceRange": "€€",
      "mapsUrl": "https://maps.google.com/?q=5.3748688,-3.9921904",
      "lat": 5.3748688,
      "lng": -3.9921904,
      "halalConfidence": "likely",
      "source": "osm"
    },
    {
      "nom": "Real Kebab",
      "type": "kebab",
      "priceRange": "€€",
      "mapsUrl": "https://maps.google.com/?q=5.3218473,-4.0174922",
      "lat": 5.3218473,
      "lng": -4.0174922,
      "halalConfidence": "likely",
      "source": "osm"
    },
    {
      "nom": "O'Good Food",
      "type": "coffee shop, deli, american, lebanese, grill, steak house, burger, hot dog, pizza, breakfast, sandwich, tea",
      "priceRange": "€€",
      "mapsUrl": "https://maps.google.com/?q=5.3632416,-3.9599442",
      "lat": 5.3632416,
      "lng": -3.9599442,
      "halalConfidence": "likely",
      "source": "osm"
    },
    {
      "nom": "Al Diwhan",
      "type": "fish, burger, sandwich, breakfast, ice cream, coffee shop, steak house, pancake, pizza, chicken, italian pizza, kebab",
      "priceRange": "€€",
      "mapsUrl": "https://maps.google.com/?q=5.4036161,-3.9854153",
      "lat": 5.4036161,
      "lng": -3.9854153,
      "halalConfidence": "likely",
      "source": "osm"
    },
    {
      "nom": "Chawarma+",
      "type": "kebab, lebanese, sandwich",
      "priceRange": "€€",
      "mapsUrl": "https://maps.google.com/?q=5.4025369,-3.9782095",
      "lat": 5.4025369,
      "lng": -3.9782095,
      "halalConfidence": "likely",
      "source": "osm"
    },
    {
      "nom": "Restaurant Talaat",
      "type": "lebanese",
      "priceRange": "€€",
      "mapsUrl": "https://maps.google.com/?q=5.3025414,-4.0105572",
      "lat": 5.3025414,
      "lng": -4.0105572,
      "halalConfidence": "likely",
      "source": "osm"
    },
    {
      "nom": "Bektaş kebap",
      "type": "african, seafood, turkish",
      "priceRange": "€€",
      "mapsUrl": "https://maps.google.com/?q=5.298985,-4.011639",
      "lat": 5.298985,
      "lng": -4.011639,
      "halalConfidence": "likely",
      "source": "osm"
    },
    {
      "nom": "Restaurant Chez Bachir",
      "type": "italian pizza, sandwich, lebanese, ice cream",
      "priceRange": "€€",
      "mapsUrl": "https://maps.google.com/?q=5.3296946,-3.953181",
      "lat": 5.3296946,
      "lng": -3.953181,
      "halalConfidence": "likely",
      "source": "osm"
    },
    {
      "nom": "Le Duo",
      "type": "lebanese",
      "priceRange": "€€",
      "mapsUrl": "https://maps.google.com/?q=5.3003102,-3.9881705",
      "lat": 5.3003102,
      "lng": -3.9881705,
      "halalConfidence": "likely",
      "source": "osm"
    },
    {
      "nom": "Badro Fast-Food",
      "type": "american, lebanese, ivorian",
      "priceRange": "€€",
      "mapsUrl": "https://maps.google.com/?q=5.2951964,-3.990149",
      "lat": 5.2951964,
      "lng": -3.990149,
      "halalConfidence": "likely",
      "source": "osm"
    },
    {
      "nom": "Razanou",
      "type": "lebanese",
      "priceRange": "€€",
      "mapsUrl": "https://maps.google.com/?q=5.3286473,-3.9474244",
      "lat": 5.3286473,
      "lng": -3.9474244,
      "halalConfidence": "likely",
      "source": "osm"
    },
    {
      "nom": "Beyti",
      "type": "lebanese",
      "priceRange": "€€",
      "mapsUrl": "https://maps.google.com/?q=5.2952201,-3.9828715",
      "lat": 5.2952201,
      "lng": -3.9828715,
      "halalConfidence": "likely",
      "source": "osm"
    },
    {
      "nom": "Khabbaz",
      "type": "lebanese",
      "priceRange": "€€",
      "mapsUrl": "https://maps.google.com/?q=5.2899866,-3.9814454",
      "lat": 5.2899866,
      "lng": -3.9814454,
      "halalConfidence": "likely",
      "source": "osm"
    },
    {
      "nom": "Balady",
      "type": "lebanese",
      "priceRange": "€€",
      "mapsUrl": "https://maps.google.com/?q=5.2881248,-3.981207",
      "lat": 5.2881248,
      "lng": -3.981207,
      "halalConfidence": "likely",
      "source": "osm"
    },
    {
      "nom": "Akwaba",
      "type": "lebanese",
      "priceRange": "€€",
      "mapsUrl": "https://maps.google.com/?q=5.29038,-3.9754825",
      "lat": 5.29038,
      "lng": -3.9754825,
      "halalConfidence": "likely",
      "source": "osm"
    },
    {
      "nom": "Taboo",
      "type": "lebanese, spanish, local, oriental, friture, grill, steak house, burger, breakfast, pizza, sandwich",
      "priceRange": "€€",
      "mapsUrl": "https://maps.google.com/?q=5.2884729,-3.9784712",
      "lat": 5.2884729,
      "lng": -3.9784712,
      "halalConfidence": "likely",
      "source": "osm"
    },
    {
      "nom": "Al Mokhtar",
      "type": "lebanese, pizza",
      "priceRange": "€€",
      "mapsUrl": "https://maps.google.com/?q=5.2862768,-3.9778919",
      "lat": 5.2862768,
      "lng": -3.9778919,
      "halalConfidence": "likely",
      "source": "osm"
    },
    {
      "nom": "Chehiwat",
      "type": "moroccan",
      "priceRange": "€€",
      "mapsUrl": "https://maps.google.com/?q=5.2887112,-3.9721792",
      "lat": 5.2887112,
      "lng": -3.9721792,
      "halalConfidence": "likely",
      "source": "osm"
    },
    {
      "nom": "Hot Bayts",
      "type": "lebanese",
      "priceRange": "€€",
      "mapsUrl": "https://maps.google.com/?q=5.2872645,-3.9743164",
      "lat": 5.2872645,
      "lng": -3.9743164,
      "halalConfidence": "likely",
      "source": "osm"
    },
    {
      "nom": "Villa de l‘Automatic",
      "type": "lebanese",
      "priceRange": "€€",
      "mapsUrl": "https://maps.google.com/?q=5.2870858,-3.973858",
      "lat": 5.2870858,
      "lng": -3.973858,
      "halalConfidence": "likely",
      "source": "osm"
    },
    {
      "nom": "Tayba",
      "type": "lebanese",
      "priceRange": "€€",
      "mapsUrl": "https://maps.google.com/?q=5.2855536,-3.9767184",
      "lat": 5.2855536,
      "lng": -3.9767184,
      "halalConfidence": "likely",
      "source": "osm"
    },
    {
      "nom": "La Terrasse",
      "type": "lebanese",
      "priceRange": "€€",
      "mapsUrl": "https://maps.google.com/?q=5.2826469,-3.9844045",
      "lat": 5.2826469,
      "lng": -3.9844045,
      "halalConfidence": "likely",
      "source": "osm"
    },
    {
      "nom": "Farouk",
      "type": "lebanese",
      "priceRange": "€€",
      "mapsUrl": "https://maps.google.com/?q=5.2825501,-3.9839054",
      "lat": 5.2825501,
      "lng": -3.9839054,
      "halalConfidence": "likely",
      "source": "osm"
    },
    {
      "nom": "Monsieur Manaïche",
      "type": "lebanese",
      "priceRange": "€€",
      "mapsUrl": "https://maps.google.com/?q=5.2831301,-3.9818958",
      "lat": 5.2831301,
      "lng": -3.9818958,
      "halalConfidence": "likely",
      "source": "osm"
    },
    {
      "nom": "Hayat Döner Alturkï",
      "type": "lebanese, turkish",
      "priceRange": "€€",
      "mapsUrl": "https://maps.google.com/?q=5.2824478,-3.9838113",
      "lat": 5.2824478,
      "lng": -3.9838113,
      "halalConfidence": "likely",
      "source": "osm"
    },
    {
      "nom": "Le petit Café",
      "type": "lebanese, pizza",
      "priceRange": "€€",
      "mapsUrl": "https://maps.google.com/?q=5.2864661,-3.9734806",
      "lat": 5.2864661,
      "lng": -3.9734806,
      "halalConfidence": "likely",
      "source": "osm"
    },
    {
      "nom": "Restaurant le Titanic",
      "type": "african, lebanese",
      "priceRange": "€€",
      "mapsUrl": "https://maps.google.com/?q=5.2874737,-3.9708985",
      "lat": 5.2874737,
      "lng": -3.9708985,
      "halalConfidence": "likely",
      "source": "osm"
    },
    {
      "nom": "Chez Samer",
      "type": "lebanese",
      "priceRange": "€€",
      "mapsUrl": "https://maps.google.com/?q=5.2859945,-3.9737274",
      "lat": 5.2859945,
      "lng": -3.9737274,
      "halalConfidence": "likely",
      "source": "osm"
    },
    {
      "nom": "Istanbul Sofrasi",
      "type": "turkish",
      "priceRange": "€€",
      "mapsUrl": "https://maps.google.com/?q=5.2849466,-3.975621",
      "lat": 5.2849466,
      "lng": -3.975621,
      "halalConfidence": "likely",
      "source": "osm"
    },
    {
      "nom": "Acht W'ass'Al",
      "type": "lebanese",
      "priceRange": "€€",
      "mapsUrl": "https://maps.google.com/?q=5.2856107,-3.9740041",
      "lat": 5.2856107,
      "lng": -3.9740041,
      "halalConfidence": "likely",
      "source": "osm"
    },
    {
      "nom": "Oregano",
      "type": "lebanese",
      "priceRange": "€€",
      "mapsUrl": "https://maps.google.com/?q=5.2844577,-3.9750569",
      "lat": 5.2844577,
      "lng": -3.9750569,
      "halalConfidence": "likely",
      "source": "osm"
    },
    {
      "nom": "Café Beirut",
      "type": "lebanese",
      "priceRange": "€€",
      "mapsUrl": "https://maps.google.com/?q=5.2822656,-3.9802806",
      "lat": 5.2822656,
      "lng": -3.9802806,
      "halalConfidence": "likely",
      "source": "osm"
    },
    {
      "nom": "Zawat",
      "type": "lebanese",
      "priceRange": "€€",
      "mapsUrl": "https://maps.google.com/?q=5.2822831,-3.9797811",
      "lat": 5.2822831,
      "lng": -3.9797811,
      "halalConfidence": "likely",
      "source": "osm"
    },
    {
      "nom": "Agha",
      "type": "lebanese",
      "priceRange": "€€",
      "mapsUrl": "https://maps.google.com/?q=5.2838713,-3.9744559",
      "lat": 5.2838713,
      "lng": -3.9744559,
      "halalConfidence": "likely",
      "source": "osm"
    },
    {
      "nom": "Sondos",
      "type": "lebanese",
      "priceRange": "€€",
      "mapsUrl": "https://maps.google.com/?q=5.2806782,-3.9774513",
      "lat": 5.2806782,
      "lng": -3.9774513,
      "halalConfidence": "likely",
      "source": "osm"
    },
    {
      "nom": "Les marins",
      "type": "seafood, fish, lebanese",
      "priceRange": "€€",
      "mapsUrl": "https://maps.google.com/?q=5.2793973,-3.9800163",
      "lat": 5.2793973,
      "lng": -3.9800163,
      "halalConfidence": "likely",
      "source": "osm"
    },
    {
      "nom": "Le Méchoui",
      "type": "lebanese",
      "priceRange": "€€",
      "mapsUrl": "https://maps.google.com/?q=5.2781592,-3.9827444",
      "lat": 5.2781592,
      "lng": -3.9827444,
      "halalConfidence": "likely",
      "source": "osm"
    },
    {
      "nom": "Corniche",
      "type": "lebanese",
      "priceRange": "€€",
      "mapsUrl": "https://maps.google.com/?q=5.2776495,-3.9822701",
      "lat": 5.2776495,
      "lng": -3.9822701,
      "halalConfidence": "likely",
      "source": "osm"
    },
    {
      "nom": "Beyy",
      "type": "lebanese, mediterranean",
      "priceRange": "€€",
      "mapsUrl": "https://maps.google.com/?q=5.2775245,-3.98227",
      "lat": 5.2775245,
      "lng": -3.98227,
      "halalConfidence": "likely",
      "source": "osm"
    },
    {
      "nom": "Restaurant de Biétry",
      "type": "lebanese, burger, fried food",
      "priceRange": "€€",
      "mapsUrl": "https://maps.google.com/?q=5.277219,-3.9814036",
      "lat": 5.277219,
      "lng": -3.9814036,
      "halalConfidence": "likely",
      "source": "osm"
    },
    {
      "nom": "Fusion Roll",
      "type": "lebanese",
      "priceRange": "€€",
      "mapsUrl": "https://maps.google.com/?q=5.2809383,-3.9685683",
      "lat": 5.2809383,
      "lng": -3.9685683,
      "halalConfidence": "likely",
      "source": "osm"
    },
    {
      "nom": "Le gourmet",
      "type": "moroccan",
      "priceRange": "€€",
      "mapsUrl": "https://maps.google.com/?q=5.2756636,-3.9804604",
      "lat": 5.2756636,
      "lng": -3.9804604,
      "halalConfidence": "likely",
      "source": "osm"
    },
    {
      "nom": "Le Sayour",
      "type": "lebanese",
      "priceRange": "€€",
      "mapsUrl": "https://maps.google.com/?q=5.2763734,-3.9752076",
      "lat": 5.2763734,
      "lng": -3.9752076,
      "halalConfidence": "likely",
      "source": "osm"
    },
    {
      "nom": "Le State Lounge VIP, Restaurant - BAR",
      "type": "african, barbecue, crepe, lebanese",
      "priceRange": "€€",
      "mapsUrl": "https://maps.google.com/?q=5.3426991,-4.1001214",
      "lat": 5.3426991,
      "lng": -4.1001214,
      "halalConfidence": "likely",
      "source": "osm"
    },
    {
      "nom": "Paris baguette",
      "type": "pizza, chicken, sandwich, tea, breakfast, kebab, italian pizza, hotdog, burger, cake, steak house, friture, crepe, ice cream, coffee shop",
      "priceRange": "€€",
      "mapsUrl": "https://maps.google.com/?q=5.4435967,-4.0684601",
      "lat": 5.4435967,
      "lng": -4.0684601,
      "halalConfidence": "likely",
      "source": "osm"
    }
  ],
  "hotels": [
    {
      "nom": "Résidence Hôtel La Grâce",
      "categorie": "Hôtel",
      "priceRange": "€€",
      "mapsUrl": "https://maps.google.com/?q=5.3618881,-4.003525",
      "lat": 5.3618881,
      "lng": -4.003525,
      "halalFriendly": false,
      "bookingUrl": "https://maps.google.com/?q=5.3618881,-4.003525",
      "source": "osm"
    },
    {
      "nom": "Chantier",
      "categorie": "Appartement",
      "priceRange": "€€",
      "mapsUrl": "https://maps.google.com/?q=5.3558479,-4.0045735",
      "lat": 5.3558479,
      "lng": -4.0045735,
      "halalFriendly": false,
      "bookingUrl": "https://maps.google.com/?q=5.3558479,-4.0045735",
      "source": "osm"
    },
    {
      "nom": "Hôtel Palm Club",
      "categorie": "Hôtel",
      "priceRange": "€€€",
      "score": 3,
      "mapsUrl": "https://maps.google.com/?q=5.3533125,-4.0025481",
      "lat": 5.3533125,
      "lng": -4.0025481,
      "halalFriendly": false,
      "bookingUrl": "http://www.hotelpalmclub.com/",
      "source": "osm"
    },
    {
      "nom": "Hotel",
      "categorie": "Hôtel",
      "priceRange": "€€",
      "mapsUrl": "https://maps.google.com/?q=5.3690008,-4.0082127",
      "lat": 5.3690008,
      "lng": -4.0082127,
      "halalFriendly": false,
      "bookingUrl": "https://maps.google.com/?q=5.3690008,-4.0082127",
      "source": "osm"
    },
    {
      "nom": "Hôtel Les Rosiers",
      "categorie": "Hôtel",
      "priceRange": "€€",
      "mapsUrl": "https://maps.google.com/?q=5.3662702,-4.0013583",
      "lat": 5.3662702,
      "lng": -4.0013583,
      "halalFriendly": false,
      "bookingUrl": "https://maps.google.com/?q=5.3662702,-4.0013583",
      "source": "osm"
    },
    {
      "nom": "Quartier Agaves",
      "categorie": "Maison d'hôtes",
      "priceRange": "€€",
      "mapsUrl": "https://maps.google.com/?q=5.3573232,-4.0180212",
      "lat": 5.3573232,
      "lng": -4.0180212,
      "halalFriendly": false,
      "bookingUrl": "https://maps.google.com/?q=5.3573232,-4.0180212",
      "source": "osm"
    },
    {
      "nom": "Hotel bar restaurant oriental",
      "categorie": "Hôtel",
      "priceRange": "€€",
      "mapsUrl": "https://maps.google.com/?q=5.3671785,-4.0002757",
      "lat": 5.3671785,
      "lng": -4.0002757,
      "halalFriendly": false,
      "bookingUrl": "https://maps.google.com/?q=5.3671785,-4.0002757",
      "source": "osm"
    },
    {
      "nom": "Résidence Les Cascades",
      "categorie": "Hôtel",
      "priceRange": "€€",
      "mapsUrl": "https://maps.google.com/?q=5.3629739,-3.9961509",
      "lat": 5.3629739,
      "lng": -3.9961509,
      "halalFriendly": false,
      "bookingUrl": "http://www.lescascades-ci.com/",
      "source": "osm"
    },
    {
      "nom": "Hôtel du nord",
      "categorie": "Hôtel",
      "priceRange": "€€",
      "mapsUrl": "https://maps.google.com/?q=5.34967,-4.0175127",
      "lat": 5.34967,
      "lng": -4.0175127,
      "halalFriendly": false,
      "bookingUrl": "https://maps.google.com/?q=5.34967,-4.0175127",
      "source": "osm"
    },
    {
      "nom": "Hotel le Flani",
      "categorie": "Hôtel",
      "priceRange": "€€",
      "mapsUrl": "https://maps.google.com/?q=5.3742749,-4.0046574",
      "lat": 5.3742749,
      "lng": -4.0046574,
      "halalFriendly": false,
      "bookingUrl": "https://maps.google.com/?q=5.3742749,-4.0046574",
      "source": "osm"
    },
    {
      "nom": "Résidence Bertille",
      "categorie": "Hôtel",
      "priceRange": "€€€",
      "score": 3,
      "mapsUrl": "https://maps.google.com/?q=5.3607275,-3.9933495",
      "lat": 5.3607275,
      "lng": -3.9933495,
      "halalFriendly": false,
      "bookingUrl": "https://www.residencebertille.com/",
      "source": "osm"
    },
    {
      "nom": "Gaïa's Garden B&B",
      "categorie": "Maison d'hôtes",
      "priceRange": "€€",
      "mapsUrl": "https://maps.google.com/?q=5.3663027,-3.9934852",
      "lat": 5.3663027,
      "lng": -3.9934852,
      "halalFriendly": false,
      "bookingUrl": "https://maps.google.com/?q=5.3663027,-3.9934852",
      "source": "osm"
    },
    {
      "nom": "Résidence Edouard",
      "categorie": "Maison d'hôtes",
      "priceRange": "€€",
      "mapsUrl": "https://maps.google.com/?q=5.3621476,-3.9920718",
      "lat": 5.3621476,
      "lng": -3.9920718,
      "halalFriendly": false,
      "bookingUrl": "https://maps.google.com/?q=5.3621476,-3.9920718",
      "source": "osm"
    },
    {
      "nom": "La Villa Oasis",
      "categorie": "Maison d'hôtes",
      "priceRange": "€€",
      "mapsUrl": "https://maps.google.com/?q=5.3672674,-3.9926528",
      "lat": 5.3672674,
      "lng": -3.9926528,
      "halalFriendly": false,
      "bookingUrl": "https://www.lavillaoasis.com/",
      "source": "osm"
    },
    {
      "nom": "Hôtel Kpin-Min",
      "categorie": "Hôtel",
      "priceRange": "€€",
      "mapsUrl": "https://maps.google.com/?q=5.3478049,-4.0206982",
      "lat": 5.3478049,
      "lng": -4.0206982,
      "halalFriendly": false,
      "bookingUrl": "https://maps.google.com/?q=5.3478049,-4.0206982",
      "source": "osm"
    },
    {
      "nom": "PR",
      "categorie": "Maison d'hôtes",
      "priceRange": "€€",
      "mapsUrl": "https://maps.google.com/?q=5.3693867,-3.9926135",
      "lat": 5.3693867,
      "lng": -3.9926135,
      "halalFriendly": false,
      "bookingUrl": "https://maps.google.com/?q=5.3693867,-3.9926135",
      "source": "osm"
    },
    {
      "nom": "La provincial",
      "categorie": "Hôtel",
      "priceRange": "€€",
      "mapsUrl": "https://maps.google.com/?q=5.3551737,-3.9905948",
      "lat": 5.3551737,
      "lng": -3.9905948,
      "halalFriendly": false,
      "bookingUrl": "https://maps.google.com/?q=5.3551737,-3.9905948",
      "source": "osm"
    },
    {
      "nom": "Hôtel Banfora",
      "categorie": "Hôtel",
      "priceRange": "€€",
      "mapsUrl": "https://maps.google.com/?q=5.3478594,-4.0224404",
      "lat": 5.3478594,
      "lng": -4.0224404,
      "halalFriendly": false,
      "bookingUrl": "https://maps.google.com/?q=5.3478594,-4.0224404",
      "source": "osm"
    },
    {
      "nom": "Villa Mango",
      "categorie": "Maison d'hôtes",
      "priceRange": "€€",
      "mapsUrl": "https://maps.google.com/?q=5.3739485,-3.9953104",
      "lat": 5.3739485,
      "lng": -3.9953104,
      "halalFriendly": false,
      "bookingUrl": "https://maps.google.com/?q=5.3739485,-3.9953104",
      "source": "osm"
    },
    {
      "nom": "Résidence Ohinéné",
      "categorie": "Hôtel",
      "priceRange": "€€",
      "mapsUrl": "https://maps.google.com/?q=5.3571681,-3.9893606",
      "lat": 5.3571681,
      "lng": -3.9893606,
      "halalFriendly": false,
      "bookingUrl": "https://maps.google.com/?q=5.3571681,-3.9893606",
      "source": "osm"
    },
    {
      "nom": "Hôtel Le Riyo",
      "categorie": "Hôtel",
      "priceRange": "€€",
      "mapsUrl": "https://maps.google.com/?q=5.3614693,-3.9890994",
      "lat": 5.3614693,
      "lng": -3.9890994,
      "halalFriendly": false,
      "bookingUrl": "https://maps.google.com/?q=5.3614693,-3.9890994",
      "source": "osm"
    },
    {
      "nom": "Hôtel La Licorne",
      "categorie": "Hôtel",
      "priceRange": "€€",
      "mapsUrl": "https://maps.google.com/?q=5.3607567,-3.9890392",
      "lat": 5.3607567,
      "lng": -3.9890392,
      "halalFriendly": false,
      "bookingUrl": "https://www.hotellegriffon.com/",
      "source": "osm"
    },
    {
      "nom": "Restaurant & Hôtel Champagne",
      "categorie": "Hôtel",
      "priceRange": "€€",
      "mapsUrl": "https://maps.google.com/?q=5.366604,-3.989578",
      "lat": 5.366604,
      "lng": -3.989578,
      "halalFriendly": false,
      "bookingUrl": "https://maps.google.com/?q=5.366604,-3.989578",
      "source": "osm"
    },
    {
      "nom": "Hotel Les Jardins",
      "categorie": "Hôtel",
      "priceRange": "€€",
      "mapsUrl": "https://maps.google.com/?q=5.3679286,-3.9895888",
      "lat": 5.3679286,
      "lng": -3.9895888,
      "halalFriendly": false,
      "bookingUrl": "https://maps.google.com/?q=5.3679286,-3.9895888",
      "source": "osm"
    },
    {
      "nom": "La Maison Palmier",
      "categorie": "Hôtel",
      "priceRange": "€€",
      "mapsUrl": "https://maps.google.com/?q=5.3766224,-3.9963134",
      "lat": 5.3766224,
      "lng": -3.9963134,
      "halalFriendly": false,
      "bookingUrl": "https://www.lamaisonpalmier.com/",
      "source": "osm"
    },
    {
      "nom": "Villa Mia",
      "categorie": "Hôtel",
      "priceRange": "€€€€",
      "score": 4,
      "mapsUrl": "https://maps.google.com/?q=5.3735103,-3.9927",
      "lat": 5.3735103,
      "lng": -3.9927,
      "halalFriendly": false,
      "bookingUrl": "https://www.villamia-abidjan.com/",
      "source": "osm"
    },
    {
      "nom": "Résidence Limaniya 2pltx",
      "categorie": "Hôtel",
      "priceRange": "€€",
      "mapsUrl": "https://maps.google.com/?q=5.3765766,-3.9954414",
      "lat": 5.3765766,
      "lng": -3.9954414,
      "halalFriendly": false,
      "bookingUrl": "https://maps.google.com/?q=5.3765766,-3.9954414",
      "source": "osm"
    },
    {
      "nom": "Hôtel Continental Le Bon Berger",
      "categorie": "Hôtel",
      "priceRange": "€€",
      "mapsUrl": "https://maps.google.com/?q=5.3533263,-4.029862",
      "lat": 5.3533263,
      "lng": -4.029862,
      "halalFriendly": false,
      "bookingUrl": "https://maps.google.com/?q=5.3533263,-4.029862",
      "source": "osm"
    },
    {
      "nom": "Les Vallons",
      "categorie": "Hôtel",
      "priceRange": "€€",
      "mapsUrl": "https://maps.google.com/?q=5.373265,-3.98945",
      "lat": 5.373265,
      "lng": -3.98945,
      "halalFriendly": false,
      "bookingUrl": "https://maps.google.com/?q=5.373265,-3.98945",
      "source": "osm"
    },
    {
      "nom": "Residence des vallons",
      "categorie": "Appartement",
      "priceRange": "€€",
      "mapsUrl": "https://maps.google.com/?q=5.3733654,-3.9894384",
      "lat": 5.3733654,
      "lng": -3.9894384,
      "halalFriendly": false,
      "bookingUrl": "https://maps.google.com/?q=5.3733654,-3.9894384",
      "source": "osm"
    },
    {
      "nom": "Résidence St. Jean",
      "categorie": "Appartement",
      "priceRange": "€€",
      "mapsUrl": "https://maps.google.com/?q=5.3759282,-3.9909167",
      "lat": 5.3759282,
      "lng": -3.9909167,
      "halalFriendly": false,
      "bookingUrl": "https://www.residence-stjean.com/",
      "source": "osm"
    },
    {
      "nom": "Résidence Eden Park",
      "categorie": "Hôtel",
      "priceRange": "€€",
      "mapsUrl": "https://maps.google.com/?q=5.3818301,-3.999239",
      "lat": 5.3818301,
      "lng": -3.999239,
      "halalFriendly": false,
      "bookingUrl": "https://maps.google.com/?q=5.3818301,-3.999239",
      "source": "osm"
    },
    {
      "nom": "Rajesh Khati house",
      "categorie": "Maison d'hôtes",
      "priceRange": "€€",
      "mapsUrl": "https://maps.google.com/?q=5.363956,-3.9848195",
      "lat": 5.363956,
      "lng": -3.9848195,
      "halalFriendly": false,
      "bookingUrl": "https://maps.google.com/?q=5.363956,-3.9848195",
      "source": "osm"
    },
    {
      "nom": "Résidence Manzan",
      "categorie": "Hôtel",
      "priceRange": "€€",
      "mapsUrl": "https://maps.google.com/?q=5.3784325,-3.99317",
      "lat": 5.3784325,
      "lng": -3.99317,
      "halalFriendly": false,
      "bookingUrl": "https://maps.google.com/?q=5.3784325,-3.99317",
      "source": "osm"
    },
    {
      "nom": "Villa Jaddis",
      "categorie": "Maison d'hôtes",
      "priceRange": "€€",
      "mapsUrl": "https://maps.google.com/?q=5.3749383,-3.9896027",
      "lat": 5.3749383,
      "lng": -3.9896027,
      "halalFriendly": false,
      "bookingUrl": "https://maps.google.com/?q=5.3749383,-3.9896027",
      "source": "osm"
    },
    {
      "nom": "Residence Valerie",
      "categorie": "Appartement",
      "priceRange": "€€",
      "mapsUrl": "https://maps.google.com/?q=5.363715,-3.984566",
      "lat": 5.363715,
      "lng": -3.984566,
      "halalFriendly": false,
      "bookingUrl": "https://maps.google.com/?q=5.363715,-3.984566",
      "source": "osm"
    },
    {
      "nom": "Hôtel Ivotel Indenié",
      "categorie": "Hôtel",
      "priceRange": "€€",
      "mapsUrl": "https://maps.google.com/?q=5.3386034,-4.0190969",
      "lat": 5.3386034,
      "lng": -4.0190969,
      "halalFriendly": false,
      "bookingUrl": "https://maps.google.com/?q=5.3386034,-4.0190969",
      "source": "osm"
    },
    {
      "nom": "Residence Emlys Hôtel",
      "categorie": "Appartement",
      "priceRange": "€€",
      "mapsUrl": "https://maps.google.com/?q=5.3821116,-3.998399",
      "lat": 5.3821116,
      "lng": -3.998399,
      "halalFriendly": false,
      "bookingUrl": "https://maps.google.com/?q=5.3821116,-3.998399",
      "source": "osm"
    },
    {
      "nom": "Villa Anakao",
      "categorie": "Maison d'hôtes",
      "priceRange": "€€",
      "mapsUrl": "https://maps.google.com/?q=5.3715068,-3.9860462",
      "lat": 5.3715068,
      "lng": -3.9860462,
      "halalFriendly": false,
      "bookingUrl": "https://maps.google.com/?q=5.3715068,-3.9860462",
      "source": "osm"
    },
    {
      "nom": "Residence Bada",
      "categorie": "Hôtel",
      "priceRange": "€€",
      "mapsUrl": "https://maps.google.com/?q=5.37736,-3.9899865",
      "lat": 5.37736,
      "lng": -3.9899865,
      "halalFriendly": false,
      "bookingUrl": "https://maps.google.com/?q=5.37736,-3.9899865",
      "source": "osm"
    },
    {
      "nom": "Casa",
      "categorie": "Auberge",
      "priceRange": "€€",
      "mapsUrl": "https://maps.google.com/?q=5.3616783,-3.9826848",
      "lat": 5.3616783,
      "lng": -3.9826848,
      "halalFriendly": false,
      "bookingUrl": "https://maps.google.com/?q=5.3616783,-3.9826848",
      "source": "osm"
    },
    {
      "nom": "Nouvelle Villa Mia",
      "categorie": "Hôtel",
      "priceRange": "€€€€",
      "score": 4,
      "mapsUrl": "https://maps.google.com/?q=5.3746096,-3.9865056",
      "lat": 5.3746096,
      "lng": -3.9865056,
      "halalFriendly": false,
      "bookingUrl": "https://www.villamia-abidjan.com/nouvelle-villa-mia/",
      "source": "osm"
    },
    {
      "nom": "Résidence Vanessa",
      "categorie": "Appartement",
      "priceRange": "€€",
      "mapsUrl": "https://maps.google.com/?q=5.3848784,-3.9970835",
      "lat": 5.3848784,
      "lng": -3.9970835,
      "halalFriendly": false,
      "bookingUrl": "https://maps.google.com/?q=5.3848784,-3.9970835",
      "source": "osm"
    },
    {
      "nom": "Hôtel La Forge",
      "categorie": "Hôtel",
      "priceRange": "€€",
      "mapsUrl": "https://maps.google.com/?q=5.3791805,-3.9878234",
      "lat": 5.3791805,
      "lng": -3.9878234,
      "halalFriendly": false,
      "bookingUrl": "https://maps.google.com/?q=5.3791805,-3.9878234",
      "source": "osm"
    },
    {
      "nom": "Bâtiment C2  CAMPUS INSET",
      "categorie": "Auberge",
      "priceRange": "€€",
      "mapsUrl": "https://maps.google.com/?q=5.3395091,-3.9890955",
      "lat": 5.3395091,
      "lng": -3.9890955,
      "halalFriendly": false,
      "bookingUrl": "https://maps.google.com/?q=5.3395091,-3.9890955",
      "source": "osm"
    },
    {
      "nom": "Hôtel Horizon",
      "categorie": "Hôtel",
      "priceRange": "€€",
      "mapsUrl": "https://maps.google.com/?q=5.3353439,-3.9945284",
      "lat": 5.3353439,
      "lng": -3.9945284,
      "halalFriendly": false,
      "bookingUrl": "http://www.hotels.ci/items/hotel/hotel-horizon",
      "source": "osm"
    },
    {
      "nom": "CHEZ NOGBOU DESIRE",
      "categorie": "Maison d'hôtes",
      "priceRange": "€€",
      "mapsUrl": "https://maps.google.com/?q=5.3726907,-3.982323",
      "lat": 5.3726907,
      "lng": -3.982323,
      "halalFriendly": false,
      "bookingUrl": "https://maps.google.com/?q=5.3726907,-3.982323",
      "source": "osm"
    },
    {
      "nom": "Cerao",
      "categorie": "Auberge",
      "priceRange": "€€",
      "mapsUrl": "https://maps.google.com/?q=5.3847336,-3.9922918",
      "lat": 5.3847336,
      "lng": -3.9922918,
      "halalFriendly": false,
      "bookingUrl": "https://maps.google.com/?q=5.3847336,-3.9922918",
      "source": "osm"
    },
    {
      "nom": "Hôtel Manhattan Suites",
      "categorie": "Hôtel",
      "priceRange": "€€",
      "mapsUrl": "https://maps.google.com/?q=5.3623944,-3.9787884",
      "lat": 5.3623944,
      "lng": -3.9787884,
      "halalFriendly": false,
      "bookingUrl": "http://www.manhattansuites.net",
      "source": "osm"
    },
    {
      "nom": "Silver Moon Hôtel",
      "categorie": "Hôtel",
      "priceRange": "€€",
      "mapsUrl": "https://maps.google.com/?q=5.3817754,-3.9881017",
      "lat": 5.3817754,
      "lng": -3.9881017,
      "halalFriendly": false,
      "bookingUrl": "https://maps.google.com/?q=5.3817754,-3.9881017",
      "source": "osm"
    },
    {
      "nom": "Résidence Yeli Hôtel",
      "categorie": "Hôtel",
      "priceRange": "€€",
      "mapsUrl": "https://maps.google.com/?q=5.3609176,-3.9785213",
      "lat": 5.3609176,
      "lng": -3.9785213,
      "halalFriendly": false,
      "bookingUrl": "https://maps.google.com/?q=5.3609176,-3.9785213",
      "source": "osm"
    },
    {
      "nom": "Residence Hotel Maizi's",
      "categorie": "Hôtel",
      "priceRange": "€€",
      "mapsUrl": "https://maps.google.com/?q=5.3853677,-3.992393",
      "lat": 5.3853677,
      "lng": -3.992393,
      "halalFriendly": false,
      "bookingUrl": "https://maps.google.com/?q=5.3853677,-3.992393",
      "source": "osm"
    },
    {
      "nom": "Résidence Ben",
      "categorie": "Hôtel",
      "priceRange": "€€",
      "mapsUrl": "https://maps.google.com/?q=5.358658,-3.9781762",
      "lat": 5.358658,
      "lng": -3.9781762,
      "halalFriendly": false,
      "bookingUrl": "https://maps.google.com/?q=5.358658,-3.9781762",
      "source": "osm"
    },
    {
      "nom": "Résidence Mamikan",
      "categorie": "Hôtel",
      "priceRange": "€€",
      "mapsUrl": "https://maps.google.com/?q=5.3705095,-3.9800376",
      "lat": 5.3705095,
      "lng": -3.9800376,
      "halalFriendly": false,
      "bookingUrl": "https://locationabidjan.webs.com/",
      "source": "osm"
    },
    {
      "nom": "Hôtel Nadie",
      "categorie": "Hôtel",
      "priceRange": "€€",
      "mapsUrl": "https://maps.google.com/?q=5.3476407,-4.0361904",
      "lat": 5.3476407,
      "lng": -4.0361904,
      "halalFriendly": false,
      "bookingUrl": "https://maps.google.com/?q=5.3476407,-4.0361904",
      "source": "osm"
    },
    {
      "nom": "Conciergerie Hotels Achenbach",
      "categorie": "Hôtel",
      "priceRange": "€€",
      "mapsUrl": "https://maps.google.com/?q=5.3820513,-3.9867238",
      "lat": 5.3820513,
      "lng": -3.9867238,
      "halalFriendly": false,
      "bookingUrl": "https://maps.google.com/?q=5.3820513,-3.9867238",
      "source": "osm"
    },
    {
      "nom": "White House Hôtel",
      "categorie": "Hôtel",
      "priceRange": "€€",
      "mapsUrl": "https://maps.google.com/?q=5.3300444,-4.0004477",
      "lat": 5.3300444,
      "lng": -4.0004477,
      "halalFriendly": false,
      "bookingUrl": "https://maps.google.com/?q=5.3300444,-4.0004477",
      "source": "osm"
    },
    {
      "nom": "Villa Traoré",
      "categorie": "Maison d'hôtes",
      "priceRange": "€€",
      "mapsUrl": "https://maps.google.com/?q=5.3698845,-3.9776045",
      "lat": 5.3698845,
      "lng": -3.9776045,
      "halalFriendly": false,
      "bookingUrl": "https://maps.google.com/?q=5.3698845,-3.9776045",
      "source": "osm"
    },
    {
      "nom": "Hôtel Djigui",
      "categorie": "Hôtel",
      "priceRange": "€€",
      "mapsUrl": "https://maps.google.com/?q=5.3642717,-3.9754967",
      "lat": 5.3642717,
      "lng": -3.9754967,
      "halalFriendly": false,
      "bookingUrl": "https://maps.google.com/?q=5.3642717,-3.9754967",
      "source": "osm"
    },
    {
      "nom": "Freeloc Riviera Jardins",
      "categorie": "Hôtel",
      "priceRange": "€€",
      "mapsUrl": "https://maps.google.com/?q=5.3467029,-3.9771874",
      "lat": 5.3467029,
      "lng": -3.9771874,
      "halalFriendly": false,
      "bookingUrl": "https://maps.google.com/?q=5.3467029,-3.9771874",
      "source": "osm"
    },
    {
      "nom": "Sofitel Abidjan Hôtel Ivoire",
      "categorie": "Hôtel",
      "priceRange": "€€€€",
      "score": 5,
      "mapsUrl": "https://maps.google.com/?q=5.326457,-4.0047983",
      "lat": 5.326457,
      "lng": -4.0047983,
      "halalFriendly": false,
      "bookingUrl": "http://www.sofitel.com/gb/hotel-8844-sofitel-abidjan-hotel-ivoire/index.shtml",
      "source": "osm"
    },
    {
      "nom": "Résidence Hôtel Riviera",
      "categorie": "Hôtel",
      "priceRange": "€€",
      "mapsUrl": "https://maps.google.com/?q=5.3551137,-3.9747465",
      "lat": 5.3551137,
      "lng": -3.9747465,
      "halalFriendly": false,
      "bookingUrl": "https://maps.google.com/?q=5.3551137,-3.9747465",
      "source": "osm"
    },
    {
      "nom": "Hôtel Ivoire",
      "categorie": "Hôtel",
      "priceRange": "€€",
      "mapsUrl": "https://maps.google.com/?q=5.3260604,-4.0044122",
      "lat": 5.3260604,
      "lng": -4.0044122,
      "halalFriendly": false,
      "bookingUrl": "https://maps.google.com/?q=5.3260604,-4.0044122",
      "source": "osm"
    },
    {
      "nom": "Hôtel Résidence Le Vaisseau",
      "categorie": "Hôtel",
      "priceRange": "€€",
      "mapsUrl": "https://maps.google.com/?q=5.3828238,-3.9823063",
      "lat": 5.3828238,
      "lng": -3.9823063,
      "halalFriendly": false,
      "bookingUrl": "https://hotellevaisseau.ci",
      "source": "osm"
    },
    {
      "nom": "Complexes Hôteliers Limah",
      "categorie": "Hôtel",
      "priceRange": "€€",
      "mapsUrl": "https://maps.google.com/?q=5.3514267,-3.9746718",
      "lat": 5.3514267,
      "lng": -3.9746718,
      "halalFriendly": false,
      "bookingUrl": "https://maps.google.com/?q=5.3514267,-3.9746718",
      "source": "osm"
    },
    {
      "nom": "Olivetti Appartment",
      "categorie": "Maison d'hôtes",
      "priceRange": "€€",
      "mapsUrl": "https://maps.google.com/?q=5.3303056,-4.0263861",
      "lat": 5.3303056,
      "lng": -4.0263861,
      "halalFriendly": false,
      "bookingUrl": "https://maps.google.com/?q=5.3303056,-4.0263861",
      "source": "osm"
    },
    {
      "nom": "Hôtel Emmanuel",
      "categorie": "Hôtel",
      "priceRange": "€€",
      "mapsUrl": "https://maps.google.com/?q=5.357026,-3.9734136",
      "lat": 5.357026,
      "lng": -3.9734136,
      "halalFriendly": false,
      "bookingUrl": "https://maps.google.com/?q=5.357026,-3.9734136",
      "source": "osm"
    },
    {
      "nom": "Espace Manvy Hôtel",
      "categorie": "Hôtel",
      "priceRange": "€€",
      "mapsUrl": "https://maps.google.com/?q=5.3896125,-3.989474",
      "lat": 5.3896125,
      "lng": -3.989474,
      "halalFriendly": false,
      "bookingUrl": "https://maps.google.com/?q=5.3896125,-3.989474",
      "source": "osm"
    },
    {
      "nom": "Résidences Salya",
      "categorie": "Maison d'hôtes",
      "priceRange": "€€",
      "mapsUrl": "https://maps.google.com/?q=5.391358,-3.9911795",
      "lat": 5.391358,
      "lng": -3.9911795,
      "halalFriendly": false,
      "bookingUrl": "https://maps.google.com/?q=5.391358,-3.9911795",
      "source": "osm"
    },
    {
      "nom": "Hôtel Tiama",
      "categorie": "Hôtel",
      "priceRange": "€€€€",
      "score": 5,
      "mapsUrl": "https://maps.google.com/?q=5.3262196,-4.0199524",
      "lat": 5.3262196,
      "lng": -4.0199524,
      "halalFriendly": false,
      "bookingUrl": "https://www.hotel.tiama.ci/",
      "source": "osm"
    },
    {
      "nom": "Résidence Hôtel Bergemady",
      "categorie": "Hôtel",
      "priceRange": "€€",
      "mapsUrl": "https://maps.google.com/?q=5.3899382,-3.988557",
      "lat": 5.3899382,
      "lng": -3.988557,
      "halalFriendly": false,
      "bookingUrl": "https://maps.google.com/?q=5.3899382,-3.988557",
      "source": "osm"
    },
    {
      "nom": "Hôtel Ibis - Plateau",
      "categorie": "Hôtel",
      "priceRange": "€€",
      "mapsUrl": "https://maps.google.com/?q=5.3266538,-4.0230083",
      "lat": 5.3266538,
      "lng": -4.0230083,
      "halalFriendly": false,
      "bookingUrl": "https://maps.google.com/?q=5.3266538,-4.0230083",
      "source": "osm"
    },
    {
      "nom": "Le chalet",
      "categorie": "Hôtel",
      "priceRange": "€€",
      "mapsUrl": "https://maps.google.com/?q=5.3869783,-3.9830056",
      "lat": 5.3869783,
      "lng": -3.9830056,
      "halalFriendly": false,
      "bookingUrl": "https://maps.google.com/?q=5.3869783,-3.9830056",
      "source": "osm"
    },
    {
      "nom": "Congrégation des Sœur missionnaires du travail",
      "categorie": "Auberge",
      "priceRange": "€€",
      "mapsUrl": "https://maps.google.com/?q=5.3345751,-3.9813202",
      "lat": 5.3345751,
      "lng": -3.9813202,
      "halalFriendly": false,
      "bookingUrl": "https://maps.google.com/?q=5.3345751,-3.9813202",
      "source": "osm"
    },
    {
      "nom": "Hôtel Venusia",
      "categorie": "Hôtel",
      "priceRange": "€€",
      "mapsUrl": "https://maps.google.com/?q=5.3971064,-4.0065716",
      "lat": 5.3971064,
      "lng": -4.0065716,
      "halalFriendly": false,
      "bookingUrl": "https://maps.google.com/?q=5.3971064,-4.0065716",
      "source": "osm"
    },
    {
      "nom": "Noom",
      "categorie": "Hôtel",
      "priceRange": "€€",
      "mapsUrl": "https://maps.google.com/?q=5.3234282,-4.0150169",
      "lat": 5.3234282,
      "lng": -4.0150169,
      "halalFriendly": false,
      "bookingUrl": "https://maps.google.com/?q=5.3234282,-4.0150169",
      "source": "osm"
    },
    {
      "nom": "Capitol Hôtel",
      "categorie": "Hôtel",
      "priceRange": "€€",
      "mapsUrl": "https://maps.google.com/?q=5.3390541,-3.9773259",
      "lat": 5.3390541,
      "lng": -3.9773259,
      "halalFriendly": false,
      "bookingUrl": "https://maps.google.com/?q=5.3390541,-3.9773259",
      "source": "osm"
    },
    {
      "nom": "Mövenpick Hotel Abidjan",
      "categorie": "Hôtel",
      "priceRange": "€€€€",
      "score": 4,
      "mapsUrl": "https://maps.google.com/?q=5.3239881,-4.018339",
      "lat": 5.3239881,
      "lng": -4.018339,
      "halalFriendly": false,
      "bookingUrl": "https://maps.google.com/?q=5.3239881,-4.018339",
      "source": "osm"
    },
    {
      "nom": "Ivotel",
      "categorie": "Hôtel",
      "priceRange": "€€",
      "mapsUrl": "https://maps.google.com/?q=5.3240934,-4.0187632",
      "lat": 5.3240934,
      "lng": -4.0187632,
      "halalFriendly": false,
      "bookingUrl": "https://maps.google.com/?q=5.3240934,-4.0187632",
      "source": "osm"
    },
    {
      "nom": "Hotel le Koky",
      "categorie": "Hôtel",
      "priceRange": "€€",
      "mapsUrl": "https://maps.google.com/?q=5.3226924,-4.0040041",
      "lat": 5.3226924,
      "lng": -4.0040041,
      "halalFriendly": false,
      "bookingUrl": "https://maps.google.com/?q=5.3226924,-4.0040041",
      "source": "osm"
    },
    {
      "nom": "Hôtel La villégiature",
      "categorie": "Hôtel",
      "priceRange": "€€",
      "mapsUrl": "https://maps.google.com/?q=5.3975512,-4.0072538",
      "lat": 5.3975512,
      "lng": -4.0072538,
      "halalFriendly": false,
      "bookingUrl": "https://maps.google.com/?q=5.3975512,-4.0072538",
      "source": "osm"
    },
    {
      "nom": "H Aurel",
      "categorie": "Hôtel",
      "priceRange": "€€",
      "mapsUrl": "https://maps.google.com/?q=5.3374524,-3.9777087",
      "lat": 5.3374524,
      "lng": -3.9777087,
      "halalFriendly": false,
      "bookingUrl": "https://maps.google.com/?q=5.3374524,-3.9777087",
      "source": "osm"
    },
    {
      "nom": "Résidence Myrthes",
      "categorie": "Appartement",
      "priceRange": "€€",
      "mapsUrl": "https://maps.google.com/?q=5.3912129,-3.9863621",
      "lat": 5.3912129,
      "lng": -3.9863621,
      "halalFriendly": false,
      "bookingUrl": "https://maps.google.com/?q=5.3912129,-3.9863621",
      "source": "osm"
    },
    {
      "nom": "LA VERDURE",
      "categorie": "Hôtel",
      "priceRange": "€€",
      "mapsUrl": "https://maps.google.com/?q=5.3961546,-4.0206537",
      "lat": 5.3961546,
      "lng": -4.0206537,
      "halalFriendly": false,
      "bookingUrl": "https://maps.google.com/?q=5.3961546,-4.0206537",
      "source": "osm"
    },
    {
      "nom": "Hotel Pullman Abidjan",
      "categorie": "Hôtel",
      "priceRange": "€€€€",
      "score": 5,
      "mapsUrl": "https://maps.google.com/?q=5.322153,-4.0137818",
      "lat": 5.322153,
      "lng": -4.0137818,
      "halalFriendly": false,
      "bookingUrl": "http://www.pullmanhotels.com/gb/hotel-1146-pullman-abidjan/",
      "source": "osm"
    },
    {
      "nom": "Résidence Ethan",
      "categorie": "Hôtel",
      "priceRange": "€€",
      "mapsUrl": "https://maps.google.com/?q=5.3837737,-3.9770611",
      "lat": 5.3837737,
      "lng": -3.9770611,
      "halalFriendly": false,
      "bookingUrl": "https://maps.google.com/?q=5.3837737,-3.9770611",
      "source": "osm"
    },
    {
      "nom": "Maquis Bar Hotel Le Grand",
      "categorie": "Hôtel",
      "priceRange": "€€",
      "mapsUrl": "https://maps.google.com/?q=5.3381356,-3.9749805",
      "lat": 5.3381356,
      "lng": -3.9749805,
      "halalFriendly": false,
      "bookingUrl": "https://maps.google.com/?q=5.3381356,-3.9749805",
      "source": "osm"
    },
    {
      "nom": "Hôtel saphir",
      "categorie": "Hôtel",
      "priceRange": "€€",
      "mapsUrl": "https://maps.google.com/?q=5.385705,-3.97712",
      "lat": 5.385705,
      "lng": -3.97712,
      "halalFriendly": false,
      "bookingUrl": "https://maps.google.com/?q=5.385705,-3.97712",
      "source": "osm"
    },
    {
      "nom": "Hôtel Étoile De La Paix",
      "categorie": "Hôtel",
      "priceRange": "€€",
      "mapsUrl": "https://maps.google.com/?q=5.3379772,-3.9741246",
      "lat": 5.3379772,
      "lng": -3.9741246,
      "halalFriendly": false,
      "bookingUrl": "https://maps.google.com/?q=5.3379772,-3.9741246",
      "source": "osm"
    },
    {
      "nom": "Hôtel Résidence Minon",
      "categorie": "Hôtel",
      "priceRange": "€€",
      "mapsUrl": "https://maps.google.com/?q=5.3464484,-4.0470293",
      "lat": 5.3464484,
      "lng": -4.0470293,
      "halalFriendly": false,
      "bookingUrl": "https://maps.google.com/?q=5.3464484,-4.0470293",
      "source": "osm"
    },
    {
      "nom": "Hôtel Résidence Ivoire",
      "categorie": "Hôtel",
      "priceRange": "€€",
      "mapsUrl": "https://maps.google.com/?q=5.3963163,-3.9892589",
      "lat": 5.3963163,
      "lng": -3.9892589,
      "halalFriendly": false,
      "bookingUrl": "https://maps.google.com/?q=5.3963163,-3.9892589",
      "source": "osm"
    },
    {
      "nom": "La rose blanche",
      "categorie": "Hôtel",
      "priceRange": "€€",
      "mapsUrl": "https://maps.google.com/?q=5.3982888,-3.9935739",
      "lat": 5.3982888,
      "lng": -3.9935739,
      "halalFriendly": false,
      "bookingUrl": "https://maps.google.com/?q=5.3982888,-3.9935739",
      "source": "osm"
    },
    {
      "nom": "Domicile",
      "categorie": "Maison d'hôtes",
      "priceRange": "€€",
      "mapsUrl": "https://maps.google.com/?q=5.3419289,-3.9706856",
      "lat": 5.3419289,
      "lng": -3.9706856,
      "halalFriendly": false,
      "bookingUrl": "https://maps.google.com/?q=5.3419289,-3.9706856",
      "source": "osm"
    },
    {
      "nom": "Grand Hotel Abidjan",
      "categorie": "Hôtel",
      "priceRange": "€€",
      "mapsUrl": "https://maps.google.com/?q=5.3184121,-4.0126085",
      "lat": 5.3184121,
      "lng": -4.0126085,
      "halalFriendly": false,
      "bookingUrl": "https://www.grandhotelabidjan.com/",
      "source": "osm"
    },
    {
      "nom": "Hôtel Résidence Cave Godwin Palace",
      "categorie": "Hôtel",
      "priceRange": "€€",
      "mapsUrl": "https://maps.google.com/?q=5.3432697,-3.9696098",
      "lat": 5.3432697,
      "lng": -3.9696098,
      "halalFriendly": false,
      "bookingUrl": "https://maps.google.com/?q=5.3432697,-3.9696098",
      "source": "osm"
    },
    {
      "nom": "Seen Hotel Abidjan Plateau",
      "categorie": "Hôtel",
      "priceRange": "€€€€",
      "score": 4,
      "mapsUrl": "https://maps.google.com/?q=5.3192231,-4.0188771",
      "lat": 5.3192231,
      "lng": -4.0188771,
      "halalFriendly": false,
      "bookingUrl": "http://www.seenhotels.com/",
      "source": "osm"
    },
    {
      "nom": "Résidence Hôtel Santa Adelina",
      "categorie": "Hôtel",
      "priceRange": "€€",
      "mapsUrl": "https://maps.google.com/?q=5.3987421,-3.9916715",
      "lat": 5.3987421,
      "lng": -3.9916715,
      "halalFriendly": false,
      "bookingUrl": "https://maps.google.com/?q=5.3987421,-3.9916715",
      "source": "osm"
    },
    {
      "nom": "Chez Priscille",
      "categorie": "Hôtel",
      "priceRange": "€€",
      "mapsUrl": "https://maps.google.com/?q=5.3436433,-4.047705",
      "lat": 5.3436433,
      "lng": -4.047705,
      "halalFriendly": false,
      "bookingUrl": "https://maps.google.com/?q=5.3436433,-4.047705",
      "source": "osm"
    },
    {
      "nom": "Bonoumin",
      "categorie": "Maison d'hôtes",
      "priceRange": "€€",
      "mapsUrl": "https://maps.google.com/?q=5.3765817,-3.96897",
      "lat": 5.3765817,
      "lng": -3.96897,
      "halalFriendly": false,
      "bookingUrl": "https://maps.google.com/?q=5.3765817,-3.96897",
      "source": "osm"
    },
    {
      "nom": "Hotel Providence",
      "categorie": "Hôtel",
      "priceRange": "€€",
      "mapsUrl": "https://maps.google.com/?q=5.3917805,-3.9794775",
      "lat": 5.3917805,
      "lng": -3.9794775,
      "halalFriendly": false,
      "bookingUrl": "https://maps.google.com/?q=5.3917805,-3.9794775",
      "source": "osm"
    },
    {
      "nom": "chez marijo",
      "categorie": "Maison d'hôtes",
      "priceRange": "€€",
      "mapsUrl": "https://maps.google.com/?q=5.3443877,-3.9678044",
      "lat": 5.3443877,
      "lng": -3.9678044,
      "halalFriendly": false,
      "bookingUrl": "https://maps.google.com/?q=5.3443877,-3.9678044",
      "source": "osm"
    },
    {
      "nom": "Katchana",
      "categorie": "Hôtel",
      "priceRange": "€€",
      "mapsUrl": "https://maps.google.com/?q=5.3472591,-4.0502687",
      "lat": 5.3472591,
      "lng": -4.0502687,
      "halalFriendly": false,
      "bookingUrl": "https://maps.google.com/?q=5.3472591,-4.0502687",
      "source": "osm"
    },
    {
      "nom": "Hôtel Niable",
      "categorie": "Appartement",
      "priceRange": "€€",
      "mapsUrl": "https://maps.google.com/?q=5.3953542,-3.982351",
      "lat": 5.3953542,
      "lng": -3.982351,
      "halalFriendly": false,
      "bookingUrl": "https://maps.google.com/?q=5.3953542,-3.982351",
      "source": "osm"
    },
    {
      "nom": "Residence Dippoka",
      "categorie": "Hôtel",
      "priceRange": "€€",
      "mapsUrl": "https://maps.google.com/?q=5.3941902,-3.9803702",
      "lat": 5.3941902,
      "lng": -3.9803702,
      "halalFriendly": false,
      "bookingUrl": "https://maps.google.com/?q=5.3941902,-3.9803702",
      "source": "osm"
    },
    {
      "nom": "Hôtel Niable 2",
      "categorie": "Appartement",
      "priceRange": "€€",
      "mapsUrl": "https://maps.google.com/?q=5.3954594,-3.9818867",
      "lat": 5.3954594,
      "lng": -3.9818867,
      "halalFriendly": false,
      "bookingUrl": "https://maps.google.com/?q=5.3954594,-3.9818867",
      "source": "osm"
    },
    {
      "nom": "Syby Résidence",
      "categorie": "Appartement",
      "priceRange": "€€",
      "mapsUrl": "https://maps.google.com/?q=5.3899001,-3.9756044",
      "lat": 5.3899001,
      "lng": -3.9756044,
      "halalFriendly": false,
      "bookingUrl": "https://maps.google.com/?q=5.3899001,-3.9756044",
      "source": "osm"
    },
    {
      "nom": "Hôtel Novotel Abidjan",
      "categorie": "Hôtel",
      "priceRange": "€€€€",
      "score": 4,
      "mapsUrl": "https://maps.google.com/?q=5.3160377,-4.0164986",
      "lat": 5.3160377,
      "lng": -4.0164986,
      "halalFriendly": false,
      "bookingUrl": "http://www.novotel.com/gb/hotel-0481-novotel-abidjan/index.shtml",
      "source": "osm"
    },
    {
      "nom": "Zénith",
      "categorie": "Hôtel",
      "priceRange": "€€",
      "mapsUrl": "https://maps.google.com/?q=5.404875,-4.0059644",
      "lat": 5.404875,
      "lng": -4.0059644,
      "halalFriendly": false,
      "bookingUrl": "https://maps.google.com/?q=5.404875,-4.0059644",
      "source": "osm"
    },
    {
      "nom": "Quebess Hôtel Bar Climatisé",
      "categorie": "Hôtel",
      "priceRange": "€€",
      "mapsUrl": "https://maps.google.com/?q=5.3635891,-3.9619808",
      "lat": 5.3635891,
      "lng": -3.9619808,
      "halalFriendly": false,
      "bookingUrl": "https://maps.google.com/?q=5.3635891,-3.9619808",
      "source": "osm"
    },
    {
      "nom": "Résidence hôtel Badjo",
      "categorie": "Hôtel",
      "priceRange": "€€",
      "mapsUrl": "https://maps.google.com/?q=5.3687605,-3.962485",
      "lat": 5.3687605,
      "lng": -3.962485,
      "halalFriendly": false,
      "bookingUrl": "https://maps.google.com/?q=5.3687605,-3.962485",
      "source": "osm"
    },
    {
      "nom": "Hôtel Belle Côte",
      "categorie": "Hôtel",
      "priceRange": "€€€",
      "score": 3,
      "mapsUrl": "https://maps.google.com/?q=5.3869104,-3.9700817",
      "lat": 5.3869104,
      "lng": -3.9700817,
      "halalFriendly": false,
      "bookingUrl": "http://www.hotelbellecoteci.com/",
      "source": "osm"
    },
    {
      "nom": "Immeuble Karité",
      "categorie": "Maison d'hôtes",
      "priceRange": "€€",
      "mapsUrl": "https://maps.google.com/?q=5.3979313,-3.981041",
      "lat": 5.3979313,
      "lng": -3.981041,
      "halalFriendly": false,
      "bookingUrl": "https://maps.google.com/?q=5.3979313,-3.981041",
      "source": "osm"
    },
    {
      "nom": "cocody Hotel belle cote",
      "categorie": "Hôtel",
      "priceRange": "€€",
      "mapsUrl": "https://maps.google.com/?q=5.3870687,-3.9697391",
      "lat": 5.3870687,
      "lng": -3.9697391,
      "halalFriendly": false,
      "bookingUrl": "https://maps.google.com/?q=5.3870687,-3.9697391",
      "source": "osm"
    },
    {
      "nom": "Heden Golf Hôtel Abidjan",
      "categorie": "Hôtel",
      "priceRange": "€€€€",
      "score": 4,
      "mapsUrl": "https://maps.google.com/?q=5.3296106,-3.972291",
      "lat": 5.3296106,
      "lng": -3.972291,
      "halalFriendly": false,
      "bookingUrl": "http://hedengolfhotel.com",
      "source": "osm"
    },
    {
      "nom": "ARN Hôtel",
      "categorie": "Hôtel",
      "priceRange": "€€",
      "mapsUrl": "https://maps.google.com/?q=5.3492245,-3.9616388",
      "lat": 5.3492245,
      "lng": -3.9616388,
      "halalFriendly": false,
      "bookingUrl": "https://maps.google.com/?q=5.3492245,-3.9616388",
      "source": "osm"
    },
    {
      "nom": "Hôtel A7",
      "categorie": "Hôtel",
      "priceRange": "€€",
      "mapsUrl": "https://maps.google.com/?q=5.3417993,-4.0526996",
      "lat": 5.3417993,
      "lng": -4.0526996,
      "halalFriendly": false,
      "bookingUrl": "https://maps.google.com/?q=5.3417993,-4.0526996",
      "source": "osm"
    },
    {
      "nom": "BNB hôtel",
      "categorie": "Appartement",
      "priceRange": "€€",
      "mapsUrl": "https://maps.google.com/?q=5.3986015,-3.9791724",
      "lat": 5.3986015,
      "lng": -3.9791724,
      "halalFriendly": false,
      "bookingUrl": "https://maps.google.com/?q=5.3986015,-3.9791724",
      "source": "osm"
    }
  ],
  "mosqueesPrincipales": [
    {
      "id": "m9885807451",
      "nom": "MOSQUEE DU CAMP AGBAN",
      "type": "Mosquée",
      "adresse": "",
      "description": "Lieu de prière (OpenStreetMap).",
      "mapsUrl": "https://maps.google.com/?q=5.3564625,-4.0123734",
      "lat": 5.3564625,
      "lng": -4.0123734,
      "source": "osm"
    },
    {
      "id": "m229571748",
      "nom": "Grande Mosquée de Williamsville",
      "type": "Mosquée",
      "adresse": "",
      "description": "Lieu de prière (OpenStreetMap).",
      "mapsUrl": "https://maps.google.com/?q=5.3647002,-4.0206817",
      "lat": 5.3647002,
      "lng": -4.0206817,
      "source": "osm"
    },
    {
      "id": "m3177106078",
      "nom": "As Sahaba",
      "type": "Mosquée",
      "adresse": "",
      "description": "Lieu de prière (OpenStreetMap).",
      "mapsUrl": "https://maps.google.com/?q=5.356073,-4.0221549",
      "lat": 5.356073,
      "lng": -4.0221549,
      "source": "osm"
    },
    {
      "id": "m4485222191",
      "nom": "Mosquée Mankono 2",
      "type": "Mosquée",
      "adresse": "",
      "description": "Lieu de prière (OpenStreetMap).",
      "mapsUrl": "https://maps.google.com/?q=5.3508791,-4.0200012",
      "lat": 5.3508791,
      "lng": -4.0200012,
      "source": "osm"
    },
    {
      "id": "m5931196081",
      "nom": "Numa Toulahi",
      "type": "Mosquée",
      "adresse": "",
      "description": "Lieu de prière (OpenStreetMap).",
      "mapsUrl": "https://maps.google.com/?q=5.3747041,-4.0024178",
      "lat": 5.3747041,
      "lng": -4.0024178,
      "source": "osm"
    },
    {
      "id": "m3017000130",
      "nom": "Mosquée El Hadj Mohamed Taofiq",
      "type": "Mosquée",
      "adresse": "",
      "description": "Lieu de prière (OpenStreetMap).",
      "mapsUrl": "https://maps.google.com/?q=5.3511393,-4.0215697",
      "lat": 5.3511393,
      "lng": -4.0215697,
      "source": "osm"
    },
    {
      "id": "m3995668389",
      "nom": "Mosquée du Pailler",
      "type": "Mosquée",
      "adresse": "",
      "description": "Lieu de prière (OpenStreetMap).",
      "mapsUrl": "https://maps.google.com/?q=5.376396,-4.0120519",
      "lat": 5.376396,
      "lng": -4.0120519,
      "source": "osm"
    },
    {
      "id": "m3017000129",
      "nom": "Mosquée du Marché Gouro",
      "type": "Mosquée",
      "adresse": "",
      "description": "Lieu de prière (OpenStreetMap).",
      "mapsUrl": "https://maps.google.com/?q=5.3494904,-4.0233035",
      "lat": 5.3494904,
      "lng": -4.0233035,
      "source": "osm"
    },
    {
      "id": "m362149232",
      "nom": "Grande Mosquée d'Adjamé",
      "type": "Mosquée",
      "adresse": "",
      "description": "Lieu de prière (OpenStreetMap).",
      "mapsUrl": "https://maps.google.com/?q=5.3534699,-4.026497",
      "lat": 5.3534699,
      "lng": -4.026497,
      "source": "osm"
    },
    {
      "id": "m6851397862",
      "nom": "Mosquée Inza Fofana",
      "type": "Mosquée",
      "adresse": "",
      "description": "Lieu de prière (OpenStreetMap).",
      "mapsUrl": "https://maps.google.com/?q=5.3746215,-3.9894573",
      "lat": 5.3746215,
      "lng": -3.9894573,
      "source": "osm"
    },
    {
      "id": "m8733572578",
      "nom": "Mosquée Ro",
      "type": "Mosquée",
      "adresse": "",
      "description": "Lieu de prière (OpenStreetMap).",
      "mapsUrl": "https://maps.google.com/?q=5.3453228,-4.0294531",
      "lat": 5.3453228,
      "lng": -4.0294531,
      "source": "osm"
    },
    {
      "id": "m4485222090",
      "nom": "Mosquée Itihao",
      "type": "Mosquée",
      "adresse": "",
      "description": "Lieu de prière (OpenStreetMap).",
      "mapsUrl": "https://maps.google.com/?q=5.3504754,-4.0326205",
      "lat": 5.3504754,
      "lng": -4.0326205,
      "source": "osm"
    },
    {
      "id": "m397556492",
      "nom": "Mosquée d'Aghien",
      "type": "Mosquée",
      "adresse": "",
      "description": "Lieu de prière (OpenStreetMap).",
      "mapsUrl": "https://maps.google.com/?q=5.3826184,-3.9939003",
      "lat": 5.3826184,
      "lng": -3.9939003,
      "source": "osm"
    },
    {
      "id": "m4485187393",
      "nom": "Mosquée Salam 1",
      "type": "Mosquée",
      "adresse": "Boulevard Felix Houphouët Boigny",
      "description": "Lieu de prière (OpenStreetMap).",
      "mapsUrl": "https://maps.google.com/?q=5.3510182,-4.0353156",
      "lat": 5.3510182,
      "lng": -4.0353156,
      "source": "osm"
    },
    {
      "id": "m2385918956",
      "nom": "Grande Mosquée",
      "type": "Mosquée",
      "adresse": "Attécoubé",
      "description": "Lieu de prière (OpenStreetMap).",
      "mapsUrl": "https://maps.google.com/?q=5.3491646,-4.0348666",
      "lat": 5.3491646,
      "lng": -4.0348666,
      "source": "osm"
    },
    {
      "id": "m238100650",
      "nom": "Petite Mosquée Riviéra",
      "type": "Mosquée",
      "adresse": "Rue C 50, Cocody",
      "description": "Lieu de prière (OpenStreetMap).",
      "mapsUrl": "https://maps.google.com/?q=5.3515141,-3.9806738",
      "lat": 5.3515141,
      "lng": -3.9806738,
      "source": "osm"
    },
    {
      "id": "m8753409993",
      "nom": "Mosquée Aicha",
      "type": "Mosquée",
      "adresse": "",
      "description": "Lieu de prière (OpenStreetMap).",
      "mapsUrl": "https://maps.google.com/?q=5.340182,-4.0294625",
      "lat": 5.340182,
      "lng": -4.0294625,
      "source": "osm"
    },
    {
      "id": "m352855777",
      "nom": "Mosquee Kone",
      "type": "Mosquée",
      "adresse": "",
      "description": "Lieu de prière (OpenStreetMap).",
      "mapsUrl": "https://maps.google.com/?q=5.3943915,-4.0116822",
      "lat": 5.3943915,
      "lng": -4.0116822,
      "source": "osm"
    },
    {
      "id": "m3567172639",
      "nom": "Mosquee Sa'Ad ibn Wakass",
      "type": "Mosquée",
      "adresse": "",
      "description": "Lieu de prière (OpenStreetMap).",
      "mapsUrl": "https://maps.google.com/?q=5.3960936,-4.0107838",
      "lat": 5.3960936,
      "lng": -4.0107838,
      "source": "osm"
    },
    {
      "id": "m7779483087",
      "nom": "Riviera Golf grande mosquée",
      "type": "Mosquée",
      "adresse": "",
      "description": "Lieu de prière (OpenStreetMap).",
      "mapsUrl": "https://maps.google.com/?q=5.3373857,-3.9785422",
      "lat": 5.3373857,
      "lng": -3.9785422,
      "source": "osm"
    },
    {
      "id": "m3618208464",
      "nom": "UNA mosquée",
      "type": "Mosquée",
      "adresse": "",
      "description": "Lieu de prière (OpenStreetMap).",
      "mapsUrl": "https://maps.google.com/?q=5.395629,-4.0202139",
      "lat": 5.395629,
      "lng": -4.0202139,
      "source": "osm"
    },
    {
      "id": "m481979169",
      "nom": "Mosquee Sunnite",
      "type": "Mosquée",
      "adresse": "",
      "description": "Lieu de prière (OpenStreetMap).",
      "mapsUrl": "https://maps.google.com/?q=5.3987166,-4.0131601",
      "lat": 5.3987166,
      "lng": -4.0131601,
      "source": "osm"
    },
    {
      "id": "m332528612",
      "nom": "Mosquée du Plateau",
      "type": "Mosquée",
      "adresse": "",
      "description": "Lieu de prière (OpenStreetMap).",
      "mapsUrl": "https://maps.google.com/?q=5.3194422,-4.0157383",
      "lat": 5.3194422,
      "lng": -4.0157383,
      "source": "osm"
    },
    {
      "id": "m8922348334",
      "nom": "Mosquée Cheick",
      "type": "Mosquée",
      "adresse": "",
      "description": "Lieu de prière (OpenStreetMap).",
      "mapsUrl": "https://maps.google.com/?q=5.4002962,-3.9778742",
      "lat": 5.4002962,
      "lng": -3.9778742,
      "source": "osm"
    },
    {
      "id": "m5922808051",
      "nom": "Oumar Boun Katoib",
      "type": "Mosquée",
      "adresse": "",
      "description": "Lieu de prière (OpenStreetMap).",
      "mapsUrl": "https://maps.google.com/?q=5.3532877,-4.0587375",
      "lat": 5.3532877,
      "lng": -4.0587375,
      "source": "osm"
    },
    {
      "id": "m9024562437",
      "nom": "La Mosquée Môrôba",
      "type": "Mosquée",
      "adresse": "",
      "description": "Lieu de prière (OpenStreetMap).",
      "mapsUrl": "https://maps.google.com/?q=5.4111703,-4.0120824",
      "lat": 5.4111703,
      "lng": -4.0120824,
      "source": "osm"
    },
    {
      "id": "m1335615316",
      "nom": "Mosque de Treichville",
      "type": "Mosquée",
      "adresse": "",
      "description": "Lieu de prière (OpenStreetMap).",
      "mapsUrl": "https://maps.google.com/?q=5.3079648,-4.0109253",
      "lat": 5.3079648,
      "lng": -4.0109253,
      "source": "osm"
    },
    {
      "id": "m7779482986",
      "nom": "angre grande mosquée",
      "type": "Mosquée",
      "adresse": "",
      "description": "Lieu de prière (OpenStreetMap).",
      "mapsUrl": "https://maps.google.com/?q=5.406127,-3.9834474",
      "lat": 5.406127,
      "lng": -3.9834474,
      "source": "osm"
    },
    {
      "id": "m5924196197",
      "nom": "Mosquée Abou Bark Siddik",
      "type": "Mosquée",
      "adresse": "",
      "description": "Lieu de prière (OpenStreetMap).",
      "mapsUrl": "https://maps.google.com/?q=5.3495156,-4.0606727",
      "lat": 5.3495156,
      "lng": -4.0606727,
      "source": "osm"
    },
    {
      "id": "m5924422000",
      "nom": "Mosquée Abou Barkrine Asudik",
      "type": "Mosquée",
      "adresse": "",
      "description": "Lieu de prière (OpenStreetMap).",
      "mapsUrl": "https://maps.google.com/?q=5.3492405,-4.060666",
      "lat": 5.3492405,
      "lng": -4.060666,
      "source": "osm"
    },
    {
      "id": "m8584499695",
      "nom": "Centre De Mémorisation Du Saint Coran",
      "type": "Mosquée",
      "adresse": "",
      "description": "Lieu de prière (OpenStreetMap).",
      "mapsUrl": "https://maps.google.com/?q=5.4135766,-4.013952",
      "lat": 5.4135766,
      "lng": -4.013952,
      "source": "osm"
    },
    {
      "id": "m819540741",
      "nom": "Mosquée de la Riviéra 3",
      "type": "Mosquée",
      "adresse": "Cocody",
      "description": "Lieu de prière (OpenStreetMap).",
      "mapsUrl": "https://maps.google.com/?q=5.3485229,-3.9547595",
      "lat": 5.3485229,
      "lng": -3.9547595,
      "source": "osm"
    },
    {
      "id": "m392567144",
      "nom": "Complexe Culturel Al-Zahraa",
      "type": "Mosquée",
      "adresse": "Rue des Ehouès",
      "description": "Lieu de prière (OpenStreetMap).",
      "mapsUrl": "https://maps.google.com/?q=5.306312,-3.995261",
      "lat": 5.306312,
      "lng": -3.995261,
      "source": "osm"
    },
    {
      "id": "m2470273915",
      "nom": "Mosquee de Toits-Rouges",
      "type": "Mosquée",
      "adresse": "Attécoubé",
      "description": "Lieu de prière (OpenStreetMap).",
      "mapsUrl": "https://maps.google.com/?q=5.3299995,-4.0550711",
      "lat": 5.3299995,
      "lng": -4.0550711,
      "source": "osm"
    },
    {
      "id": "m3936405762",
      "nom": "Mosquée du Koweit",
      "type": "Mosquée",
      "adresse": "",
      "description": "Lieu de prière (OpenStreetMap).",
      "mapsUrl": "https://maps.google.com/?q=5.3220854,-4.0510134",
      "lat": 5.3220854,
      "lng": -4.0510134,
      "source": "osm"
    },
    {
      "id": "m420367238",
      "nom": "Mosquée de la star 9 B",
      "type": "Mosquée",
      "adresse": "",
      "description": "Lieu de prière (OpenStreetMap).",
      "mapsUrl": "https://maps.google.com/?q=5.4146013,-3.9909709",
      "lat": 5.4146013,
      "lng": -3.9909709,
      "source": "osm"
    },
    {
      "id": "m844756893",
      "nom": "Mosquée Libanaise de Marcory",
      "type": "Mosquée",
      "adresse": "",
      "description": "Lieu de prière (OpenStreetMap).",
      "mapsUrl": "https://maps.google.com/?q=5.3038814,-3.991652",
      "lat": 5.3038814,
      "lng": -3.991652,
      "source": "osm"
    },
    {
      "id": "m5934695132",
      "nom": "El hadj Mory Doumbia",
      "type": "Mosquée",
      "adresse": "",
      "description": "Lieu de prière (OpenStreetMap).",
      "mapsUrl": "https://maps.google.com/?q=5.339227,-4.0635839",
      "lat": 5.339227,
      "lng": -4.0635839,
      "source": "osm"
    },
    {
      "id": "m3284931353",
      "nom": "Mosquée Petro Ivoire",
      "type": "Mosquée",
      "adresse": "",
      "description": "Lieu de prière (OpenStreetMap).",
      "mapsUrl": "https://maps.google.com/?q=5.4189018,-4.0133412",
      "lat": 5.4189018,
      "lng": -4.0133412,
      "source": "osm"
    },
    {
      "id": "m8836478619",
      "nom": "Mosquée d'Angre Chateau",
      "type": "Mosquée",
      "adresse": "",
      "description": "Lieu de prière (OpenStreetMap).",
      "mapsUrl": "https://maps.google.com/?q=5.4138538,-3.9832755",
      "lat": 5.4138538,
      "lng": -3.9832755,
      "source": "osm"
    },
    {
      "id": "m1496221623",
      "nom": "Mosquée de l'ancien camp akouedo",
      "type": "Mosquée",
      "adresse": "",
      "description": "Lieu de prière (OpenStreetMap).",
      "mapsUrl": "https://maps.google.com/?q=5.3529837,-3.9491013",
      "lat": 5.3529837,
      "lng": -3.9491013,
      "source": "osm"
    },
    {
      "id": "m936757593",
      "nom": "Mosquée Selmer",
      "type": "Mosquée",
      "adresse": "",
      "description": "Lieu de prière (OpenStreetMap).",
      "mapsUrl": "https://maps.google.com/?q=5.3386102,-4.0645441",
      "lat": 5.3386102,
      "lng": -4.0645441,
      "source": "osm"
    },
    {
      "id": "m8832511009",
      "nom": "Mosquée Hamza",
      "type": "Mosquée",
      "adresse": "",
      "description": "Lieu de prière (OpenStreetMap).",
      "mapsUrl": "https://maps.google.com/?q=5.4198725,-4.002692",
      "lat": 5.4198725,
      "lng": -4.002692,
      "source": "osm"
    },
    {
      "id": "m3174960716",
      "nom": "Magic System",
      "type": "Mosquée",
      "adresse": "",
      "description": "Lieu de prière (OpenStreetMap).",
      "mapsUrl": "https://maps.google.com/?q=5.3075116,-3.9764604",
      "lat": 5.3075116,
      "lng": -3.9764604,
      "source": "osm"
    },
    {
      "id": "m8606550968",
      "nom": "Nour Mohamed",
      "type": "Mosquée",
      "adresse": "",
      "description": "Lieu de prière (OpenStreetMap).",
      "mapsUrl": "https://maps.google.com/?q=5.4216262,-4.0095297",
      "lat": 5.4216262,
      "lng": -4.0095297,
      "source": "osm"
    },
    {
      "id": "m2443113763",
      "nom": "Grane Mosquée d'Abobo",
      "type": "Mosquée",
      "adresse": "",
      "description": "Lieu de prière (OpenStreetMap).",
      "mapsUrl": "https://maps.google.com/?q=5.422649,-4.0122451",
      "lat": 5.422649,
      "lng": -4.0122451,
      "source": "osm"
    },
    {
      "id": "m5928601278",
      "nom": "Mosquée: Nour Adou Brahman",
      "type": "Mosquée",
      "adresse": "",
      "description": "Lieu de prière (OpenStreetMap).",
      "mapsUrl": "https://maps.google.com/?q=5.3495047,-4.070533",
      "lat": 5.3495047,
      "lng": -4.070533,
      "source": "osm"
    },
    {
      "id": "m279310671",
      "nom": "Grande Mosquée Salam d'Abobo",
      "type": "Mosquée",
      "adresse": "",
      "description": "Lieu de prière (OpenStreetMap).",
      "mapsUrl": "https://maps.google.com/?q=5.4218628,-4.0200768",
      "lat": 5.4218628,
      "lng": -4.0200768,
      "source": "osm"
    },
    {
      "id": "m7079252486",
      "nom": "Grand mosquée de Sagbé céleste",
      "type": "Mosquée",
      "adresse": "",
      "description": "Lieu de prière (OpenStreetMap).",
      "mapsUrl": "https://maps.google.com/?q=5.4192178,-4.0309032",
      "lat": 5.4192178,
      "lng": -4.0309032,
      "source": "osm"
    },
    {
      "id": "m5924095706",
      "nom": "Espace Islamique",
      "type": "Mosquée",
      "adresse": "",
      "description": "Lieu de prière (OpenStreetMap).",
      "mapsUrl": "https://maps.google.com/?q=5.3436511,-4.0708751",
      "lat": 5.3436511,
      "lng": -4.0708751,
      "source": "osm"
    },
    {
      "id": "m5973333749",
      "nom": "Mosquée Djibril Diaby",
      "type": "Mosquée",
      "adresse": "",
      "description": "Lieu de prière (OpenStreetMap).",
      "mapsUrl": "https://maps.google.com/?q=5.4230124,-4.026097",
      "lat": 5.4230124,
      "lng": -4.026097,
      "source": "osm"
    },
    {
      "id": "m1987808328",
      "nom": "Mosquée CIAD",
      "type": "Mosquée",
      "adresse": "",
      "description": "Lieu de prière (OpenStreetMap).",
      "mapsUrl": "https://maps.google.com/?q=5.3284639,-3.9505428",
      "lat": 5.3284639,
      "lng": -3.9505428,
      "source": "osm"
    },
    {
      "id": "m5924386279",
      "nom": "Mosquée Kenya",
      "type": "Mosquée",
      "adresse": "",
      "description": "Lieu de prière (OpenStreetMap).",
      "mapsUrl": "https://maps.google.com/?q=5.3468217,-4.072864",
      "lat": 5.3468217,
      "lng": -4.072864,
      "source": "osm"
    },
    {
      "id": "m5973333742",
      "nom": "Mosquée Oumar Sako",
      "type": "Mosquée",
      "adresse": "",
      "description": "Lieu de prière (OpenStreetMap).",
      "mapsUrl": "https://maps.google.com/?q=5.422987,-4.028164",
      "lat": 5.422987,
      "lng": -4.028164,
      "source": "osm"
    },
    {
      "id": "m1496207091",
      "nom": "Mosquée Ar-Rahmane",
      "type": "Mosquée",
      "adresse": "",
      "description": "Lieu de prière (OpenStreetMap).",
      "mapsUrl": "https://maps.google.com/?q=5.3514473,-3.9424762",
      "lat": 5.3514473,
      "lng": -3.9424762,
      "source": "osm"
    },
    {
      "id": "m5964219438",
      "nom": "Mosquée Haidara",
      "type": "Mosquée",
      "adresse": "",
      "description": "Lieu de prière (OpenStreetMap).",
      "mapsUrl": "https://maps.google.com/?q=5.4243518,-4.024609",
      "lat": 5.4243518,
      "lng": -4.024609,
      "source": "osm"
    },
    {
      "id": "m1496208000",
      "nom": "Mosquée Principale d'Akouédo",
      "type": "Mosquée",
      "adresse": "",
      "description": "Lieu de prière (OpenStreetMap).",
      "mapsUrl": "https://maps.google.com/?q=5.3459015,-3.9427532",
      "lat": 5.3459015,
      "lng": -3.9427532,
      "source": "osm"
    },
    {
      "id": "m5924368028",
      "nom": "Mosquée Abou Haraira",
      "type": "Mosquée",
      "adresse": "",
      "description": "Lieu de prière (OpenStreetMap).",
      "mapsUrl": "https://maps.google.com/?q=5.3523957,-4.0749272",
      "lat": 5.3523957,
      "lng": -4.0749272,
      "source": "osm"
    },
    {
      "id": "m5843779886",
      "nom": "Mosquée Sikasso",
      "type": "Mosquée",
      "adresse": "Rue K9",
      "description": "Lieu de prière (OpenStreetMap).",
      "mapsUrl": "https://maps.google.com/?q=5.3093457,-4.0523625",
      "lat": 5.3093457,
      "lng": -4.0523625,
      "source": "osm"
    },
    {
      "id": "m275293709",
      "nom": "Mosquée du CHU de Treichville",
      "type": "Mosquée",
      "adresse": "Treichville",
      "description": "Lieu de prière (OpenStreetMap).",
      "mapsUrl": "https://maps.google.com/?q=5.2918414,-4.0009273",
      "lat": 5.2918414,
      "lng": -4.0009273,
      "source": "osm"
    },
    {
      "id": "m7903583520",
      "nom": "Après le pont",
      "type": "Mosquée",
      "adresse": "",
      "description": "Lieu de prière (OpenStreetMap).",
      "mapsUrl": "https://maps.google.com/?q=5.3368959,-4.073271",
      "lat": 5.3368959,
      "lng": -4.073271,
      "source": "osm"
    },
    {
      "id": "m5961227742",
      "nom": "Mosquée Rachide",
      "type": "Mosquée",
      "adresse": "",
      "description": "Lieu de prière (OpenStreetMap).",
      "mapsUrl": "https://maps.google.com/?q=5.3035875,-3.9685556",
      "lat": 5.3035875,
      "lng": -3.9685556,
      "source": "osm"
    },
    {
      "id": "m4341911189",
      "nom": "Mosquée Marcory Sicogi",
      "type": "Mosquée",
      "adresse": "",
      "description": "Lieu de prière (OpenStreetMap).",
      "mapsUrl": "https://maps.google.com/?q=5.2975644,-3.9770389",
      "lat": 5.2975644,
      "lng": -3.9770389,
      "source": "osm"
    },
    {
      "id": "m5961883318",
      "nom": "Mosquée Hiziboulaye",
      "type": "Mosquée",
      "adresse": "",
      "description": "Lieu de prière (OpenStreetMap).",
      "mapsUrl": "https://maps.google.com/?q=5.4281542,-4.0242724",
      "lat": 5.4281542,
      "lng": -4.0242724,
      "source": "osm"
    },
    {
      "id": "m328979026",
      "nom": "Grande Mosquée Sans-Fils",
      "type": "Mosquée",
      "adresse": "",
      "description": "Lieu de prière (OpenStreetMap).",
      "mapsUrl": "https://maps.google.com/?q=5.3070158,-3.9616948",
      "lat": 5.3070158,
      "lng": -3.9616948,
      "source": "osm"
    },
    {
      "id": "m5970029796",
      "nom": "Mosquée Aliizat",
      "type": "Mosquée",
      "adresse": "",
      "description": "Lieu de prière (OpenStreetMap).",
      "mapsUrl": "https://maps.google.com/?q=5.3029599,-3.9666807",
      "lat": 5.3029599,
      "lng": -3.9666807,
      "source": "osm"
    },
    {
      "id": "m1496215703",
      "nom": "Mosquée Rahma Oumou Diakité",
      "type": "Mosquée",
      "adresse": "Cocody",
      "description": "Lieu de prière (OpenStreetMap).",
      "mapsUrl": "https://maps.google.com/?q=5.3579156,-3.9372112",
      "lat": 5.3579156,
      "lng": -3.9372112,
      "source": "osm"
    },
    {
      "id": "m5927195233",
      "nom": "Mosquée Bamba",
      "type": "Mosquée",
      "adresse": "",
      "description": "Lieu de prière (OpenStreetMap).",
      "mapsUrl": "https://maps.google.com/?q=5.3434288,-4.0776785",
      "lat": 5.3434288,
      "lng": -4.0776785,
      "source": "osm"
    },
    {
      "id": "m4485187403",
      "nom": "Mosquée Blanche",
      "type": "Mosquée",
      "adresse": "",
      "description": "Lieu de prière (OpenStreetMap).",
      "mapsUrl": "https://maps.google.com/?q=5.4294935,-4.0236809",
      "lat": 5.4294935,
      "lng": -4.0236809,
      "source": "osm"
    },
    {
      "id": "m4364640192",
      "nom": "Mosqué de Belleville",
      "type": "Mosquée",
      "adresse": "",
      "description": "Lieu de prière (OpenStreetMap).",
      "mapsUrl": "https://maps.google.com/?q=5.4299277,-3.9946232",
      "lat": 5.4299277,
      "lng": -3.9946232,
      "source": "osm"
    },
    {
      "id": "m5963691590",
      "nom": "Mosquée Tour Sinine",
      "type": "Mosquée",
      "adresse": "",
      "description": "Lieu de prière (OpenStreetMap).",
      "mapsUrl": "https://maps.google.com/?q=5.3009775,-3.9669959",
      "lat": 5.3009775,
      "lng": -3.9669959,
      "source": "osm"
    },
    {
      "id": "m5970028755",
      "nom": "Mosquée Siaka Bamba",
      "type": "Mosquée",
      "adresse": "",
      "description": "Lieu de prière (OpenStreetMap).",
      "mapsUrl": "https://maps.google.com/?q=5.3012319,-3.9662067",
      "lat": 5.3012319,
      "lng": -3.9662067,
      "source": "osm"
    },
    {
      "id": "m5931332767",
      "nom": "Mosquée Zawiyate Sankara Moussa",
      "type": "Mosquée",
      "adresse": "",
      "description": "Lieu de prière (OpenStreetMap).",
      "mapsUrl": "https://maps.google.com/?q=5.3659538,-4.0807349",
      "lat": 5.3659538,
      "lng": -4.0807349,
      "source": "osm"
    },
    {
      "id": "m5927234802",
      "nom": "Mosquée UOSMANE",
      "type": "Mosquée",
      "adresse": "",
      "description": "Lieu de prière (OpenStreetMap).",
      "mapsUrl": "https://maps.google.com/?q=5.3472029,-4.0798612",
      "lat": 5.3472029,
      "lng": -4.0798612,
      "source": "osm"
    },
    {
      "id": "m8651504740",
      "nom": "Grande mosquée de Banco 2",
      "type": "Mosquée",
      "adresse": "Abidjan",
      "description": "Lieu de prière (OpenStreetMap).",
      "mapsUrl": "https://maps.google.com/?q=5.3547518,-4.0810199",
      "lat": 5.3547518,
      "lng": -4.0810199,
      "source": "osm"
    },
    {
      "id": "m7057594986",
      "nom": "Mosquée Farouk",
      "type": "Mosquée",
      "adresse": "",
      "description": "Lieu de prière (OpenStreetMap).",
      "mapsUrl": "https://maps.google.com/?q=5.3494995,-4.080612",
      "lat": 5.3494995,
      "lng": -4.080612,
      "source": "osm"
    },
    {
      "id": "m5966972532",
      "nom": "Mosquée inchallah Allar",
      "type": "Mosquée",
      "adresse": "",
      "description": "Lieu de prière (OpenStreetMap).",
      "mapsUrl": "https://maps.google.com/?q=5.3008727,-3.9646228",
      "lat": 5.3008727,
      "lng": -3.9646228,
      "source": "osm"
    },
    {
      "id": "m4385509904",
      "nom": "Mosquée Rahman",
      "type": "Mosquée",
      "adresse": "",
      "description": "Lieu de prière (OpenStreetMap).",
      "mapsUrl": "https://maps.google.com/?q=5.3008209,-3.9644532",
      "lat": 5.3008209,
      "lng": -3.9644532,
      "source": "osm"
    },
    {
      "id": "m7876057937",
      "nom": "Carrefour Lycée",
      "type": "Mosquée",
      "adresse": "",
      "description": "Lieu de prière (OpenStreetMap).",
      "mapsUrl": "https://maps.google.com/?q=5.3260553,-4.0739022",
      "lat": 5.3260553,
      "lng": -4.0739022,
      "source": "osm"
    },
    {
      "id": "m5963980313",
      "nom": "Mosquée Toure Nadjah",
      "type": "Mosquée",
      "adresse": "",
      "description": "Lieu de prière (OpenStreetMap).",
      "mapsUrl": "https://maps.google.com/?q=5.3013066,-3.963383",
      "lat": 5.3013066,
      "lng": -3.963383,
      "source": "osm"
    },
    {
      "id": "m5964976369",
      "nom": "Mosquée Al Moudjahidinesl",
      "type": "Mosquée",
      "adresse": "",
      "description": "Lieu de prière (OpenStreetMap).",
      "mapsUrl": "https://maps.google.com/?q=5.3046044,-3.9590619",
      "lat": 5.3046044,
      "lng": -3.9590619,
      "source": "osm"
    },
    {
      "id": "m5973322956",
      "nom": "Mosquée Moussa Bakayoko",
      "type": "Mosquée",
      "adresse": "",
      "description": "Lieu de prière (OpenStreetMap).",
      "mapsUrl": "https://maps.google.com/?q=5.4315954,-4.0281039",
      "lat": 5.4315954,
      "lng": -4.0281039,
      "source": "osm"
    },
    {
      "id": "m760796431",
      "nom": "Mosquée de la Cité Eden",
      "type": "Mosquée",
      "adresse": "Rue E36, Cocody",
      "description": "Lieu de prière (OpenStreetMap).",
      "mapsUrl": "https://maps.google.com/?q=5.3287527,-3.9405309",
      "lat": 5.3287527,
      "lng": -3.9405309,
      "source": "osm"
    },
    {
      "id": "m10994462105",
      "nom": "Mosquée",
      "type": "Mosquée",
      "adresse": "",
      "description": "Lieu de prière (OpenStreetMap).",
      "mapsUrl": "https://maps.google.com/?q=5.3755798,-3.9351647",
      "lat": 5.3755798,
      "lng": -3.9351647,
      "source": "osm"
    },
    {
      "id": "m5962059925",
      "nom": "Mosquée La Barakate",
      "type": "Mosquée",
      "adresse": "",
      "description": "Lieu de prière (OpenStreetMap).",
      "mapsUrl": "https://maps.google.com/?q=5.4225294,-4.0489615",
      "lat": 5.4225294,
      "lng": -4.0489615,
      "source": "osm"
    },
    {
      "id": "m5963762189",
      "nom": "Mosquée de la Miséricorde de Koumassi Remblais",
      "type": "Mosquée",
      "adresse": "",
      "description": "Lieu de prière (OpenStreetMap).",
      "mapsUrl": "https://maps.google.com/?q=5.2979355,-3.9668537",
      "lat": 5.2979355,
      "lng": -3.9668537,
      "source": "osm"
    },
    {
      "id": "m7897461087",
      "nom": "Mosquée de Zone 4",
      "type": "Mosquée",
      "adresse": "",
      "description": "Lieu de prière (OpenStreetMap).",
      "mapsUrl": "https://maps.google.com/?q=5.2907094,-3.9804076",
      "lat": 5.2907094,
      "lng": -3.9804076,
      "source": "osm"
    },
    {
      "id": "m5964976378",
      "nom": "Mosquée dAhl-Baldr",
      "type": "Mosquée",
      "adresse": "",
      "description": "Lieu de prière (OpenStreetMap).",
      "mapsUrl": "https://maps.google.com/?q=5.3033378,-3.9589278",
      "lat": 5.3033378,
      "lng": -3.9589278,
      "source": "osm"
    },
    {
      "id": "m5964487837",
      "nom": "Mosquée Tawfike",
      "type": "Mosquée",
      "adresse": "",
      "description": "Lieu de prière (OpenStreetMap).",
      "mapsUrl": "https://maps.google.com/?q=5.3019493,-3.9598732",
      "lat": 5.3019493,
      "lng": -3.9598732,
      "source": "osm"
    },
    {
      "id": "m5966155446",
      "nom": "Zawya Rasrou Dine",
      "type": "Mosquée",
      "adresse": "",
      "description": "Lieu de prière (OpenStreetMap).",
      "mapsUrl": "https://maps.google.com/?q=5.3055877,-3.9545189",
      "lat": 5.3055877,
      "lng": -3.9545189,
      "source": "osm"
    },
    {
      "id": "m5970028706",
      "nom": "Mosquée Remblais",
      "type": "Mosquée",
      "adresse": "",
      "description": "Lieu de prière (OpenStreetMap).",
      "mapsUrl": "https://maps.google.com/?q=5.2971904,-3.9646838",
      "lat": 5.2971904,
      "lng": -3.9646838,
      "source": "osm"
    },
    {
      "id": "m5965102332",
      "nom": "Mosquée El Hadj Seydou Sana",
      "type": "Mosquée",
      "adresse": "",
      "description": "Lieu de prière (OpenStreetMap).",
      "mapsUrl": "https://maps.google.com/?q=5.3011898,-3.9585127",
      "lat": 5.3011898,
      "lng": -3.9585127,
      "source": "osm"
    },
    {
      "id": "m5926566259",
      "nom": "Mosquée Darou-Salam",
      "type": "Mosquée",
      "adresse": "",
      "description": "Lieu de prière (OpenStreetMap).",
      "mapsUrl": "https://maps.google.com/?q=5.3396332,-4.0840642",
      "lat": 5.3396332,
      "lng": -4.0840642,
      "source": "osm"
    },
    {
      "id": "m3781514514",
      "nom": "mosqué Sénégalaise",
      "type": "Mosquée",
      "adresse": "",
      "description": "Lieu de prière (OpenStreetMap).",
      "mapsUrl": "https://maps.google.com/?q=5.3021758,-3.9545093",
      "lat": 5.3021758,
      "lng": -3.9545093,
      "source": "osm"
    },
    {
      "id": "m5964557479",
      "nom": "Groupe Scolaire Baradji",
      "type": "Mosquée",
      "adresse": "",
      "description": "Lieu de prière (OpenStreetMap).",
      "mapsUrl": "https://maps.google.com/?q=5.2977826,-3.9592342",
      "lat": 5.2977826,
      "lng": -3.9592342,
      "source": "osm"
    },
    {
      "id": "m5964557480",
      "nom": "Mosquée Zawia Baradji",
      "type": "Mosquée",
      "adresse": "",
      "description": "Lieu de prière (OpenStreetMap).",
      "mapsUrl": "https://maps.google.com/?q=5.2974795,-3.9593013",
      "lat": 5.2974795,
      "lng": -3.9593013,
      "source": "osm"
    },
    {
      "id": "m272893784",
      "nom": "Mosquée Aboubakar Sidik",
      "type": "Mosquée",
      "adresse": "",
      "description": "Lieu de prière (OpenStreetMap).",
      "mapsUrl": "https://maps.google.com/?q=5.3540576,-4.0877664",
      "lat": 5.3540576,
      "lng": -4.0877664,
      "source": "osm"
    },
    {
      "id": "m5961737541",
      "nom": "Mosquée Nigériane",
      "type": "Mosquée",
      "adresse": "",
      "description": "Lieu de prière (OpenStreetMap).",
      "mapsUrl": "https://maps.google.com/?q=5.4277396,-4.0498761",
      "lat": 5.4277396,
      "lng": -4.0498761,
      "source": "osm"
    },
    {
      "id": "m2761136589",
      "nom": "An Nour",
      "type": "Mosquée",
      "adresse": "",
      "description": "Lieu de prière (OpenStreetMap).",
      "mapsUrl": "https://maps.google.com/?q=5.3148929,-3.9426744",
      "lat": 5.3148929,
      "lng": -3.9426744,
      "source": "osm"
    },
    {
      "id": "m5141087250",
      "nom": "Grande mosquée de Koumassi",
      "type": "Mosquée",
      "adresse": "",
      "description": "Lieu de prière (OpenStreetMap).",
      "mapsUrl": "https://maps.google.com/?q=5.2917284,-3.9665763",
      "lat": 5.2917284,
      "lng": -3.9665763,
      "source": "osm"
    },
    {
      "id": "m362264849",
      "nom": "Mosquée Bilal Port-Bouet 2",
      "type": "Mosquée",
      "adresse": "",
      "description": "Lieu de prière (OpenStreetMap).",
      "mapsUrl": "https://maps.google.com/?q=5.3466432,-4.0875896",
      "lat": 5.3466432,
      "lng": -4.0875896,
      "source": "osm"
    },
    {
      "id": "m2763733404",
      "nom": "Mosquée du 05",
      "type": "Mosquée",
      "adresse": "",
      "description": "Lieu de prière (OpenStreetMap).",
      "mapsUrl": "https://maps.google.com/?q=5.3102102,-3.9451704",
      "lat": 5.3102102,
      "lng": -3.9451704,
      "source": "osm"
    },
    {
      "id": "m5964759315",
      "nom": "Mosquéu NOUROULOUDHA",
      "type": "Mosquée",
      "adresse": "",
      "description": "Lieu de prière (OpenStreetMap).",
      "mapsUrl": "https://maps.google.com/?q=5.2959512,-3.9591923",
      "lat": 5.2959512,
      "lng": -3.9591923,
      "source": "osm"
    },
    {
      "id": "m5961516183",
      "nom": "Mosquée Iklas Kocthe",
      "type": "Mosquée",
      "adresse": "",
      "description": "Lieu de prière (OpenStreetMap).",
      "mapsUrl": "https://maps.google.com/?q=5.4292256,-4.0511153",
      "lat": 5.4292256,
      "lng": -4.0511153,
      "source": "osm"
    },
    {
      "id": "m2763933875",
      "nom": "mosqée",
      "type": "Mosquée",
      "adresse": "",
      "description": "Lieu de prière (OpenStreetMap).",
      "mapsUrl": "https://maps.google.com/?q=5.3021087,-3.9467592",
      "lat": 5.3021087,
      "lng": -3.9467592,
      "source": "osm"
    },
    {
      "id": "m5971962239",
      "nom": "Mosquée Bilal",
      "type": "Mosquée",
      "adresse": "",
      "description": "Lieu de prière (OpenStreetMap).",
      "mapsUrl": "https://maps.google.com/?q=5.2934119,-3.955972",
      "lat": 5.2934119,
      "lng": -3.955972,
      "source": "osm"
    },
    {
      "id": "m3369180115",
      "nom": "Mosquée Sangaré",
      "type": "Mosquée",
      "adresse": "Koumassi",
      "description": "Lieu de prière (OpenStreetMap).",
      "mapsUrl": "https://maps.google.com/?q=5.3075943,-3.9408763",
      "lat": 5.3075943,
      "lng": -3.9408763,
      "source": "osm"
    },
    {
      "id": "m5971132526",
      "nom": "Mosquée Moussa Koné",
      "type": "Mosquée",
      "adresse": "",
      "description": "Lieu de prière (OpenStreetMap).",
      "mapsUrl": "https://maps.google.com/?q=5.2899513,-3.9595433",
      "lat": 5.2899513,
      "lng": -3.9595433,
      "source": "osm"
    },
    {
      "id": "m5960161499",
      "nom": "Mosquée Aboubaker",
      "type": "Mosquée",
      "adresse": "",
      "description": "Lieu de prière (OpenStreetMap).",
      "mapsUrl": "https://maps.google.com/?q=5.430054,-4.0582681",
      "lat": 5.430054,
      "lng": -4.0582681,
      "source": "osm"
    },
    {
      "id": "m5938982381",
      "nom": "Mosquée raddja",
      "type": "Mosquée",
      "adresse": "",
      "description": "Lieu de prière (OpenStreetMap).",
      "mapsUrl": "https://maps.google.com/?q=5.3505825,-4.0941795",
      "lat": 5.3505825,
      "lng": -4.0941795,
      "source": "osm"
    },
    {
      "id": "m768587386",
      "nom": "Mosquée Aicha Niangon Sud de Yopougon",
      "type": "Mosquée",
      "adresse": "",
      "description": "Lieu de prière (OpenStreetMap).",
      "mapsUrl": "https://maps.google.com/?q=5.3264295,-4.0885292",
      "lat": 5.3264295,
      "lng": -4.0885292,
      "source": "osm"
    },
    {
      "id": "m302522903",
      "nom": "IMMEUBLE SYLLA 1",
      "type": "Mosquée",
      "adresse": "",
      "description": "Lieu de prière (OpenStreetMap).",
      "mapsUrl": "https://maps.google.com/?q=5.3471268,-4.0947887",
      "lat": 5.3471268,
      "lng": -4.0947887,
      "source": "osm"
    },
    {
      "id": "m8832680206",
      "nom": "Mosquée Hamzar",
      "type": "Mosquée",
      "adresse": "",
      "description": "Lieu de prière (OpenStreetMap).",
      "mapsUrl": "https://maps.google.com/?q=5.4469012,-4.0143019",
      "lat": 5.4469012,
      "lng": -4.0143019,
      "source": "osm"
    },
    {
      "id": "m5959442287",
      "nom": "Grande Mosquée Coopération Turquie Ankara",
      "type": "Mosquée",
      "adresse": "",
      "description": "Lieu de prière (OpenStreetMap).",
      "mapsUrl": "https://maps.google.com/?q=5.431542,-4.0583083",
      "lat": 5.431542,
      "lng": -4.0583083,
      "source": "osm"
    },
    {
      "id": "m5959442344",
      "nom": "Mosquée Sakina",
      "type": "Mosquée",
      "adresse": "",
      "description": "Lieu de prière (OpenStreetMap).",
      "mapsUrl": "https://maps.google.com/?q=5.4333189,-4.0562061",
      "lat": 5.4333189,
      "lng": -4.0562061,
      "source": "osm"
    },
    {
      "id": "m5960952270",
      "nom": "Mosquée Adja Sylla",
      "type": "Mosquée",
      "adresse": "",
      "description": "Lieu de prière (OpenStreetMap).",
      "mapsUrl": "https://maps.google.com/?q=5.4274446,-4.0648462",
      "lat": 5.4274446,
      "lng": -4.0648462,
      "source": "osm"
    },
    {
      "id": "m5969971280",
      "nom": "Mosquée de la gare",
      "type": "Mosquée",
      "adresse": "",
      "description": "Lieu de prière (OpenStreetMap).",
      "mapsUrl": "https://maps.google.com/?q=5.4417219,-4.0440671",
      "lat": 5.4417219,
      "lng": -4.0440671,
      "source": "osm"
    },
    {
      "id": "m5957889707",
      "nom": "Mosquée Sekou Diarrassouba",
      "type": "Mosquée",
      "adresse": "",
      "description": "Lieu de prière (OpenStreetMap).",
      "mapsUrl": "https://maps.google.com/?q=5.4362855,-4.0560043",
      "lat": 5.4362855,
      "lng": -4.0560043,
      "source": "osm"
    },
    {
      "id": "m5958424114",
      "nom": "Mosquée Anonkoua II Masjid Takiwa I",
      "type": "Mosquée",
      "adresse": "",
      "description": "Lieu de prière (OpenStreetMap).",
      "mapsUrl": "https://maps.google.com/?q=5.438949,-4.0517195",
      "lat": 5.438949,
      "lng": -4.0517195,
      "source": "osm"
    },
    {
      "id": "m5972736989",
      "nom": "Mosquée El Hadj Ibrahima",
      "type": "Mosquée",
      "adresse": "",
      "description": "Lieu de prière (OpenStreetMap).",
      "mapsUrl": "https://maps.google.com/?q=5.4427886,-4.0456805",
      "lat": 5.4427886,
      "lng": -4.0456805,
      "source": "osm"
    },
    {
      "id": "m296588566",
      "nom": "Mosquée du Maroc",
      "type": "Mosquée",
      "adresse": "Yopougon",
      "description": "Lieu de prière (OpenStreetMap).",
      "mapsUrl": "https://maps.google.com/?q=5.3403852,-4.0975431",
      "lat": 5.3403852,
      "lng": -4.0975431,
      "source": "osm"
    },
    {
      "id": "m5955716926",
      "nom": "Mosquée Taqwa Marahoué",
      "type": "Mosquée",
      "adresse": "",
      "description": "Lieu de prière (OpenStreetMap).",
      "mapsUrl": "https://maps.google.com/?q=5.4422442,-4.0481018",
      "lat": 5.4422442,
      "lng": -4.0481018,
      "source": "osm"
    },
    {
      "id": "m5956468237",
      "nom": "Mosquée TAKWA",
      "type": "Mosquée",
      "adresse": "",
      "description": "Lieu de prière (OpenStreetMap).",
      "mapsUrl": "https://maps.google.com/?q=5.2879736,-3.9501831",
      "lat": 5.2879736,
      "lng": -3.9501831,
      "source": "osm"
    },
    {
      "id": "m5969138048",
      "nom": "Mosquée De La Paix Adja Korotoum Djakité",
      "type": "Mosquée",
      "adresse": "",
      "description": "Lieu de prière (OpenStreetMap).",
      "mapsUrl": "https://maps.google.com/?q=5.4446503,-4.0457428",
      "lat": 5.4446503,
      "lng": -4.0457428,
      "source": "osm"
    },
    {
      "id": "m5972443384",
      "nom": "Mosquée Salam",
      "type": "Mosquée",
      "adresse": "",
      "description": "Lieu de prière (OpenStreetMap).",
      "mapsUrl": "https://maps.google.com/?q=5.4383135,-4.059121",
      "lat": 5.4383135,
      "lng": -4.059121,
      "source": "osm"
    },
    {
      "id": "m5972443378",
      "nom": "Mosquée Djedja",
      "type": "Mosquée",
      "adresse": "",
      "description": "Lieu de prière (OpenStreetMap).",
      "mapsUrl": "https://maps.google.com/?q=5.4396459,-4.057226",
      "lat": 5.4396459,
      "lng": -4.057226,
      "source": "osm"
    },
    {
      "id": "m5934609280",
      "nom": "Mosquée Daris-Salame",
      "type": "Mosquée",
      "adresse": "",
      "description": "Lieu de prière (OpenStreetMap).",
      "mapsUrl": "https://maps.google.com/?q=5.3761415,-4.1008642",
      "lat": 5.3761415,
      "lng": -4.1008642,
      "source": "osm"
    },
    {
      "id": "m1020109951",
      "nom": "Mosquée Al-Bachir cité SIR",
      "type": "Mosquée",
      "adresse": "Abidjan",
      "description": "Lieu de prière (OpenStreetMap).",
      "mapsUrl": "https://maps.google.com/?q=5.3915686,-3.9188055",
      "lat": 5.3915686,
      "lng": -3.9188055,
      "source": "osm"
    },
    {
      "id": "m5934881765",
      "nom": "Mosquée Al-Mouya Hidine",
      "type": "Mosquée",
      "adresse": "",
      "description": "Lieu de prière (OpenStreetMap).",
      "mapsUrl": "https://maps.google.com/?q=5.3428953,-4.1033721",
      "lat": 5.3428953,
      "lng": -4.1033721,
      "source": "osm"
    },
    {
      "id": "m5957560233",
      "nom": "Mosquée Aminata",
      "type": "Mosquée",
      "adresse": "",
      "description": "Lieu de prière (OpenStreetMap).",
      "mapsUrl": "https://maps.google.com/?q=5.4402019,-4.0618247",
      "lat": 5.4402019,
      "lng": -4.0618247,
      "source": "osm"
    },
    {
      "id": "m5957560249",
      "nom": "Mosquée vod-ci",
      "type": "Mosquée",
      "adresse": "",
      "description": "Lieu de prière (OpenStreetMap).",
      "mapsUrl": "https://maps.google.com/?q=5.4399235,-4.0637404",
      "lat": 5.4399235,
      "lng": -4.0637404,
      "source": "osm"
    },
    {
      "id": "m5964013075",
      "nom": "Mosquée El Alassane",
      "type": "Mosquée",
      "adresse": "",
      "description": "Lieu de prière (OpenStreetMap).",
      "mapsUrl": "https://maps.google.com/?q=5.4300373,-4.0765339",
      "lat": 5.4300373,
      "lng": -4.0765339,
      "source": "osm"
    },
    {
      "id": "m5964359594",
      "nom": "Mosquée Konaté",
      "type": "Mosquée",
      "adresse": "",
      "description": "Lieu de prière (OpenStreetMap).",
      "mapsUrl": "https://maps.google.com/?q=5.4367134,-4.0697687",
      "lat": 5.4367134,
      "lng": -4.0697687,
      "source": "osm"
    },
    {
      "id": "m5957560795",
      "nom": "Mosquée Sabil Nadjah",
      "type": "Mosquée",
      "adresse": "",
      "description": "Lieu de prière (OpenStreetMap).",
      "mapsUrl": "https://maps.google.com/?q=5.4407339,-4.0656307",
      "lat": 5.4407339,
      "lng": -4.0656307,
      "source": "osm"
    }
  ],
  "activites": [
    {
      "id": "a399999415",
      "nom": "Fondation Donwahi pour l'Art Contemporain",
      "categorie": "museum",
      "description": "",
      "prix": "",
      "duree": "",
      "mapsUrl": "https://maps.google.com/?q=5.3559886,-4.0019029",
      "lat": 5.3559886,
      "lng": -4.0019029,
      "source": "osm"
    },
    {
      "id": "a5923989679",
      "nom": "Espace detente",
      "categorie": "theme park",
      "description": "",
      "prix": "",
      "duree": "",
      "mapsUrl": "https://maps.google.com/?q=5.3642901,-4.0019886",
      "lat": 5.3642901,
      "lng": -4.0019886,
      "source": "osm"
    },
    {
      "id": "a2382102654",
      "nom": "Statue Djéni Kobina",
      "categorie": "monument",
      "description": "",
      "prix": "",
      "duree": "",
      "mapsUrl": "https://maps.google.com/?q=5.3626054,-4.0171856",
      "lat": 5.3626054,
      "lng": -4.0171856,
      "source": "osm"
    },