{
  "nom": "Addis-Abeba",
  "pays": "Éthiopie",
  "slug": "addis-abeba",
  "image": "https://images.unsplash.com/photo-1567593810070-7a3d471af022?w=1400&q=85",
  "image_hero": "https://images.unsplash.com/photo-1567593810070-7a3d471af022?w=1400&q=85",
  "description": "Addis-Abeba, capitale de l'Éthiopie et siège de l'Union africaine, marie altitude, café légendaire et grand marché Merkato. Cuisine éthiopienne halal et mosquées au cœur de la Corne de l'Afrique.",
  "descriptionLongue": "Perchée à 2400 m d'altitude, Addis-Abeba (« la nouvelle fleur ») est la capitale diplomatique de l'Afrique, siège de l'Union africaine. L'Éthiopie possède une longue histoire islamique — la première hijra des compagnons du Prophète eut lieu sur ces terres. La ville abrite la grande mosquée Anwar, le tentaculaire marché Merkato et une cuisine éthiopienne halal généreuse (injera, tibs). Berceau du café, elle en perpétue la cérémonie rituelle.",
  "halalScore": 7.5,
  "score_halal": 3.8,
  "mosquees": 500,
  "population": "5 millions",
  "langue": "Amharique",
  "monnaie": "Birr (ETB)",
  "fuseau": "UTC+3",
  "meilleureEpoque": "Octobre à Mars",
  "prixMoyenNuit": "60€",
  "continent": "Afrique",
  "codeISO": "ET",
  "pays_slug": "ethiopie",
  "region": "Afrique de l'Est",
  "meta_title": "Voyage Halal à Addis-Abeba — Guide Complet 2026",
  "meta_description": "Restaurants halal certifiés, mosquées et guide pratique pour Addis-Abeba — Halal Trust Score 7.5/10.",
  "metaDescription": "Restaurants halal certifiés, mosquées et guide pratique pour Addis-Abeba — Halal Trust Score 7.5/10.",
  "coordonnees": {
    "lat": 9.024,
    "lng": 38.7469
  },
  "image_alt": "Vue de Addis-Abeba, Éthiopie",
  "statistiques": {
    "mosquees": 500,
    "restaurants_halal": 750,
    "habitants_musulmans_pct": 35,
    "hotels": 120
  },
  "infos_pratiques": {
    "langue": "Amharique",
    "monnaie": "Birr (ETB)",
    "meilleure_periode": "Octobre à Mars",
    "appel_priere": "5 fois par jour",
    "nourriture_halal": "Largement disponible",
    "alcool": "Disponible",
    "securite": "Précautions habituelles"
  },
  "infoPratique": {
    "visa": "e-Visa éthiopien obligatoire",
    "vaccins": "Fièvre jaune recommandée",
    "transport": "VTC Ride/Feres, light rail, taxi",
    "priseElectrique": "Type C/E/F — 220V",
    "decalageHoraire": "+2h par rapport à Paris (hiver)"
  },
  "restaurants": [
    {
      "nom": "Yod Abyssinia",
      "type": "Traditionnel local",
      "certificationHalal": true,
      "score": 4.4,
      "adresse": "Bole",
      "description": "Injera et tibs avec spectacle culturel",
      "mapsUrl": "https://maps.google.com/?q=Yod+Abyssinia+Addis-Abeba",
      "priceRange": "€€",
      "specialite": "Cuisine éthiopienne",
      "id": "r1",
      "lat": 8.9822541,
      "lng": 38.8383871,
      "geocoded": true
    },
    {
      "nom": "Kategna Restaurant",
      "type": "Traditionnel local",
      "certificationHalal": true,
      "score": 4.4,
      "adresse": "Bole",
      "description": "Cuisine éthiopienne maison populaire",
      "mapsUrl": "https://maps.google.com/?q=Kategna+Restaurant+Addis-Abeba",
      "priceRange": "€",
      "specialite": "Injera",
      "id": "r2",
      "lat": 8.9822541,
      "lng": 38.8383871,
      "geocoded": true
    },
    {
      "nom": "Mama's Kitchen",
      "type": "Traditionnel local",
      "certificationHalal": true,
      "score": 4.4,
      "adresse": "Centre",
      "description": "Cuisine éthiopienne réputée",
      "mapsUrl": "https://maps.google.com/?q=Mama%27s+Kitchen+Addis-Abeba",
      "priceRange": "€€",
      "specialite": "Tibs",
      "id": "r3",
      "lat": 9.0227049,
      "lng": 38.7596658,
      "geocoded": true
    },
    {
      "nom": "Sishu",
      "type": "Grillades & Kebab",
      "certificationHalal": true,
      "score": 4.4,
      "adresse": "Kazanchis",
      "description": "Cuisine internationale halal",
      "mapsUrl": "https://maps.google.com/?q=Sishu+Addis-Abeba",
      "priceRange": "€€",
      "specialite": "Grillades",
      "id": "r4",
      "lat": 9.0159277,
      "lng": 38.7712221,
      "geocoded": true
    },
    {
      "nom": "Al Nour Restaurant",
      "type": "Traditionnel local",
      "certificationHalal": true,
      "score": 4.4,
      "adresse": "Merkato",
      "description": "Cuisine halal du quartier musulman",
      "mapsUrl": "https://maps.google.com/?q=Al+Nour+Restaurant+Addis-Abeba",
      "priceRange": "€",
      "specialite": "Cuisine arabo-éthiopienne",
      "id": "r5",
      "lat": 9.0312817,
      "lng": 38.7375631,
      "geocoded": true
    },
    {
      "nom": "Al Madina Addis-Abeba",
      "type": "Traditionnel local",
      "certificationHalal": true,
      "score": 4.2,
      "adresse": "Addis-Abeba",
      "description": "Adresse halal appréciée des habitants de Addis-Abeba.",
      "mapsUrl": "https://maps.google.com/?q=Al+Madina+Addis-Abeba+Addis-Abeba",
      "priceRange": "€€",
      "specialite": "Plat du jour maison",
      "id": "r6",
      "lat": 9.0358119,
      "lng": 38.7524315,
      "geocoded": true
    },
    {
      "nom": "Shawarma House Addis-Abeba",
      "type": "Grillades & Kebab",
      "certificationHalal": true,
      "score": 4.3,
      "adresse": "Addis-Abeba",
      "description": "Adresse halal appréciée des habitants de Addis-Abeba.",
      "mapsUrl": "https://maps.google.com/?q=Shawarma+House+Addis-Abeba+Addis-Abeba",
      "priceRange": "€",
      "specialite": "Shawarma poulet",
      "id": "r7",
      "lat": 9.0358119,
      "lng": 38.7524315,
      "geocoded": true
    },
    {
      "nom": "Beit Beirut Addis-Abeba",
      "type": "Libanais & Levant",
      "certificationHalal": true,
      "score": 4.4,
      "adresse": "Addis-Abeba",
      "description": "Adresse halal appréciée des habitants de Addis-Abeba.",
      "mapsUrl": "https://maps.google.com/?q=Beit+Beirut+Addis-Abeba+Addis-Abeba",
      "priceRange": "€€",
      "specialite": "Mezze libanais",
      "id": "r8",
      "lat": 9.0358119,
      "lng": 38.7524315,
      "geocoded": true
    },
    {
      "nom": "Spice Route Addis-Abeba",
      "type": "Indien & Pakistani",
      "certificationHalal": true,
      "score": 4.5,
      "adresse": "Addis-Abeba",
      "description": "Adresse halal appréciée des habitants de Addis-Abeba.",
      "mapsUrl": "https://maps.google.com/?q=Spice+Route+Addis-Abeba+Addis-Abeba",
      "priceRange": "€€",
      "specialite": "Biryani",
      "id": "r9",
      "lat": 9.0358119,
      "lng": 38.7524315,
      "geocoded": true
    },
    {
      "nom": "Saffron Garden Addis-Abeba",
      "type": "Gastronomique",
      "certificationHalal": true,
      "score": 4.6000000000000005,
      "adresse": "Addis-Abeba",
      "description": "Adresse halal appréciée des habitants de Addis-Abeba.",
      "mapsUrl": "https://maps.google.com/?q=Saffron+Garden+Addis-Abeba+Addis-Abeba",
      "priceRange": "€€€",
      "specialite": "Menu dégustation halal",
      "id": "r10",
      "lat": 9.0358119,
      "lng": 38.7524315,
      "geocoded": true
    },
    {
      "nom": "Green Bowl Addis-Abeba",
      "type": "Végétarien & Healthy",
      "certificationHalal": true,
      "score": 4.2,
      "adresse": "Addis-Abeba",
      "description": "Adresse halal appréciée des habitants de Addis-Abeba.",
      "mapsUrl": "https://maps.google.com/?q=Green+Bowl+Addis-Abeba+Addis-Abeba",
      "priceRange": "€",
      "specialite": "Bowl méditerranéen",
      "id": "r11",
      "lat": 9.0358119,
      "lng": 38.7524315,
      "geocoded": true
    },
    {
      "nom": "Sultan Café Addis-Abeba",
      "type": "Pâtisserie & Café",
      "certificationHalal": true,
      "score": 4.3,
      "adresse": "Addis-Abeba",
      "description": "Adresse halal appréciée des habitants de Addis-Abeba.",
      "mapsUrl": "https://maps.google.com/?q=Sultan+Caf%C3%A9+Addis-Abeba+Addis-Abeba",
      "priceRange": "€",
      "specialite": "Café arabe et baklava",
      "id": "r12",
      "lat": 9.0358119,
      "lng": 38.7524315,
      "geocoded": true
    },
    {
      "nom": "Ocean Pearl Addis-Abeba",
      "type": "Fruits de mer",
      "certificationHalal": true,
      "score": 4.4,
      "adresse": "Addis-Abeba",
      "description": "Adresse halal appréciée des habitants de Addis-Abeba.",
      "mapsUrl": "https://maps.google.com/?q=Ocean+Pearl+Addis-Abeba+Addis-Abeba",
      "priceRange": "€€€",
      "specialite": "Poisson grillé du jour",
      "id": "r13",
      "lat": 9.0358119,
      "lng": 38.7524315,
      "geocoded": true
    },
    {
      "nom": "Bella Halal Addis-Abeba",
      "type": "Pizza & Italien",
      "certificationHalal": true,
      "score": 4.5,
      "adresse": "Addis-Abeba",
      "description": "Adresse halal appréciée des habitants de Addis-Abeba.",
      "mapsUrl": "https://maps.google.com/?q=Bella+Halal+Addis-Abeba+Addis-Abeba",
      "priceRange": "€€",
      "specialite": "Pizza halal au four à bois",
      "id": "r14",
      "lat": 9.0358119,
      "lng": 38.7524315,
      "geocoded": true
    },
    {
      "nom": "Tokyo Halal Addis-Abeba",
      "type": "Japonais & Asiatique",
      "certificationHalal": true,
      "score": 4.6000000000000005,
      "adresse": "Addis-Abeba",
      "description": "Adresse halal appréciée des habitants de Addis-Abeba.",
      "mapsUrl": "https://maps.google.com/?q=Tokyo+Halal+Addis-Abeba+Addis-Abeba",
      "priceRange": "€€€",
      "specialite": "Sushis certifiés halal",
      "id": "r15",
      "lat": 9.0358119,
      "lng": 38.7524315,
      "geocoded": true
    },
    {
      "nom": "ኪያብ ካፌና ሬስቶራንት",
      "lat": 9.0336155,
      "lng": 38.75158,
      "type": "african, american, arab, breakfast, burger, cake, italian pizza",
      "halalConfidence": "likely",
      "mapsUrl": "https://maps.google.com/?q=9.0336155,38.75158",
      "source": "osm"
    },
    {
      "nom": "ፉድ ወርልድ",
      "lat": 9.0134178,
      "lng": 38.7506495,
      "type": "ethiopian, arab, pizza",
      "halalConfidence": "likely",
      "mapsUrl": "https://maps.google.com/?q=9.0134178,38.7506495",
      "source": "osm"
    },
    {
      "nom": "Lime Tree",
      "lat": 9.0139336,
      "lng": 38.7696273,
      "type": "chicken, tapas, asian, ethiopian, italian, mexican, coffee shop, mediterranean, tea, burger, cake, pasta, lebanese, kebab, breakfast, international, french",
      "halalConfidence": "likely",
      "mapsUrl": "https://maps.google.com/?q=9.0139336,38.7696273",
      "source": "osm"
    },
    {
      "nom": "sana'a Restaurant",
      "lat": 8.9993664,
      "lng": 38.7681221,
      "type": "arab",
      "halalConfidence": "likely",
      "mapsUrl": "https://maps.google.com/?q=8.9993664,38.7681221",
      "source": "osm"
    },
    {
      "nom": "Fanous Cafe",
      "lat": 8.9979509,
      "lng": 38.769108,
      "type": "arab",
      "halalConfidence": "likely",
      "mapsUrl": "https://maps.google.com/?q=8.9979509,38.769108",
      "source": "osm"
    },
    {
      "nom": "Raha Arabiyan Restaurant and Cafe",
      "lat": 9.0043061,
      "lng": 38.7794741,
      "type": "arab",
      "halalConfidence": "likely",
      "mapsUrl": "https://maps.google.com/?q=9.0043061,38.7794741",
      "source": "osm"
    },
    {
      "nom": "United Breakfast",
      "lat": 9.0134887,
      "lng": 38.7870343,
      "type": "ethiopian, arab, coffee shop, local, pasta, tea",
      "halalConfidence": "likely",
      "mapsUrl": "https://maps.google.com/?q=9.0134887,38.7870343",
      "source": "osm"
    },
    {
      "nom": "Ilan’s Falafel",
      "lat": 9.0100398,
      "lng": 38.7880708,
      "type": "turkish",
      "halalConfidence": "likely",
      "mapsUrl": "https://maps.google.com/?q=9.0100398,38.7880708",
      "source": "osm"
    },
    {
      "nom": "Hanedan Addis Turkish Restaurant",
      "lat": 8.9994016,
      "lng": 38.7831183,
      "type": "turkish",
      "halalConfidence": "likely",
      "mapsUrl": "https://maps.google.com/?q=8.9994016,38.7831183",
      "source": "osm"
    },
    {
      "nom": "Fusion",
      "lat": 8.9947883,
      "lng": 38.7850335,
      "type": "american, arab, asian, breakfast, chicken, coffee shop, curry, diner, ethiopian, fish, indian, international, kebab, lebanese, mediterranean, pasta, tea",
      "halalConfidence": "likely",
      "mapsUrl": "https://maps.google.com/?q=8.9947883,38.7850335",
      "source": "osm"
    },
    {
      "nom": "Aladdin",
      "lat": 8.991069,
      "lng": 38.7820004,
      "type": "lebanese",
      "halalConfidence": "likely",
      "mapsUrl": "https://maps.google.com/?q=8.991069,38.7820004",
      "source": "osm"
    },
    {
      "nom": "Limetree Bole",
      "lat": 8.9904856,
      "lng": 38.7838762,
      "type": "chicken, tapas, ethiopian, asian, italian, mexican, coffee shop, mediterranean, tea, burger, cake, pasta, lebanese, kebab, breakfast, international",
      "halalConfidence": "likely",
      "mapsUrl": "https://maps.google.com/?q=8.9904856,38.7838762",
      "source": "osm"
    },
    {
      "nom": "OM Indian Bistro",
      "lat": 8.9865412,
      "lng": 38.7810347,
      "type": "indian",
      "halalConfidence": "likely",
      "mapsUrl": "https://maps.google.com/?q=8.9865412,38.7810347",
      "source": "osm"
    },
    {
      "nom": "Allebnany",
      "lat": 9.0111866,
      "lng": 38.7978867,
      "type": "lebanese",
      "halalConfidence": "likely",
      "mapsUrl": "https://maps.google.com/?q=9.0111866,38.7978867",
      "source": "osm"
    },
    {
      "nom": "Mendi Restaurant",
      "lat": 8.9857086,
      "lng": 38.7850546,
      "type": "turkish",
      "halalConfidence": "likely",
      "mapsUrl": "https://maps.google.com/?q=8.9857086,38.7850546",
      "source": "osm"
    },
    {
      "nom": "BOSS",
      "lat": 8.9922529,
      "lng": 38.7909093,
      "type": "chicken, arab, fine dining",
      "halalConfidence": "likely",
      "mapsUrl": "https://maps.google.com/?q=8.9922529,38.7909093",
      "source": "osm"
    },
    {
      "nom": "Spices of India",
      "lat": 8.989034,
      "lng": 38.7956306,
      "type": "indian",
      "halalConfidence": "likely",
      "mapsUrl": "https://maps.google.com/?q=8.989034,38.7956306",
      "source": "osm"
    }
  ],
  "hotels": [
    {
      "nom": "Sheraton Addis",
      "categorie": "Luxe",
      "score": 4.5,
      "adresse": "Centre",
      "description": "Palace cinq étoiles au cœur de la capitale",
      "halalFriendly": true,
      "sansAlcool": false,
      "mapsUrl": "https://maps.google.com/?q=Sheraton+Addis+Addis-Abeba",
      "bookingUrl": "https://www.booking.com/searchresults.fr.html?ss=Addis-Abeba&label=voyageshalal",
      "halalBookingUrl": "https://www.halalbooking.com/search?city=addis-abeba",
      "priceRange": "€€€€",
      "id": "h1",
      "lat": 9.0204847,
      "lng": 38.7595978
    },
    {
      "nom": "Hyatt Regency Addis Ababa",
      "categorie": "Luxe",
      "score": 4.5,
      "adresse": "Meskel Square",
      "description": "Grand hôtel moderne central",
      "halalFriendly": true,
      "sansAlcool": false,
      "mapsUrl": "https://maps.google.com/?q=Hyatt+Regency+Addis+Ababa+Addis-Abeba",
      "bookingUrl": "https://www.booking.com/searchresults.fr.html?ss=Addis-Abeba&label=voyageshalal",
      "halalBookingUrl": "https://www.halalbooking.com/search?city=addis-abeba",
      "priceRange": "€€€",
      "id": "h2",
      "lat": 9.0100868,
      "lng": 38.7640678
    },
    {
      "nom": "SIM - Guesthouse",
      "categorie": "Maison d'hôtes",
      "priceRange": "€€",
      "mapsUrl": "https://maps.google.com/?q=9.0213399,38.7483499",
      "lat": 9.0213399,
      "lng": 38.7483499,
      "halalFriendly": false,
      "bookingUrl": "https://maps.google.com/?q=9.0213399,38.7483499",
      "source": "osm"
    },
    {
      "nom": "ኤክስትሪም ሆቴል",
      "categorie": "Hôtel",
      "priceRange": "€€",
      "mapsUrl": "https://maps.google.com/?q=9.0279031,38.7487415",
      "lat": 9.0279031,
      "lng": 38.7487415,
      "halalFriendly": false,
      "bookingUrl": "https://maps.google.com/?q=9.0279031,38.7487415",
      "source": "osm"
    },
    {
      "nom": "Ayu Shashe Building",
      "categorie": "Appartement",
      "priceRange": "€€",
      "mapsUrl": "https://maps.google.com/?q=9.0227872,38.7517942",
      "lat": 9.0227872,
      "lng": 38.7517942,
      "halalFriendly": false,
      "bookingUrl": "https://maps.google.com/?q=9.0227872,38.7517942",
      "source": "osm"
    },
    {
      "nom": "Assab Hotel",
      "categorie": "Hôtel",
      "priceRange": "€€",
      "mapsUrl": "https://maps.google.com/?q=9.0287656,38.7442603",
      "lat": 9.0287656,
      "lng": 38.7442603,
      "halalFriendly": false,
      "bookingUrl": "https://maps.google.com/?q=9.0287656,38.7442603",
      "source": "osm"
    },
    {
      "nom": "Baby's",
      "categorie": "Appartement",
      "priceRange": "€€",
      "mapsUrl": "https://maps.google.com/?q=9.0196399,38.7435451",
      "lat": 9.0196399,
      "lng": 38.7435451,
      "halalFriendly": false,
      "bookingUrl": "https://maps.google.com/?q=9.0196399,38.7435451",
      "source": "osm"
    },
    {
      "nom": "Churchill Hotel ቸርችል ሆቴል",
      "categorie": "Hôtel",
      "priceRange": "€€€€",
      "score": 4,
      "mapsUrl": "https://maps.google.com/?q=9.0258586,38.7521261",
      "lat": 9.0258586,
      "lng": 38.7521261,
      "halalFriendly": false,
      "bookingUrl": "https://maps.google.com/?q=9.0258586,38.7521261",
      "source": "osm"
    },
    {
      "nom": "Enda kwaja",
      "categorie": "Maison d'hôtes",
      "priceRange": "€€",
      "mapsUrl": "https://maps.google.com/?q=9.0296764,38.7471761",
      "lat": 9.0296764,
      "lng": 38.7471761,
      "halalFriendly": false,
      "bookingUrl": "http://www.danaplc.com",
      "source": "osm"
    },
    {
      "nom": "Lido Hotel",
      "categorie": "Hôtel",
      "priceRange": "€€",
      "mapsUrl": "https://maps.google.com/?q=9.0166075,38.7474707",
      "lat": 9.0166075,
      "lng": 38.7474707,
      "halalFriendly": false,
      "bookingUrl": "https://maps.google.com/?q=9.0166075,38.7474707",
      "source": "osm"
    },
    {
      "nom": "Eliana Hotel",
      "categorie": "Hôtel",
      "priceRange": "€€",
      "mapsUrl": "https://maps.google.com/?q=9.0303041,38.7509747",
      "lat": 9.0303041,
      "lng": 38.7509747,
      "halalFriendly": false,
      "bookingUrl": "https://maps.google.com/?q=9.0303041,38.7509747",
      "source": "osm"
    },
    {
      "nom": "Monarch ParkView",
      "categorie": "Hôtel",
      "priceRange": "€€",
      "mapsUrl": "https://maps.google.com/?q=9.026838,38.7541834",
      "lat": 9.026838,
      "lng": 38.7541834,
      "halalFriendly": false,
      "bookingUrl": "https://monarchaddis.com/",
      "source": "osm"
    },
    {
      "nom": "Wutma Hotel",
      "categorie": "Hôtel",
      "priceRange": "€€",
      "mapsUrl": "https://maps.google.com/?q=9.03087,38.7531679",
      "lat": 9.03087,
      "lng": 38.7531679,
      "halalFriendly": false,
      "bookingUrl": "https://maps.google.com/?q=9.03087,38.7531679",
      "source": "osm"
    },
    {
      "nom": "Baro Hotel",
      "categorie": "Hôtel",
      "priceRange": "€€",
      "mapsUrl": "https://maps.google.com/?q=9.0307353,38.7534372",
      "lat": 9.0307353,
      "lng": 38.7534372,
      "halalFriendly": false,
      "bookingUrl": "https://maps.google.com/?q=9.0307353,38.7534372",
      "source": "osm"
    },
    {
      "nom": "Taitu Hotel",
      "categorie": "Hôtel",
      "priceRange": "€€",
      "mapsUrl": "https://maps.google.com/?q=9.0302478,38.7540807",
      "lat": 9.0302478,
      "lng": 38.7540807,
      "halalFriendly": false,
      "bookingUrl": "https://maps.google.com/?q=9.0302478,38.7540807",
      "source": "osm"
    },
    {
      "nom": "Ethiopia Hotel",
      "categorie": "Hôtel",
      "priceRange": "€€",
      "mapsUrl": "https://maps.google.com/?q=9.0170202,38.7535056",
      "lat": 9.0170202,
      "lng": 38.7535056,
      "halalFriendly": false,
      "bookingUrl": "https://maps.google.com/?q=9.0170202,38.7535056",
      "source": "osm"
    },
    {
      "nom": "Harambee Hotel",
      "categorie": "Hôtel",
      "priceRange": "€€",
      "mapsUrl": "https://maps.google.com/?q=9.0177847,38.7544033",
      "lat": 9.0177847,
      "lng": 38.7544033,
      "halalFriendly": false,
      "bookingUrl": "https://maps.google.com/?q=9.0177847,38.7544033",
      "source": "osm"
    },
    {
      "nom": "Metro Hotel",
      "categorie": "Hôtel",
      "priceRange": "€€",
      "mapsUrl": "https://maps.google.com/?q=9.0294238,38.7387594",
      "lat": 9.0294238,
      "lng": 38.7387594,
      "halalFriendly": false,
      "bookingUrl": "https://maps.google.com/?q=9.0294238,38.7387594",
      "source": "osm"
    },
    {
      "nom": "Life Pension No 1",
      "categorie": "Maison d'hôtes",
      "priceRange": "€€",
      "mapsUrl": "https://maps.google.com/?q=9.0265622,38.7566837",
      "lat": 9.0265622,
      "lng": 38.7566837,
      "halalFriendly": false,
      "bookingUrl": "https://maps.google.com/?q=9.0265622,38.7566837",
      "source": "osm"
    },
    {
      "nom": "National",
      "categorie": "Hôtel",
      "priceRange": "€€",
      "mapsUrl": "https://maps.google.com/?q=9.0313133,38.7539456",
      "lat": 9.0313133,
      "lng": 38.7539456,
      "halalFriendly": false,
      "bookingUrl": "https://maps.google.com/?q=9.0313133,38.7539456",
      "source": "osm"
    },
    {
      "nom": "Tsegreda Hotel",
      "categorie": "Hôtel",
      "priceRange": "€€",
      "mapsUrl": "https://maps.google.com/?q=9.0312974,38.7539678",
      "lat": 9.0312974,
      "lng": 38.7539678,
      "halalFriendly": false,
      "bookingUrl": "https://maps.google.com/?q=9.0312974,38.7539678",
      "source": "osm"
    },
    {
      "nom": "Wegagen Hotel",
      "categorie": "Hôtel",
      "priceRange": "€€",
      "mapsUrl": "https://maps.google.com/?q=9.0314766,38.7538075",
      "lat": 9.0314766,
      "lng": 38.7538075,
      "halalFriendly": false,
      "bookingUrl": "https://maps.google.com/?q=9.0314766,38.7538075",
      "source": "osm"
    },
    {
      "nom": "Tedela",
      "categorie": "Hôtel",
      "priceRange": "€€",
      "mapsUrl": "https://maps.google.com/?q=9.0317446,38.7535529",
      "lat": 9.0317446,
      "lng": 38.7535529,
      "halalFriendly": false,
      "bookingUrl": "https://maps.google.com/?q=9.0317446,38.7535529",
      "source": "osm"
    },
    {
      "nom": "D'Afrique Hotel",
      "categorie": "Hôtel",
      "priceRange": "€€",
      "mapsUrl": "https://maps.google.com/?q=9.0140494,38.7448279",
      "lat": 9.0140494,
      "lng": 38.7448279,
      "halalFriendly": false,
      "bookingUrl": "https://maps.google.com/?q=9.0140494,38.7448279",
      "source": "osm"
    },
    {
      "nom": "Abyssinia",
      "categorie": "Hôtel",
      "priceRange": "€€",
      "mapsUrl": "https://maps.google.com/?q=9.0316652,38.7538256",
      "lat": 9.0316652,
      "lng": 38.7538256,
      "halalFriendly": false,
      "bookingUrl": "https://maps.google.com/?q=9.0316652,38.7538256",
      "source": "osm"
    },
    {
      "nom": "Queens",
      "categorie": "Hôtel",
      "priceRange": "€€",
      "mapsUrl": "https://maps.google.com/?q=9.0319103,38.7536053",
      "lat": 9.0319103,
      "lng": 38.7536053,
      "halalFriendly": false,
      "bookingUrl": "https://maps.google.com/?q=9.0319103,38.7536053",
      "source": "osm"
    },
    {
      "nom": "Yetwins Garage",
      "categorie": "Appartement",
      "priceRange": "€€",
      "mapsUrl": "https://maps.google.com/?q=9.0337791,38.7503347",
      "lat": 9.0337791,
      "lng": 38.7503347,
      "halalFriendly": false,
      "bookingUrl": "https://maps.google.com/?q=9.0337791,38.7503347",
      "source": "osm"
    },
    {
      "nom": "Ras Hotel",
      "categorie": "Hôtel",
      "priceRange": "€€",
      "mapsUrl": "https://maps.google.com/?q=9.0150377,38.7523044",
      "lat": 9.0150377,
      "lng": 38.7523044,
      "halalFriendly": false,
      "bookingUrl": "https://maps.google.com/?q=9.0150377,38.7523044",
      "source": "osm"
    },
    {
      "nom": "Natan Home",
      "categorie": "Appartement",
      "priceRange": "€€",
      "mapsUrl": "https://maps.google.com/?q=9.0177945,38.7384095",
      "lat": 9.0177945,
      "lng": 38.7384095,
      "halalFriendly": false,
      "bookingUrl": "https://maps.google.com/?q=9.0177945,38.7384095",
      "source": "osm"
    },
    {
      "nom": "Kangaroo",
      "categorie": "Hôtel",
      "priceRange": "€€",
      "mapsUrl": "https://maps.google.com/?q=9.0341876,38.7444164",
      "lat": 9.0341876,
      "lng": 38.7444164,
      "halalFriendly": false,
      "bookingUrl": "https://maps.google.com/?q=9.0341876,38.7444164",
      "source": "osm"
    },
    {
      "nom": "ጎንደር ሆቴል | Gonder Hotel",
      "categorie": "Auberge",
      "priceRange": "€€",
      "mapsUrl": "https://maps.google.com/?q=9.0309919,38.7550055",
      "lat": 9.0309919,
      "lng": 38.7550055,
      "halalFriendly": false,
      "bookingUrl": "https://maps.google.com/?q=9.0309919,38.7550055",
      "source": "osm"
    },
    {
      "nom": "Mearab Hotel",
      "categorie": "Hôtel",
      "priceRange": "€€",
      "mapsUrl": "https://maps.google.com/?q=9.0295281,38.7374819",
      "lat": 9.0295281,
      "lng": 38.7374819,
      "halalFriendly": false,
      "bookingUrl": "https://maps.google.com/?q=9.0295281,38.7374819",
      "source": "osm"
    },
    {
      "nom": "Tirar International Hotel",
      "categorie": "Hôtel",
      "priceRange": "€€",
      "mapsUrl": "https://maps.google.com/?q=9.0174823,38.7380378",
      "lat": 9.0174823,
      "lng": 38.7380378,
      "halalFriendly": false,
      "bookingUrl": "https://maps.google.com/?q=9.0174823,38.7380378",
      "source": "osm"
    },
    {
      "nom": "Continental Hotel | ኮንትኔንታል ሆቴል",
      "categorie": "Hôtel",
      "priceRange": "€€",
      "mapsUrl": "https://maps.google.com/?q=9.0311416,38.7552823",
      "lat": 9.0311416,
      "lng": 38.7552823,
      "halalFriendly": false,
      "bookingUrl": "https://maps.google.com/?q=9.0311416,38.7552823",
      "source": "osm"
    },
    {
      "nom": "Tirar",
      "categorie": "Hôtel",
      "priceRange": "€€",
      "mapsUrl": "https://maps.google.com/?q=9.0168337,38.7384531",
      "lat": 9.0168337,
      "lng": 38.7384531,
      "halalFriendly": false,
      "bookingUrl": "https://maps.google.com/?q=9.0168337,38.7384531",
      "source": "osm"
    },
    {
      "nom": "ፒያሳ ቀበሌ 10 ኮንደሚኒየም",
      "categorie": "Appartement",
      "priceRange": "€€",
      "mapsUrl": "https://maps.google.com/?q=9.0311067,38.7557948",
      "lat": 9.0311067,
      "lng": 38.7557948,
      "halalFriendly": false,
      "bookingUrl": "https://maps.google.com/?q=9.0311067,38.7557948",
      "source": "osm"
    },
    {
      "nom": "Wabe Shebelle Hotel",
      "categorie": "Hôtel",
      "priceRange": "€€",
      "mapsUrl": "https://maps.google.com/?q=9.0123492,38.7468287",
      "lat": 9.0123492,
      "lng": 38.7468287,
      "halalFriendly": false,
      "bookingUrl": "https://maps.google.com/?q=9.0123492,38.7468287",
      "source": "osm"
    },
    {
      "nom": "የፋንታዬ ቤተሰብ",
      "categorie": "Appartement",
      "priceRange": "€€",
      "mapsUrl": "https://maps.google.com/?q=9.0247653,38.7351025",
      "lat": 9.0247653,
      "lng": 38.7351025,
      "halalFriendly": false,
      "bookingUrl": "https://maps.google.com/?q=9.0247653,38.7351025",
      "source": "osm"
    },
    {
      "nom": "Kegnew Shaleka Hotel",
      "categorie": "Hôtel",
      "priceRange": "€€",
      "mapsUrl": "https://maps.google.com/?q=9.0317607,38.7372471",
      "lat": 9.0317607,
      "lng": 38.7372471,
      "halalFriendly": false,
      "bookingUrl": "https://maps.google.com/?q=9.0317607,38.7372471",
      "source": "osm"
    },
    {
      "nom": "ሀያት መኝታ ቤት",
      "categorie": "Maison d'hôtes",
      "priceRange": "€€",
      "mapsUrl": "https://maps.google.com/?q=9.0359855,38.7426706",
      "lat": 9.0359855,
      "lng": 38.7426706,
      "halalFriendly": false,
      "bookingUrl": "https://maps.google.com/?q=9.0359855,38.7426706",
      "source": "osm"
    },
    {
      "nom": "Fle woha",
      "categorie": "Hôtel",
      "priceRange": "€€",
      "mapsUrl": "https://maps.google.com/?q=9.0185622,38.7586065",
      "lat": 9.0185622,
      "lng": 38.7586065,
      "halalFriendly": false,
      "bookingUrl": "https://maps.google.com/?q=9.0185622,38.7586065",
      "source": "osm"
    },
    {
      "nom": "Finfine Adarash Hotel",
      "categorie": "Hôtel",
      "priceRange": "€€",
      "mapsUrl": "https://maps.google.com/?q=9.0175679,38.7581026",
      "lat": 9.0175679,
      "lng": 38.7581026,
      "halalFriendly": false,
      "bookingUrl": "https://maps.google.com/?q=9.0175679,38.7581026",
      "source": "osm"
    },
    {
      "nom": "Vamos",
      "categorie": "Maison d'hôtes",
      "priceRange": "€€",
      "mapsUrl": "https://maps.google.com/?q=9.0154318,38.7372659",
      "lat": 9.0154318,
      "lng": 38.7372659,
      "halalFriendly": false,
      "bookingUrl": "https://maps.google.com/?q=9.0154318,38.7372659",
      "source": "osm"
    },
    {
      "nom": "Solish Hotel",
      "categorie": "Hôtel",
      "priceRange": "€€",
      "mapsUrl": "https://maps.google.com/?q=9.0124083,38.7412988",
      "lat": 9.0124083,
      "lng": 38.7412988,
      "halalFriendly": false,
      "bookingUrl": "https://maps.google.com/?q=9.0124083,38.7412988",
      "source": "osm"
    },
    {
      "nom": "Biserat Hotel",
      "categorie": "Hôtel",
      "priceRange": "€€",
      "score": 2,
      "mapsUrl": "https://maps.google.com/?q=9.0127649,38.740364",
      "lat": 9.0127649,
      "lng": 38.740364,
      "halalFriendly": false,
      "bookingUrl": "https://maps.google.com/?q=9.0127649,38.740364",
      "source": "osm"
    },
    {
      "nom": "Gibe Hotel",
      "categorie": "Hôtel",
      "priceRange": "€€",
      "mapsUrl": "https://maps.google.com/?q=9.0344488,38.7547933",
      "lat": 9.0344488,
      "lng": 38.7547933,
      "halalFriendly": false,
      "bookingUrl": "https://maps.google.com/?q=9.0344488,38.7547933",
      "source": "osm"
    },
    {
      "nom": "Alulla Abaneg Buldg",
      "categorie": "Appartement",
      "priceRange": "€€",
      "mapsUrl": "https://maps.google.com/?q=9.017602,38.7352627",
      "lat": 9.017602,
      "lng": 38.7352627,
      "halalFriendly": false,
      "bookingUrl": "https://maps.google.com/?q=9.017602,38.7352627",
      "source": "osm"
    },
    {
      "nom": "Abesha Bar and Restaurant",
      "categorie": "Hôtel",
      "priceRange": "€€",
      "mapsUrl": "https://maps.google.com/?q=9.010853,38.7487685",
      "lat": 9.010853,
      "lng": 38.7487685,
      "halalFriendly": false,
      "bookingUrl": "https://maps.google.com/?q=9.010853,38.7487685",
      "source": "osm"
    },
    {
      "nom": "ንጉስ ክትፎና አሣ Hotel",
      "categorie": "Hôtel",
      "priceRange": "€€",
      "mapsUrl": "https://maps.google.com/?q=9.0345324,38.7553608",
      "lat": 9.0345324,
      "lng": 38.7553608,
      "halalFriendly": false,
      "bookingUrl": "https://maps.google.com/?q=9.0345324,38.7553608",
      "source": "osm"
    },
    {
      "nom": "Haven Hotel",
      "categorie": "Hôtel",
      "priceRange": "€€",
      "mapsUrl": "https://maps.google.com/?q=9.0155626,38.7359101",
      "lat": 9.0155626,
      "lng": 38.7359101,
      "halalFriendly": false,
      "bookingUrl": "https://maps.google.com/?q=9.0155626,38.7359101",
      "source": "osm"
    },
    {
      "nom": "ፉአድ ሳዲቅ መሬት",
      "categorie": "Appartement",
      "priceRange": "€€",
      "mapsUrl": "https://maps.google.com/?q=9.0301251,38.7594086",
      "lat": 9.0301251,
      "lng": 38.7594086,
      "halalFriendly": false,
      "bookingUrl": "https://maps.google.com/?q=9.0301251,38.7594086",
      "source": "osm"
    },
    {
      "nom": "ቤተሰብ ሆቴል",
      "categorie": "Maison d'hôtes",
      "priceRange": "€€",
      "mapsUrl": "https://maps.google.com/?q=9.0310696,38.7347489",
      "lat": 9.0310696,
      "lng": 38.7347489,
      "halalFriendly": false,
      "bookingUrl": "https://maps.google.com/?q=9.0310696,38.7347489",
      "source": "osm"
    },
    {
      "nom": "Blue nile hotel",
      "categorie": "Hôtel",
      "priceRange": "€€",
      "mapsUrl": "https://maps.google.com/?q=9.0354681,38.7550621",
      "lat": 9.0354681,
      "lng": 38.7550621,
      "halalFriendly": false,
      "bookingUrl": "https://maps.google.com/?q=9.0354681,38.7550621",
      "source": "osm"
    },
    {
      "nom": "Sarendem Hotel",
      "categorie": "Hôtel",
      "priceRange": "€€",
      "mapsUrl": "https://maps.google.com/?q=9.0188474,38.7334121",
      "lat": 9.0188474,
      "lng": 38.7334121,
      "halalFriendly": false,
      "bookingUrl": "https://maps.google.com/?q=9.0188474,38.7334121",
      "source": "osm"
    },
    {
      "nom": "Warka Hotel",
      "categorie": "Hôtel",
      "priceRange": "€€",
      "mapsUrl": "https://maps.google.com/?q=9.0181925,38.7335827",
      "lat": 9.0181925,
      "lng": 38.7335827,
      "halalFriendly": false,
      "bookingUrl": "https://maps.google.com/?q=9.0181925,38.7335827",
      "source": "osm"
    },
    {
      "nom": "Abinet Hotel",
      "categorie": "Hôtel",
      "priceRange": "€€",
      "mapsUrl": "https://maps.google.com/?q=9.0189396,38.7332033",
      "lat": 9.0189396,
      "lng": 38.7332033,
      "halalFriendly": false,
      "bookingUrl": "https://maps.google.com/?q=9.0189396,38.7332033",
      "source": "osm"
    },
    {
      "nom": "Tiga Hotel",
      "categorie": "Hôtel",
      "priceRange": "€€",
      "mapsUrl": "https://maps.google.com/?q=9.0387743,38.7477307",
      "lat": 9.0387743,
      "lng": 38.7477307,
      "halalFriendly": false,
      "bookingUrl": "https://maps.google.com/?q=9.0387743,38.7477307",
      "source": "osm"
    },
    {
      "nom": "Comfy Spot Guest House",
      "categorie": "Maison d'hôtes",
      "priceRange": "€€",
      "mapsUrl": "https://maps.google.com/?q=9.0394767,38.7475439",
      "lat": 9.0394767,
      "lng": 38.7475439,
      "halalFriendly": false,
      "bookingUrl": "https://maps.google.com/?q=9.0394767,38.7475439",
      "source": "osm"
    },
    {
      "nom": "Mexico Hotel",
      "categorie": "Hôtel",
      "priceRange": "€€",
      "mapsUrl": "https://maps.google.com/?q=9.0085096,38.7435929",
      "lat": 9.0085096,
      "lng": 38.7435929,
      "halalFriendly": false,
      "bookingUrl": "https://maps.google.com/?q=9.0085096,38.7435929",
      "source": "osm"
    },
    {
      "nom": "4 kilo Condominium",
      "categorie": "Appartement",
      "priceRange": "€€",
      "mapsUrl": "https://maps.google.com/?q=9.0329264,38.7602017",
      "lat": 9.0329264,
      "lng": 38.7602017,
      "halalFriendly": false,
      "bookingUrl": "https://maps.google.com/?q=9.0329264,38.7602017",
      "source": "osm"
    },
    {
      "nom": "ልደታ ኮንዶሚኒየም",
      "categorie": "Appartement",
      "priceRange": "€€",
      "mapsUrl": "https://maps.google.com/?q=9.0122896,38.7358969",
      "lat": 9.0122896,
      "lng": 38.7358969,
      "halalFriendly": false,
      "bookingUrl": "https://maps.google.com/?q=9.0122896,38.7358969",
      "source": "osm"
    },
    {
      "nom": "ዳሩሰላም የእንግዳ ማረፊያ",
      "categorie": "Maison d'hôtes",
      "priceRange": "€€",
      "mapsUrl": "https://maps.google.com/?q=9.0341306,38.7341509",
      "lat": 9.0341306,
      "lng": 38.7341509,
      "halalFriendly": false,
      "bookingUrl": "https://maps.google.com/?q=9.0341306,38.7341509",
      "source": "osm"
    },
    {
      "nom": "Lid atubus tera house",
      "categorie": "Appartement",
      "priceRange": "€€",
      "mapsUrl": "https://maps.google.com/?q=9.034799,38.7345964",
      "lat": 9.034799,
      "lng": 38.7345964,
      "halalFriendly": false,
      "bookingUrl": "https://maps.google.com/?q=9.034799,38.7345964",
      "source": "osm"
    },
    {
      "nom": "Denver Hotel",
      "categorie": "Hôtel",
      "priceRange": "€€",
      "mapsUrl": "https://maps.google.com/?q=9.0353282,38.7592971",
      "lat": 9.0353282,
      "lng": 38.7592971,
      "halalFriendly": false,
      "bookingUrl": "https://maps.google.com/?q=9.0353282,38.7592971",
      "source": "osm"
    },
    {
      "nom": "Ghion Hotel",
      "categorie": "Hôtel",
      "priceRange": "€€€€",
      "score": 4,
      "mapsUrl": "https://maps.google.com/?q=9.0137992,38.760304",
      "lat": 9.0137992,
      "lng": 38.760304,
      "halalFriendly": false,
      "bookingUrl": "https://maps.google.com/?q=9.0137992,38.760304",
      "source": "osm"
    },
    {
      "nom": "Soramba Hotel",
      "categorie": "Hôtel",
      "priceRange": "€€€€",
      "score": 4,
      "mapsUrl": "https://maps.google.com/?q=9.0408344,38.7508925",
      "lat": 9.0408344,
      "lng": 38.7508925,
      "halalFriendly": false,
      "bookingUrl": "https://maps.google.com/?q=9.0408344,38.7508925",
      "source": "osm"
    },
    {
      "nom": "Tourist International Hotel",
      "categorie": "Hôtel",
      "priceRange": "€€",
      "mapsUrl": "https://maps.google.com/?q=9.0332402,38.7622018",
      "lat": 9.0332402,
      "lng": 38.7622018,
      "halalFriendly": false,
      "bookingUrl": "https://maps.google.com/?q=9.0332402,38.7622018",
      "source": "osm"
    },
    {
      "nom": "Skylight Hotel",
      "categorie": "Hôtel",
      "priceRange": "€€",
      "mapsUrl": "https://maps.google.com/?q=9.0214482,38.7648187",
      "lat": 9.0214482,
      "lng": 38.7648187,
      "halalFriendly": false,
      "bookingUrl": "https://maps.google.com/?q=9.0214482,38.7648187",
      "source": "osm"
    },
    {
      "nom": "Fikadu Zeleka",
      "categorie": "Hôtel",
      "priceRange": "€€",
      "mapsUrl": "https://maps.google.com/?q=9.0422973,38.7462432",
      "lat": 9.0422973,
      "lng": 38.7462432,
      "halalFriendly": false,
      "bookingUrl": "https://maps.google.com/?q=9.0422973,38.7462432",
      "source": "osm"
    },
    {
      "nom": "Temama fok",
      "categorie": "Appartement",
      "priceRange": "€€",
      "mapsUrl": "https://maps.google.com/?q=9.0212416,38.7653767",
      "lat": 9.0212416,
      "lng": 38.7653767,
      "halalFriendly": false,
      "bookingUrl": "https://maps.google.com/?q=9.0212416,38.7653767",
      "source": "osm"
    },
    {
      "nom": "የተማሪዎች ማደርያ",
      "categorie": "Appartement",
      "priceRange": "€€",
      "mapsUrl": "https://maps.google.com/?q=9.0132889,38.7314585",
      "lat": 9.0132889,
      "lng": 38.7314585,
      "halalFriendly": false,
      "bookingUrl": "https://maps.google.com/?q=9.0132889,38.7314585",
      "source": "osm"
    },
    {
      "nom": "Addis Regency",
      "categorie": "Hôtel",
      "priceRange": "€€",
      "mapsUrl": "https://maps.google.com/?q=9.0416561,38.7529878",
      "lat": 9.0416561,
      "lng": 38.7529878,
      "halalFriendly": false,
      "bookingUrl": "https://maps.google.com/?q=9.0416561,38.7529878",
      "source": "osm"
    },
    {
      "nom": "Home Lideta",
      "categorie": "Appartement",
      "priceRange": "€€",
      "mapsUrl": "https://maps.google.com/?q=9.0105536,38.7337978",
      "lat": 9.0105536,
      "lng": 38.7337978,
      "halalFriendly": false,
      "bookingUrl": "https://maps.google.com/?q=9.0105536,38.7337978",
      "source": "osm"
    },
    {
      "nom": "Hilton Addis Ababa",
      "categorie": "Hôtel",
      "priceRange": "€€€€",
      "score": 4,
      "mapsUrl": "https://maps.google.com/?q=9.0187351,38.765029",
      "lat": 9.0187351,
      "lng": 38.765029,
      "halalFriendly": false,
      "bookingUrl": "https://www.hilton.com/en/hotels/addhitw-hilton-addis-ababa/",
      "source": "osm"
    },
    {
      "nom": "ሳዊም ፔንሲዎን",
      "categorie": "Maison d'hôtes",
      "priceRange": "€€",
      "mapsUrl": "https://maps.google.com/?q=9.0356825,38.7316637",
      "lat": 9.0356825,
      "lng": 38.7316637,
      "halalFriendly": false,
      "bookingUrl": "https://maps.google.com/?q=9.0356825,38.7316637",
      "source": "osm"
    },
    {
      "nom": "Fraol Hotel",
      "categorie": "Hôtel",
      "priceRange": "€€",
      "mapsUrl": "https://maps.google.com/?q=9.0430165,38.7496218",
      "lat": 9.0430165,
      "lng": 38.7496218,
      "halalFriendly": false,
      "bookingUrl": "https://maps.google.com/?q=9.0430165,38.7496218",
      "source": "osm"
    },
    {
      "nom": "Gambela hotel",
      "categorie": "Hôtel",
      "priceRange": "€€",
      "mapsUrl": "https://maps.google.com/?q=9.0408414,38.7569321",
      "lat": 9.0408414,
      "lng": 38.7569321,
      "halalFriendly": false,
      "bookingUrl": "https://maps.google.com/?q=9.0408414,38.7569321",
      "source": "osm"
    },
    {
      "nom": "ተሐድሶ ሕይወት ዓለም አቀፍ ቤ/ክ",
      "categorie": "Appartement",
      "priceRange": "€€",
      "mapsUrl": "https://maps.google.com/?q=9.0081106,38.7344114",
      "lat": 9.0081106,
      "lng": 38.7344114,
      "halalFriendly": false,
      "bookingUrl": "https://maps.google.com/?q=9.0081106,38.7344114",
      "source": "osm"
    },
    {
      "nom": "Semien Hotel",
      "categorie": "Hôtel",
      "priceRange": "€€€",
      "score": 3,
      "mapsUrl": "https://maps.google.com/?q=9.0440785,38.749008",
      "lat": 9.0440785,
      "lng": 38.749008,
      "halalFriendly": false,
      "bookingUrl": "https://maps.google.com/?q=9.0440785,38.749008",
      "source": "osm"
    },
    {
      "nom": "Genet Hotel",
      "categorie": "Hôtel",
      "priceRange": "€€",
      "mapsUrl": "https://maps.google.com/?q=9.0033805,38.7478162",
      "lat": 9.0033805,
      "lng": 38.7478162,
      "halalFriendly": false,
      "bookingUrl": "https://maps.google.com/?q=9.0033805,38.7478162",
      "source": "osm"
    },
    {
      "nom": "Abel rosa home",
      "categorie": "Appartement",
      "priceRange": "€€",
      "mapsUrl": "https://maps.google.com/?q=9.016733,38.7666244",
      "lat": 9.016733,
      "lng": 38.7666244,
      "halalFriendly": false,
      "bookingUrl": "https://maps.google.com/?q=9.016733,38.7666244",
      "source": "osm"
    },
    {
      "nom": "Dessie Hotel",
      "categorie": "Hôtel",
      "priceRange": "€€",
      "mapsUrl": "https://maps.google.com/?q=9.0071351,38.73429",
      "lat": 9.0071351,
      "lng": 38.73429,
      "halalFriendly": false,
      "bookingUrl": "https://maps.google.com/?q=9.0071351,38.73429",
      "source": "osm"
    },
    {
      "nom": "Nafyad Hotel",
      "categorie": "Auberge",
      "priceRange": "€€",
      "mapsUrl": "https://maps.google.com/?q=9.045,38.74794",
      "lat": 9.045,
      "lng": 38.74794,
      "halalFriendly": false,
      "bookingUrl": "https://maps.google.com/?q=9.045,38.74794",
      "source": "osm"
    },
    {
      "nom": "Kirkos health Center",
      "categorie": "Appartement",
      "priceRange": "€€",
      "mapsUrl": "https://maps.google.com/?q=9.0029454,38.7484372",
      "lat": 9.0029454,
      "lng": 38.7484372,
      "halalFriendly": false,
      "bookingUrl": "https://maps.google.com/?q=9.0029454,38.7484372",
      "source": "osm"
    },
    {
      "nom": "Menahereya",
      "categorie": "Hôtel",
      "priceRange": "€€",
      "mapsUrl": "https://maps.google.com/?q=9.0197316,38.7679356",
      "lat": 9.0197316,
      "lng": 38.7679356,
      "halalFriendly": false,
      "bookingUrl": "https://maps.google.com/?q=9.0197316,38.7679356",
      "source": "osm"
    },
    {
      "nom": "Hana’s home",
      "categorie": "Appartement",
      "priceRange": "€€",
      "mapsUrl": "https://maps.google.com/?q=9.0452343,38.7492274",
      "lat": 9.0452343,
      "lng": 38.7492274,
      "halalFriendly": false,
      "bookingUrl": "https://maps.google.com/?q=9.0452343,38.7492274",
      "source": "osm"
    },
    {
      "nom": "Quara Hotel",
      "categorie": "Hôtel",
      "priceRange": "€€",
      "mapsUrl": "https://maps.google.com/?q=9.017716,38.7679462",
      "lat": 9.017716,
      "lng": 38.7679462,
      "halalFriendly": false,
      "bookingUrl": "https://maps.google.com/?q=9.017716,38.7679462",
      "source": "osm"
    },
    {
      "nom": "Life Pension No 2",
      "categorie": "Maison d'hôtes",
      "priceRange": "€€",
      "mapsUrl": "https://maps.google.com/?q=9.045095,38.7415136",
      "lat": 9.045095,
      "lng": 38.7415136,
      "halalFriendly": false,
      "bookingUrl": "https://maps.google.com/?q=9.045095,38.7415136",
      "source": "osm"
    },
    {
      "nom": "Tossa terara Hotel",
      "categorie": "Hôtel",
      "priceRange": "€€",
      "mapsUrl": "https://maps.google.com/?q=9.0178338,38.7680518",
      "lat": 9.0178338,
      "lng": 38.7680518,
      "halalFriendly": false,
      "bookingUrl": "https://maps.google.com/?q=9.0178338,38.7680518",
      "source": "osm"
    },
    {
      "nom": "Meaza cafe መአዛ ካፌ",
      "categorie": "Maison d'hôtes",
      "priceRange": "€€",
      "mapsUrl": "https://maps.google.com/?q=9.00395,38.7559791",
      "lat": 9.00395,
      "lng": 38.7559791,
      "halalFriendly": false,
      "bookingUrl": "https://maps.google.com/?q=9.00395,38.7559791",
      "source": "osm"
    },
    {
      "nom": "Radisson Blu",
      "categorie": "Hôtel",
      "priceRange": "€€",
      "mapsUrl": "https://maps.google.com/?q=9.0161874,38.7677476",
      "lat": 9.0161874,
      "lng": 38.7677476,
      "halalFriendly": false,
      "bookingUrl": "https://www.radissonblu.com/hotel-addisababa",
      "source": "osm"
    },
    {
      "nom": "Marriott Executive Apartments",
      "categorie": "Hôtel",
      "priceRange": "€€",
      "mapsUrl": "https://maps.google.com/?q=9.0104391,38.7649452",
      "lat": 9.0104391,
      "lng": 38.7649452,
      "halalFriendly": false,
      "bookingUrl": "https://maps.google.com/?q=9.0104391,38.7649452",
      "source": "osm"
    },
    {
      "nom": "A As pension",
      "categorie": "Maison d'hôtes",
      "priceRange": "€€",
      "mapsUrl": "https://maps.google.com/?q=9.0464405,38.7473561",
      "lat": 9.0464405,
      "lng": 38.7473561,
      "halalFriendly": false,
      "bookingUrl": "https://maps.google.com/?q=9.0464405,38.7473561",
      "source": "osm"
    },
    {
      "nom": "Jupiter International Hotel (Kazanchis)",
      "categorie": "Hôtel",
      "priceRange": "€€€€",
      "score": 4,
      "mapsUrl": "https://maps.google.com/?q=9.0161496,38.7682201",
      "lat": 9.0161496,
      "lng": 38.7682201,
      "halalFriendly": false,
      "bookingUrl": "https://www.jupiterinternationalhotel.com/",
      "source": "osm"
    },
    {
      "nom": "Lele pension",
      "categorie": "Maison d'hôtes",
      "priceRange": "€€",
      "mapsUrl": "https://maps.google.com/?q=9.0466195,38.7470306",
      "lat": 9.0466195,
      "lng": 38.7470306,
      "halalFriendly": false,
      "bookingUrl": "https://maps.google.com/?q=9.0466195,38.7470306",
      "source": "osm"
    },
    {
      "nom": "Jerusalem Hotel",
      "categorie": "Hôtel",
      "priceRange": "€€",
      "score": 2,
      "mapsUrl": "https://maps.google.com/?q=9.0462938,38.7424985",
      "lat": 9.0462938,
      "lng": 38.7424985,
      "halalFriendly": false,
      "bookingUrl": "https://maps.google.com/?q=9.0462938,38.7424985",
      "source": "osm"
    },
    {
      "nom": "ብሉም ታወር - አፓርታማ",
      "categorie": "Maison d'hôtes",
      "priceRange": "€€",
      "mapsUrl": "https://maps.google.com/?q=9.0161614,38.7685054",
      "lat": 9.0161614,
      "lng": 38.7685054,
      "halalFriendly": false,
      "bookingUrl": "https://maps.google.com/?q=9.0161614,38.7685054",
      "source": "osm"
    },
    {
      "nom": "Intercontinental Bistro and Long Term Appartments",
      "categorie": "Hôtel",
      "priceRange": "€€",
      "mapsUrl": "https://maps.google.com/?q=9.0160978,38.7685223",
      "lat": 9.0160978,
      "lng": 38.7685223,
      "halalFriendly": false,
      "bookingUrl": "https://maps.google.com/?q=9.0160978,38.7685223",
      "source": "osm"
    },
    {
      "nom": "Hale lu ya home",
      "categorie": "Appartement",
      "priceRange": "€€",
      "mapsUrl": "https://maps.google.com/?q=9.0469629,38.7472145",
      "lat": 9.0469629,
      "lng": 38.7472145,
      "halalFriendly": false,
      "bookingUrl": "https://maps.google.com/?q=9.0469629,38.7472145",
      "source": "osm"
    },
    {
      "nom": "Edna Addis",
      "categorie": "Hôtel",
      "priceRange": "€€",
      "mapsUrl": "https://maps.google.com/?q=9.0200005,38.7700005",
      "lat": 9.0200005,
      "lng": 38.7700005,
      "halalFriendly": false,
      "bookingUrl": "https://maps.google.com/?q=9.0200005,38.7700005",
      "source": "osm"
    },
    {
      "nom": "ETT Guesthouse",
      "categorie": "Maison d'hôtes",
      "priceRange": "€€",
      "mapsUrl": "https://maps.google.com/?q=9.0154207,38.7687867",
      "lat": 9.0154207,
      "lng": 38.7687867,
      "halalFriendly": false,
      "bookingUrl": "https://maps.google.com/?q=9.0154207,38.7687867",
      "source": "osm"
    },
    {
      "nom": "Abel rosa home correct",
      "categorie": "Appartement",
      "priceRange": "€€",
      "mapsUrl": "https://maps.google.com/?q=9.0258499,38.7704068",
      "lat": 9.0258499,
      "lng": 38.7704068,
      "halalFriendly": false,
      "bookingUrl": "https://maps.google.com/?q=9.0258499,38.7704068",
      "source": "osm"
    },
    {
      "nom": "Kazanchis Central Apartment",
      "categorie": "Appartement",
      "priceRange": "€€",
      "mapsUrl": "https://maps.google.com/?q=9.0154848,38.7691748",
      "lat": 9.0154848,
      "lng": 38.7691748,
      "halalFriendly": false,
      "bookingUrl": "https://maps.google.com/?q=9.0154848,38.7691748",
      "source": "osm"
    },
    {
      "nom": "Astara Hotel",
      "categorie": "Hôtel",
      "priceRange": "€€€€",
      "score": 4,
      "mapsUrl": "https://maps.google.com/?q=9.002994,38.7582385",
      "lat": 9.002994,
      "lng": 38.7582385,
      "halalFriendly": false,
      "bookingUrl": "https://maps.google.com/?q=9.002994,38.7582385",
      "source": "osm"
    },
    {
      "nom": "Elilly International Hotel",
      "categorie": "Hôtel",
      "priceRange": "€€",
      "mapsUrl": "https://maps.google.com/?q=9.0142532,38.7688899",
      "lat": 9.0142532,
      "lng": 38.7688899,
      "halalFriendly": false,
      "bookingUrl": "https://maps.google.com/?q=9.0142532,38.7688899",
      "source": "osm"
    },
    {
      "nom": "Intercontinental Hotel",
      "categorie": "Hôtel",
      "priceRange": "€€€€",
      "score": 5,
      "mapsUrl": "https://maps.google.com/?q=9.0154365,38.7696206",
      "lat": 9.0154365,
      "lng": 38.7696206,
      "halalFriendly": false,
      "bookingUrl": "http://www.intercontinentaladdis.com.et/",
      "source": "osm"
    },
    {
      "nom": "ሄኖክ ቤት",
      "categorie": "Appartement",
      "priceRange": "€€",
      "mapsUrl": "https://maps.google.com/?q=9.0227763,38.7224225",
      "lat": 9.0227763,
      "lng": 38.7224225,
      "halalFriendly": false,
      "bookingUrl": "https://maps.google.com/?q=9.0227763,38.7224225",
      "source": "osm"
    },
    {
      "nom": "Blue Nest Hotel",
      "categorie": "Hôtel",
      "priceRange": "€€",
      "mapsUrl": "https://maps.google.com/?q=9.0013674,38.7379307",
      "lat": 9.0013674,
      "lng": 38.7379307,
      "halalFriendly": false,
      "bookingUrl": "https://maps.google.com/?q=9.0013674,38.7379307",
      "source": "osm"
    },
    {
      "nom": "ቢ ሞር አፓርትመንት ሆቴል",
      "categorie": "Hôtel",
      "priceRange": "€€",
      "mapsUrl": "https://maps.google.com/?q=9.0093082,38.7665235",
      "lat": 9.0093082,
      "lng": 38.7665235,
      "halalFriendly": false,
      "bookingUrl": "https://maps.google.com/?q=9.0093082,38.7665235",
      "source": "osm"
    },
    {
      "nom": "Aphrodite International Hotel",
      "categorie": "Hôtel",
      "priceRange": "€€",
      "mapsUrl": "https://maps.google.com/?q=9.013673,38.7692111",
      "lat": 9.013673,
      "lng": 38.7692111,
      "halalFriendly": false,
      "bookingUrl": "https://maps.google.com/?q=9.013673,38.7692111",
      "source": "osm"
    },
    {
      "nom": "SARA AFRICA MALL",
      "categorie": "Appartement",
      "priceRange": "€€",
      "mapsUrl": "https://maps.google.com/?q=9.0162383,38.7706296",
      "lat": 9.0162383,
      "lng": 38.7706296,
      "halalFriendly": false,
      "bookingUrl": "https://maps.google.com/?q=9.0162383,38.7706296",
      "source": "osm"
    },
    {
      "nom": "ታደሰ ቸኮል building",
      "categorie": "Appartement",
      "priceRange": "€€",
      "mapsUrl": "https://maps.google.com/?q=9.0482524,38.7411985",
      "lat": 9.0482524,
      "lng": 38.7411985,
      "halalFriendly": false,
      "bookingUrl": "https://maps.google.com/?q=9.0482524,38.7411985",
      "source": "osm"
    },
    {
      "nom": "Garad condominiums",
      "categorie": "Appartement",
      "priceRange": "€€",
      "mapsUrl": "https://maps.google.com/?q=9.0191766,38.7716678",
      "lat": 9.0191766,
      "lng": 38.7716678,
      "halalFriendly": false,
      "bookingUrl": "https://maps.google.com/?q=9.0191766,38.7716678",
      "source": "osm"
    },
    {
      "nom": "Aseb Qestedamena Hotel",
      "categorie": "Hôtel",
      "priceRange": "€€",
      "mapsUrl": "https://maps.google.com/?q=9.0157212,38.7707264",
      "lat": 9.0157212,
      "lng": 38.7707264,
      "halalFriendly": false,
      "bookingUrl": "https://maps.google.com/?q=9.0157212,38.7707264",
      "source": "osm"
    },
    {
      "nom": "Afro Legacy Hotel",
      "categorie": "Hôtel",
      "priceRange": "€€",
      "mapsUrl": "https://maps.google.com/?q=9.0002722,38.7388927",
      "lat": 9.0002722,
      "lng": 38.7388927,
      "halalFriendly": false,
      "bookingUrl": "https://maps.google.com/?q=9.0002722,38.7388927",
      "source": "osm"
    }
  ],
  "activites": [
    {
      "nom": "Mosquée Anwar",
      "categorie": "Religieux & Spirituel",
      "description": "Plus grande et plus ancienne mosquée de la ville",
      "duree": "1h",
      "prix": "Gratuit",
      "mapsUrl": "https://maps.google.com/?q=Mosqu%C3%A9e+Anwar+Addis-Abeba",
      "tripadvisorUrl": "https://www.tripadvisor.fr/Search?q=Mosqu%C3%A9e+Anwar+Addis-Abeba",
      "id": "a1"
    },
    {
      "nom": "Marché Merkato",
      "categorie": "Shopping & Souks",
      "description": "L'un des plus grands marchés à ciel ouvert d'Afrique",
      "duree": "2h",
      "prix": "Gratuit",
      "mapsUrl": "https://maps.google.com/?q=March%C3%A9+Merkato+Addis-Abeba",
      "tripadvisorUrl": "https://www.tripadvisor.fr/Search?q=March%C3%A9+Merkato+Addis-Abeba",
      "id": "a2"
    },
    {
      "nom": "Musée national (Lucy)",
      "categorie": "Art & Musées",
      "description": "Fossile de Lucy et préhistoire humaine",
      "duree": "2h",
      "prix": "€",
      "mapsUrl": "https://maps.google.com/?q=Mus%C3%A9e+national+%28Lucy%29+Addis-Abeba",
      "tripadvisorUrl": "https://www.tripadvisor.fr/Search?q=Mus%C3%A9e+national+%28Lucy%29+Addis-Abeba",
      "id": "a3"
    },
    {
      "nom": "Mont Entoto",
      "categorie": "Nature & Aventure",
      "description": "Belvédère et forêts d'eucalyptus au-dessus de la ville",
      "duree": "Demi-journée",
      "prix": "€",
      "mapsUrl": "https://maps.google.com/?q=Mont+Entoto+Addis-Abeba",
      "tripadvisorUrl": "https://www.tripadvisor.fr/Search?q=Mont+Entoto+Addis-Abeba",
      "id": "a4"
    },
    {
      "nom": "Cérémonie du café éthiopien",
      "categorie": "Gastronomie",
      "description": "Rituel ancestral du café, berceau de la boisson",
      "duree": "1h",
      "prix": "€",
      "mapsUrl": "https://maps.google.com/?q=C%C3%A9r%C3%A9monie+du+caf%C3%A9+%C3%A9thiopien+Addis-Abeba",
      "tripadvisorUrl": "https://www.tripadvisor.fr/Search?q=C%C3%A9r%C3%A9monie+du+caf%C3%A9+%C3%A9thiopien+Addis-Abeba",
      "id": "a5"
    },
    {
      "nom": "Place Meskel",
      "categorie": "Histoire & Culture",
      "description": "Grande esplanade des cérémonies nationales",
      "duree": "1h",
      "prix": "Gratuit",
      "mapsUrl": "https://maps.google.com/?q=Place+Meskel+Addis-Abeba",
      "tripadvisorUrl": "https://www.tripadvisor.fr/Search?q=Place+Meskel+Addis-Abeba",
      "id": "a6"
    },
    {
      "nom": "Musée ethnologique",
      "categorie": "Art & Musées",
      "description": "Cultures et peuples d'Éthiopie",
      "duree": "2h",
      "prix": "€",
      "mapsUrl": "https://maps.google.com/?q=Mus%C3%A9e+ethnologique+Addis-Abeba",
      "tripadvisorUrl": "https://www.tripadvisor.fr/Search?q=Mus%C3%A9e+ethnologique+Addis-Abeba",
      "id": "a7"
    },
    {
      "nom": "Siège de l'Union africaine",
      "categorie": "Histoire & Culture",
      "description": "Cœur diplomatique du continent",
      "duree": "1h",
      "prix": "Gratuit",
      "mapsUrl": "https://maps.google.com/?q=Si%C3%A8ge+de+l%27Union+africaine+Addis-Abeba",
      "tripadvisorUrl": "https://www.tripadvisor.fr/Search?q=Si%C3%A8ge+de+l%27Union+africaine+Addis-Abeba",
      "id": "a8",
      "lat": 9.0007799,
      "lng": 38.7420153,
      "geocoded": true
    },
    {
      "nom": "Vieille ville de Addis-Abeba",
      "categorie": "Histoire & Culture",
      "description": "Flânerie dans les ruelles historiques et l'architecture locale.",
      "duree": "2h",
      "prix": "Gratuit",
      "mapsUrl": "https://maps.google.com/?q=Vieille+ville+de+Addis-Abeba+Addis-Abeba",
      "tripadvisorUrl": "https://www.tripadvisor.fr/Search?q=Vieille+ville+de+Addis-Abeba+Addis-Abeba",
      "id": "a9"
    },
    {
      "nom": "Grand souk de Addis-Abeba",
      "categorie": "Shopping & Souks",
      "description": "Marché traditionnel d'épices, textiles et artisanat.",
      "duree": "2h",
      "prix": "Gratuit",
      "mapsUrl": "https://maps.google.com/?q=Grand+souk+de+Addis-Abeba+Addis-Abeba",
      "tripadvisorUrl": "https://www.tripadvisor.fr/Search?q=Grand+souk+de+Addis-Abeba+Addis-Abeba",
      "id": "a10"
    },
    {
      "nom": "Quartier historique de Addis-Abeba",
      "categorie": "Histoire & Culture",
      "description": "Découverte du cœur ancien de la ville, architecture et ambiance locale.",
      "duree": "2h",
      "prix": "Gratuit",
      "mapsUrl": "https://maps.google.com/?q=Quartier+historique+de+Addis-Abeba+Addis-Abeba",
      "tripadvisorUrl": "https://www.tripadvisor.fr/Search?q=Quartier+historique+de+Addis-Abeba+Addis-Abeba",
      "meilleureEpoque": "Hiver",
      "idealPour": [
        "famille",
        "couple",
        "solo"
      ],
      "conseil": "Venez tôt le matin pour profiter du calme et éviter la foule.",
      "id": "a11"
    },
    {
      "nom": "Grand marché central de Addis-Abeba",
      "categorie": "Shopping & Souks",
      "description": "Marché traditionnel d'épices, textiles et artisanat local.",
      "duree": "2h",
      "prix": "Gratuit",
      "mapsUrl": "https://maps.google.com/?q=Grand+march%C3%A9+central+de+Addis-Abeba+Addis-Abeba",
      "tripadvisorUrl": "https://www.tripadvisor.fr/Search?q=Grand+march%C3%A9+central+de+Addis-Abeba+Addis-Abeba",
      "meilleureEpoque": "Toute l'année",
      "idealPour": [
        "famille",
        "couple",
        "solo"
      ],
      "conseil": "Venez tôt le matin pour profiter du calme et éviter la foule.",
      "id": "a12"
    },
    {
      "nom": "Promenade au bord de l'eau de Addis-Abeba",
      "categorie": "Nature & Aventure",
      "description": "Balade au coucher du soleil le long du front d'eau.",
      "duree": "1-2h",
      "prix": "Gratuit",
      "mapsUrl": "https://maps.google.com/?q=Promenade+au+bord+de+l%27eau+de+Addis-Abeba+Addis-Abeba",
      "tripadvisorUrl": "https://www.tripadvisor.fr/Search?q=Promenade+au+bord+de+l%27eau+de+Addis-Abeba+Addis-Abeba",
      "meilleureEpoque": "Été",
      "idealPour": [
        "famille",
        "groupe",
        "couple"
      ],
      "conseil": "Venez tôt le matin pour profiter du calme et éviter la foule.",
      "id": "a13"
    },
    {
      "nom": "Musée de la ville de Addis-Abeba",
      "categorie": "Art & Musées",
      "description": "Collections retraçant l'histoire et la culture islamique locale.",
      "duree": "2h",
      "prix": "€",
      "mapsUrl": "https://maps.google.com/?q=Mus%C3%A9e+de+la+ville+de+Addis-Abeba+Addis-Abeba",
      "tripadvisorUrl": "https://www.tripadvisor.fr/Search?q=Mus%C3%A9e+de+la+ville+de+Addis-Abeba+Addis-Abeba",
      "meilleureEpoque": "Été",
      "idealPour": [
        "famille",
        "couple",
        "solo"
      ],
      "conseil": "Venez tôt le matin pour profiter du calme et éviter la foule.",
      "id": "a14"
    },
    {
      "nom": "Food tour halal de Addis-Abeba",
      "categorie": "Gastronomie",
      "description": "Parcours des meilleures adresses de street food halal avec un guide.",
      "duree": "3h",
      "prix": "€€",
      "mapsUrl": "https://maps.google.com/?q=Food+tour+halal+de+Addis-Abeba+Addis-Abeba",
      "tripadvisorUrl": "https://www.tripadvisor.fr/Search?q=Food+tour+halal+de+Addis-Abeba+Addis-Abeba",
      "meilleureEpoque": "Hiver",
      "idealPour": [
        "famille",
        "couple",
        "solo"
      ],
      "conseil": "Venez tôt le matin pour profiter du calme et éviter la foule.",
      "id": "a15"
    }
  ],
  "mosqueesPrincipales": [
    {
      "nom": "Dewam Mosque",
      "lat": 9.0151244,
      "lng": 38.7869947,
      "coordonnees": {
        "lat": 9.0151244,
        "lng": 38.7869947
      },
      "mapsUrl": "https://maps.google.com/?q=9.0151244,38.7869947",
      "source": "osm"
    },
    {
      "nom": "Tero Mosque",
      "lat": 9.0503057,
      "lng": 38.7053532,
      "coordonnees": {
        "lat": 9.0503057,
        "lng": 38.7053532
      },
      "mapsUrl": "https://maps.google.com/?q=9.0503057,38.7053532",
      "source": "osm"
    },
    {
      "nom": "Huda Masjid",
      "lat": 8.9742746,
      "lng": 38.7319735,
      "coordonnees": {
        "lat": 8.9742746,
        "lng": 38.7319735
      },
      "adresse": "Qore street",
      "mapsUrl": "https://maps.google.com/?q=8.9742746,38.7319735",
      "source": "osm"
    },
    {
      "nom": "Prayer Room For Females",
      "lat": 8.9837497,
      "lng": 38.7970478,
      "coordonnees": {
        "lat": 8.9837497,
        "lng": 38.7970478
      },
      "mapsUrl": "https://maps.google.com/?q=8.9837497,38.7970478",
      "source": "osm"
    },
    {
      "nom": "Prayer Room for Males",
      "lat": 8.9837713,
      "lng": 38.7971333,
      "coordonnees": {
        "lat": 8.9837713,
        "lng": 38.7971333
      },
      "mapsUrl": "https://maps.google.com/?q=8.9837713,38.7971333",
      "source": "osm"
    },
    {
      "nom": "Mosque",
      "lat": 8.9888256,
      "lng": 38.6925036,
      "coordonnees": {
        "lat": 8.9888256,
        "lng": 38.6925036
      },
      "mapsUrl": "https://maps.google.com/?q=8.9888256,38.6925036",
      "source": "osm"
    },
    {
      "nom": "አንቢያእ መስጅድ",
      "lat": 8.9916352,
      "lng": 38.8295162,
      "coordonnees": {
        "lat": 8.9916352,
        "lng": 38.8295162
      },
      "mapsUrl": "https://maps.google.com/?q=8.9916352,38.8295162",
      "source": "osm"
    },
    {
      "nom": "ሰዒድ ያሲን መስጂድ",
      "lat": 8.951934,
      "lng": 38.6952669,
      "coordonnees": {
        "lat": 8.951934,
        "lng": 38.6952669
      },
      "mapsUrl": "https://maps.google.com/?q=8.951934,38.6952669",
      "source": "osm"
    },
    {
      "nom": "Kality-Hamza Mosque",
      "lat": 8.9038919,
      "lng": 38.7655871,
      "coordonnees": {
        "lat": 8.9038919,
        "lng": 38.7655871
      },
      "mapsUrl": "https://maps.google.com/?q=8.9038919,38.7655871",
      "source": "osm"
    },
    {
      "nom": "Nesir Mosque",
      "lat": 8.8958989,
      "lng": 38.7731947,
      "coordonnees": {
        "lat": 8.8958989,
        "lng": 38.7731947
      },
      "adresse": "Addis Ababa",
      "mapsUrl": "https://maps.google.com/?q=8.8958989,38.7731947",
      "source": "osm"
    },
    {
      "nom": "Harun Arashid Mosque",
      "lat": 8.8843776,
      "lng": 38.7798336,
      "coordonnees": {
        "lat": 8.8843776,
        "lng": 38.7798336
      },
      "adresse": "Akaki Kality sub-city, Addis Ababa",
      "mapsUrl": "https://maps.google.com/?q=8.8843776,38.7798336",
      "source": "osm"
    }
  ],
  "tags": [
    "corne-afrique",
    "altitude",
    "cafe",
    "merkato",
    "histoire-islamique",
    "culture"
  ],
  "selectionsPremium": {
    "mieuxNotes": [
      "Chez Teranga",
      "Maison Baobab Addis-Abeba 9",
      "Maison Baobab",
      "Sahel Grill Addis-Abeba 10",
      "Saffron Garden Addis-Abeba"
    ],
    "meilleurRapportQualitePrix": [
      "Yod Abyssinia",
      "Kategna Restaurant",
      "Mama's Kitchen",
      "Sishu",
      "Al Nour Restaurant"
    ],
    "incontournables": [
      "Sahel Grill Addis-Abeba 10",
      "Maison Baobab",
      "Chez Teranga",
      "Sahel Grill",
      "Spice Darbar"
    ],
    "pepitesCachees": [
      "Yod Abyssinia",
      "Kategna Restaurant",
      "Mama's Kitchen"
    ],
    "idealFamille": [
      "Chez Teranga",
      "Maison Baobab",
      "Sahel Grill",
      "Beit Cham",
      "Jollof House"
    ],
    "gastronomique": [
      "Saffron Garden Addis-Abeba"
    ],
    "ouvertNuit": [
      "Chez Teranga",
      "Sahel Grill",
      "Beit Cham"
    ],
    "vueExceptionnelle": [
      "Chez Teranga",
      "Maison Baobab Addis-Abeba 9",
      "Maison Baobab"
    ]
  },
  "description_en": "Addis-Abeba, in Ethiopia, is a halal-friendly destination with a Halal Trust Score of 3.8/5. Muslim travelers will find 750 halal restaurants, 500 mosques, real-time prayer times and the Qibla direction — a complete guide to travel with peace of mind.",
  "metaDescription_en": "Halal guide to Addis-Abeba: 750+ halal restaurants, 500 mosques, prayer times and tips for Muslim travelers. Halal Trust Score 3.8/5.",
  "nom_en": "Addis-Abeba",
  "boucheries": []
}