{
  "nom": "Alexandrie",
  "pays": "Égypte",
  "slug": "alexandrie",
  "image": "https://images.unsplash.com/photo-1708481686679-1bfebe1afefc?w=1600&q=80",
  "image_hero": "https://images.unsplash.com/photo-1708481686679-1bfebe1afefc?w=1600&q=80",
  "description": "Alexandrie, la perle méditerranéenne d'Égypte, marie héritage antique, corniche balnéaire et fruits de mer. La Bibliotheca et la citadelle de Qaitbay veillent sur la baie.",
  "descriptionLongue": "Fondée par Alexandre le Grand, Alexandrie fut un phare de la connaissance antique. Aujourd'hui, sa corniche de 15 km, ses cafés historiques et ses fruits de mer en font une échappée méditerranéenne prisée des Égyptiens. La Bibliotheca Alexandrina moderne ravive l'esprit de l'ancienne bibliothèque, tandis que la citadelle de Qaitbay s'élève sur le site de l'antique phare. Cuisine de poisson généreuse et atmosphère détendue, dans une grande ville musulmane.",
  "halalScore": 8.3,
  "score_halal": 4.2,
  "mosquees": 2000,
  "population": "5,4 millions",
  "langue": "Arabe",
  "monnaie": "Livre égyptienne (EGP)",
  "fuseau": "UTC+2",
  "meilleureEpoque": "Mars à Mai, Sept à Nov",
  "prixMoyenNuit": "55€",
  "continent": "Afrique",
  "codeISO": "EG",
  "pays_slug": "egypte",
  "region": "Côte méditerranéenne",
  "meta_title": "Voyage Halal à Alexandrie — Guide Complet 2026",
  "meta_description": "Restaurants halal signalés, mosquées et guide pratique pour Alexandrie — Halal Trust Score 8.8/10.",
  "metaDescription": "Restaurants halal signalés, mosquées et guide pratique pour Alexandrie — Halal Trust Score 8.8/10.",
  "coordonnees": {
    "lat": 31.2001,
    "lng": 29.9187
  },
  "image_alt": "Vue de Alexandrie, Égypte",
  "statistiques": {
    "mosquees": 2000,
    "restaurants_halal": 800,
    "habitants_musulmans_pct": 95,
    "hotels": 66
  },
  "infos_pratiques": {
    "langue": "Arabe",
    "monnaie": "Livre égyptienne (EGP)",
    "meilleure_periode": "Mars à Mai, Sept à Nov",
    "appel_priere": "5 fois par jour",
    "nourriture_halal": "Largement disponible",
    "alcool": "Très réglementé",
    "securite": "Précautions habituelles"
  },
  "infoPratique": {
    "visa": "e-Visa égyptien ou visa à l'arrivée",
    "vaccins": "Aucun obligatoire",
    "transport": "Tramway historique, taxis, microbus, train depuis Le Caire",
    "priseElectrique": "Type C/F — 220V",
    "decalageHoraire": "+1h par rapport à Paris (hiver)"
  },
  "restaurants": [
    {
      "nom": "Tikka Grill",
      "type": "Indien & Pakistani",
      "certificationHalal": true,
      "score": 4.4,
      "adresse": "Alexandrie",
      "description": "Grillades vue mer Méditerranée à Alexandrie.",
      "mapsUrl": "https://maps.google.com/?q=Tikka+Grill+Alexandrie",
      "priceRange": "€€",
      "specialite": "Grillades vue mer méditerranée",
      "nombreAvis": 1308,
      "ouvertureRamadan": true,
      "livraison": true,
      "reservationRequise": false,
      "tags": [
        "familial",
        "livraison",
        "local-authentique"
      ],
      "id": "r1",
      "lat": 31.1991806,
      "lng": 29.8951716,
      "geocoded": true
    },
    {
      "nom": "Qahwa Restaurant",
      "type": "Pâtisserie & Café",
      "certificationHalal": true,
      "score": 4.3,
      "adresse": "Alexandrie",
      "description": "Café historique à Alexandrie.",
      "mapsUrl": "https://maps.google.com/?q=Qahwa+Restaurant+Alexandrie",
      "priceRange": "€€",
      "specialite": "Café historique",
      "nombreAvis": 715,
      "ouvertureRamadan": true,
      "livraison": true,
      "reservationRequise": false,
      "tags": [
        "a-emporter",
        "calme",
        "familial",
        "livraison"
      ],
      "id": "r2",
      "lat": 31.1991806,
      "lng": 29.8951716,
      "geocoded": true
    },
    {
      "nom": "Kadoura Fish",
      "type": "Fruits de mer",
      "certificationHalal": true,
      "score": 4.5,
      "adresse": "Alexandrie",
      "description": "Poissons légendaires depuis 1967 à Alexandrie.",
      "mapsUrl": "https://maps.google.com/?q=Kadoura+Fish+Alexandrie",
      "priceRange": "€€",
      "specialite": "Poissons légendaires depuis 1967",
      "nombreAvis": 1293,
      "ouvertureRamadan": true,
      "livraison": false,
      "reservationRequise": false,
      "tags": [
        "familial",
        "vue-mer"
      ],
      "id": "r3",
      "lat": 31.1991806,
      "lng": 29.8951716,
      "geocoded": true
    },
    {
      "nom": "Zephyrion Abu Qir",
      "type": "Fruits de mer",
      "certificationHalal": true,
      "score": 4.2,
      "adresse": "Alexandrie",
      "description": "Poissons bord de mer Abu Qir à Alexandrie.",
      "mapsUrl": "https://maps.google.com/?q=Zephyrion+Abu+Qir+Alexandrie",
      "priceRange": "€€",
      "specialite": "Poissons bord de mer abu qir",
      "nombreAvis": 56,
      "ouvertureRamadan": true,
      "livraison": true,
      "reservationRequise": false,
      "tags": [
        "familial",
        "livraison",
        "vue-mer"
      ],
      "id": "r4",
      "lat": 31.1991806,
      "lng": 29.8951716,
      "geocoded": true
    },
    {
      "nom": "Trianon",
      "type": "Cuisine française",
      "certificationHalal": true,
      "score": 4.3,
      "adresse": "Alexandrie",
      "description": "Brasserie 1905, historique halal à Alexandrie.",
      "mapsUrl": "https://maps.google.com/?q=Trianon+Alexandrie",
      "priceRange": "€€",
      "specialite": "Brasserie 1905",
      "nombreAvis": 1168,
      "ouvertureRamadan": true,
      "livraison": true,
      "reservationRequise": false,
      "tags": [
        "familial",
        "livraison"
      ],
      "id": "r5",
      "lat": 31.1991806,
      "lng": 29.8951716,
      "geocoded": true
    },
    {
      "nom": "Elite Restaurant",
      "type": "Égyptien",
      "certificationHalal": true,
      "score": 4.3,
      "adresse": "Alexandrie",
      "description": "Club british halal à Alexandrie.",
      "mapsUrl": "https://maps.google.com/?q=Elite+Restaurant+Alexandrie",
      "priceRange": "€€",
      "specialite": "Club british halal",
      "nombreAvis": 802,
      "ouvertureRamadan": true,
      "livraison": true,
      "reservationRequise": false,
      "tags": [
        "familial",
        "livraison"
      ],
      "id": "r6",
      "lat": 31.1991806,
      "lng": 29.8951716,
      "geocoded": true
    },
    {
      "nom": "Grand Café",
      "type": "Cuisine française",
      "certificationHalal": true,
      "score": 4.3,
      "adresse": "Alexandrie",
      "description": "Colonial halal à Alexandrie.",
      "mapsUrl": "https://maps.google.com/?q=Grand+Caf%C3%A9+Alexandrie",
      "priceRange": "€€",
      "specialite": "Colonial halal",
      "nombreAvis": 118,
      "ouvertureRamadan": true,
      "livraison": true,
      "reservationRequise": false,
      "tags": [
        "familial",
        "livraison"
      ],
      "id": "r7",
      "lat": 31.1991806,
      "lng": 29.8951716,
      "geocoded": true
    },
    {
      "nom": "Santa Lucia",
      "type": "Pizza & Italien",
      "certificationHalal": true,
      "score": 4.2,
      "adresse": "Alexandrie",
      "description": "Italien halal à Alexandrie.",
      "mapsUrl": "https://maps.google.com/?q=Santa+Lucia+Alexandrie",
      "priceRange": "€€",
      "specialite": "Italien halal",
      "nombreAvis": 481,
      "ouvertureRamadan": true,
      "livraison": true,
      "reservationRequise": false,
      "tags": [
        "familial",
        "livraison",
        "rapide"
      ],
      "id": "r8",
      "lat": 31.1991806,
      "lng": 29.8951716,
      "geocoded": true
    },
    {
      "nom": "Délices Alexandria",
      "type": "Pâtisserie & Café",
      "certificationHalal": true,
      "score": 4.6,
      "adresse": "Alexandrie",
      "description": "Pâtisseries historiques à Alexandrie.",
      "mapsUrl": "https://maps.google.com/?q=D%C3%A9lices+Alexandria+Alexandrie",
      "priceRange": "€€",
      "specialite": "Pâtisseries historiques",
      "nombreAvis": 1758,
      "ouvertureRamadan": true,
      "livraison": true,
      "reservationRequise": false,
      "tags": [
        "a-emporter",
        "calme",
        "familial",
        "livraison"
      ],
      "id": "r9",
      "lat": 31.1991806,
      "lng": 29.8951716,
      "geocoded": true
    },
    {
      "nom": "La Fontaine Restaurant",
      "type": "Cuisine française",
      "certificationHalal": true,
      "score": 4.4,
      "adresse": "Alexandrie",
      "description": "Français halal à Alexandrie.",
      "mapsUrl": "https://maps.google.com/?q=La+Fontaine+Restaurant+Alexandrie",
      "priceRange": "€€",
      "specialite": "Français halal",
      "nombreAvis": 678,
      "ouvertureRamadan": true,
      "livraison": true,
      "reservationRequise": false,
      "tags": [
        "familial",
        "livraison"
      ],
      "id": "r10",
      "lat": 31.1991806,
      "lng": 29.8951716,
      "geocoded": true
    },
    {
      "nom": "Samakmak",
      "type": "Fruits de mer",
      "certificationHalal": true,
      "score": 4.8,
      "adresse": "Alexandrie",
      "description": "Poissons de la corniche à Alexandrie.",
      "mapsUrl": "https://maps.google.com/?q=Samakmak+Alexandrie",
      "priceRange": "€€",
      "specialite": "Poissons de la corniche",
      "nombreAvis": 86,
      "ouvertureRamadan": true,
      "livraison": true,
      "reservationRequise": false,
      "tags": [
        "familial",
        "livraison",
        "vue-mer"
      ],
      "id": "r11",
      "lat": 31.1991806,
      "lng": 29.8951716,
      "geocoded": true
    },
    {
      "nom": "Fish Market Alex",
      "type": "Fruits de mer",
      "certificationHalal": true,
      "score": 4.3,
      "adresse": "Alexandrie",
      "description": "Marché de poissons à Alexandrie.",
      "mapsUrl": "https://maps.google.com/?q=Fish+Market+Alex+Alexandrie",
      "priceRange": "€€",
      "specialite": "Marché de poissons",
      "nombreAvis": 535,
      "ouvertureRamadan": true,
      "livraison": false,
      "reservationRequise": false,
      "tags": [
        "familial",
        "vue-mer"
      ],
      "id": "r12",
      "lat": 31.1991806,
      "lng": 29.8951716,
      "geocoded": true
    },
    {
      "nom": "Bahr Restaurant",
      "type": "Égyptien",
      "certificationHalal": true,
      "score": 4.3,
      "adresse": "Alexandrie",
      "description": "Sea restaurant à Alexandrie.",
      "mapsUrl": "https://maps.google.com/?q=Bahr+Restaurant+Alexandrie",
      "priceRange": "€€",
      "specialite": "Sea restaurant",
      "nombreAvis": 1110,
      "ouvertureRamadan": true,
      "livraison": true,
      "reservationRequise": false,
      "tags": [
        "familial",
        "livraison"
      ],
      "id": "r13",
      "lat": 31.1991806,
      "lng": 29.8951716,
      "geocoded": true
    },
    {
      "nom": "Hana Korean BBQ",
      "type": "Japonais & Asiatique",
      "certificationHalal": true,
      "score": 4.4,
      "adresse": "Alexandrie",
      "description": "Coréen halal à Alexandrie.",
      "mapsUrl": "https://maps.google.com/?q=Hana+Korean+BBQ+Alexandrie",
      "priceRange": "€€",
      "specialite": "Coréen halal",
      "nombreAvis": 1590,
      "ouvertureRamadan": true,
      "livraison": true,
      "reservationRequise": false,
      "tags": [
        "calme",
        "livraison",
        "touristique"
      ],
      "id": "r14",
      "lat": 31.1991806,
      "lng": 29.8951716,
      "geocoded": true
    },
    {
      "nom": "Sushi House Alex",
      "type": "Japonais & Asiatique",
      "certificationHalal": true,
      "score": 4.2,
      "adresse": "Alexandrie",
      "description": "Sushi halal à Alexandrie.",
      "mapsUrl": "https://maps.google.com/?q=Sushi+House+Alex+Alexandrie",
      "priceRange": "€€",
      "specialite": "Sushi halal",
      "nombreAvis": 874,
      "ouvertureRamadan": true,
      "livraison": true,
      "reservationRequise": false,
      "tags": [
        "calme",
        "livraison",
        "touristique"
      ],
      "id": "r15",
      "lat": 31.1991806,
      "lng": 29.8951716,
      "geocoded": true
    },
    {
      "nom": "Sealine Restaurant",
      "type": "Égyptien",
      "certificationHalal": true,
      "score": 4.5,
      "adresse": "Alexandrie",
      "description": "Front de mer à Alexandrie.",
      "mapsUrl": "https://maps.google.com/?q=Sealine+Restaurant+Alexandrie",
      "priceRange": "€€",
      "specialite": "Front de mer",
      "nombreAvis": 2430,
      "ouvertureRamadan": true,
      "livraison": true,
      "reservationRequise": false,
      "tags": [
        "familial",
        "livraison"
      ],
      "id": "r16",
      "lat": 31.1991806,
      "lng": 29.8951716,
      "geocoded": true
    },
    {
      "nom": "Sofitel Alexandria Cecil Hotel Dining",
      "type": "Gastronomique",
      "certificationHalal": true,
      "score": 4.7,
      "adresse": "Alexandrie",
      "description": "Gastronomique à Alexandrie.",
      "mapsUrl": "https://maps.google.com/?q=Sofitel+Alexandria+Cecil+Hotel+Dining+Alexandrie",
      "priceRange": "€€€€",
      "specialite": "Gastronomique",
      "nombreAvis": 3437,
      "ouvertureRamadan": true,
      "livraison": false,
      "reservationRequise": true,
      "tags": [
        "calme",
        "reservation-requise",
        "romantique"
      ],
      "id": "r17",
      "lat": 31.1991806,
      "lng": 29.8951716,
      "geocoded": true
    },
    {
      "nom": "Sheraton Montazah Restaurant",
      "type": "Égyptien",
      "certificationHalal": true,
      "score": 4.8,
      "adresse": "Alexandrie",
      "description": "Palace à Alexandrie.",
      "mapsUrl": "https://maps.google.com/?q=Sheraton+Montazah+Restaurant+Alexandrie",
      "priceRange": "€€€€",
      "specialite": "Palace",
      "nombreAvis": 1754,
      "ouvertureRamadan": true,
      "livraison": false,
      "reservationRequise": true,
      "tags": [
        "familial"
      ],
      "id": "r18",
      "lat": 31.1991806,
      "lng": 29.8951716,
      "geocoded": true
    },
    {
      "nom": "Hilton Alexandria Green Plaza",
      "type": "Gastronomique",
      "certificationHalal": true,
      "score": 4.6,
      "adresse": "Alexandrie",
      "description": "Hôtel à Alexandrie.",
      "mapsUrl": "https://maps.google.com/?q=Hilton+Alexandria+Green+Plaza+Alexandrie",
      "priceRange": "€€€€",
      "specialite": "Hôtel",
      "nombreAvis": 1426,
      "ouvertureRamadan": true,
      "livraison": true,
      "reservationRequise": true,
      "tags": [
        "calme",
        "livraison",
        "reservation-requise",
        "romantique"
      ],
      "id": "r19",
      "lat": 31.1991806,
      "lng": 29.8951716,
      "geocoded": true
    },
    {
      "nom": "Four Seasons Alex San Stefano",
      "type": "Gastronomique",
      "certificationHalal": true,
      "score": 4.1,
      "adresse": "Alexandrie",
      "description": "Ultra-luxe à Alexandrie.",
      "mapsUrl": "https://maps.google.com/?q=Four+Seasons+Alex+San+Stefano+Alexandrie",
      "priceRange": "€€€€",
      "specialite": "Ultra-luxe",
      "nombreAvis": 595,
      "ouvertureRamadan": true,
      "livraison": true,
      "reservationRequise": true,
      "tags": [
        "calme",
        "livraison",
        "reservation-requise",
        "romantique"
      ],
      "id": "r20",
      "lat": 31.1991806,
      "lng": 29.8951716,
      "geocoded": true
    },
    {
      "nom": "AlexBank Corniche Café",
      "type": "Pâtisserie & Café",
      "certificationHalal": true,
      "score": 4.3,
      "adresse": "Alexandrie",
      "description": "Vue mer à Alexandrie.",
      "mapsUrl": "https://maps.google.com/?q=AlexBank+Corniche+Caf%C3%A9+Alexandrie",
      "priceRange": "€€",
      "specialite": "Vue mer",
      "nombreAvis": 106,
      "ouvertureRamadan": true,
      "livraison": true,
      "reservationRequise": false,
      "tags": [
        "a-emporter",
        "calme",
        "familial",
        "livraison"
      ],
      "id": "r21",
      "lat": 31.1991806,
      "lng": 29.8951716,
      "geocoded": true
    },
    {
      "nom": "Chez Gaby",
      "type": "Cuisine française",
      "certificationHalal": true,
      "score": 4.1,
      "adresse": "Alexandrie",
      "description": "Franco-égyptien à Alexandrie.",
      "mapsUrl": "https://maps.google.com/?q=Chez+Gaby+Alexandrie",
      "priceRange": "€",
      "specialite": "Franco-égyptien",
      "nombreAvis": 1198,
      "ouvertureRamadan": true,
      "livraison": false,
      "reservationRequise": false,
      "tags": [
        "familial",
        "rapide"
      ],
      "id": "r22",
      "lat": 31.1991806,
      "lng": 29.8951716,
      "geocoded": true
    },
    {
      "nom": "L'Admiral",
      "type": "Cuisine française",
      "certificationHalal": true,
      "score": 4.1,
      "adresse": "Alexandrie",
      "description": "Brasserie navale à Alexandrie.",
      "mapsUrl": "https://maps.google.com/?q=L%27Admiral+Alexandrie",
      "priceRange": "€€",
      "specialite": "Brasserie navale",
      "nombreAvis": 1156,
      "ouvertureRamadan": true,
      "livraison": false,
      "reservationRequise": false,
      "tags": [
        "familial"
      ],
      "id": "r23",
      "lat": 31.1991806,
      "lng": 29.8951716,
      "geocoded": true
    },
    {
      "nom": "Tikka Alex",
      "type": "Libanais & Levant",
      "certificationHalal": true,
      "score": 4.6,
      "adresse": "Alexandrie",
      "description": "Grillades levant à Alexandrie.",
      "mapsUrl": "https://maps.google.com/?q=Tikka+Alex+Alexandrie",
      "priceRange": "€€",
      "specialite": "Grillades levant",
      "nombreAvis": 413,
      "ouvertureRamadan": true,
      "livraison": false,
      "reservationRequise": false,
      "tags": [
        "animé",
        "familial"
      ],
      "id": "r24",
      "lat": 31.1991806,
      "lng": 29.8951716,
      "geocoded": true
    },
    {
      "nom": "El Halabi",
      "type": "Libanais & Levant",
      "certificationHalal": true,
      "score": 4.7,
      "adresse": "Alexandrie",
      "description": "Libanais populaire à Alexandrie.",
      "mapsUrl": "https://maps.google.com/?q=El+Halabi+Alexandrie",
      "priceRange": "€",
      "specialite": "Libanais populaire",
      "nombreAvis": 1927,
      "ouvertureRamadan": true,
      "livraison": false,
      "reservationRequise": false,
      "tags": [
        "animé",
        "familial",
        "rapide"
      ],
      "id": "r25",
      "lat": 31.1991806,
      "lng": 29.8951716,
      "geocoded": true
    },
    {
      "nom": "Falafel Alexandrie",
      "type": "Libanais & Levant",
      "certificationHalal": true,
      "score": 4.6,
      "adresse": "Alexandrie",
      "description": "Végé express à Alexandrie.",
      "mapsUrl": "https://maps.google.com/?q=Falafel+Alexandrie+Alexandrie",
      "priceRange": "€",
      "specialite": "Végé express",
      "nombreAvis": 1897,
      "ouvertureRamadan": true,
      "livraison": false,
      "reservationRequise": false,
      "tags": [
        "animé",
        "familial",
        "rapide"
      ],
      "id": "r26",
      "lat": 31.1991806,
      "lng": 29.8951716,
      "geocoded": true
    },
    {
      "nom": "Pasta Roma Alex",
      "type": "Pizza & Italien",
      "certificationHalal": true,
      "score": 4.1,
      "adresse": "Alexandrie",
      "description": "Pâtes halal à Alexandrie.",
      "mapsUrl": "https://maps.google.com/?q=Pasta+Roma+Alex+Alexandrie",
      "priceRange": "€€",
      "specialite": "Pâtes halal",
      "nombreAvis": 186,
      "ouvertureRamadan": true,
      "livraison": true,
      "reservationRequise": false,
      "tags": [
        "familial",
        "livraison",
        "rapide"
      ],
      "id": "r27",
      "lat": 31.1991806,
      "lng": 29.8951716,
      "geocoded": true
    },
    {
      "nom": "Burger Alex",
      "type": "Burgers & Fast-food",
      "certificationHalal": true,
      "score": 4.6,
      "adresse": "Alexandrie",
      "description": "Burgers populaires à Alexandrie.",
      "mapsUrl": "https://maps.google.com/?q=Burger+Alex+Alexandrie",
      "priceRange": "€",
      "specialite": "Burgers populaires",
      "nombreAvis": 1361,
      "ouvertureRamadan": true,
      "livraison": true,
      "reservationRequise": false,
      "tags": [
        "a-emporter",
        "familial",
        "livraison",
        "rapide"
      ],
      "id": "r28",
      "lat": 31.1991806,
      "lng": 29.8951716,
      "geocoded": true
    },
    {
      "nom": "McDonald's Alexandria",
      "type": "Burgers & Fast-food",
      "certificationHalal": true,
      "score": 4.4,
      "adresse": "Alexandrie",
      "description": "Halal à Alexandrie.",
      "mapsUrl": "https://maps.google.com/?q=McDonald%27s+Alexandria+Alexandrie",
      "priceRange": "€€",
      "specialite": "Halal",
      "nombreAvis": 918,
      "ouvertureRamadan": true,
      "livraison": true,
      "reservationRequise": false,
      "tags": [
        "a-emporter",
        "familial",
        "livraison",
        "rapide"
      ],
      "id": "r29",
      "lat": 31.1991806,
      "lng": 29.8951716,
      "geocoded": true
    },
    {
      "nom": "KFC Alexandria",
      "type": "Burgers & Fast-food",
      "certificationHalal": true,
      "score": 4.3,
      "adresse": "Alexandrie",
      "description": "Halal à Alexandrie.",
      "mapsUrl": "https://maps.google.com/?q=KFC+Alexandria+Alexandrie",
      "priceRange": "€€",
      "specialite": "Halal",
      "nombreAvis": 1446,
      "ouvertureRamadan": true,
      "livraison": true,
      "reservationRequise": false,
      "tags": [
        "a-emporter",
        "familial",
        "livraison",
        "rapide"
      ],
      "id": "r30",
      "lat": 31.1991806,
      "lng": 29.8951716,
      "geocoded": true
    },
    {
      "nom": "علي الرايق سوري",
      "lat": 31.2057722,
      "lng": 29.9078746,
      "type": "shawarma",
      "halalConfidence": "likely",
      "mapsUrl": "https://maps.google.com/?q=31.2057722,29.9078746",
      "source": "osm"
    },
    {
      "nom": "فيروز",
      "lat": 31.199046,
      "lng": 29.9027172,
      "type": "arab",
      "halalConfidence": "high",
      "mapsUrl": "https://maps.google.com/?q=31.199046,29.9027172",
      "source": "osm"
    },
    {
      "nom": "Beef Shawerma",
      "lat": 31.2033656,
      "lng": 29.9027886,
      "type": "arab",
      "halalConfidence": "likely",
      "mapsUrl": "https://maps.google.com/?q=31.2033656,29.9027886",
      "source": "osm"
    },
    {
      "nom": "فوكاتشاريا",
      "lat": 31.1973569,
      "lng": 29.9018709,
      "type": "pizza",
      "halalConfidence": "high",
      "mapsUrl": "https://maps.google.com/?q=31.1973569,29.9018709",
      "source": "osm"
    },
    {
      "nom": "أحمد محمد فول",
      "lat": 31.2001582,
      "lng": 29.9006059,
      "type": "regional",
      "halalConfidence": "high",
      "mapsUrl": "https://maps.google.com/?q=31.2001582,29.9006059",
      "source": "osm"
    },
    {
      "nom": "مطعم بقالي",
      "lat": 31.1996707,
      "lng": 29.8985238,
      "type": "ful, falafel",
      "halalConfidence": "high",
      "mapsUrl": "https://maps.google.com/?q=31.1996707,29.8985238",
      "source": "osm"
    },
    {
      "nom": "ستوديو مصر",
      "lat": 31.2414332,
      "lng": 29.9574545,
      "type": "egyptian",
      "halalConfidence": "likely",
      "mapsUrl": "https://maps.google.com/?q=31.2414332,29.9574545",
      "source": "osm"
    },
    {
      "nom": "الحُسين",
      "lat": 31.2366874,
      "lng": 29.9689365,
      "type": "arab",
      "halalConfidence": "likely",
      "mapsUrl": "https://maps.google.com/?q=31.2366874,29.9689365",
      "source": "osm"
    }
  ],
  "hotels": [
    {
      "nom": "Steigenberger Cecil",
      "categorie": "Standard",
      "score": 4.3,
      "adresse": "Centre-ville, Alexandrie",
      "description": "Hôtel historique de 1929 face à la mer, charme d'antan.",
      "halalFriendly": true,
      "sansAlcool": false,
      "mapsUrl": "https://maps.google.com/?q=Steigenberger+Cecil+Alexandrie",
      "bookingUrl": "https://www.booking.com/searchresults.fr.html?ss=Alexandrie&label=voyageshalal",
      "halalBookingUrl": "https://www.halalbooking.com/search?city=alexandrie",
      "priceRange": "€€€",
      "id": "h2",
      "nombreAvis": 552,
      "piscineNonMixte": false,
      "salleDePreiere": true,
      "qiblaIndicateur": true,
      "petitDejeunerHalal": true,
      "services": [
        "centre-ville",
        "conciergerie",
        "parking",
        "restaurant-halal",
        "wifi"
      ],
      "lat": 31.2007101,
      "lng": 29.8984296
    },
    {
      "nom": "Hilton Alexandria Corniche",
      "categorie": "Standard",
      "score": 4.3,
      "adresse": "Corniche, Alexandrie",
      "description": "Hôtel moderne en bord de mer, piscines et restaurants.",
      "halalFriendly": true,
      "sansAlcool": false,
      "mapsUrl": "https://maps.google.com/?q=Hilton+Alexandria+Corniche+Alexandrie",
      "bookingUrl": "https://www.booking.com/searchresults.fr.html?ss=Alexandrie&label=voyageshalal",
      "halalBookingUrl": "https://www.halalbooking.com/search?city=alexandrie",
      "priceRange": "€€€",
      "id": "h3",
      "nombreAvis": 2072,
      "piscineNonMixte": false,
      "salleDePreiere": true,
      "qiblaIndicateur": true,
      "petitDejeunerHalal": true,
      "services": [
        "centre-ville",
        "conciergerie",
        "parking",
        "restaurant-halal",
        "wifi"
      ],
      "lat": 31.2616287,
      "lng": 29.9837414
    },
    {
      "nom": "Tolip Hotel Alexandria",
      "categorie": "Standard",
      "score": 4.2,
      "adresse": "Alexandrie",
      "description": "Hôtel balnéaire familial avec piscine et plage.",
      "halalFriendly": true,
      "sansAlcool": false,
      "mapsUrl": "https://maps.google.com/?q=Tolip+Hotel+Alexandria+Alexandrie",
      "bookingUrl": "https://www.booking.com/searchresults.fr.html?ss=Alexandrie&label=voyageshalal",
      "halalBookingUrl": "https://www.halalbooking.com/search?city=alexandrie",
      "priceRange": "€€€",
      "id": "h5",
      "nombreAvis": 2385,
      "piscineNonMixte": false,
      "salleDePreiere": true,
      "qiblaIndicateur": true,
      "petitDejeunerHalal": true,
      "services": [
        "centre-ville",
        "conciergerie",
        "parking",
        "restaurant-halal",
        "wifi"
      ],
      "lat": 31.2313733,
      "lng": 29.946654
    },
    {
      "nom": "Deutsches Seemannsheim",
      "categorie": "Maison d'hôtes",
      "priceRange": "€€",
      "mapsUrl": "https://maps.google.com/?q=31.1984447,29.9204166",
      "lat": 31.1984447,
      "lng": 29.9204166,
      "halalFriendly": false,
      "bookingUrl": "https://seemannsmission.org/stationen/alexandria/",
      "source": "osm"
    },
    {
      "nom": "الوزير",
      "categorie": "Appartement",
      "priceRange": "€€",
      "mapsUrl": "https://maps.google.com/?q=31.1940449,29.9186204",
      "lat": 31.1940449,
      "lng": 29.9186204,
      "halalFriendly": false,
      "bookingUrl": "https://maps.google.com/?q=31.1940449,29.9186204",
      "source": "osm"
    },
    {
      "nom": "فندق دلتا",
      "categorie": "Hôtel",
      "priceRange": "€€",
      "mapsUrl": "https://maps.google.com/?q=31.2040869,29.9068522",
      "lat": 31.2040869,
      "lng": 29.9068522,
      "halalFriendly": false,
      "bookingUrl": "https://maps.google.com/?q=31.2040869,29.9068522",
      "source": "osm"
    },
    {
      "nom": "Alexandria Youth Hostel",
      "categorie": "Auberge",
      "priceRange": "€€",
      "mapsUrl": "https://maps.google.com/?q=31.2109855,29.9166745",
      "lat": 31.2109855,
      "lng": 29.9166745,
      "halalFriendly": false,
      "bookingUrl": "https://maps.google.com/?q=31.2109855,29.9166745",
      "source": "osm"
    },
    {
      "nom": "Hotel Ramsis",
      "categorie": "Hôtel",
      "priceRange": "€€",
      "mapsUrl": "https://maps.google.com/?q=31.205287,29.9049682",
      "lat": 31.205287,
      "lng": 29.9049682,
      "halalFriendly": false,
      "bookingUrl": "https://maps.google.com/?q=31.205287,29.9049682",
      "source": "osm"
    },
    {
      "nom": "Karnak Hotel",
      "categorie": "Hôtel",
      "priceRange": "€€",
      "mapsUrl": "https://maps.google.com/?q=31.204845,29.9045009",
      "lat": 31.204845,
      "lng": 29.9045009,
      "halalFriendly": false,
      "bookingUrl": "https://maps.google.com/?q=31.204845,29.9045009",
      "source": "osm"
    },
    {
      "nom": "Royal jewel AL raml",
      "categorie": "Hôtel",
      "priceRange": "€€",
      "mapsUrl": "https://maps.google.com/?q=31.2024538,29.9032594",
      "lat": 31.2024538,
      "lng": 29.9032594,
      "halalFriendly": false,
      "bookingUrl": "https://maps.google.com/?q=31.2024538,29.9032594",
      "source": "osm"
    },
    {
      "nom": "Misr",
      "categorie": "Hôtel",
      "priceRange": "€€",
      "mapsUrl": "https://maps.google.com/?q=31.2022626,29.902938",
      "lat": 31.2022626,
      "lng": 29.902938,
      "halalFriendly": false,
      "bookingUrl": "https://maps.google.com/?q=31.2022626,29.902938",
      "source": "osm"
    },
    {
      "nom": "Miramar",
      "categorie": "Hôtel",
      "priceRange": "€€",
      "mapsUrl": "https://maps.google.com/?q=31.2139515,29.9199562",
      "lat": 31.2139515,
      "lng": 29.9199562,
      "halalFriendly": false,
      "bookingUrl": "https://maps.google.com/?q=31.2139515,29.9199562",
      "source": "osm"
    },
    {
      "nom": "Fouad Hotel",
      "categorie": "Hôtel",
      "priceRange": "€€",
      "mapsUrl": "https://maps.google.com/?q=31.2022154,29.9014436",
      "lat": 31.2022154,
      "lng": 29.9014436,
      "halalFriendly": false,
      "bookingUrl": "https://maps.google.com/?q=31.2022154,29.9014436",
      "source": "osm"
    },
    {
      "nom": "Egypt Hotel",
      "categorie": "Hôtel",
      "priceRange": "€€",
      "mapsUrl": "https://maps.google.com/?q=31.2022665,29.9014014",
      "lat": 31.2022665,
      "lng": 29.9014014,
      "halalFriendly": false,
      "bookingUrl": "https://maps.google.com/?q=31.2022665,29.9014014",
      "source": "osm"
    },
    {
      "nom": "الابراهيمية",
      "categorie": "Appartement",
      "priceRange": "€€",
      "mapsUrl": "https://maps.google.com/?q=31.2104129,29.9314039",
      "lat": 31.2104129,
      "lng": 29.9314039,
      "halalFriendly": false,
      "bookingUrl": "https://maps.google.com/?q=31.2104129,29.9314039",
      "source": "osm"
    },
    {
      "nom": "فندق سمير اميس",
      "categorie": "Hôtel",
      "priceRange": "€€",
      "mapsUrl": "https://maps.google.com/?q=31.2019034,29.9007741",
      "lat": 31.2019034,
      "lng": 29.9007741,
      "halalFriendly": false,
      "bookingUrl": "https://maps.google.com/?q=31.2019034,29.9007741",
      "source": "osm"
    },
    {
      "nom": "المتروبول",
      "categorie": "Hôtel",
      "priceRange": "€€",
      "mapsUrl": "https://maps.google.com/?q=31.2007943,29.9003204",
      "lat": 31.2007943,
      "lng": 29.9003204,
      "halalFriendly": false,
      "bookingUrl": "https://maps.google.com/?q=31.2007943,29.9003204",
      "source": "osm"
    },
    {
      "nom": "Clement’s House Hotel",
      "categorie": "Hôtel",
      "priceRange": "€€",
      "mapsUrl": "https://maps.google.com/?q=31.1999051,29.8995724",
      "lat": 31.1999051,
      "lng": 29.8995724,
      "halalFriendly": false,
      "bookingUrl": "https://maps.google.com/?q=31.1999051,29.8995724",
      "source": "osm"
    },
    {
      "nom": "فندق مكة",
      "categorie": "Hôtel",
      "priceRange": "€€",
      "mapsUrl": "https://maps.google.com/?q=31.2162458,29.9237695",
      "lat": 31.2162458,
      "lng": 29.9237695,
      "halalFriendly": false,
      "bookingUrl": "https://maps.google.com/?q=31.2162458,29.9237695",
      "source": "osm"
    },
    {
      "nom": "New Capry Hotel",
      "categorie": "Hôtel",
      "priceRange": "€€",
      "mapsUrl": "https://maps.google.com/?q=31.1997732,29.8989536",
      "lat": 31.1997732,
      "lng": 29.8989536,
      "halalFriendly": false,
      "bookingUrl": "https://maps.google.com/?q=31.1997732,29.8989536",
      "source": "osm"
    },
    {
      "nom": "Acropole Hotel",
      "categorie": "Hôtel",
      "priceRange": "€€",
      "mapsUrl": "https://maps.google.com/?q=31.2002972,29.8987035",
      "lat": 31.2002972,
      "lng": 29.8987035,
      "halalFriendly": false,
      "bookingUrl": "https://maps.google.com/?q=31.2002972,29.8987035",
      "source": "osm"
    },
    {
      "nom": "ترانزيت",
      "categorie": "Hôtel",
      "priceRange": "€€",
      "mapsUrl": "https://maps.google.com/?q=31.2003254,29.8985282",
      "lat": 31.2003254,
      "lng": 29.8985282,
      "halalFriendly": false,
      "bookingUrl": "https://maps.google.com/?q=31.2003254,29.8985282",
      "source": "osm"
    },
    {
      "nom": "شتيجنبرجر سيسيل الإسكندرية",
      "categorie": "Hôtel",
      "priceRange": "€€",
      "mapsUrl": "https://maps.google.com/?q=31.2007101,29.8984296",
      "lat": 31.2007101,
      "lng": 29.8984296,
      "halalFriendly": false,
      "bookingUrl": "https://maps.google.com/?q=31.2007101,29.8984296",
      "source": "osm"
    },
    {
      "nom": "فندق النصر",
      "categorie": "Hôtel",
      "priceRange": "€€",
      "mapsUrl": "https://maps.google.com/?q=31.2002821,29.8982422",
      "lat": 31.2002821,
      "lng": 29.8982422,
      "halalFriendly": false,
      "bookingUrl": "https://www.triomphehotel.com/",
      "source": "osm"
    },
    {
      "nom": "Hôtel Normandie",
      "categorie": "Hôtel",
      "priceRange": "€€",
      "mapsUrl": "https://maps.google.com/?q=31.2006281,29.8980989",
      "lat": 31.2006281,
      "lng": 29.8980989,
      "halalFriendly": false,
      "bookingUrl": "https://maps.google.com/?q=31.2006281,29.8980989",
      "source": "osm"
    },
    {
      "nom": "فندق يونيون",
      "categorie": "Hôtel",
      "priceRange": "€€",
      "mapsUrl": "https://maps.google.com/?q=31.2005453,29.8976899",
      "lat": 31.2005453,
      "lng": 29.8976899,
      "halalFriendly": false,
      "bookingUrl": "https://maps.google.com/?q=31.2005453,29.8976899",
      "source": "osm"
    },
    {
      "nom": "Crillon Hotel",
      "categorie": "Hôtel",
      "priceRange": "€€",
      "mapsUrl": "https://maps.google.com/?q=31.2005298,29.8973409",
      "lat": 31.2005298,
      "lng": 29.8973409,
      "halalFriendly": false,
      "bookingUrl": "https://maps.google.com/?q=31.2005298,29.8973409",
      "source": "osm"
    },
    {
      "nom": "فندق سيستا محرم بك",
      "categorie": "Hôtel",
      "priceRange": "€€",
      "mapsUrl": "https://maps.google.com/?q=31.1825089,29.925962",
      "lat": 31.1825089,
      "lng": 29.925962,
      "halalFriendly": false,
      "bookingUrl": "https://siestaresortalex.com/",
      "source": "osm"
    },
    {
      "nom": "Paradise Inn Windsor Palace",
      "categorie": "Hôtel",
      "priceRange": "€€",
      "mapsUrl": "https://maps.google.com/?q=31.2004702,29.8968842",
      "lat": 31.2004702,
      "lng": 29.8968842,
      "halalFriendly": false,
      "bookingUrl": "https://www.paradiseinnegypt.com/Home/windsor/index.html",
      "source": "osm"
    },
    {
      "nom": "فندق عبير",
      "categorie": "Hôtel",
      "priceRange": "€€",
      "mapsUrl": "https://maps.google.com/?q=31.2002448,29.8960021",
      "lat": 31.2002448,
      "lng": 29.8960021,
      "halalFriendly": false,
      "bookingUrl": "https://maps.google.com/?q=31.2002448,29.8960021",
      "source": "osm"
    },
    {
      "nom": "Cherry Maryski",
      "categorie": "Hôtel",
      "priceRange": "€€",
      "mapsUrl": "https://maps.google.com/?q=31.1983789,29.895694",
      "lat": 31.1983789,
      "lng": 29.895694,
      "halalFriendly": false,
      "bookingUrl": "https://cm-alex.com/",
      "source": "osm"
    },
    {
      "nom": "Ithaka",
      "categorie": "Auberge",
      "priceRange": "€€",
      "mapsUrl": "https://maps.google.com/?q=31.2001906,29.8955851",
      "lat": 31.2001906,
      "lng": 29.8955851,
      "halalFriendly": false,
      "bookingUrl": "https://maps.google.com/?q=31.2001906,29.8955851",
      "source": "osm"
    },
    {
      "nom": "Nile Excellesiour Hotel",
      "categorie": "Hôtel",
      "priceRange": "€€",
      "mapsUrl": "https://maps.google.com/?q=31.199213,29.8955508",
      "lat": 31.199213,
      "lng": 29.8955508,
      "halalFriendly": false,
      "bookingUrl": "https://maps.google.com/?q=31.199213,29.8955508",
      "source": "osm"
    },
    {
      "nom": "Suez Canal Hotel",
      "categorie": "Hôtel",
      "priceRange": "€€",
      "mapsUrl": "https://maps.google.com/?q=31.1988868,29.8955082",
      "lat": 31.1988868,
      "lng": 29.8955082,
      "halalFriendly": false,
      "bookingUrl": "https://maps.google.com/?q=31.1988868,29.8955082",
      "source": "osm"
    },
    {
      "nom": "المغربى",
      "categorie": "Hôtel",
      "priceRange": "€€",
      "mapsUrl": "https://maps.google.com/?q=31.1984649,29.8954125",
      "lat": 31.1984649,
      "lng": 29.8954125,
      "halalFriendly": false,
      "bookingUrl": "https://maps.google.com/?q=31.1984649,29.8954125",
      "source": "osm"
    },
    {
      "nom": "Alexander the great hotel",
      "categorie": "Hôtel",
      "priceRange": "€€",
      "mapsUrl": "https://maps.google.com/?q=31.19488,29.8958819",
      "lat": 31.19488,
      "lng": 29.8958819,
      "halalFriendly": false,
      "bookingUrl": "https://maps.google.com/?q=31.19488,29.8958819",
      "source": "osm"
    },
    {
      "nom": "Suez Channel Hotel",
      "categorie": "Hôtel",
      "priceRange": "€€",
      "mapsUrl": "https://maps.google.com/?q=31.1993275,29.8947456",
      "lat": 31.1993275,
      "lng": 29.8947456,
      "halalFriendly": false,
      "bookingUrl": "https://maps.google.com/?q=31.1993275,29.8947456",
      "source": "osm"
    },
    {
      "nom": "Marhaba",
      "categorie": "Hôtel",
      "priceRange": "€€",
      "mapsUrl": "https://maps.google.com/?q=31.1992366,29.8930186",
      "lat": 31.1992366,
      "lng": 29.8930186,
      "halalFriendly": false,
      "bookingUrl": "https://maps.google.com/?q=31.1992366,29.8930186",
      "source": "osm"
    },
    {
      "nom": "Holiday Hotel",
      "categorie": "Hôtel",
      "priceRange": "€€",
      "mapsUrl": "https://maps.google.com/?q=31.1987068,29.8928597",
      "lat": 31.1987068,
      "lng": 29.8928597,
      "halalFriendly": false,
      "bookingUrl": "https://maps.google.com/?q=31.1987068,29.8928597",
      "source": "osm"
    },
    {
      "nom": "Smoha Zahran Haus (7th floor)",
      "categorie": "Hôtel",
      "priceRange": "€€",
      "mapsUrl": "https://maps.google.com/?q=31.2097176,29.9470357",
      "lat": 31.2097176,
      "lng": 29.9470357,
      "halalFriendly": false,
      "bookingUrl": "https://maps.google.com/?q=31.2097176,29.9470357",
      "source": "osm"
    },
    {
      "nom": "Amoun Hotel",
      "categorie": "Hôtel",
      "priceRange": "€€",
      "mapsUrl": "https://maps.google.com/?q=31.1987298,29.8879449",
      "lat": 31.1987298,
      "lng": 29.8879449,
      "halalFriendly": false,
      "bookingUrl": "https://maps.google.com/?q=31.1987298,29.8879449",
      "source": "osm"
    },
    {
      "nom": "فندق هيلنان أنطونيادس بالاس",
      "categorie": "Hôtel",
      "priceRange": "€€",
      "mapsUrl": "https://maps.google.com/?q=31.2033572,29.9501584",
      "lat": 31.2033572,
      "lng": 29.9501584,
      "halalFriendly": false,
      "bookingUrl": "https://maps.google.com/?q=31.2033572,29.9501584",
      "source": "osm"
    },
    {
      "nom": "Queen Cleopatra",
      "categorie": "Hôtel",
      "priceRange": "€€",
      "mapsUrl": "https://maps.google.com/?q=31.2243756,29.9354258",
      "lat": 31.2243756,
      "lng": 29.9354258,
      "halalFriendly": false,
      "bookingUrl": "https://maps.google.com/?q=31.2243756,29.9354258",
      "source": "osm"
    },
    {
      "nom": "نادي لاجون",
      "categorie": "Hôtel",
      "priceRange": "€€",
      "mapsUrl": "https://maps.google.com/?q=31.171201,29.9358764",
      "lat": 31.171201,
      "lng": 29.9358764,
      "halalFriendly": false,
      "bookingUrl": "https://maps.google.com/?q=31.171201,29.9358764",
      "source": "osm"
    },
    {
      "nom": "شارع قصر رأس التين - أمام حلقة الأسماك",
      "categorie": "Appartement",
      "priceRange": "€€",
      "mapsUrl": "https://maps.google.com/?q=31.2099686,29.8804461",
      "lat": 31.2099686,
      "lng": 29.8804461,
      "halalFriendly": false,
      "bookingUrl": "https://maps.google.com/?q=31.2099686,29.8804461",
      "source": "osm"
    },
    {
      "nom": "جولدن جويل مصطفى كامل",
      "categorie": "Hôtel",
      "priceRange": "€€",
      "mapsUrl": "https://maps.google.com/?q=31.2290884,29.940983",
      "lat": 31.2290884,
      "lng": 29.940983,
      "halalFriendly": false,
      "bookingUrl": "https://maps.google.com/?q=31.2290884,29.940983",
      "source": "osm"
    },
    {
      "nom": "Sumed 3",
      "categorie": "Appartement",
      "priceRange": "€€",
      "mapsUrl": "https://maps.google.com/?q=31.2092786,29.9581103",
      "lat": 31.2092786,
      "lng": 29.9581103,
      "halalFriendly": false,
      "bookingUrl": "https://maps.google.com/?q=31.2092786,29.9581103",
      "source": "osm"
    },
    {
      "nom": "ايجبتوس ڤيلا هوستل",
      "categorie": "Auberge",
      "priceRange": "€€",
      "mapsUrl": "https://maps.google.com/?q=31.2249819,29.9515943",
      "lat": 31.2249819,
      "lng": 29.9515943,
      "halalFriendly": false,
      "bookingUrl": "http://Instagram.com/Egyptusvilla_",
      "source": "osm"
    },
    {
      "nom": "توليب الاسكندريه",
      "categorie": "Hôtel",
      "priceRange": "€€",
      "mapsUrl": "https://maps.google.com/?q=31.2313733,29.946654",
      "lat": 31.2313733,
      "lng": 29.946654,
      "halalFriendly": false,
      "bookingUrl": "https://maps.google.com/?q=31.2313733,29.946654",
      "source": "osm"
    },
    {
      "nom": "Tolip Alexandria Hotel",
      "categorie": "Hôtel",
      "priceRange": "€€",
      "mapsUrl": "https://maps.google.com/?q=31.2317175,29.9461259",
      "lat": 31.2317175,
      "lng": 29.9461259,
      "halalFriendly": false,
      "bookingUrl": "https://maps.google.com/?q=31.2317175,29.9461259",
      "source": "osm"
    },
    {
      "nom": "Hilton Alexandria Green Plaza",
      "categorie": "Hôtel",
      "priceRange": "€€€€",
      "score": 5,
      "mapsUrl": "https://maps.google.com/?q=31.2066358,29.9653965",
      "lat": 31.2066358,
      "lng": 29.9653965,
      "halalFriendly": false,
      "bookingUrl": "https://www.hilton.com/en/hotels/alygphi-hilton-alexandria-green-plaza/",
      "source": "osm"
    },
    {
      "nom": "فندق ميديترينيان أزور",
      "categorie": "Hôtel",
      "priceRange": "€€",
      "mapsUrl": "https://maps.google.com/?q=31.2335538,29.9454032",
      "lat": 31.2335538,
      "lng": 29.9454032,
      "halalFriendly": false,
      "bookingUrl": "https://maps.google.com/?q=31.2335538,29.9454032",
      "source": "osm"
    },
    {
      "nom": "سان جيوفاني",
      "categorie": "Hôtel",
      "priceRange": "€€",
      "mapsUrl": "https://maps.google.com/?q=31.2340179,29.9477918",
      "lat": 31.2340179,
      "lng": 29.9477918,
      "halalFriendly": false,
      "bookingUrl": "https://maps.google.com/?q=31.2340179,29.9477918",
      "source": "osm"
    },
    {
      "nom": "Elites1 Guesthouse",
      "categorie": "Maison d'hôtes",
      "priceRange": "€€",
      "mapsUrl": "https://maps.google.com/?q=31.2290085,29.9558531",
      "lat": 31.2290085,
      "lng": 29.9558531,
      "halalFriendly": false,
      "bookingUrl": "https://elites1.hotelalexandria.net/en/",
      "source": "osm"
    },
    {
      "nom": "Ashraqat Roshdy",
      "categorie": "Appartement",
      "priceRange": "€€",
      "mapsUrl": "https://maps.google.com/?q=31.2322908,29.9524022",
      "lat": 31.2322908,
      "lng": 29.9524022,
      "halalFriendly": false,
      "bookingUrl": "https://maps.google.com/?q=31.2322908,29.9524022",
      "source": "osm"
    },
    {
      "nom": "بيت الرشايدة.",
      "categorie": "Appartement",
      "priceRange": "€€",
      "mapsUrl": "https://maps.google.com/?q=31.1687877,29.8809919",
      "lat": 31.1687877,
      "lng": 29.8809919,
      "halalFriendly": false,
      "bookingUrl": "https://maps.google.com/?q=31.1687877,29.8809919",
      "source": "osm"
    },
    {
      "nom": "Eatabe Alexandria Hotel",
      "categorie": "Hôtel",
      "priceRange": "€€",
      "mapsUrl": "https://maps.google.com/?q=31.2366724,29.9529114",
      "lat": 31.2366724,
      "lng": 29.9529114,
      "halalFriendly": false,
      "bookingUrl": "https://maps.google.com/?q=31.2366724,29.9529114",
      "source": "osm"
    },
    {
      "nom": "مزين الاسكندريه",
      "categorie": "Appartement",
      "priceRange": "€€",
      "mapsUrl": "https://maps.google.com/?q=31.2354824,29.9550487",
      "lat": 31.2354824,
      "lng": 29.9550487,
      "halalFriendly": false,
      "bookingUrl": "https://maps.google.com/?q=31.2354824,29.9550487",
      "source": "osm"
    },
    {
      "nom": "منزل المرحوم صابر عبده امام",
      "categorie": "Auberge",
      "priceRange": "€€",
      "mapsUrl": "https://maps.google.com/?q=31.1663396,29.8681005",
      "lat": 31.1663396,
      "lng": 29.8681005,
      "halalFriendly": false,
      "bookingUrl": "https://maps.google.com/?q=31.1663396,29.8681005",
      "source": "osm"
    },
    {
      "nom": "منزل احمد صابر عبده امام ليموزين توب كار",
      "categorie": "Auberge",
      "priceRange": "€€",
      "mapsUrl": "https://maps.google.com/?q=31.163459,29.870771",
      "lat": 31.163459,
      "lng": 29.870771,
      "halalFriendly": false,
      "bookingUrl": "https://maps.google.com/?q=31.163459,29.870771",
      "source": "osm"
    },
    {
      "nom": "Four Seasons",
      "categorie": "Hôtel",
      "priceRange": "€€",
      "mapsUrl": "https://maps.google.com/?q=31.2457369,29.9661752",
      "lat": 31.2457369,
      "lng": 29.9661752,
      "halalFriendly": false,
      "bookingUrl": "https://maps.google.com/?q=31.2457369,29.9661752",
      "source": "osm"
    },
    {
      "nom": "Adel",
      "categorie": "Appartement",
      "priceRange": "€€",
      "mapsUrl": "https://maps.google.com/?q=31.2459461,29.9713032",
      "lat": 31.2459461,
      "lng": 29.9713032,
      "halalFriendly": false,
      "bookingUrl": "https://maps.google.com/?q=31.2459461,29.9713032",
      "source": "osm"
    },
    {
      "nom": "مسجد الاسراء",
      "categorie": "Appartement",
      "priceRange": "€€",
      "mapsUrl": "https://maps.google.com/?q=31.2429661,29.9763234",
      "lat": 31.2429661,
      "lng": 29.9763234,
      "halalFriendly": false,
      "bookingUrl": "https://maps.google.com/?q=31.2429661,29.9763234",
      "source": "osm"
    },
    {
      "nom": "فندق المحروسة",
      "categorie": "Hôtel",
      "priceRange": "€€",
      "mapsUrl": "https://maps.google.com/?q=31.2539028,29.974173",
      "lat": 31.2539028,
      "lng": 29.974173,
      "halalFriendly": false,
      "bookingUrl": "https://maps.google.com/?q=31.2539028,29.974173",
      "source": "osm"
    },
    {
      "nom": "فندق المحروسة",
      "categorie": "Hôtel",
      "priceRange": "€€",
      "mapsUrl": "https://maps.google.com/?q=31.2538746,29.974247",
      "lat": 31.2538746,
      "lng": 29.974247,
      "halalFriendly": false,
      "bookingUrl": "https://maps.google.com/?q=31.2538746,29.974247",
      "source": "osm"
    },
    {
      "nom": "منزل المرحومة ساميه",
      "categorie": "Hôtel",
      "priceRange": "€€",
      "mapsUrl": "https://maps.google.com/?q=31.2513352,29.9907398",
      "lat": 31.2513352,
      "lng": 29.9907398,
      "halalFriendly": false,
      "bookingUrl": "https://maps.google.com/?q=31.2513352,29.9907398",
      "source": "osm"
    }
  ],
  "activites": [
    {
      "nom": "Bibliotheca Alexandrina",
      "categorie": "Art & Musées",
      "description": "Bibliothèque moderne spectaculaire ravivant l'esprit de l'antique bibliothèque.",
      "duree": "2-3h",
      "prix": "€",
      "mapsUrl": "https://maps.google.com/?q=Bibliotheca+Alexandrina+Alexandrie",
      "tripadvisorUrl": "https://www.tripadvisor.fr/Search?q=Bibliotheca+Alexandrina+Alexandrie",
      "id": "a1",
      "meilleureEpoque": "Printemps-Automne",
      "idealPour": [
        "famille",
        "couple",
        "solo"
      ],
      "conseil": "Venez tôt le matin pour profiter du calme et éviter la foule.",
      "lat": 31.2086605,
      "lng": 29.9089329,
      "geocoded": true
    },
    {
      "nom": "Citadelle de Qaitbay",
      "categorie": "Histoire & Culture",
      "description": "Forteresse du XVe siècle sur le site de l'ancien phare d'Alexandrie.",
      "duree": "2h",
      "prix": "€",
      "mapsUrl": "https://maps.google.com/?q=Citadelle+de+Qaitbay+Alexandrie",
      "tripadvisorUrl": "https://www.tripadvisor.fr/Search?q=Citadelle+de+Qaitbay+Alexandrie",
      "id": "a2",
      "meilleureEpoque": "Hiver",
      "idealPour": [
        "famille",
        "couple",
        "solo"
      ],
      "conseil": "Venez tôt le matin pour profiter du calme et éviter la foule."
    },
    {
      "nom": "Catacombes de Kom el-Shoqafa",
      "categorie": "Histoire & Culture",
      "description": "Nécropole gréco-romaine souterraine, mélange unique de styles.",
      "duree": "1-2h",
      "prix": "€",
      "mapsUrl": "https://maps.google.com/?q=Catacombes+de+Kom+el-Shoqafa+Alexandrie",
      "tripadvisorUrl": "https://www.tripadvisor.fr/Search?q=Catacombes+de+Kom+el-Shoqafa+Alexandrie",
      "id": "a3",
      "meilleureEpoque": "Toute l'année",
      "idealPour": [
        "famille",
        "couple",
        "solo"
      ],
      "conseil": "Venez tôt le matin pour profiter du calme et éviter la foule.",
      "lat": 31.1783926,
      "lng": 29.8930478,
      "geocoded": true
    },
    {
      "nom": "Corniche d'Alexandrie",
      "categorie": "Nature & Aventure",
      "description": "Promenade de 15 km au bord de la Méditerranée, cafés et calèches.",
      "duree": "2h",
      "prix": "Gratuit",
      "mapsUrl": "https://maps.google.com/?q=Corniche+d%27Alexandrie+Alexandrie",
      "tripadvisorUrl": "https://www.tripadvisor.fr/Search?q=Corniche+d%27Alexandrie+Alexandrie",
      "id": "a4",
      "meilleureEpoque": "Printemps-Automne",
      "idealPour": [
        "famille",
        "groupe",
        "couple"
      ],
      "conseil": "Venez tôt le matin pour profiter du calme et éviter la foule.",
      "lat": 31.2616287,
      "lng": 29.9837414,
      "geocoded": true
    },
    {
      "nom": "Mosquée Abu al-Abbas al-Mursi",
      "categorie": "Religieux & Spirituel",
      "description": "Plus belle mosquée d'Alexandrie, dédiée à un saint soufi andalou.",
      "duree": "1h",
      "prix": "Gratuit",
      "mapsUrl": "https://maps.google.com/?q=Mosqu%C3%A9e+Abu+al-Abbas+al-Mursi+Alexandrie",
      "tripadvisorUrl": "https://www.tripadvisor.fr/Search?q=Mosqu%C3%A9e+Abu+al-Abbas+al-Mursi+Alexandrie",
      "id": "a5",
      "meilleureEpoque": "Été",
      "idealPour": [
        "famille",
        "solo",
        "couple"
      ],
      "conseil": "Venez tôt le matin pour profiter du calme et éviter la foule."
    },
    {
      "nom": "Quartier de Bahari & Anfoushi",
      "categorie": "Shopping & Souks",
      "description": "Vieux quartier de pêcheurs, souks et ambiance populaire authentique.",
      "duree": "2h",
      "prix": "Gratuit",
      "mapsUrl": "https://maps.google.com/?q=Quartier+de+Bahari+%26+Anfoushi+Alexandrie",
      "tripadvisorUrl": "https://www.tripadvisor.fr/Search?q=Quartier+de+Bahari+%26+Anfoushi+Alexandrie",
      "id": "a6",
      "meilleureEpoque": "Printemps-Automne",
      "idealPour": [
        "famille",
        "couple",
        "solo"
      ],
      "conseil": "Venez tôt le matin pour profiter du calme et éviter la foule."
    },
    {
      "nom": "Colonne de Pompée & Serapeum",
      "categorie": "Histoire & Culture",
      "description": "Vestige romain monumental et ancien temple de Sérapis.",
      "duree": "1h",
      "prix": "€",
      "mapsUrl": "https://maps.google.com/?q=Colonne+de+Pomp%C3%A9e+%26+Serapeum+Alexandrie",
      "tripadvisorUrl": "https://www.tripadvisor.fr/Search?q=Colonne+de+Pomp%C3%A9e+%26+Serapeum+Alexandrie",
      "id": "a7",
      "meilleureEpoque": "Été",
      "idealPour": [
        "famille",
        "couple",
        "solo"
      ],
      "conseil": "Venez tôt le matin pour profiter du calme et éviter la foule."
    },
    {
      "nom": "Palais et jardins de Montaza",
      "categorie": "Nature & Aventure",
      "description": "Parc royal au bord de mer, palais et jardins luxuriants.",
      "duree": "2h",
      "prix": "€",
      "mapsUrl": "https://maps.google.com/?q=Palais+et+jardins+de+Montaza+Alexandrie",
      "tripadvisorUrl": "https://www.tripadvisor.fr/Search?q=Palais+et+jardins+de+Montaza+Alexandrie",
      "id": "a8",
      "meilleureEpoque": "Printemps-Automne",
      "idealPour": [
        "famille",
        "groupe",
        "couple"
      ],
      "conseil": "Venez tôt le matin pour profiter du calme et éviter la foule."
    },
    {
      "nom": "Vieille ville de Alexandrie",
      "categorie": "Histoire & Culture",
      "description": "Flânerie dans les ruelles historiques et l'architecture locale.",
      "duree": "2h",
      "prix": "Gratuit",
      "mapsUrl": "https://maps.google.com/?q=Vieille+ville+de+Alexandrie+Alexandrie",
      "tripadvisorUrl": "https://www.tripadvisor.fr/Search?q=Vieille+ville+de+Alexandrie+Alexandrie",
      "id": "a9",
      "meilleureEpoque": "Printemps-Automne",
      "idealPour": [
        "famille",
        "couple",
        "solo"
      ],
      "conseil": "Venez tôt le matin pour profiter du calme et éviter la foule."
    },
    {
      "nom": "Grand souk de Alexandrie",
      "categorie": "Shopping & Souks",
      "description": "Marché traditionnel d'épices, textiles et artisanat.",
      "duree": "2h",
      "prix": "Gratuit",
      "mapsUrl": "https://maps.google.com/?q=Grand+souk+de+Alexandrie+Alexandrie",
      "tripadvisorUrl": "https://www.tripadvisor.fr/Search?q=Grand+souk+de+Alexandrie+Alexandrie",
      "id": "a10",
      "meilleureEpoque": "Été",
      "idealPour": [
        "famille",
        "couple",
        "solo"
      ],
      "conseil": "Venez tôt le matin pour profiter du calme et éviter la foule."
    },
    {
      "nom": "Quartier historique de Alexandrie",
      "categorie": "Histoire & Culture",
      "description": "Découverte du cœur ancien de la ville, architecture et ambiance locale.",
      "duree": "2h",
      "prix": "Gratuit",
      "mapsUrl": "https://maps.google.com/?q=Quartier+historique+de+Alexandrie+Alexandrie",
      "tripadvisorUrl": "https://www.tripadvisor.fr/Search?q=Quartier+historique+de+Alexandrie+Alexandrie",
      "meilleureEpoque": "Printemps-Automne",
      "idealPour": [
        "famille",
        "couple",
        "solo"
      ],
      "conseil": "Venez tôt le matin pour profiter du calme et éviter la foule.",
      "id": "a11"
    },
    {
      "nom": "Grand marché central de Alexandrie",
      "categorie": "Shopping & Souks",
      "description": "Marché traditionnel d'épices, textiles et artisanat local.",
      "duree": "2h",
      "prix": "Gratuit",
      "mapsUrl": "https://maps.google.com/?q=Grand+march%C3%A9+central+de+Alexandrie+Alexandrie",
      "tripadvisorUrl": "https://www.tripadvisor.fr/Search?q=Grand+march%C3%A9+central+de+Alexandrie+Alexandrie",
      "meilleureEpoque": "Hiver",
      "idealPour": [
        "famille",
        "couple",
        "solo"
      ],
      "conseil": "Venez tôt le matin pour profiter du calme et éviter la foule.",
      "id": "a12"
    },
    {
      "nom": "Promenade au bord de l'eau de Alexandrie",
      "categorie": "Nature & Aventure",
      "description": "Balade au coucher du soleil le long du front d'eau.",
      "duree": "1-2h",
      "prix": "Gratuit",
      "mapsUrl": "https://maps.google.com/?q=Promenade+au+bord+de+l%27eau+de+Alexandrie+Alexandrie",
      "tripadvisorUrl": "https://www.tripadvisor.fr/Search?q=Promenade+au+bord+de+l%27eau+de+Alexandrie+Alexandrie",
      "meilleureEpoque": "Printemps-Automne",
      "idealPour": [
        "famille",
        "groupe",
        "couple"
      ],
      "conseil": "Venez tôt le matin pour profiter du calme et éviter la foule.",
      "id": "a13"
    },
    {
      "nom": "Musée de la ville de Alexandrie",
      "categorie": "Art & Musées",
      "description": "Collections retraçant l'histoire et la culture islamique locale.",
      "duree": "2h",
      "prix": "€",
      "mapsUrl": "https://maps.google.com/?q=Mus%C3%A9e+de+la+ville+de+Alexandrie+Alexandrie",
      "tripadvisorUrl": "https://www.tripadvisor.fr/Search?q=Mus%C3%A9e+de+la+ville+de+Alexandrie+Alexandrie",
      "meilleureEpoque": "Toute l'année",
      "idealPour": [
        "famille",
        "couple",
        "solo"
      ],
      "conseil": "Venez tôt le matin pour profiter du calme et éviter la foule.",
      "id": "a14"
    },
    {
      "nom": "Food tour halal de Alexandrie",
      "categorie": "Gastronomie",
      "description": "Parcours des meilleures adresses de street food halal avec un guide.",
      "duree": "3h",
      "prix": "€€",
      "mapsUrl": "https://maps.google.com/?q=Food+tour+halal+de+Alexandrie+Alexandrie",
      "tripadvisorUrl": "https://www.tripadvisor.fr/Search?q=Food+tour+halal+de+Alexandrie+Alexandrie",
      "meilleureEpoque": "Été",
      "idealPour": [
        "famille",
        "couple",
        "solo"
      ],
      "conseil": "Venez tôt le matin pour profiter du calme et éviter la foule.",
      "id": "a15"
    },
    {
      "nom": "Hammam traditionnel de Alexandrie",
      "categorie": "Bien-être & Spa",
      "description": "Bain de vapeur et gommage selon la tradition orientale.",
      "duree": "2h",
      "prix": "€€",
      "mapsUrl": "https://maps.google.com/?q=Hammam+traditionnel+de+Alexandrie+Alexandrie",
      "tripadvisorUrl": "https://www.tripadvisor.fr/Search?q=Hammam+traditionnel+de+Alexandrie+Alexandrie",
      "meilleureEpoque": "Été",
      "idealPour": [
        "solo",
        "couple"
      ],
      "conseil": "Venez tôt le matin pour profiter du calme et éviter la foule.",
      "id": "a16"
    },
    {
      "nom": "Mosquée historique de Alexandrie",
      "categorie": "Religieux & Spirituel",
      "description": "Visite d'une mosquée emblématique, joyau du patrimoine local.",
      "duree": "1h",
      "prix": "Gratuit",
      "mapsUrl": "https://maps.google.com/?q=Mosqu%C3%A9e+historique+de+Alexandrie+Alexandrie",
      "tripadvisorUrl": "https://www.tripadvisor.fr/Search?q=Mosqu%C3%A9e+historique+de+Alexandrie+Alexandrie",
      "meilleureEpoque": "Printemps-Automne",
      "idealPour": [
        "famille",
        "solo",
        "couple"
      ],
      "conseil": "Venez tôt le matin pour profiter du calme et éviter la foule.",
      "id": "a17"
    },
    {
      "nom": "Parc et jardins de Alexandrie",
      "categorie": "Nature & Aventure",
      "description": "Espace vert paisible idéal pour les familles.",
      "duree": "1-2h",
      "prix": "Gratuit",
      "mapsUrl": "https://maps.google.com/?q=Parc+et+jardins+de+Alexandrie+Alexandrie",
      "tripadvisorUrl": "https://www.tripadvisor.fr/Search?q=Parc+et+jardins+de+Alexandrie+Alexandrie",
      "meilleureEpoque": "Printemps-Automne",
      "idealPour": [
        "famille",
        "groupe",
        "couple"
      ],
      "conseil": "Venez tôt le matin pour profiter du calme et éviter la foule.",
      "id": "a18"
    },
    {
      "nom": "Centre commercial halal-friendly de Alexandrie",
      "categorie": "Shopping & Souks",
      "description": "Grand mall avec salle de prière et food court halal.",
      "duree": "2h",
      "prix": "Gratuit",
      "mapsUrl": "https://maps.google.com/?q=Centre+commercial+halal-friendly+de+Alexandrie+Alexandrie",
      "tripadvisorUrl": "https://www.tripadvisor.fr/Search?q=Centre+commercial+halal-friendly+de+Alexandrie+Alexandrie",
      "meilleureEpoque": "Printemps-Automne",
      "idealPour": [
        "famille",
        "couple",
        "solo"
      ],
      "conseil": "Venez tôt le matin pour profiter du calme et éviter la foule.",
      "id": "a19"
    },
    {
      "nom": "Atelier d'artisanat local de Alexandrie",
      "categorie": "Art & Musées",
      "description": "Découverte des savoir-faire traditionnels de la région.",
      "duree": "2h",
      "prix": "€",
      "mapsUrl": "https://maps.google.com/?q=Atelier+d%27artisanat+local+de+Alexandrie+Alexandrie",
      "tripadvisorUrl": "https://www.tripadvisor.fr/Search?q=Atelier+d%27artisanat+local+de+Alexandrie+Alexandrie",
      "meilleureEpoque": "Hiver",
      "idealPour": [
        "famille",
        "couple",
        "solo"
      ],
      "conseil": "Venez tôt le matin pour profiter du calme et éviter la foule.",
      "id": "a20"
    },
    {
      "nom": "francais",
      "lat": 31.2007712,
      "lng": 29.9133372,
      "coordonnees": {
        "lat": 31.2007712,
        "lng": 29.9133372
      },
      "categorie": "Culture",
      "mapsUrl": "https://maps.google.com/?q=31.2007712,29.9133372",
      "source": "osm"
    },
    {
      "nom": "بيت اسكندرية محرم بك",
      "lat": 31.1943708,
      "lng": 29.9205834,
      "coordonnees": {
        "lat": 31.1943708,
        "lng": 29.9205834
      },
      "categorie": "À voir",
      "mapsUrl": "https://maps.google.com/?q=31.1943708,29.9205834",
      "source": "osm"
    },
    {
      "nom": "Museum of Fine Arts",
      "lat": 31.1950937,
      "lng": 29.9135029,
      "coordonnees": {
        "lat": 31.1950937,
        "lng": 29.9135029
      },
      "categorie": "Culture",
      "mapsUrl": "https://maps.google.com/?q=31.1950937,29.9135029",
      "source": "osm"
    },
    {
      "nom": "King Farouk Palace",
      "lat": 31.1916198,
      "lng": 29.9156981,
      "coordonnees": {
        "lat": 31.1916198,
        "lng": 29.9156981
      },
      "categorie": "À voir",
      "mapsUrl": "https://maps.google.com/?q=31.1916198,29.9156981",
      "source": "osm"
    },
    {
      "nom": "تمثال الأشرعة البيضاء",
      "lat": 31.2098669,
      "lng": 29.9086858,
      "coordonnees": {
        "lat": 31.2098669,
        "lng": 29.9086858
      },
      "categorie": "À voir",
      "mapsUrl": "https://maps.google.com/?q=31.2098669,29.9086858",
      "source": "osm"
    },
    {
      "nom": "سيد درويش",
      "lat": 31.2032765,
      "lng": 29.9029654,
      "coordonnees": {
        "lat": 31.2032765,
        "lng": 29.9029654
      },
      "categorie": "À voir",
      "mapsUrl": "https://maps.google.com/?q=31.2032765,29.9029654",
      "source": "osm"
    },
    {
      "nom": "سيد درويش",
      "lat": 31.196756,
      "lng": 29.9020312,
      "coordonnees": {
        "lat": 31.196756,
        "lng": 29.9020312
      },
      "categorie": "À voir",
      "mapsUrl": "https://maps.google.com/?q=31.196756,29.9020312",
      "source": "osm"
    },
    {
      "nom": "محطة الرمل",
      "lat": 31.201541,
      "lng": 29.9013501,
      "coordonnees": {
        "lat": 31.201541,
        "lng": 29.9013501
      },
      "categorie": "À voir",
      "mapsUrl": "https://maps.google.com/?q=31.201541,29.9013501",
      "source": "osm"
    },
    {
      "nom": "قسطنطين كفافيس",
      "lat": 31.1976466,
      "lng": 29.9012685,
      "coordonnees": {
        "lat": 31.1976466,
        "lng": 29.9012685
      },
      "categorie": "Histoire",
      "mapsUrl": "https://maps.google.com/?q=31.1976466,29.9012685",
      "source": "osm"
    },
    {
      "nom": "تمثال سعد زغلول",
      "lat": 31.2009138,
      "lng": 29.8994049,
      "coordonnees": {
        "lat": 31.2009138,
        "lng": 29.8994049
      },
      "categorie": "Histoire",
      "mapsUrl": "https://maps.google.com/?q=31.2009138,29.8994049",
      "source": "osm"
    },
    {
      "nom": "مكتب جوازات اسكندرية",
      "lat": 31.1967828,
      "lng": 29.8977486,
      "coordonnees": {
        "lat": 31.1967828,
        "lng": 29.8977486
      },
      "categorie": "Panorama",
      "mapsUrl": "https://maps.google.com/?q=31.1967828,29.8977486",
      "source": "osm"
    },
    {
      "nom": "محطة الرمل",
      "lat": 31.193827,
      "lng": 29.8960105,
      "coordonnees": {
        "lat": 31.193827,
        "lng": 29.8960105
      },
      "categorie": "À voir",
      "mapsUrl": "https://maps.google.com/?q=31.193827,29.8960105",
      "source": "osm"
    },
    {
      "nom": "قبر الجندي البحري المجهول",
      "lat": 31.1999661,
      "lng": 29.8937371,
      "coordonnees": {
        "lat": 31.1999661,
        "lng": 29.8937371
      },
      "categorie": "Histoire",
      "mapsUrl": "https://maps.google.com/?q=31.1999661,29.8937371",
      "source": "osm"
    },
    {
      "nom": "متحف التاريخ الطبيعي",
      "lat": 31.2054762,
      "lng": 29.9437077,
      "coordonnees": {
        "lat": 31.2054762,
        "lng": 29.9437077
      },
      "categorie": "Culture",
      "mapsUrl": "https://maps.google.com/?q=31.2054762,29.9437077",
      "source": "osm"
    },
    {
      "nom": "حديقة الورد",
      "lat": 31.2050135,
      "lng": 29.9473317,
      "coordonnees": {
        "lat": 31.2050135,
        "lng": 29.9473317
      },
      "categorie": "Nature",
      "mapsUrl": "https://maps.google.com/?q=31.2050135,29.9473317",
      "source": "osm"
    },
    {
      "nom": "عامود السوارى",
      "lat": 31.1825811,
      "lng": 29.8963926,
      "coordonnees": {
        "lat": 31.1825811,
        "lng": 29.8963926
      },
      "categorie": "Histoire",
      "mapsUrl": "https://maps.google.com/?q=31.1825811,29.8963926",
      "source": "osm"
    },
    {
      "nom": "حديقة الصوبة الملكية",
      "lat": 31.2027442,
      "lng": 29.9490156,
      "coordonnees": {
        "lat": 31.2027442,
        "lng": 29.9490156
      },
      "categorie": "Nature",
      "mapsUrl": "https://maps.google.com/?q=31.2027442,29.9490156",
      "source": "osm"
    },
    {
      "nom": "فينوس",
      "lat": 31.2017098,
      "lng": 29.9492148,
      "coordonnees": {
        "lat": 31.2017098,
        "lng": 29.9492148
      },
      "categorie": "Histoire",
      "mapsUrl": "https://maps.google.com/?q=31.2017098,29.9492148",
      "source": "osm"
    },
    {
      "nom": "ميدان النصر",
      "lat": 31.1982851,
      "lng": 29.8880226,
      "coordonnees": {
        "lat": 31.1982851,
        "lng": 29.8880226
      },
      "categorie": "Histoire",
      "mapsUrl": "https://maps.google.com/?q=31.1982851,29.8880226",
      "source": "osm"
    },
    {
      "nom": "حديقة الديناصورات",
      "lat": 31.2011991,
      "lng": 29.9518204,
      "coordonnees": {
        "lat": 31.2011991,
        "lng": 29.9518204
      },
      "categorie": "Nature",
      "mapsUrl": "https://maps.google.com/?q=31.2011991,29.9518204",
      "source": "osm"
    },
    {
      "nom": "منارة الإسكندرية",
      "lat": 31.2139964,
      "lng": 29.8856722,
      "coordonnees": {
        "lat": 31.2139964,
        "lng": 29.8856722
      },
      "categorie": "Histoire",
      "mapsUrl": "https://maps.google.com/?q=31.2139964,29.8856722",
      "source": "osm"
    },
    {
      "nom": "Musicians",
      "lat": 31.226281,
      "lng": 29.9499426,
      "coordonnees": {
        "lat": 31.226281,
        "lng": 29.9499426
      },
      "categorie": "À voir",
      "mapsUrl": "https://maps.google.com/?q=31.226281,29.9499426",
      "source": "osm"
    },
    {
      "nom": "مقابر الأنفوشي",
      "lat": 31.202136,
      "lng": 29.8740445,
      "coordonnees": {
        "lat": 31.202136,
        "lng": 29.8740445
      },
      "categorie": "Histoire",
      "mapsUrl": "https://maps.google.com/?q=31.202136,29.8740445",
      "source": "osm"
    },
    {
      "nom": "Boat Statue",
      "lat": 31.2290245,
      "lng": 29.9535141,
      "coordonnees": {
        "lat": 31.2290245,
        "lng": 29.9535141
      },
      "categorie": "À voir",
      "mapsUrl": "https://maps.google.com/?q=31.2290245,29.9535141",
      "source": "osm"
    },
    {
      "nom": "Alexander the Great",
      "lat": 31.2336585,
      "lng": 29.9478605,
      "coordonnees": {
        "lat": 31.2336585,
        "lng": 29.9478605
      },
      "categorie": "À voir",
      "mapsUrl": "https://maps.google.com/?q=31.2336585,29.9478605",
      "source": "osm"
    },
    {
      "nom": "قلعة الصالح",
      "lat": 31.183333,
      "lng": 29.866667,
      "coordonnees": {
        "lat": 31.183333,
        "lng": 29.866667
      },
      "categorie": "Histoire",
      "mapsUrl": "https://maps.google.com/?q=31.183333,29.866667",
      "source": "osm"
    },
    {
      "nom": "Alexdrari Home",
      "lat": 31.232649,
      "lng": 29.9612223,
      "coordonnees": {
        "lat": 31.232649,
        "lng": 29.9612223
      },
      "categorie": "À voir",
      "mapsUrl": "https://maps.google.com/?q=31.232649,29.9612223",
      "source": "osm"
    },
    {
      "nom": "قصر الصفا",
      "lat": 31.2437658,
      "lng": 29.9643651,
      "coordonnees": {
        "lat": 31.2437658,
        "lng": 29.9643651
      },
      "categorie": "À voir",
      "mapsUrl": "https://maps.google.com/?q=31.2437658,29.9643651",
      "source": "osm"
    },
    {
      "nom": "mahmoud saied museum",
      "lat": 31.2451159,
      "lng": 29.9685081,
      "coordonnees": {
        "lat": 31.2451159,
        "lng": 29.9685081
      },
      "categorie": "Culture",
      "mapsUrl": "https://maps.google.com/?q=31.2451159,29.9685081",
      "source": "osm"
    },
    {
      "nom": "متحف محمود سعيد",
      "lat": 31.2444496,
      "lng": 29.9695783,
      "coordonnees": {
        "lat": 31.2444496,
        "lng": 29.9695783
      },
      "categorie": "Culture",
      "mapsUrl": "https://maps.google.com/?q=31.2444496,29.9695783",
      "source": "osm"
    },
    {
      "nom": "شاطئ 26 يوليو",
      "lat": 31.2490192,
      "lng": 29.9678308,
      "coordonnees": {
        "lat": 31.2490192,
        "lng": 29.9678308
      },
      "categorie": "À voir",
      "mapsUrl": "https://maps.google.com/?q=31.2490192,29.9678308",
      "source": "osm"
    },
    {
      "nom": "فيولا تي في",
      "lat": 31.2458031,
      "lng": 29.974857,
      "coordonnees": {
        "lat": 31.2458031,
        "lng": 29.974857
      },
      "categorie": "À voir",
      "mapsUrl": "https://maps.google.com/?q=31.2458031,29.974857",
      "source": "osm"
    },
    {
      "nom": "gaber",
      "lat": 31.2327049,
      "lng": 29.9869608,
      "coordonnees": {
        "lat": 31.2327049,
        "lng": 29.9869608
      },
      "categorie": "À voir",
      "mapsUrl": "https://maps.google.com/?q=31.2327049,29.9869608",
      "source": "osm"
    },
    {
      "nom": "محطة بيتي",
      "lat": 31.253065,
      "lng": 29.976038,
      "coordonnees": {
        "lat": 31.253065,
        "lng": 29.976038
      },
      "categorie": "À voir",
      "mapsUrl": "https://maps.google.com/?q=31.253065,29.976038",
      "source": "osm"
    },
    {
      "nom": "منزلي اسماعيل اسكندرية",
      "lat": 31.2561464,
      "lng": 29.9786503,
      "coordonnees": {
        "lat": 31.2561464,
        "lng": 29.9786503
      },
      "categorie": "À voir",
      "mapsUrl": "https://maps.google.com/?q=31.2561464,29.9786503",
      "source": "osm"
    },
    {
      "nom": "طابية باب العرب",
      "lat": 31.1493641,
      "lng": 29.8501705,
      "coordonnees": {
        "lat": 31.1493641,
        "lng": 29.8501705
      },
      "categorie": "Histoire",
      "mapsUrl": "https://maps.google.com/?q=31.1493641,29.8501705",
      "source": "osm"
    },
    {
      "nom": "كورنيش المكس",
      "lat": 31.1520298,
      "lng": 29.8424444,
      "coordonnees": {
        "lat": 31.1520298,
        "lng": 29.8424444
      },
      "categorie": "Panorama",
      "mapsUrl": "https://maps.google.com/?q=31.1520298,29.8424444",
      "source": "osm"
    },
    {
      "nom": "طابية التحتانية",
      "lat": 31.151944,
      "lng": 29.841111,
      "coordonnees": {
        "lat": 31.151944,
        "lng": 29.841111
      },
      "categorie": "Histoire",
      "mapsUrl": "https://maps.google.com/?q=31.151944,29.841111",
      "source": "osm"
    },
    {
      "nom": "منزل الحاج محمد الكردي",
      "lat": 31.2063919,
      "lng": 30.0156372,
      "coordonnees": {
        "lat": 31.2063919,
        "lng": 30.0156372
      },
      "categorie": "Histoire",
      "mapsUrl": "https://maps.google.com/?q=31.2063919,30.0156372",
      "source": "osm"
    },
    {
      "nom": "عزبة زكي مختار",
      "lat": 31.2330718,
      "lng": 30.0153863,
      "coordonnees": {
        "lat": 31.2330718,
        "lng": 30.0153863
      },
      "categorie": "Nature",
      "mapsUrl": "https://maps.google.com/?q=31.2330718,30.0153863",
      "source": "osm"
    }
  ],
  "mosqueesPrincipales": [
    {
      "nom": "مسجد مستشفى الشاطبي",
      "lat": 31.2091931,
      "lng": 29.9123803,
      "coordonnees": {
        "lat": 31.2091931,
        "lng": 29.9123803
      },
      "mapsUrl": "https://maps.google.com/?q=31.2091931,29.9123803",
      "source": "osm"
    },
    {
      "nom": "مسجد سيدى محمد الشاطبى",
      "lat": 31.2109633,
      "lng": 29.9141482,
      "coordonnees": {
        "lat": 31.2109633,
        "lng": 29.9141482
      },
      "mapsUrl": "https://maps.google.com/?q=31.2109633,29.9141482",
      "source": "osm"
    },
    {
      "nom": "مسجد النبي دانيال",
      "lat": 31.1945316,
      "lng": 29.9024027,
      "coordonnees": {
        "lat": 31.1945316,
        "lng": 29.9024027
      },
      "mapsUrl": "https://maps.google.com/?q=31.1945316,29.9024027",
      "source": "osm"
    },
    {
      "nom": "مسجد سيدى عبد الرزاق الوفائى",
      "lat": 31.1941983,
      "lng": 29.9016504,
      "coordonnees": {
        "lat": 31.1941983,
        "lng": 29.9016504
      },
      "mapsUrl": "https://maps.google.com/?q=31.1941983,29.9016504",
      "source": "osm"
    },
    {
      "nom": "مسجد الشهيد عبد المنعم رياض",
      "lat": 31.2152923,
      "lng": 29.9281365,
      "coordonnees": {
        "lat": 31.2152923,
        "lng": 29.9281365
      },
      "mapsUrl": "https://maps.google.com/?q=31.2152923,29.9281365",
      "source": "osm"
    },
    {
      "nom": "مسجد العطارين",
      "lat": 31.194906,
      "lng": 29.8980155,
      "coordonnees": {
        "lat": 31.194906,
        "lng": 29.8980155
      },
      "mapsUrl": "https://maps.google.com/?q=31.194906,29.8980155",
      "source": "osm"
    },
    {
      "nom": "مسجد الخليل",
      "lat": 31.1973105,
      "lng": 29.896593,
      "coordonnees": {
        "lat": 31.1973105,
        "lng": 29.896593
      },
      "mapsUrl": "https://maps.google.com/?q=31.1973105,29.896593",
      "source": "osm"
    },
    {
      "nom": "مسجد الحق",
      "lat": 31.2173839,
      "lng": 29.9306309,
      "coordonnees": {
        "lat": 31.2173839,
        "lng": 29.9306309
      },
      "mapsUrl": "https://maps.google.com/?q=31.2173839,29.9306309",
      "source": "osm"
    },
    {
      "nom": "مسجد رمضان شحاته",
      "lat": 31.1944269,
      "lng": 29.8928963,
      "coordonnees": {
        "lat": 31.1944269,
        "lng": 29.8928963
      },
      "mapsUrl": "https://maps.google.com/?q=31.1944269,29.8928963",
      "source": "osm"
    },
    {
      "nom": "مسجد الرحمن",
      "lat": 31.2181495,
      "lng": 29.9362767,
      "coordonnees": {
        "lat": 31.2181495,
        "lng": 29.9362767
      },
      "mapsUrl": "https://maps.google.com/?q=31.2181495,29.9362767",
      "source": "osm"
    },
    {
      "nom": "مسجد سليمان محمود",
      "lat": 31.2192537,
      "lng": 29.9382666,
      "coordonnees": {
        "lat": 31.2192537,
        "lng": 29.9382666
      },
      "mapsUrl": "https://maps.google.com/?q=31.2192537,29.9382666",
      "source": "osm"
    },
    {
      "nom": "مسجد الفحام",
      "lat": 31.192775,
      "lng": 29.8893588,
      "coordonnees": {
        "lat": 31.192775,
        "lng": 29.8893588
      },
      "mapsUrl": "https://maps.google.com/?q=31.192775,29.8893588",
      "source": "osm"
    },
    {
      "nom": "مسجد على بك جنينة",
      "lat": 31.1944634,
      "lng": 29.8867847,
      "coordonnees": {
        "lat": 31.1944634,
        "lng": 29.8867847
      },
      "mapsUrl": "https://maps.google.com/?q=31.1944634,29.8867847",
      "source": "osm"
    },
    {
      "nom": "مسجد أبو علي",
      "lat": 31.194603,
      "lng": 29.8859864,
      "coordonnees": {
        "lat": 31.194603,
        "lng": 29.8859864
      },
      "mapsUrl": "https://maps.google.com/?q=31.194603,29.8859864",
      "source": "osm"
    },
    {
      "nom": "مسجد بن خلدون",
      "lat": 31.1955677,
      "lng": 29.8848506,
      "coordonnees": {
        "lat": 31.1955677,
        "lng": 29.8848506
      },
      "adresse": "الإسكندرية",
      "mapsUrl": "https://maps.google.com/?q=31.1955677,29.8848506",
      "source": "osm"
    },
    {
      "nom": "Masjid Sidi Gaber",
      "lat": 31.2236874,
      "lng": 29.9404225,
      "coordonnees": {
        "lat": 31.2236874,
        "lng": 29.9404225
      },
      "mapsUrl": "https://maps.google.com/?q=31.2236874,29.9404225",
      "source": "osm"
    },
    {
      "nom": "مسجد جنينة",
      "lat": 31.1707507,
      "lng": 29.8843868,
      "coordonnees": {
        "lat": 31.1707507,
        "lng": 29.8843868
      },
      "mapsUrl": "https://maps.google.com/?q=31.1707507,29.8843868",
      "source": "osm"
    },
    {
      "nom": "مسجد القباني",
      "lat": 31.2332096,
      "lng": 29.9622202,
      "coordonnees": {
        "lat": 31.2332096,
        "lng": 29.9622202
      },
      "mapsUrl": "https://maps.google.com/?q=31.2332096,29.9622202",
      "source": "osm"
    },
    {
      "nom": "مسجد الشوربجي",
      "lat": 31.2337547,
      "lng": 29.9661075,
      "coordonnees": {
        "lat": 31.2337547,
        "lng": 29.9661075
      },
      "mapsUrl": "https://maps.google.com/?q=31.2337547,29.9661075",
      "source": "osm"
    },
    {
      "nom": "مسجد أبو عمر",
      "lat": 31.1643316,
      "lng": 29.8728798,
      "coordonnees": {
        "lat": 31.1643316,
        "lng": 29.8728798
      },
      "mapsUrl": "https://maps.google.com/?q=31.1643316,29.8728798",
      "source": "osm"
    },
    {
      "nom": "مسجد الملتزم",
      "lat": 31.2430534,
      "lng": 29.9712247,
      "coordonnees": {
        "lat": 31.2430534,
        "lng": 29.9712247
      },
      "mapsUrl": "https://maps.google.com/?q=31.2430534,29.9712247",
      "source": "osm"
    },
    {
      "nom": "مسجد شعراوي",
      "lat": 31.2465627,
      "lng": 29.9749374,
      "coordonnees": {
        "lat": 31.2465627,
        "lng": 29.9749374
      },
      "mapsUrl": "https://maps.google.com/?q=31.2465627,29.9749374",
      "source": "osm"
    },
    {
      "nom": "مسجد",
      "lat": 31.2397668,
      "lng": 29.9828451,
      "coordonnees": {
        "lat": 31.2397668,
        "lng": 29.9828451
      },
      "mapsUrl": "https://maps.google.com/?q=31.2397668,29.9828451",
      "source": "osm"
    },
    {
      "nom": "مسجد العزيز الغفار",
      "lat": 31.2449425,
      "lng": 29.979919,
      "coordonnees": {
        "lat": 31.2449425,
        "lng": 29.979919
      },
      "mapsUrl": "https://maps.google.com/?q=31.2449425,29.979919",
      "source": "osm"
    },
    {
      "nom": "مسجد علي بن أبي طالب",
      "lat": 31.2495288,
      "lng": 29.9813961,
      "coordonnees": {
        "lat": 31.2495288,
        "lng": 29.9813961
      },
      "mapsUrl": "https://maps.google.com/?q=31.2495288,29.9813961",
      "source": "osm"
    },
    {
      "nom": "مسجد الشيخ عبد الحليم",
      "lat": 31.2504514,
      "lng": 29.9838768,
      "coordonnees": {
        "lat": 31.2504514,
        "lng": 29.9838768
      },
      "mapsUrl": "https://maps.google.com/?q=31.2504514,29.9838768",
      "source": "osm"
    },
    {
      "nom": "مسجد السيوف الكبير",
      "lat": 31.2399261,
      "lng": 29.993233,
      "coordonnees": {
        "lat": 31.2399261,
        "lng": 29.993233
      },
      "mapsUrl": "https://maps.google.com/?q=31.2399261,29.993233",
      "source": "osm"
    },
    {
      "nom": "مسجد روضة السيوف",
      "lat": 31.240982,
      "lng": 29.9930455,
      "coordonnees": {
        "lat": 31.240982,
        "lng": 29.9930455
      },
      "mapsUrl": "https://maps.google.com/?q=31.240982,29.9930455",
      "source": "osm"
    },
    {
      "nom": "جامع الجهيني",
      "lat": 31.2488723,
      "lng": 29.9862994,
      "coordonnees": {
        "lat": 31.2488723,
        "lng": 29.9862994
      },
      "mapsUrl": "https://maps.google.com/?q=31.2488723,29.9862994",
      "source": "osm"
    },
    {
      "nom": "جامع زقزوق",
      "lat": 31.2336864,
      "lng": 29.9999166,
      "coordonnees": {
        "lat": 31.2336864,
        "lng": 29.9999166
      },
      "mapsUrl": "https://maps.google.com/?q=31.2336864,29.9999166",
      "source": "osm"
    },
    {
      "nom": "مسجد الواحد القهار",
      "lat": 31.2399356,
      "lng": 29.9960433,
      "coordonnees": {
        "lat": 31.2399356,
        "lng": 29.9960433
      },
      "mapsUrl": "https://maps.google.com/?q=31.2399356,29.9960433",
      "source": "osm"
    },
    {
      "nom": "مسجد رب يحيى",
      "lat": 31.2405654,
      "lng": 29.9959994,
      "coordonnees": {
        "lat": 31.2405654,
        "lng": 29.9959994
      },
      "mapsUrl": "https://maps.google.com/?q=31.2405654,29.9959994",
      "source": "osm"
    },
    {
      "nom": "مسجد الفرقان",
      "lat": 31.2389818,
      "lng": 29.9971917,
      "coordonnees": {
        "lat": 31.2389818,
        "lng": 29.9971917
      },
      "mapsUrl": "https://maps.google.com/?q=31.2389818,29.9971917",
      "source": "osm"
    },
    {
      "nom": "مسجد بلال بن رباح",
      "lat": 31.2385507,
      "lng": 29.9995067,
      "coordonnees": {
        "lat": 31.2385507,
        "lng": 29.9995067
      },
      "mapsUrl": "https://maps.google.com/?q=31.2385507,29.9995067",
      "source": "osm"
    },
    {
      "nom": "مسجد المدينة المنورة",
      "lat": 31.2397765,
      "lng": 29.9999466,
      "coordonnees": {
        "lat": 31.2397765,
        "lng": 29.9999466
      },
      "mapsUrl": "https://maps.google.com/?q=31.2397765,29.9999466",
      "source": "osm"
    },
    {
      "nom": "مسجد الشهداء",
      "lat": 31.2371289,
      "lng": 30.0017805,
      "coordonnees": {
        "lat": 31.2371289,
        "lng": 30.0017805
      },
      "mapsUrl": "https://maps.google.com/?q=31.2371289,30.0017805",
      "source": "osm"
    },
    {
      "nom": "مسجد رياض الصالحين",
      "lat": 31.2407374,
      "lng": 30.0001266,
      "coordonnees": {
        "lat": 31.2407374,
        "lng": 30.0001266
      },
      "mapsUrl": "https://maps.google.com/?q=31.2407374,30.0001266",
      "source": "osm"
    },
    {
      "nom": "مسجد العزيز الوهاب",
      "lat": 31.2412863,
      "lng": 30.0000148,
      "coordonnees": {
        "lat": 31.2412863,
        "lng": 30.0000148
      },
      "mapsUrl": "https://maps.google.com/?q=31.2412863,30.0000148",
      "source": "osm"
    },
    {
      "nom": "مسجد الفردوس",
      "lat": 31.2368507,
      "lng": 30.0028806,
      "coordonnees": {
        "lat": 31.2368507,
        "lng": 30.0028806
      },
      "mapsUrl": "https://maps.google.com/?q=31.2368507,30.0028806",
      "source": "osm"
    },
    {
      "nom": "مسجد الإسراء والمعراج",
      "lat": 31.2408765,
      "lng": 30.0005073,
      "coordonnees": {
        "lat": 31.2408765,
        "lng": 30.0005073
      },
      "mapsUrl": "https://maps.google.com/?q=31.2408765,30.0005073",
      "source": "osm"
    },
    {
      "nom": "مسجد الملك القدوس",
      "lat": 31.2381898,
      "lng": 30.002458,
      "coordonnees": {
        "lat": 31.2381898,
        "lng": 30.002458
      },
      "mapsUrl": "https://maps.google.com/?q=31.2381898,30.002458",
      "source": "osm"
    },
    {
      "nom": "مسجد الإمام الحسن",
      "lat": 31.2401046,
      "lng": 30.0016117,
      "coordonnees": {
        "lat": 31.2401046,
        "lng": 30.0016117
      },
      "mapsUrl": "https://maps.google.com/?q=31.2401046,30.0016117",
      "source": "osm"
    },
    {
      "nom": "مسجد خالد بن الوليد",
      "lat": 31.2602653,
      "lng": 29.9830084,
      "coordonnees": {
        "lat": 31.2602653,
        "lng": 29.9830084
      },
      "adresse": "خالد بن الوليد",
      "mapsUrl": "https://maps.google.com/?q=31.2602653,29.9830084",
      "source": "osm"
    },
    {
      "nom": "مسجد خاتم المرسلين",
      "lat": 31.2430879,
      "lng": 29.9998391,
      "coordonnees": {
        "lat": 31.2430879,
        "lng": 29.9998391
      },
      "mapsUrl": "https://maps.google.com/?q=31.2430879,29.9998391",
      "source": "osm"
    },
    {
      "nom": "مسجد عباد الرحمن",
      "lat": 31.2425724,
      "lng": 30.0002217,
      "coordonnees": {
        "lat": 31.2425724,
        "lng": 30.0002217
      },
      "mapsUrl": "https://maps.google.com/?q=31.2425724,30.0002217",
      "source": "osm"
    },
    {
      "nom": "مسجد الفتح",
      "lat": 31.2418894,
      "lng": 30.0010325,
      "coordonnees": {
        "lat": 31.2418894,
        "lng": 30.0010325
      },
      "mapsUrl": "https://maps.google.com/?q=31.2418894,30.0010325",
      "source": "osm"
    },
    {
      "nom": "مسجد التوحيد",
      "lat": 31.24153,
      "lng": 30.001746,
      "coordonnees": {
        "lat": 31.24153,
        "lng": 30.001746
      },
      "mapsUrl": "https://maps.google.com/?q=31.24153,30.001746",
      "source": "osm"
    },
    {
      "nom": "مسجد الرحمن الرحيم",
      "lat": 31.2424368,
      "lng": 30.001361,
      "coordonnees": {
        "lat": 31.2424368,
        "lng": 30.001361
      },
      "mapsUrl": "https://maps.google.com/?q=31.2424368,30.001361",
      "source": "osm"
    },
    {
      "nom": "مسجد الرزاق",
      "lat": 31.2411664,
      "lng": 30.0024274,
      "coordonnees": {
        "lat": 31.2411664,
        "lng": 30.0024274
      },
      "mapsUrl": "https://maps.google.com/?q=31.2411664,30.0024274",
      "source": "osm"
    },
    {
      "nom": "مسجد المنان",
      "lat": 31.23961,
      "lng": 30.0035395,
      "coordonnees": {
        "lat": 31.23961,
        "lng": 30.0035395
      },
      "mapsUrl": "https://maps.google.com/?q=31.23961,30.0035395",
      "source": "osm"
    }
  ],
  "tags": [
    "mediterranee",
    "histoire",
    "plage",
    "fruits-de-mer",
    "antique",
    "famille"
  ],
  "selectionsPremium": {
    "mieuxNotes": [
      "Samakmak",
      "Sheraton Montazah Restaurant",
      "Bait Al Karam",
      "Sofitel Alexandria Cecil Hotel Dining",
      "El Halabi"
    ],
    "meilleurRapportQualitePrix": [
      "Tikka Grill",
      "Kadoura Fish",
      "Délices Alexandria",
      "La Fontaine Restaurant",
      "Samakmak"
    ],
    "incontournables": [
      "Shawarma Al Reef",
      "Sofitel Alexandria Cecil Hotel Dining",
      "Sealine Restaurant",
      "El Halabi",
      "Falafel Alexandrie"
    ],
    "pepitesCachees": [
      "Samakmak",
      "Beit Cham"
    ],
    "idealFamille": [
      "Tikka Grill",
      "Qahwa Restaurant",
      "Kadoura Fish",
      "Zephyrion Abu Qir",
      "Trianon"
    ],
    "gastronomique": [
      "Sofitel Alexandria Cecil Hotel Dining",
      "Hilton Alexandria Green Plaza",
      "Four Seasons Alex San Stefano",
      "Saffron Majlis"
    ],
    "ouvertNuit": [
      "Santa Lucia",
      "Chez Gaby",
      "Tikka Alex"
    ],
    "vueExceptionnelle": [
      "Kadoura Fish",
      "Zephyrion Abu Qir",
      "Samakmak"
    ]
  },
  "description_en": "Alexandrie, in Egypt, is a halal-friendly destination with a Halal Trust Score of 4.2/5. Muslim travelers will find 38 halal restaurants listed, 2,000 mosques, real-time prayer times and the Qibla direction — a complete guide to travel with peace of mind.",
  "metaDescription_en": "Halal guide to Alexandrie: 38 halal restaurants listed, 2,000 mosques, prayer times and tips for Muslim travelers. Halal Trust Score 4.2/5.",
  "nom_en": "Alexandrie",
  "boucheries": [],
  "infos_pratiques_en": {
    "langue": "Arabic",
    "meilleure_periode": "March to May, Sept to Nov",
    "appel_priere": "5 times a day",
    "nourriture_halal": "Largement disponible"
  }
}