{
 "nom": "Ankara",
 "pays": "Turquie",
 "slug": "ankara",
 "image": "https://images.unsplash.com/photo-1579886797203-ceb84da62310?w=1600&q=80",
 "image_hero": "https://images.unsplash.com/photo-1579886797203-ceb84da62310?w=1600&q=80",
 "description": "Ankara, capitale de la Turquie, offre une expérience authentique loin des foules. Le mausolée d'Atatürk et la cuisine anatolienne en font une étape sincère.",
 "descriptionLongue": "Capitale politique choisie par Atatürk, Ankara cultive une identité turque profonde et moins touristique qu'Istanbul. L'imposant Anıtkabir, mausolée du fondateur de la République, domine la ville. La vieille citadelle (Hisar) et le musée des civilisations anatoliennes plongent dans des millénaires d'histoire. La cuisine de l'Anatolie centrale — döner, mantı, pâtisseries — y est savoureuse et abordable. Ville entièrement halal et chaleureuse.",
 "halalScore": 8.8,
 "score_halal": 4.4,
 "mosquees": 3000,
 "population": "5,7 millions",
 "langue": "Turc",
 "monnaie": "Livre turque (TRY)",
 "fuseau": "UTC+3",
 "meilleureEpoque": "Avril à Juin, Sept à Oct",
 "prixMoyenNuit": "70€",
 "continent": "Asie",
 "codeISO": "TR",
 "pays_slug": "turquie",
 "region": "Anatolie centrale",
 "meta_title": "Voyage Halal à Ankara — Guide Complet 2026",
 "meta_description": "Restaurants halal signalés, mosquées et guide pratique pour Ankara — Halal Trust Score 8.5/10.",
 "metaDescription": "Restaurants halal signalés, mosquées et guide pratique pour Ankara — Halal Trust Score 8.5/10.",
 "coordonnees": {
  "lat": 39.9334,
  "lng": 32.8597
 },
 "image_alt": "Vue de Ankara, Turquie",
 "statistiques": {
  "mosquees": 60,
  "restaurants_halal": 107,
  "habitants_musulmans_pct": 99,
  "hotels": 107
 },
 "infos_pratiques": {
  "langue": "Turc",
  "monnaie": "Livre turque (TRY)",
  "meilleure_periode": "Avril à Juin, Sept à Oct",
  "appel_priere": "5 fois par jour",
  "nourriture_halal": "Largement disponible",
  "alcool": "Disponible mais discret",
  "securite": "Précautions habituelles"
 },
 "infoPratique": {
  "visa": "e-Visa turc en ligne ou exemption selon nationalité",
  "vaccins": "Aucun obligatoire",
  "transport": "Métro, Ankaray, bus, taxis",
  "priseElectrique": "Type C/F — 230V",
  "decalageHoraire": "+2h par rapport à Paris (hiver)"
 },
 "restaurants": [
  {
   "nom": "Bogazici Lokantasi",
   "lat": 39.9379112,
   "lng": 32.8591545,
   "type": "turkish",
   "halalConfidence": "likely",
   "mapsUrl": "https://maps.google.com/?q=39.9379112,32.8591545",
   "source": "osm"
  },
  {
   "nom": "Meydan 1957",
   "lat": 39.9372887,
   "lng": 32.8638863,
   "type": "kebab",
   "halalConfidence": "likely",
   "mapsUrl": "https://maps.google.com/?q=39.9372887,32.8638863",
   "source": "osm"
  },
  {
   "nom": "Urfali Haci Mehmet",
   "lat": 39.9404926,
   "lng": 32.8558427,
   "type": "turkish",
   "halalConfidence": "likely",
   "mapsUrl": "https://maps.google.com/?q=39.9404926,32.8558427",
   "source": "osm"
  },
  {
   "nom": "Ankara Döner",
   "lat": 39.941109,
   "lng": 32.8550566,
   "type": "turkish",
   "halalConfidence": "likely",
   "mapsUrl": "https://maps.google.com/?q=39.941109,32.8550566",
   "source": "osm"
  },
  {
   "nom": "Hicaz Pastanesi",
   "lat": 39.9235845,
   "lng": 32.8568041,
   "type": "pizza, coffee shop, regional, burger, italian, sandwich, dessert, chocolate, turkish, breakfast, lunch, dinner, mediterranean",
   "halalConfidence": "likely",
   "mapsUrl": "https://maps.google.com/?q=39.9235845,32.8568041",
   "source": "osm"
  },
  {
   "nom": "Kocatepe Kahve Evi",
   "lat": 39.9294518,
   "lng": 32.871834,
   "type": "turkish",
   "halalConfidence": "likely",
   "mapsUrl": "https://maps.google.com/?q=39.9294518,32.871834",
   "source": "osm"
  },
  {
   "nom": "Kırık Oklava",
   "lat": 39.9304412,
   "lng": 32.8729178,
   "type": "turkish",
   "halalConfidence": "likely",
   "mapsUrl": "https://maps.google.com/?q=39.9304412,32.8729178",
   "source": "osm"
  },
  {
   "nom": "Veganarsist Kızılay",
   "lat": 39.921915,
   "lng": 32.860385,
   "type": "turkish",
   "halalConfidence": "likely",
   "mapsUrl": "https://maps.google.com/?q=39.921915,32.860385",
   "source": "osm"
  },
  {
   "nom": "Erdemli Tantuni",
   "lat": 39.9274693,
   "lng": 32.846625,
   "type": "turkish",
   "halalConfidence": "likely",
   "mapsUrl": "https://maps.google.com/?q=39.9274693,32.846625",
   "source": "osm"
  },
  {
   "nom": "HD İskender",
   "lat": 39.9222134,
   "lng": 32.8553793,
   "type": "kebab",
   "halalConfidence": "likely",
   "mapsUrl": "https://maps.google.com/?q=39.9222134,32.8553793",
   "source": "osm"
  },
  {
   "nom": "Komagene",
   "lat": 39.9350492,
   "lng": 32.8436295,
   "type": "kebab",
   "halalConfidence": "likely",
   "mapsUrl": "https://maps.google.com/?q=39.9350492,32.8436295",
   "source": "osm"
  },
  {
   "nom": "Bizim Köfteci",
   "lat": 39.9317289,
   "lng": 32.8760189,
   "type": "turkish",
   "halalConfidence": "likely",
   "mapsUrl": "https://maps.google.com/?q=39.9317289,32.8760189",
   "source": "osm"
  },
  {
   "nom": "Baydöner",
   "lat": 39.9352203,
   "lng": 32.8421382,
   "type": "kebab",
   "halalConfidence": "likely",
   "mapsUrl": "https://maps.google.com/?q=39.9352203,32.8421382",
   "source": "osm"
  },
  {
   "nom": "Tarihi Mutfak",
   "lat": 39.9188337,
   "lng": 32.859522,
   "type": "turkish",
   "halalConfidence": "likely",
   "mapsUrl": "https://maps.google.com/?q=39.9188337,32.859522",
   "source": "osm"
  },
  {
   "nom": "Sılam Ev Yemekleri",
   "lat": 39.9289727,
   "lng": 32.8779442,
   "type": "turkish",
   "halalConfidence": "likely",
   "mapsUrl": "https://maps.google.com/?q=39.9289727,32.8779442",
   "source": "osm"
  },
  {
   "nom": "Kır Lokantası",
   "lat": 39.941635,
   "lng": 32.8390057,
   "type": "turkish",
   "halalConfidence": "likely",
   "mapsUrl": "https://maps.google.com/?q=39.941635,32.8390057",
   "source": "osm"
  },
  {
   "nom": "Gümüş Pastanesi",
   "lat": 39.9341345,
   "lng": 32.8341472,
   "type": "turkish",
   "halalConfidence": "likely",
   "mapsUrl": "https://maps.google.com/?q=39.9341345,32.8341472",
   "source": "osm"
  },
  {
   "nom": "Anıt Lezzet",
   "lat": 39.9207176,
   "lng": 32.8399015,
   "type": "turkish",
   "halalConfidence": "likely",
   "mapsUrl": "https://maps.google.com/?q=39.9207176,32.8399015",
   "source": "osm"
  },
  {
   "nom": "Altın Mekân",
   "lat": 39.9481191,
   "lng": 32.83486,
   "type": "Restaurant",
   "halalConfidence": "high",
   "mapsUrl": "https://maps.google.com/?q=39.9481191,32.83486",
   "source": "osm"
  },
  {
   "nom": "Ekrem Coşkun",
   "lat": 39.9507883,
   "lng": 32.8368108,
   "type": "doner, regional, turkish",
   "halalConfidence": "likely",
   "mapsUrl": "https://maps.google.com/?q=39.9507883,32.8368108",
   "source": "osm"
  },
  {
   "nom": "Junk Vegan",
   "lat": 39.9086358,
   "lng": 32.8584527,
   "type": "burger, sandwich, turkish, dessert",
   "halalConfidence": "likely",
   "mapsUrl": "https://maps.google.com/?q=39.9086358,32.8584527",
   "source": "osm"
  },
  {
   "nom": "Gabo Kitchen Ankara",
   "lat": 39.9245327,
   "lng": 32.8289193,
   "type": "turkish",
   "halalConfidence": "likely",
   "mapsUrl": "https://maps.google.com/?q=39.9245327,32.8289193",
   "source": "osm"
  },
  {
   "nom": "Antep Sis",
   "lat": 39.929607,
   "lng": 32.8261859,
   "type": "turkish",
   "halalConfidence": "likely",
   "mapsUrl": "https://maps.google.com/?q=39.929607,32.8261859",
   "source": "osm"
  },
  {
   "nom": "Hosta",
   "lat": 39.9315288,
   "lng": 32.8257832,
   "type": "turkish",
   "halalConfidence": "likely",
   "mapsUrl": "https://maps.google.com/?q=39.9315288,32.8257832",
   "source": "osm"
  },
  {
   "nom": "Çeyrek",
   "lat": 39.9197417,
   "lng": 32.8302081,
   "type": "kebab, turkish",
   "halalConfidence": "likely",
   "mapsUrl": "https://maps.google.com/?q=39.9197417,32.8302081",
   "source": "osm"
  },
  {
   "nom": "Yeni Kebap 9",
   "lat": 39.9347255,
   "lng": 32.8949743,
   "type": "kebab",
   "halalConfidence": "likely",
   "mapsUrl": "https://maps.google.com/?q=39.9347255,32.8949743",
   "source": "osm"
  },
  {
   "nom": "Tarihi İnegöl Köftecisi Nevzat Usta",
   "lat": 39.9232499,
   "lng": 32.8254409,
   "type": "kebab",
   "halalConfidence": "likely",
   "mapsUrl": "https://maps.google.com/?q=39.9232499,32.8254409",
   "source": "osm"
  },
  {
   "nom": "Kebo",
   "lat": 39.9187996,
   "lng": 32.8277314,
   "type": "kebab, turkish",
   "halalConfidence": "likely",
   "mapsUrl": "https://maps.google.com/?q=39.9187996,32.8277314",
   "source": "osm"
  },
  {
   "nom": "Hakan Çayevi",
   "lat": 39.9234362,
   "lng": 32.8245323,
   "type": "tea, turkish",
   "halalConfidence": "likely",
   "mapsUrl": "https://maps.google.com/?q=39.9234362,32.8245323",
   "source": "osm"
  },
  {
   "nom": "Uzay Cafe & Piknik",
   "lat": 39.9289385,
   "lng": 32.8224071,
   "type": "local, turkish",
   "halalConfidence": "likely",
   "mapsUrl": "https://maps.google.com/?q=39.9289385,32.8224071",
   "source": "osm"
  },
  {
   "nom": "Çılgın Köfteci, Köfte, Pide - Kebap Salonu",
   "lat": 39.9557624,
   "lng": 32.8341073,
   "type": "turkish",
   "halalConfidence": "likely",
   "mapsUrl": "https://maps.google.com/?q=39.9557624,32.8341073",
   "source": "osm"
  },
  {
   "nom": "Urfalım",
   "lat": 39.9562562,
   "lng": 32.8329078,
   "type": "turkish, regional",
   "halalConfidence": "likely",
   "mapsUrl": "https://maps.google.com/?q=39.9562562,32.8329078",
   "source": "osm"
  },
  {
   "nom": "Umut Döner",
   "lat": 39.9570071,
   "lng": 32.833684,
   "type": "turkish",
   "halalConfidence": "likely",
   "mapsUrl": "https://maps.google.com/?q=39.9570071,32.833684",
   "source": "osm"
  },
  {
   "nom": "Mutlu Lokantası",
   "lat": 39.9028602,
   "lng": 32.8529716,
   "type": "kebab",
   "halalConfidence": "high",
   "mapsUrl": "https://maps.google.com/?q=39.9028602,32.8529716",
   "source": "osm"
  },
  {
   "nom": "Ciğerci Bahattin",
   "lat": 39.9177362,
   "lng": 32.8243178,
   "type": "turkish, kebab",
   "halalConfidence": "likely",
   "mapsUrl": "https://maps.google.com/?q=39.9177362,32.8243178",
   "source": "osm"
  },
  {
   "nom": "Meşhur Adıyaman Çiğköftecisi Ömer Aybak",
   "lat": 39.9583678,
   "lng": 32.8342196,
   "type": "turkish",
   "halalConfidence": "likely",
   "mapsUrl": "https://maps.google.com/?q=39.9583678,32.8342196",
   "source": "osm"
  },
  {
   "nom": "Koç Aspava",
   "lat": 39.9025717,
   "lng": 32.8496325,
   "type": "kebab",
   "halalConfidence": "likely",
   "mapsUrl": "https://maps.google.com/?q=39.9025717,32.8496325",
   "source": "osm"
  },
  {
   "nom": "Tuğram Yufka",
   "lat": 39.9579846,
   "lng": 32.8330464,
   "type": "turkish",
   "halalConfidence": "likely",
   "mapsUrl": "https://maps.google.com/?q=39.9579846,32.8330464",
   "source": "osm"
  },
  {
   "nom": "Kebap 9",
   "lat": 39.9015248,
   "lng": 32.8737081,
   "type": "turkish",
   "halalConfidence": "likely",
   "mapsUrl": "https://maps.google.com/?q=39.9015248,32.8737081",
   "source": "osm"
  },
  {
   "nom": "Zigana Pide",
   "lat": 39.9234709,
   "lng": 32.8174718,
   "type": "turkish",
   "halalConfidence": "likely",
   "mapsUrl": "https://maps.google.com/?q=39.9234709,32.8174718",
   "source": "osm"
  },
  {
   "nom": "Gıyma Kebap",
   "lat": 39.9224793,
   "lng": 32.8177422,
   "type": "kebab, turkish",
   "halalConfidence": "likely",
   "mapsUrl": "https://maps.google.com/?q=39.9224793,32.8177422",
   "source": "osm"
  },
  {
   "nom": "Kebap Lahmacun",
   "lat": 39.8998145,
   "lng": 32.8492039,
   "type": "kebab, turkish",
   "halalConfidence": "likely",
   "mapsUrl": "https://maps.google.com/?q=39.8998145,32.8492039",
   "source": "osm"
  },
  {
   "nom": "Fevzi Usta",
   "lat": 39.8994592,
   "lng": 32.8691847,
   "type": "turkish",
   "halalConfidence": "likely",
   "mapsUrl": "https://maps.google.com/?q=39.8994592,32.8691847",
   "source": "osm"
  },
  {
   "nom": "Elif Pide Kebap",
   "lat": 39.9004469,
   "lng": 32.8741512,
   "type": "turkish",
   "halalConfidence": "likely",
   "mapsUrl": "https://maps.google.com/?q=39.9004469,32.8741512",
   "source": "osm"
  },
  {
   "nom": "Maşa",
   "lat": 39.8975711,
   "lng": 32.8579987,
   "type": "turkish",
   "halalConfidence": "likely",
   "mapsUrl": "https://maps.google.com/?q=39.8975711,32.8579987",
   "source": "osm"
  },
  {
   "nom": "Sümela Lokantası",
   "lat": 39.8983573,
   "lng": 32.8487267,
   "type": "turkish",
   "halalConfidence": "likely",
   "mapsUrl": "https://maps.google.com/?q=39.8983573,32.8487267",
   "source": "osm"
  },
  {
   "nom": "Durdu Usta",
   "lat": 39.9169204,
   "lng": 32.8174691,
   "type": "kebab",
   "halalConfidence": "likely",
   "mapsUrl": "https://maps.google.com/?q=39.9169204,32.8174691",
   "source": "osm"
  },
  {
   "nom": "Yelken Balık",
   "lat": 39.8976065,
   "lng": 32.8694371,
   "type": "turkish",
   "halalConfidence": "likely",
   "mapsUrl": "https://maps.google.com/?q=39.8976065,32.8694371",
   "source": "osm"
  },
  {
   "nom": "Bursa Hacıbey Kebapçısı",
   "lat": 39.9118413,
   "lng": 32.821057,
   "type": "turkish",
   "halalConfidence": "likely",
   "mapsUrl": "https://maps.google.com/?q=39.9118413,32.821057",
   "source": "osm"
  },
  {
   "nom": "Taze Türk Mutfağı",
   "lat": 39.8967714,
   "lng": 32.8581146,
   "type": "turkish",
   "halalConfidence": "likely",
   "mapsUrl": "https://maps.google.com/?q=39.8967714,32.8581146",
   "source": "osm"
  },
  {
   "nom": "Gar Lokantası",
   "lat": 39.8975795,
   "lng": 32.8716825,
   "type": "turkish",
   "halalConfidence": "likely",
   "mapsUrl": "https://maps.google.com/?q=39.8975795,32.8716825",
   "source": "osm"
  },
  {
   "nom": "Bi Kahve Atölyesi",
   "lat": 39.8972066,
   "lng": 32.8485205,
   "type": "coffee shop, turkish",
   "halalConfidence": "likely",
   "mapsUrl": "https://maps.google.com/?q=39.8972066,32.8485205",
   "source": "osm"
  },
  {
   "nom": "Şöhretler Pide ve Kebap Salonu",
   "lat": 39.970964,
   "lng": 32.8613907,
   "type": "grill, kebab, turkish",
   "halalConfidence": "likely",
   "mapsUrl": "https://maps.google.com/?q=39.970964,32.8613907",
   "source": "osm"
  },
  {
   "nom": "FMD Cafe",
   "lat": 39.9681719,
   "lng": 32.8795654,
   "type": "turkish",
   "halalConfidence": "likely",
   "mapsUrl": "https://maps.google.com/?q=39.9681719,32.8795654",
   "source": "osm"
  },
  {
   "nom": "Uludağ Döner",
   "lat": 39.8953734,
   "lng": 32.8664112,
   "type": "kebab",
   "halalConfidence": "likely",
   "mapsUrl": "https://maps.google.com/?q=39.8953734,32.8664112",
   "source": "osm"
  },
  {
   "nom": "Hülya'nın Mutfağı",
   "lat": 39.8957766,
   "lng": 32.8477649,
   "type": "turkish",
   "halalConfidence": "likely",
   "mapsUrl": "https://maps.google.com/?q=39.8957766,32.8477649",
   "source": "osm"
  },
  {
   "nom": "Vitamin",
   "lat": 39.8970224,
   "lng": 32.8801865,
   "type": "turkish",
   "halalConfidence": "likely",
   "mapsUrl": "https://maps.google.com/?q=39.8970224,32.8801865",
   "source": "osm"
  },
  {
   "nom": "Meşhur Adıyaman Çiğ Köftecisi",
   "lat": 39.896444,
   "lng": 32.8792766,
   "type": "turkish",
   "halalConfidence": "likely",
   "mapsUrl": "https://maps.google.com/?q=39.896444,32.8792766",
   "source": "osm"
  },
  {
   "nom": "Köroğlu Aspava",
   "lat": 39.8958582,
   "lng": 32.8786313,
   "type": "turkish",
   "halalConfidence": "likely",
   "mapsUrl": "https://maps.google.com/?q=39.8958582,32.8786313",
   "source": "osm"
  },
  {
   "nom": "Konakbay Çibörek-Mantı",
   "lat": 39.9057805,
   "lng": 32.8214944,
   "type": "turkish, tatar",
   "halalConfidence": "likely",
   "mapsUrl": "https://maps.google.com/?q=39.9057805,32.8214944",
   "source": "osm"
  },
  {
   "nom": "Big Baker",
   "lat": 39.8950928,
   "lng": 32.8780503,
   "type": "breakfast, burger, turkish",
   "halalConfidence": "likely",
   "mapsUrl": "https://maps.google.com/?q=39.8950928,32.8780503",
   "source": "osm"
  },
  {
   "nom": "Kukla Kebap",
   "lat": 39.9098205,
   "lng": 32.8160602,
   "type": "turkish",
   "halalConfidence": "likely",
   "mapsUrl": "https://maps.google.com/?q=39.9098205,32.8160602",
   "source": "osm"
  },
  {
   "nom": "oskar kafe",
   "lat": 39.969701,
   "lng": 32.8349871,
   "type": "turkish",
   "halalConfidence": "likely",
   "mapsUrl": "https://maps.google.com/?q=39.969701,32.8349871",
   "source": "osm"
  },
  {
   "nom": "Evim Ev Yemekleri",
   "lat": 39.8944893,
   "lng": 32.8772279,
   "type": "turkish",
   "halalConfidence": "likely",
   "mapsUrl": "https://maps.google.com/?q=39.8944893,32.8772279",
   "source": "osm"
  },
  {
   "nom": "kırıntı fırın",
   "lat": 39.9705019,
   "lng": 32.8348984,
   "type": "turkish",
   "halalConfidence": "likely",
   "mapsUrl": "https://maps.google.com/?q=39.9705019,32.8348984",
   "source": "osm"
  },
  {
   "nom": "Cafe Puzzle barbekü",
   "lat": 39.8936823,
   "lng": 32.8785255,
   "type": "persian",
   "halalConfidence": "likely",
   "mapsUrl": "https://maps.google.com/?q=39.8936823,32.8785255",
   "source": "osm"
  },
  {
   "nom": "Özlem Pide Restoran",
   "lat": 39.9231635,
   "lng": 32.8057219,
   "type": "turkish",
   "halalConfidence": "high",
   "mapsUrl": "https://maps.google.com/?q=39.9231635,32.8057219",
   "source": "osm"
  },
  {
   "nom": "Germeç Piliç",
   "lat": 39.8917855,
   "lng": 32.841511,
   "type": "turkish",
   "halalConfidence": "likely",
   "mapsUrl": "https://maps.google.com/?q=39.8917855,32.841511",
   "source": "osm"
  },
  {
   "nom": "Fevzi Hoca Balık Lokantası",
   "lat": 39.9167065,
   "lng": 32.8056799,
   "type": "seafood, turkish",
   "halalConfidence": "likely",
   "mapsUrl": "https://maps.google.com/?q=39.9167065,32.8056799",
   "source": "osm"
  },
  {
   "nom": "Doy Doy",
   "lat": 39.977932,
   "lng": 32.8714546,
   "type": "kebab",
   "halalConfidence": "likely",
   "mapsUrl": "https://maps.google.com/?q=39.977932,32.8714546",
   "source": "osm"
  },
  {
   "nom": "Mis Başak Restaurant",
   "lat": 39.9083524,
   "lng": 32.8095944,
   "type": "turkish, tea, bagel, cake, coffee shop, breakfast, kebab, burger, pancake",
   "halalConfidence": "likely",
   "mapsUrl": "https://maps.google.com/?q=39.9083524,32.8095944",
   "source": "osm"
  },
  {
   "nom": "Çakraz Balık ve Karadeniz Mutfağı",
   "lat": 39.9001826,
   "lng": 32.8175521,
   "type": "fish, fish and chips, turkish",
   "halalConfidence": "likely",
   "mapsUrl": "https://maps.google.com/?q=39.9001826,32.8175521",
   "source": "osm"
  },
  {
   "nom": "AS9 Pide Kebap Salonu",
   "lat": 39.9741849,
   "lng": 32.8300826,
   "type": "turkish",
   "halalConfidence": "likely",
   "mapsUrl": "https://maps.google.com/?q=39.9741849,32.8300826",
   "source": "osm"
  },
  {
   "nom": "Tarihi Çiçek Lokantası",
   "lat": 39.8985081,
   "lng": 32.8172104,
   "type": "turkish",
   "halalConfidence": "likely",
   "mapsUrl": "https://maps.google.com/?q=39.8985081,32.8172104",
   "source": "osm"
  },
  {
   "nom": "Yıldız 95",
   "lat": 39.8922655,
   "lng": 32.8270732,
   "type": "pide, kebab, sulu yemek",
   "halalConfidence": "likely",
   "mapsUrl": "https://maps.google.com/?q=39.8922655,32.8270732",
   "source": "osm"
  },
  {
   "nom": "Çorbacı Hasan Usta",
   "lat": 39.8852694,
   "lng": 32.8545145,
   "type": "turkish",
   "halalConfidence": "likely",
   "mapsUrl": "https://maps.google.com/?q=39.8852694,32.8545145",
   "source": "osm"
  },
  {
   "nom": "Dayı'nın Yeri",
   "lat": 39.8923173,
   "lng": 32.825408,
   "type": "kebab",
   "halalConfidence": "likely",
   "mapsUrl": "https://maps.google.com/?q=39.8923173,32.825408",
   "source": "osm"
  },
  {
   "nom": "Eray Pide Kebap Salonu",
   "lat": 39.9764138,
   "lng": 32.8275227,
   "type": "turkish",
   "halalConfidence": "likely",
   "mapsUrl": "https://maps.google.com/?q=39.9764138,32.8275227",
   "source": "osm"
  },
  {
   "nom": "Ekrem Coşkun Döner",
   "lat": 39.9660778,
   "lng": 32.8102077,
   "type": "turkish, middle eastern",
   "halalConfidence": "likely",
   "mapsUrl": "https://maps.google.com/?q=39.9660778,32.8102077",
   "source": "osm"
  },
  {
   "nom": "Özler Döner",
   "lat": 39.9662286,
   "lng": 32.8091128,
   "type": "turkish, middle eastern",
   "halalConfidence": "likely",
   "mapsUrl": "https://maps.google.com/?q=39.9662286,32.8091128",
   "source": "osm"
  },
  {
   "nom": "Öveçler Dürümcüsü",
   "lat": 39.8904885,
   "lng": 32.8232482,
   "type": "kebab, turkish",
   "halalConfidence": "high",
   "mapsUrl": "https://maps.google.com/?q=39.8904885,32.8232482",
   "source": "osm"
  },
  {
   "nom": "Urfa Kervan Pide ve Kebap Salonu",
   "lat": 39.9669721,
   "lng": 32.808963,
   "type": "turkish, middle eastern",
   "halalConfidence": "likely",
   "mapsUrl": "https://maps.google.com/?q=39.9669721,32.808963",
   "source": "osm"
  },
  {
   "nom": "Bizim Değirmen",
   "lat": 39.8828133,
   "lng": 32.8393032,
   "type": "turkish, bakery",
   "halalConfidence": "likely",
   "mapsUrl": "https://maps.google.com/?q=39.8828133,32.8393032",
   "source": "osm"
  },
  {
   "nom": "Kebapçı Mustafa Birlik",
   "lat": 39.8791469,
   "lng": 32.8803944,
   "type": "kebab, turkish, tea",
   "halalConfidence": "likely",
   "mapsUrl": "https://maps.google.com/?q=39.8791469,32.8803944",
   "source": "osm"
  },
  {
   "nom": "Arjantin Pide Kebap",
   "lat": 39.8937757,
   "lng": 32.8032637,
   "type": "turkish",
   "halalConfidence": "likely",
   "mapsUrl": "https://maps.google.com/?q=39.8937757,32.8032637",
   "source": "osm"
  },
  {
   "nom": "urfalım lahmacun pide salonu",
   "lat": 39.8838753,
   "lng": 32.8169092,
   "type": "turkish",
   "halalConfidence": "likely",
   "mapsUrl": "https://maps.google.com/?q=39.8838753,32.8169092",
   "source": "osm"
  },
  {
   "nom": "Yaprak Dönercisi",
   "lat": 39.9660343,
   "lng": 32.7930569,
   "type": "turkish",
   "halalConfidence": "likely",
   "mapsUrl": "https://maps.google.com/?q=39.9660343,32.7930569",
   "source": "osm"
  },
  {
   "nom": "MZA Çiğköfte",
   "lat": 39.881854,
   "lng": 32.8175135,
   "type": "Restaurant",
   "halalConfidence": "high",
   "mapsUrl": "https://maps.google.com/?q=39.881854,32.8175135",
   "source": "osm"
  },
  {
   "nom": "Arzu Pide Kebap Salonu",
   "lat": 39.9940475,
   "lng": 32.8518277,
   "type": "turkish",
   "halalConfidence": "high",
   "mapsUrl": "https://maps.google.com/?q=39.9940475,32.8518277",
   "source": "osm"
  },
  {
   "nom": "Köfteci Yusuf",
   "lat": 39.9882921,
   "lng": 32.8202374,
   "type": "turkish",
   "halalConfidence": "likely",
   "mapsUrl": "https://maps.google.com/?q=39.9882921,32.8202374",
   "source": "osm"
  },
  {
   "nom": "Saygılar Pide & Kebap Salonu",
   "lat": 39.9669789,
   "lng": 32.7892339,
   "type": "turkish",
   "halalConfidence": "likely",
   "mapsUrl": "https://maps.google.com/?q=39.9669789,32.7892339",
   "source": "osm"
  },
  {
   "nom": "Beyzade Urfalı",
   "lat": 39.9678216,
   "lng": 32.7879521,
   "type": "turkish",
   "halalConfidence": "likely",
   "mapsUrl": "https://maps.google.com/?q=39.9678216,32.7879521",
   "source": "osm"
  },
  {
   "nom": "Doy Doy Pide & Kebap Salonu",
   "lat": 39.9653866,
   "lng": 32.7833842,
   "type": "turkish",
   "halalConfidence": "likely",
   "mapsUrl": "https://maps.google.com/?q=39.9653866,32.7833842",
   "source": "osm"
  },
  {
   "nom": "Meşhur Aspava",
   "lat": 39.8926956,
   "lng": 32.7884815,
   "type": "kebab",
   "halalConfidence": "likely",
   "mapsUrl": "https://maps.google.com/?q=39.8926956,32.7884815",
   "source": "osm"
  },
  {
   "nom": "Maydanoz Döner",
   "lat": 39.8918156,
   "lng": 32.7889712,
   "type": "kebab",
   "halalConfidence": "likely",
   "mapsUrl": "https://maps.google.com/?q=39.8918156,32.7889712",
   "source": "osm"
  },
  {
   "nom": "Umser Group",
   "lat": 40.0006951,
   "lng": 32.8784438,
   "type": "sandwich, pizza, regional, chicken, mexican, ice cream, fish and chips, turkish",
   "halalConfidence": "high",
   "mapsUrl": "https://maps.google.com/?q=40.0006951,32.8784438",
   "source": "osm"
  },
  {
   "nom": "Pide MAX",
   "lat": 39.8645535,
   "lng": 32.8593885,
   "type": "turkish",
   "halalConfidence": "likely",
   "mapsUrl": "https://maps.google.com/?q=39.8645535,32.8593885",
   "source": "osm"
  },
  {
   "nom": "Salkım söğüt kahvaltı mantı ve çiğ börek",
   "lat": 39.913345,
   "lng": 32.7721319,
   "type": "turkish",
   "halalConfidence": "likely",
   "mapsUrl": "https://maps.google.com/?q=39.913345,32.7721319",
   "source": "osm"
  },
  {
   "nom": "Hatayus Kebap",
   "lat": 39.8673349,
   "lng": 32.822,
   "type": "chicken, kebab",
   "halalConfidence": "likely",
   "mapsUrl": "https://maps.google.com/?q=39.8673349,32.822",
   "source": "osm"
  },
  {
   "nom": "Usta Tantuni",
   "lat": 39.9127209,
   "lng": 32.7679572,
   "type": "kebab, turkish",
   "halalConfidence": "likely",
   "mapsUrl": "https://maps.google.com/?q=39.9127209,32.7679572",
   "source": "osm"
  },
  {
   "nom": "Konyalı Hacı Usta",
   "lat": 39.9107722,
   "lng": 32.7658916,
   "type": "kebab",
   "halalConfidence": "likely",
   "mapsUrl": "https://maps.google.com/?q=39.9107722,32.7658916",
   "source": "osm"
  },
  {
   "nom": "Megabite",
   "lat": 39.8980526,
   "lng": 32.7703899,
   "type": "turkish",
   "halalConfidence": "likely",
   "mapsUrl": "https://maps.google.com/?q=39.8980526,32.7703899",
   "source": "osm"
  },
  {
   "nom": "Yeni Barış Pide",
   "lat": 39.9128621,
   "lng": 32.7599776,
   "type": "turkish",
   "halalConfidence": "likely",
   "mapsUrl": "https://maps.google.com/?q=39.9128621,32.7599776",
   "source": "osm"
  },
  {
   "nom": "Kebab Lahmacun",
   "lat": 40.0100903,
   "lng": 32.8997808,
   "type": "kebab",
   "halalConfidence": "likely",
   "mapsUrl": "https://maps.google.com/?q=40.0100903,32.8997808",
   "source": "osm"
  },
  {
   "nom": "Közname - Tepe Prime",
   "lat": 39.9094813,
   "lng": 32.7551658,
   "type": "kebab, regional",
   "halalConfidence": "high",
   "mapsUrl": "https://maps.google.com/?q=39.9094813,32.7551658",
   "source": "osm"
  },
  {
   "nom": "Düveroğlu",
   "lat": 39.8851757,
   "lng": 32.7632006,
   "type": "kebab, turkish",
   "halalConfidence": "likely",
   "mapsUrl": "https://maps.google.com/?q=39.8851757,32.7632006",
   "source": "osm"
  },
  {
   "nom": "Arzu Pide Kebap",
   "lat": 39.973887,
   "lng": 32.9636176,
   "type": "kebab, pide, döner",
   "halalConfidence": "likely",
   "mapsUrl": "https://maps.google.com/?q=39.973887,32.9636176",
   "source": "osm"
  }
 ],
 "hotels": [
  {
   "nom": "Otel Sema",
   "categorie": "Hôtel",
   "priceRange": "€€",
   "mapsUrl": "https://maps.google.com/?q=39.9342669,32.8633547",
   "lat": 39.9342669,
   "lng": 32.8633547,
   "halalFriendly": false,
   "bookingUrl": "https://maps.google.com/?q=39.9342669,32.8633547",
   "source": "osm"
  },
  {
   "nom": "Sevecen Otel",
   "categorie": "Hôtel",
   "priceRange": "€€",
   "mapsUrl": "https://maps.google.com/?q=39.9334978,32.865571",
   "lat": 39.9334978,
   "lng": 32.865571,
   "halalFriendly": false,
   "bookingUrl": "https://maps.google.com/?q=39.9334978,32.865571",
   "source": "osm"
  },
  {
   "nom": "Güleryüz Otel",
   "categorie": "Hôtel",
   "priceRange": "€€",
   "mapsUrl": "https://maps.google.com/?q=39.9375794,32.8565576",
   "lat": 39.9375794,
   "lng": 32.8565576,
   "halalFriendly": false,
   "bookingUrl": "https://maps.google.com/?q=39.9375794,32.8565576",
   "source": "osm"
  },
  {
   "nom": "Divan Ankara Çukurhan",
   "categorie": "Hôtel",
   "priceRange": "€€",
   "mapsUrl": "https://maps.google.com/?q=39.9374151,32.8633773",
   "lat": 39.9374151,
   "lng": 32.8633773,
   "halalFriendly": false,
   "bookingUrl": "https://maps.google.com/?q=39.9374151,32.8633773",
   "source": "osm"
  },
  {
   "nom": "The Rose Hotel",
   "categorie": "Hôtel",
   "priceRange": "€€",
   "mapsUrl": "https://maps.google.com/?q=39.9359933,32.8658914",
   "lat": 39.9359933,
   "lng": 32.8658914,
   "halalFriendly": false,
   "bookingUrl": "https://maps.google.com/?q=39.9359933,32.8658914",
   "source": "osm"
  },
  {
   "nom": "Sürmeli Oteli",
   "categorie": "Hôtel",
   "priceRange": "€€",
   "mapsUrl": "https://maps.google.com/?q=39.9272547,32.8536431",
   "lat": 39.9272547,
   "lng": 32.8536431,
   "halalFriendly": false,
   "bookingUrl": "https://maps.google.com/?q=39.9272547,32.8536431",
   "source": "osm"
  },
  {
   "nom": "Yavuz hotel",
   "categorie": "Hôtel",
   "priceRange": "€€",
   "mapsUrl": "https://maps.google.com/?q=39.9411553,32.8589891",
   "lat": 39.9411553,
   "lng": 32.8589891,
   "halalFriendly": false,
   "bookingUrl": "https://maps.google.com/?q=39.9411553,32.8589891",
   "source": "osm"
  },
  {
   "nom": "Cihan Palas",
   "categorie": "Hôtel",
   "priceRange": "€€",
   "mapsUrl": "https://maps.google.com/?q=39.9409107,32.8558303",
   "lat": 39.9409107,
   "lng": 32.8558303,
   "halalFriendly": false,
   "bookingUrl": "https://maps.google.com/?q=39.9409107,32.8558303",
   "source": "osm"
  },
  {
   "nom": "My hotel turkish",
   "categorie": "Hôtel",
   "priceRange": "€€",
   "mapsUrl": "https://maps.google.com/?q=39.9409116,32.8558155",
   "lat": 39.9409116,
   "lng": 32.8558155,
   "halalFriendly": false,
   "bookingUrl": "https://maps.google.com/?q=39.9409116,32.8558155",
   "source": "osm"
  },
  {
   "nom": "Gurkent Otel\n\n",
   "categorie": "Hôtel",
   "priceRange": "€€",
   "mapsUrl": "https://maps.google.com/?q=39.9256957,32.8557665",
   "lat": 39.9256957,
   "lng": 32.8557665,
   "halalFriendly": false,
   "bookingUrl": "https://maps.google.com/?q=39.9256957,32.8557665",
   "source": "osm"
  },
  {
   "nom": "Rota Bulvar Otel\n\n",
   "categorie": "Hôtel",
   "priceRange": "€€",
   "mapsUrl": "https://maps.google.com/?q=39.9256418,32.8553747",
   "lat": 39.9256418,
   "lng": 32.8553747,
   "halalFriendly": false,
   "bookingUrl": "https://maps.google.com/?q=39.9256418,32.8553747",
   "source": "osm"
  },
  {
   "nom": "Radisson Blu Hotel Ankara",
   "categorie": "Hôtel",
   "priceRange": "€€",
   "mapsUrl": "https://maps.google.com/?q=39.9397812,32.8515313",
   "lat": 39.9397812,
   "lng": 32.8515313,
   "halalFriendly": false,
   "bookingUrl": "https://www.radissonblu.com/en/hotel-ankara",
   "source": "osm"
  },
  {
   "nom": "abro hotel",
   "categorie": "Hôtel",
   "priceRange": "€€",
   "mapsUrl": "https://maps.google.com/?q=39.9255216,32.8530945",
   "lat": 39.9255216,
   "lng": 32.8530945,
   "halalFriendly": false,
   "bookingUrl": "https://maps.google.com/?q=39.9255216,32.8530945",
   "source": "osm"
  },
  {
   "nom": "New Park Hotel",
   "categorie": "Hôtel",
   "priceRange": "€€",
   "mapsUrl": "https://maps.google.com/?q=39.9242698,32.86306",
   "lat": 39.9242698,
   "lng": 32.86306,
   "halalFriendly": false,
   "bookingUrl": "https://www.npankara.com/",
   "source": "osm"
  },
  {
   "nom": "Enerji Hotel",
   "categorie": "Hôtel",
   "priceRange": "€€",
   "mapsUrl": "https://maps.google.com/?q=39.923973,32.8557093",
   "lat": 39.923973,
   "lng": 32.8557093,
   "halalFriendly": false,
   "bookingUrl": "https://maps.google.com/?q=39.923973,32.8557093",
   "source": "osm"
  },
  {
   "nom": "Asrin",
   "categorie": "Hôtel",
   "priceRange": "€€",
   "mapsUrl": "https://maps.google.com/?q=39.9248106,32.8529972",
   "lat": 39.9248106,
   "lng": 32.8529972,
   "halalFriendly": false,
   "bookingUrl": "https://maps.google.com/?q=39.9248106,32.8529972",
   "source": "osm"
  },
  {
   "nom": "Stay City Hotel",
   "categorie": "Hôtel",
   "priceRange": "€€",
   "mapsUrl": "https://maps.google.com/?q=39.9435331,32.8544899",
   "lat": 39.9435331,
   "lng": 32.8544899,
   "halalFriendly": false,
   "bookingUrl": "https://maps.google.com/?q=39.9435331,32.8544899",
   "source": "osm"
  },
  {
   "nom": "Otel Klasman",
   "categorie": "Hôtel",
   "priceRange": "€€",
   "mapsUrl": "https://maps.google.com/?q=39.9434679,32.8535078",
   "lat": 39.9434679,
   "lng": 32.8535078,
   "halalFriendly": false,
   "bookingUrl": "https://maps.google.com/?q=39.9434679,32.8535078",
   "source": "osm"
  },
  {
   "nom": "Göksu Ant Hotel",
   "categorie": "Hôtel",
   "priceRange": "€€",
   "mapsUrl": "https://maps.google.com/?q=39.9292191,32.8462377",
   "lat": 39.9292191,
   "lng": 32.8462377,
   "halalFriendly": false,
   "bookingUrl": "https://maps.google.com/?q=39.9292191,32.8462377",
   "source": "osm"
  },
  {
   "nom": "Spor Otel",
   "categorie": "Hôtel",
   "priceRange": "€€",
   "mapsUrl": "https://maps.google.com/?q=39.9435915,32.8535086",
   "lat": 39.9435915,
   "lng": 32.8535086,
   "halalFriendly": false,
   "bookingUrl": "https://maps.google.com/?q=39.9435915,32.8535086",
   "source": "osm"
  },
  {
   "nom": "Peracity Hotel",
   "categorie": "Hôtel",
   "priceRange": "€€",
   "mapsUrl": "https://maps.google.com/?q=39.9433636,32.8528119",
   "lat": 39.9433636,
   "lng": 32.8528119,
   "halalFriendly": false,
   "bookingUrl": "https://maps.google.com/?q=39.9433636,32.8528119",
   "source": "osm"
  },
  {
   "nom": "Viva Nova Suit Hotel",
   "categorie": "Hôtel",
   "priceRange": "€€",
   "mapsUrl": "https://maps.google.com/?q=39.9224454,32.8557164",
   "lat": 39.9224454,
   "lng": 32.8557164,
   "halalFriendly": false,
   "bookingUrl": "https://maps.google.com/?q=39.9224454,32.8557164",
   "source": "osm"
  },
  {
   "nom": "Dab Hotel Ulus",
   "categorie": "Hôtel",
   "priceRange": "€€",
   "mapsUrl": "https://maps.google.com/?q=39.9437349,32.8530695",
   "lat": 39.9437349,
   "lng": 32.8530695,
   "halalFriendly": false,
   "bookingUrl": "https://www.dabhotelulus.com.tr/",
   "source": "osm"
  },
  {
   "nom": "Izz ötel",
   "categorie": "Hôtel",
   "priceRange": "€€",
   "mapsUrl": "https://maps.google.com/?q=39.9239247,32.8511217",
   "lat": 39.9239247,
   "lng": 32.8511217,
   "halalFriendly": false,
   "bookingUrl": "https://maps.google.com/?q=39.9239247,32.8511217",
   "source": "osm"
  },
  {
   "nom": "Deeps Hostel",
   "categorie": "Auberge",
   "priceRange": "€€",
   "mapsUrl": "https://maps.google.com/?q=39.9218481,32.8601146",
   "lat": 39.9218481,
   "lng": 32.8601146,
   "halalFriendly": false,
   "bookingUrl": "https://maps.google.com/?q=39.9218481,32.8601146",
   "source": "osm"
  },
  {
   "nom": "Yeni Bahar Otel",
   "categorie": "Hôtel",
   "priceRange": "€€€",
   "score": 3,
   "mapsUrl": "https://maps.google.com/?q=39.9442297,32.8543198",
   "lat": 39.9442297,
   "lng": 32.8543198,
   "halalFriendly": false,
   "bookingUrl": "https://maps.google.com/?q=39.9442297,32.8543198",
   "source": "osm"
  },
  {
   "nom": "Etap Mola",
   "categorie": "Hôtel",
   "priceRange": "€€",
   "mapsUrl": "https://maps.google.com/?q=39.9227535,32.8538193",
   "lat": 39.9227535,
   "lng": 32.8538193,
   "halalFriendly": false,
   "bookingUrl": "https://maps.google.com/?q=39.9227535,32.8538193",
   "source": "osm"
  },
  {
   "nom": "Otel Palan",
   "categorie": "Hôtel",
   "priceRange": "€€",
   "mapsUrl": "https://maps.google.com/?q=39.9430519,32.8509488",
   "lat": 39.9430519,
   "lng": 32.8509488,
   "halalFriendly": false,
   "bookingUrl": "https://maps.google.com/?q=39.9430519,32.8509488",
   "source": "osm"
  },
  {
   "nom": "Asal Otel",
   "categorie": "Hôtel",
   "priceRange": "€€€",
   "score": 3,
   "mapsUrl": "https://maps.google.com/?q=39.9444407,32.8543292",
   "lat": 39.9444407,
   "lng": 32.8543292,
   "halalFriendly": false,
   "bookingUrl": "https://maps.google.com/?q=39.9444407,32.8543292",
   "source": "osm"
  },
  {
   "nom": "Kahya Otel",
   "categorie": "Hôtel",
   "priceRange": "€€",
   "mapsUrl": "https://maps.google.com/?q=39.9251086,32.848753",
   "lat": 39.9251086,
   "lng": 32.848753,
   "halalFriendly": false,
   "bookingUrl": "https://maps.google.com/?q=39.9251086,32.848753",
   "source": "osm"
  },
  {
   "nom": "Hotel Içkale",
   "categorie": "Hôtel",
   "priceRange": "€€",
   "mapsUrl": "https://maps.google.com/?q=39.9302978,32.8447051",
   "lat": 39.9302978,
   "lng": 32.8447051,
   "halalFriendly": false,
   "bookingUrl": "https://maps.google.com/?q=39.9302978,32.8447051",
   "source": "osm"
  },
  {
   "nom": "The Ankara Hotel",
   "categorie": "Hôtel",
   "priceRange": "€€",
   "mapsUrl": "https://maps.google.com/?q=39.9340858,32.8441049",
   "lat": 39.9340858,
   "lng": 32.8441049,
   "halalFriendly": false,
   "bookingUrl": "https://www.theankarahotel.com/",
   "source": "osm"
  },
  {
   "nom": "Royal Carine Otel",
   "categorie": "Hôtel",
   "priceRange": "€€€€",
   "score": 4,
   "mapsUrl": "https://maps.google.com/?q=39.9449611,32.8544377",
   "lat": 39.9449611,
   "lng": 32.8544377,
   "halalFriendly": false,
   "bookingUrl": "https://maps.google.com/?q=39.9449611,32.8544377",
   "source": "osm"
  },
  {
   "nom": "Canbek Otel",
   "categorie": "Hôtel",
   "priceRange": "€€",
   "score": 2,
   "mapsUrl": "https://maps.google.com/?q=39.9447584,32.8536915",
   "lat": 39.9447584,
   "lng": 32.8536915,
   "halalFriendly": false,
   "bookingUrl": "https://maps.google.com/?q=39.9447584,32.8536915",
   "source": "osm"
  },
  {
   "nom": "Elif Otel",
   "categorie": "Hôtel",
   "priceRange": "€€",
   "score": 2,
   "mapsUrl": "https://maps.google.com/?q=39.9448768,32.853775",
   "lat": 39.9448768,
   "lng": 32.853775,
   "halalFriendly": false,
   "bookingUrl": "https://maps.google.com/?q=39.9448768,32.853775",
   "source": "osm"
  },
  {
   "nom": "Ismira Hotel Ankara",
   "categorie": "Hôtel",
   "priceRange": "€€",
   "mapsUrl": "https://maps.google.com/?q=39.9236465,32.8496118",
   "lat": 39.9236465,
   "lng": 32.8496118,
   "halalFriendly": false,
   "bookingUrl": "https://maps.google.com/?q=39.9236465,32.8496118",
   "source": "osm"
  },
  {
   "nom": "Turist Otel",
   "categorie": "Hôtel",
   "priceRange": "€€€€",
   "score": 4,
   "mapsUrl": "https://maps.google.com/?q=39.945186,32.8543953",
   "lat": 39.945186,
   "lng": 32.8543953,
   "halalFriendly": false,
   "bookingUrl": "turisthotel.com.tr",
   "source": "osm"
  },
  {
   "nom": "Esila Hotel",
   "categorie": "Hôtel",
   "priceRange": "€€",
   "mapsUrl": "https://maps.google.com/?q=39.931603,32.8435368",
   "lat": 39.931603,
   "lng": 32.8435368,
   "halalFriendly": false,
   "bookingUrl": "https://maps.google.com/?q=39.931603,32.8435368",
   "source": "osm"
  },
  {
   "nom": "Akar International Hotel",
   "categorie": "Hôtel",
   "priceRange": "€€",
   "mapsUrl": "https://maps.google.com/?q=39.9317216,32.8433708",
   "lat": 39.9317216,
   "lng": 32.8433708,
   "halalFriendly": false,
   "bookingUrl": "https://maps.google.com/?q=39.9317216,32.8433708",
   "source": "osm"
  },
  {
   "nom": "Aygar Otel",
   "categorie": "Hôtel",
   "priceRange": "€€",
   "mapsUrl": "https://maps.google.com/?q=39.9452006,32.8537936",
   "lat": 39.9452006,
   "lng": 32.8537936,
   "halalFriendly": false,
   "bookingUrl": "https://maps.google.com/?q=39.9452006,32.8537936",
   "source": "osm"
  },
  {
   "nom": "lion hotel",
   "categorie": "Hôtel",
   "priceRange": "€€",
   "mapsUrl": "https://maps.google.com/?q=39.9204736,32.8580734",
   "lat": 39.9204736,
   "lng": 32.8580734,
   "halalFriendly": false,
   "bookingUrl": "https://maps.google.com/?q=39.9204736,32.8580734",
   "source": "osm"
  },
  {
   "nom": "Başkent Otel",
   "categorie": "Hôtel",
   "priceRange": "€€",
   "mapsUrl": "https://maps.google.com/?q=39.9424135,32.8474725",
   "lat": 39.9424135,
   "lng": 32.8474725,
   "halalFriendly": false,
   "bookingUrl": "https://maps.google.com/?q=39.9424135,32.8474725",
   "source": "osm"
  },
  {
   "nom": "Maltepe Otel 2000",
   "categorie": "Hôtel",
   "priceRange": "€€",
   "mapsUrl": "https://maps.google.com/?q=39.9320347,32.842432",
   "lat": 39.9320347,
   "lng": 32.842432,
   "halalFriendly": false,
   "bookingUrl": "https://maps.google.com/?q=39.9320347,32.842432",
   "source": "osm"
  },
  {
   "nom": "2017 Hotel",
   "categorie": "Hôtel",
   "priceRange": "€€",
   "mapsUrl": "https://maps.google.com/?q=39.9232947,32.8483995",
   "lat": 39.9232947,
   "lng": 32.8483995,
   "halalFriendly": false,
   "bookingUrl": "https://maps.google.com/?q=39.9232947,32.8483995",
   "source": "osm"
  },
  {
   "nom": "Saffron Hotel",
   "categorie": "Hôtel",
   "priceRange": "€€",
   "mapsUrl": "https://maps.google.com/?q=39.9237491,32.8473424",
   "lat": 39.9237491,
   "lng": 32.8473424,
   "halalFriendly": false,
   "bookingUrl": "https://maps.google.com/?q=39.9237491,32.8473424",
   "source": "osm"
  },
  {
   "nom": "ERK Otel",
   "categorie": "Hôtel",
   "priceRange": "€€",
   "mapsUrl": "https://maps.google.com/?q=39.9211326,32.8503521",
   "lat": 39.9211326,
   "lng": 32.8503521,
   "halalFriendly": false,
   "bookingUrl": "https://maps.google.com/?q=39.9211326,32.8503521",
   "source": "osm"
  },
  {
   "nom": "Hotel Kayra",
   "categorie": "Hôtel",
   "priceRange": "€€",
   "mapsUrl": "https://maps.google.com/?q=39.9192063,32.8584746",
   "lat": 39.9192063,
   "lng": 32.8584746,
   "halalFriendly": false,
   "bookingUrl": "https://maps.google.com/?q=39.9192063,32.8584746",
   "source": "osm"
  },
  {
   "nom": "Hotel Kocatepe",
   "categorie": "Hôtel",
   "priceRange": "€€",
   "mapsUrl": "https://maps.google.com/?q=39.9188741,32.8599612",
   "lat": 39.9188741,
   "lng": 32.8599612,
   "halalFriendly": false,
   "bookingUrl": "https://maps.google.com/?q=39.9188741,32.8599612",
   "source": "osm"
  },
  {
   "nom": "Segah Otel",
   "categorie": "Hôtel",
   "priceRange": "€€",
   "mapsUrl": "https://maps.google.com/?q=39.9476654,32.8558519",
   "lat": 39.9476654,
   "lng": 32.8558519,
   "halalFriendly": false,
   "bookingUrl": "https://maps.google.com/?q=39.9476654,32.8558519",
   "source": "osm"
  },
  {
   "nom": "Grand Silay Hotel",
   "categorie": "Hôtel",
   "priceRange": "€€",
   "mapsUrl": "https://maps.google.com/?q=39.9188042,32.8605634",
   "lat": 39.9188042,
   "lng": 32.8605634,
   "halalFriendly": false,
   "bookingUrl": "https://maps.google.com/?q=39.9188042,32.8605634",
   "source": "osm"
  },
  {
   "nom": "uygun ote",
   "categorie": "Hôtel",
   "priceRange": "€€",
   "mapsUrl": "https://maps.google.com/?q=39.9188222,32.8627211",
   "lat": 39.9188222,
   "lng": 32.8627211,
   "halalFriendly": false,
   "bookingUrl": "https://maps.google.com/?q=39.9188222,32.8627211",
   "source": "osm"
  },
  {
   "nom": "Otel Risis",
   "categorie": "Hôtel",
   "priceRange": "€€",
   "mapsUrl": "https://maps.google.com/?q=39.9187604,32.862732",
   "lat": 39.9187604,
   "lng": 32.862732,
   "halalFriendly": false,
   "bookingUrl": "https://maps.google.com/?q=39.9187604,32.862732",
   "source": "osm"
  },
  {
   "nom": "İlci Residence",
   "categorie": "Hôtel",
   "priceRange": "€€",
   "mapsUrl": "https://maps.google.com/?q=39.9333215,32.8403626",
   "lat": 39.9333215,
   "lng": 32.8403626,
   "halalFriendly": false,
   "bookingUrl": "https://maps.google.com/?q=39.9333215,32.8403626",
   "source": "osm"
  },
  {
   "nom": "Hotel Ayma",
   "categorie": "Hôtel",
   "priceRange": "€€",
   "mapsUrl": "https://maps.google.com/?q=39.9185708,32.858391",
   "lat": 39.9185708,
   "lng": 32.858391,
   "halalFriendly": false,
   "bookingUrl": "https://maps.google.com/?q=39.9185708,32.858391",
   "source": "osm"
  },
  {
   "nom": "Asm in Otel",
   "categorie": "Hôtel",
   "priceRange": "€€",
   "mapsUrl": "https://maps.google.com/?q=39.9480223,32.856107",
   "lat": 39.9480223,
   "lng": 32.856107,
   "halalFriendly": false,
   "bookingUrl": "https://maps.google.com/?q=39.9480223,32.856107",
   "source": "osm"
  },
  {
   "nom": "Nobel Hotel",
   "categorie": "Hôtel",
   "priceRange": "€€",
   "mapsUrl": "https://maps.google.com/?q=39.948314,32.8564368",
   "lat": 39.948314,
   "lng": 32.8564368,
   "halalFriendly": false,
   "bookingUrl": "https://maps.google.com/?q=39.948314,32.8564368",
   "source": "osm"
  },
  {
   "nom": "Kayahan Hotel",
   "categorie": "Hôtel",
   "priceRange": "€€",
   "mapsUrl": "https://maps.google.com/?q=39.9184082,32.8623531",
   "lat": 39.9184082,
   "lng": 32.8623531,
   "halalFriendly": false,
   "bookingUrl": "https://maps.google.com/?q=39.9184082,32.8623531",
   "source": "osm"
  },
  {
   "nom": "Otto City",
   "categorie": "Hôtel",
   "priceRange": "€€",
   "mapsUrl": "https://maps.google.com/?q=39.9182006,32.8615457",
   "lat": 39.9182006,
   "lng": 32.8615457,
   "halalFriendly": false,
   "bookingUrl": "https://www.cityotto.com/",
   "source": "osm"
  },
  {
   "nom": "Shelter Inn",
   "categorie": "Hôtel",
   "priceRange": "€€",
   "mapsUrl": "https://maps.google.com/?q=39.9181216,32.8580311",
   "lat": 39.9181216,
   "lng": 32.8580311,
   "halalFriendly": false,
   "bookingUrl": "https://maps.google.com/?q=39.9181216,32.8580311",
   "source": "osm"
  },
  {
   "nom": "Özel Nurettin Topçu Erkek Öğrenci Yurdu",
   "categorie": "Auberge",
   "priceRange": "€€",
   "mapsUrl": "https://maps.google.com/?q=39.9395891,32.8781504",
   "lat": 39.9395891,
   "lng": 32.8781504,
   "halalFriendly": false,
   "bookingUrl": "https://maps.google.com/?q=39.9395891,32.8781504",
   "source": "osm"
  },
  {
   "nom": "Reda Palas",
   "categorie": "Hôtel",
   "priceRange": "€€",
   "mapsUrl": "https://maps.google.com/?q=39.9182323,32.8555255",
   "lat": 39.9182323,
   "lng": 32.8555255,
   "halalFriendly": false,
   "bookingUrl": "https://maps.google.com/?q=39.9182323,32.8555255",
   "source": "osm"
  },
  {
   "nom": "Anatolia Luxury Hotel",
   "categorie": "Hôtel",
   "priceRange": "€€",
   "mapsUrl": "https://maps.google.com/?q=39.9179762,32.8620381",
   "lat": 39.9179762,
   "lng": 32.8620381,
   "halalFriendly": false,
   "bookingUrl": "https://anatolialuxuryhotel.com/",
   "source": "osm"
  },
  {
   "nom": "Sağlık-Sen Otel",
   "categorie": "Hôtel",
   "priceRange": "€€",
   "mapsUrl": "https://maps.google.com/?q=39.9178273,32.8587659",
   "lat": 39.9178273,
   "lng": 32.8587659,
   "halalFriendly": false,
   "bookingUrl": "https://kizilay.sagliksenotel.com/",
   "source": "osm"
  },
  {
   "nom": "Başkent Konukevi",
   "categorie": "Hôtel",
   "priceRange": "€€",
   "mapsUrl": "https://maps.google.com/?q=39.9304522,32.8396156",
   "lat": 39.9304522,
   "lng": 32.8396156,
   "halalFriendly": false,
   "bookingUrl": "http://www.baskentkonukevi.com",
   "source": "osm"
  },
  {
   "nom": "Erik Hotel",
   "categorie": "Hôtel",
   "priceRange": "€€",
   "mapsUrl": "https://maps.google.com/?q=39.9178229,32.8620587",
   "lat": 39.9178229,
   "lng": 32.8620587,
   "halalFriendly": false,
   "bookingUrl": "https://maps.google.com/?q=39.9178229,32.8620587",
   "source": "osm"
  },
  {
   "nom": "Umit Pembe Kosk",
   "categorie": "Hôtel",
   "priceRange": "€€",
   "mapsUrl": "https://maps.google.com/?q=39.9334108,32.8391127",
   "lat": 39.9334108,
   "lng": 32.8391127,
   "halalFriendly": false,
   "bookingUrl": "https://maps.google.com/?q=39.9334108,32.8391127",
   "source": "osm"
  },
  {
   "nom": "SKY HILL HOTEL",
   "categorie": "Hôtel",
   "priceRange": "€€",
   "mapsUrl": "https://maps.google.com/?q=39.9172376,32.8575925",
   "lat": 39.9172376,
   "lng": 32.8575925,
   "halalFriendly": false,
   "bookingUrl": "https://skyhillhotel.com/",
   "source": "osm"
  },
  {
   "nom": "Merit Altınel",
   "categorie": "Hôtel",
   "priceRange": "€€",
   "mapsUrl": "https://maps.google.com/?q=39.9339808,32.8384666",
   "lat": 39.9339808,
   "lng": 32.8384666,
   "halalFriendly": false,
   "bookingUrl": "https://maps.google.com/?q=39.9339808,32.8384666",
   "source": "osm"
  },
  {
   "nom": "Tandoğan Orduevi",
   "categorie": "Auberge",
   "priceRange": "€€",
   "mapsUrl": "https://maps.google.com/?q=39.9355945,32.8385491",
   "lat": 39.9355945,
   "lng": 32.8385491,
   "halalFriendly": false,
   "bookingUrl": "https://maps.google.com/?q=39.9355945,32.8385491",
   "source": "osm"
  },
  {
   "nom": "Raymar Hotel",
   "categorie": "Hôtel",
   "priceRange": "€€",
   "mapsUrl": "https://maps.google.com/?q=39.9166822,32.8578027",
   "lat": 39.9166822,
   "lng": 32.8578027,
   "halalFriendly": false,
   "bookingUrl": "https://maps.google.com/?q=39.9166822,32.8578027",
   "source": "osm"
  },
  {
   "nom": "Deeps Hostel Ankara 2",
   "categorie": "Auberge",
   "priceRange": "€€",
   "mapsUrl": "https://maps.google.com/?q=39.915405,32.8618638",
   "lat": 39.915405,
   "lng": 32.8618638,
   "halalFriendly": false,
   "bookingUrl": "https://turkeyhostel.com/",
   "source": "osm"
  },
  {
   "nom": "Latifoğlu Hotel",
   "categorie": "Hôtel",
   "priceRange": "€€",
   "mapsUrl": "https://maps.google.com/?q=39.9148718,32.8563872",
   "lat": 39.9148718,
   "lng": 32.8563872,
   "halalFriendly": false,
   "bookingUrl": "https://maps.google.com/?q=39.9148718,32.8563872",
   "source": "osm"
  },
  {
   "nom": "Etap Bulvar Hotel",
   "categorie": "Hôtel",
   "priceRange": "€€",
   "mapsUrl": "https://maps.google.com/?q=39.9147998,32.8554247",
   "lat": 39.9147998,
   "lng": 32.8554247,
   "halalFriendly": false,
   "bookingUrl": "https://maps.google.com/?q=39.9147998,32.8554247",
   "source": "osm"
  },
  {
   "nom": "Aymini Hotel",
   "categorie": "Hôtel",
   "priceRange": "€€",
   "mapsUrl": "https://maps.google.com/?q=39.9526587,32.859611",
   "lat": 39.9526587,
   "lng": 32.859611,
   "halalFriendly": false,
   "bookingUrl": "https://www,ayminihotel.com.tr",
   "source": "osm"
  },
  {
   "nom": "Eyüboğlu Otel",
   "categorie": "Hôtel",
   "priceRange": "€€",
   "mapsUrl": "https://maps.google.com/?q=39.9143469,32.8560259",
   "lat": 39.9143469,
   "lng": 32.8560259,
   "halalFriendly": false,
   "bookingUrl": "https://maps.google.com/?q=39.9143469,32.8560259",
   "source": "osm"
  },
  {
   "nom": "Özilhan Hotel",
   "categorie": "Hôtel",
   "priceRange": "€€",
   "mapsUrl": "https://maps.google.com/?q=39.9135172,32.8561447",
   "lat": 39.9135172,
   "lng": 32.8561447,
   "halalFriendly": false,
   "bookingUrl": "https://maps.google.com/?q=39.9135172,32.8561447",
   "source": "osm"
  },
  {
   "nom": "Demonti Otel Ankara",
   "categorie": "Hôtel",
   "priceRange": "€€",
   "mapsUrl": "https://maps.google.com/?q=39.9131601,32.8564292",
   "lat": 39.9131601,
   "lng": 32.8564292,
   "halalFriendly": false,
   "bookingUrl": "https://www.demontiotel.com/",
   "source": "osm"
  },
  {
   "nom": "Hotel Latanya",
   "categorie": "Hôtel",
   "priceRange": "€€",
   "mapsUrl": "https://maps.google.com/?q=39.912986,32.8584267",
   "lat": 39.912986,
   "lng": 32.8584267,
   "halalFriendly": false,
   "bookingUrl": "http://www.latanyaankara.com/",
   "source": "osm"
  },
  {
   "nom": "Neva Palas",
   "categorie": "Hôtel",
   "priceRange": "€€",
   "mapsUrl": "https://maps.google.com/?q=39.9127602,32.8591076",
   "lat": 39.9127602,
   "lng": 32.8591076,
   "halalFriendly": false,
   "bookingUrl": "https://www.nevapalas.com.tr/",
   "source": "osm"
  },
  {
   "nom": "Ankara Gold Otel",
   "categorie": "Hôtel",
   "priceRange": "€€",
   "mapsUrl": "https://maps.google.com/?q=39.9125441,32.855874",
   "lat": 39.9125441,
   "lng": 32.855874,
   "halalFriendly": false,
   "bookingUrl": "https://maps.google.com/?q=39.9125441,32.855874",
   "source": "osm"
  },
  {
   "nom": "Plaza Hotel",
   "categorie": "Hôtel",
   "priceRange": "€€",
   "mapsUrl": "https://maps.google.com/?q=39.9122031,32.8573742",
   "lat": 39.9122031,
   "lng": 32.8573742,
   "halalFriendly": false,
   "bookingUrl": "https://maps.google.com/?q=39.9122031,32.8573742",
   "source": "osm"
  },
  {
   "nom": "Holiday Inn Ankara",
   "categorie": "Hôtel",
   "priceRange": "€€",
   "mapsUrl": "https://maps.google.com/?q=39.9122143,32.8559399",
   "lat": 39.9122143,
   "lng": 32.8559399,
   "halalFriendly": false,
   "bookingUrl": "https://maps.google.com/?q=39.9122143,32.8559399",
   "source": "osm"
  },
  {
   "nom": "Murat Otel",
   "categorie": "Hôtel",
   "priceRange": "€€",
   "mapsUrl": "https://maps.google.com/?q=39.9119028,32.8594966",
   "lat": 39.9119028,
   "lng": 32.8594966,
   "halalFriendly": false,
   "bookingUrl": "https://maps.google.com/?q=39.9119028,32.8594966",
   "source": "osm"
  },
  {
   "nom": "Seğmen Hotel",
   "categorie": "Hôtel",
   "priceRange": "€€",
   "mapsUrl": "https://maps.google.com/?q=39.9118268,32.8587704",
   "lat": 39.9118268,
   "lng": 32.8587704,
   "halalFriendly": false,
   "bookingUrl": "https://maps.google.com/?q=39.9118268,32.8587704",
   "source": "osm"
  },
  {
   "nom": "Demora hotel",
   "categorie": "Hôtel",
   "priceRange": "€€",
   "mapsUrl": "https://maps.google.com/?q=39.9117774,32.8603107",
   "lat": 39.9117774,
   "lng": 32.8603107,
   "halalFriendly": false,
   "bookingUrl": "https://maps.google.com/?q=39.9117774,32.8603107",
   "source": "osm"
  },
  {
   "nom": "Midas Hotel",
   "categorie": "Hôtel",
   "priceRange": "€€",
   "mapsUrl": "https://maps.google.com/?q=39.9114139,32.8562426",
   "lat": 39.9114139,
   "lng": 32.8562426,
   "halalFriendly": false,
   "bookingUrl": "https://maps.google.com/?q=39.9114139,32.8562426",
   "source": "osm"
  },
  {
   "nom": "Elit Palas Hotel",
   "categorie": "Hôtel",
   "priceRange": "€€",
   "mapsUrl": "https://maps.google.com/?q=39.9107425,32.8579627",
   "lat": 39.9107425,
   "lng": 32.8579627,
   "halalFriendly": false,
   "bookingUrl": "https://maps.google.com/?q=39.9107425,32.8579627",
   "source": "osm"
  },
  {
   "nom": "Büklüm Hotel",
   "categorie": "Hôtel",
   "priceRange": "€€",
   "mapsUrl": "https://maps.google.com/?q=39.9106391,32.8598491",
   "lat": 39.9106391,
   "lng": 32.8598491,
   "halalFriendly": false,
   "bookingUrl": "https://maps.google.com/?q=39.9106391,32.8598491",
   "source": "osm"
  },
  {
   "nom": "Grand Ankara",
   "categorie": "Hôtel",
   "priceRange": "€€",
   "mapsUrl": "https://maps.google.com/?q=39.910632,32.856522",
   "lat": 39.910632,
   "lng": 32.856522,
   "halalFriendly": false,
   "bookingUrl": "https://www.grandankara.com",
   "source": "osm"
  },
  {
   "nom": "Ankara Royal Hotel",
   "categorie": "Hôtel",
   "priceRange": "€€",
   "mapsUrl": "https://maps.google.com/?q=39.9096903,32.8599194",
   "lat": 39.9096903,
   "lng": 32.8599194,
   "halalFriendly": false,
   "bookingUrl": "https://maps.google.com/?q=39.9096903,32.8599194",
   "source": "osm"
  },
  {
   "nom": "Best Western Hotel 2000",
   "categorie": "Hôtel",
   "priceRange": "€€",
   "mapsUrl": "https://maps.google.com/?q=39.9096034,32.8590697",
   "lat": 39.9096034,
   "lng": 32.8590697,
   "halalFriendly": false,
   "bookingUrl": "https://maps.google.com/?q=39.9096034,32.8590697",
   "source": "osm"
  },
  {
   "nom": "Etiler Orduevi",
   "categorie": "Hôtel",
   "priceRange": "€€",
   "mapsUrl": "https://maps.google.com/?q=39.9411072,32.8301148",
   "lat": 39.9411072,
   "lng": 32.8301148,
   "halalFriendly": false,
   "bookingUrl": "https://maps.google.com/?q=39.9411072,32.8301148",
   "source": "osm"
  },
  {
   "nom": "Class Hotel",
   "categorie": "Hôtel",
   "priceRange": "€€",
   "mapsUrl": "https://maps.google.com/?q=39.9085397,32.8590133",
   "lat": 39.9085397,
   "lng": 32.8590133,
   "halalFriendly": false,
   "bookingUrl": "https://maps.google.com/?q=39.9085397,32.8590133",
   "source": "osm"
  },
  {
   "nom": "Gordion Hotel",
   "categorie": "Hôtel",
   "priceRange": "€€",
   "mapsUrl": "https://maps.google.com/?q=39.908203,32.8611362",
   "lat": 39.908203,
   "lng": 32.8611362,
   "halalFriendly": false,
   "bookingUrl": "https://maps.google.com/?q=39.908203,32.8611362",
   "source": "osm"
  },
  {
   "nom": "Ramada Ankara",
   "categorie": "Hôtel",
   "priceRange": "€€€€",
   "score": 4,
   "mapsUrl": "https://maps.google.com/?q=39.908172,32.8614282",
   "lat": 39.908172,
   "lng": 32.8614282,
   "halalFriendly": false,
   "bookingUrl": "https://maps.google.com/?q=39.908172,32.8614282",
   "source": "osm"
  },
  {
   "nom": "Seven Deep Hotel",
   "categorie": "Hôtel",
   "priceRange": "€€",
   "mapsUrl": "https://maps.google.com/?q=39.9078299,32.8594599",
   "lat": 39.9078299,
   "lng": 32.8594599,
   "halalFriendly": false,
   "bookingUrl": "https://maps.google.com/?q=39.9078299,32.8594599",
   "source": "osm"
  },
  {
   "nom": "Sonno",
   "categorie": "Hôtel",
   "priceRange": "€€",
   "mapsUrl": "https://maps.google.com/?q=39.9073682,32.8585934",
   "lat": 39.9073682,
   "lng": 32.8585934,
   "halalFriendly": false,
   "bookingUrl": "https://maps.google.com/?q=39.9073682,32.8585934",
   "source": "osm"
  },
  {
   "nom": "Onyx Business Hotel",
   "categorie": "Hôtel",
   "priceRange": "€€",
   "mapsUrl": "https://maps.google.com/?q=39.9073298,32.8611057",
   "lat": 39.9073298,
   "lng": 32.8611057,
   "halalFriendly": false,
   "bookingUrl": "https://maps.google.com/?q=39.9073298,32.8611057",
   "source": "osm"
  },
  {
   "nom": "Aldino Hotel",
   "categorie": "Hôtel",
   "priceRange": "€€",
   "mapsUrl": "https://maps.google.com/?q=39.9064106,32.861994",
   "lat": 39.9064106,
   "lng": 32.861994,
   "halalFriendly": false,
   "bookingUrl": "https://maps.google.com/?q=39.9064106,32.861994",
   "source": "osm"
  },
  {
   "nom": "Bahçelievler Hotels",
   "categorie": "Hôtel",
   "priceRange": "€€",
   "mapsUrl": "https://maps.google.com/?q=39.9249412,32.8258459",
   "lat": 39.9249412,
   "lng": 32.8258459,
   "halalFriendly": false,
   "bookingUrl": "https://maps.google.com/?q=39.9249412,32.8258459",
   "source": "osm"
  },
  {
   "nom": "DoubleTree by Hilton Ankara Ankamall",
   "categorie": "Hôtel",
   "priceRange": "€€€€",
   "score": 5,
   "mapsUrl": "https://maps.google.com/?q=39.9517811,32.8324056",
   "lat": 39.9517811,
   "lng": 32.8324056,
   "halalFriendly": false,
   "bookingUrl": "https://www.dtbhankamall.com",
   "source": "osm"
  },
  {
   "nom": "Houston Hotel",
   "categorie": "Hôtel",
   "priceRange": "€€",
   "mapsUrl": "https://maps.google.com/?q=39.9042851,32.8614184",
   "lat": 39.9042851,
   "lng": 32.8614184,
   "halalFriendly": false,
   "bookingUrl": "https://maps.google.com/?q=39.9042851,32.8614184",
   "source": "osm"
  },
  {
   "nom": "Otel Tunalı",
   "categorie": "Hôtel",
   "priceRange": "€€",
   "mapsUrl": "https://maps.google.com/?q=39.9033809,32.8605716",
   "lat": 39.9033809,
   "lng": 32.8605716,
   "halalFriendly": false,
   "bookingUrl": "https://maps.google.com/?q=39.9033809,32.8605716",
   "source": "osm"
  },
  {
   "nom": "Occidental Ankara",
   "categorie": "Hôtel",
   "priceRange": "€€",
   "mapsUrl": "https://maps.google.com/?q=39.902612,32.8618959",
   "lat": 39.902612,
   "lng": 32.8618959,
   "halalFriendly": false,
   "bookingUrl": "https://www.barcelo.com/en-ww/occidental-ankara",
   "source": "osm"
  },
  {
   "nom": "Mega Hotel Residence",
   "categorie": "Hôtel",
   "priceRange": "€€",
   "mapsUrl": "https://maps.google.com/?q=39.9020765,32.8634233",
   "lat": 39.9020765,
   "lng": 32.8634233,
   "halalFriendly": false,
   "bookingUrl": "https://maps.google.com/?q=39.9020765,32.8634233",
   "source": "osm"
  },
  {
   "nom": "Mona Hotel",
   "categorie": "Hôtel",
   "priceRange": "€€",
   "mapsUrl": "https://maps.google.com/?q=39.9019417,32.8632531",
   "lat": 39.9019417,
   "lng": 32.8632531,
   "halalFriendly": false,
   "bookingUrl": "https://maps.google.com/?q=39.9019417,32.8632531",
   "source": "osm"
  },
  {
   "nom": "Başkent Öğretmenevi",
   "categorie": "Maison d'hôtes",
   "priceRange": "€€",
   "mapsUrl": "https://maps.google.com/?q=39.9343656,32.8184469",
   "lat": 39.9343656,
   "lng": 32.8184469,
   "halalFriendly": false,
   "bookingUrl": "https://maps.google.com/?q=39.9343656,32.8184469",
   "source": "osm"
  }
 ],
 "activites": [
  {
   "nom": "Hacettepe Üniversitesi Sosyal Bilimler Meslek Yüksekokulu",
   "lat": 39.9342215,
   "lng": 32.8562082,
   "coordonnees": {
    "lat": 39.9342215,
    "lng": 32.8562082
   },
   "categorie": "À voir",
   "mapsUrl": "https://maps.google.com/?q=39.9342215,32.8562082",
   "source": "osm"
  },
  {
   "nom": "Gökyay Vakfı Satranç Müzesi",
   "lat": 39.9346959,
   "lng": 32.8633082,
   "coordonnees": {
    "lat": 39.9346959,
    "lng": 32.8633082
   },
   "categorie": "Culture",
   "mapsUrl": "https://maps.google.com/?q=39.9346959,32.8633082",
   "source": "osm"
  },
  {
   "nom": "Somut Olmayan Kültürel Miras Müzesi",
   "lat": 39.9339866,
   "lng": 32.8640731,
   "coordonnees": {
    "lat": 39.9339866,
    "lng": 32.8640731
   },
   "categorie": "Culture",
   "mapsUrl": "https://maps.google.com/?q=39.9339866,32.8640731",
   "source": "osm"
  },
  {
   "nom": "Mehmet Akif Ersoy Evi Müzesi",
   "lat": 39.9326084,
   "lng": 32.8648649,
   "coordonnees": {
    "lat": 39.9326084,
    "lng": 32.8648649
   },
   "categorie": "Culture",
   "mapsUrl": "https://maps.google.com/?q=39.9326084,32.8648649",
   "source": "osm"
  },
  {
   "nom": "Mimar Sinan",
   "lat": 39.9303454,
   "lng": 32.8551269,
   "coordonnees": {
    "lat": 39.9303454,
    "lng": 32.8551269
   },
   "categorie": "À voir",
   "mapsUrl": "https://maps.google.com/?q=39.9303454,32.8551269",
   "source": "osm"
  },
  {
   "nom": "Cüneyt Gökcer",
   "lat": 39.9351548,
   "lng": 32.8536862,
   "coordonnees": {
    "lat": 39.9351548,
    "lng": 32.8536862
   },
   "categorie": "Histoire",
   "mapsUrl": "https://maps.google.com/?q=39.9351548,32.8536862",
   "source": "osm"
  },
  {
   "nom": "Tarihi Karacabey Hamamı",
   "lat": 39.9337282,
   "lng": 32.8661949,
   "coordonnees": {
    "lat": 39.9337282,
    "lng": 32.8661949
   },
   "categorie": "À voir",
   "mapsUrl": "https://maps.google.com/?q=39.9337282,32.8661949",
   "source": "osm"
  },
  {
   "nom": "Nursultan Nazarbayev Anıtı",
   "lat": 39.9361048,
   "lng": 32.853944,
   "coordonnees": {
    "lat": 39.9361048,
    "lng": 32.853944
   },
   "categorie": "Histoire",
   "mapsUrl": "https://maps.google.com/?q=39.9361048,32.853944",
   "source": "osm"
  },
  {
   "nom": "İnsanın Yükselişi",
   "lat": 39.929756,
   "lng": 32.8645304,
   "coordonnees": {
    "lat": 39.929756,
    "lng": 32.8645304
   },
   "categorie": "À voir",
   "mapsUrl": "https://maps.google.com/?q=39.929756,32.8645304",
   "source": "osm"
  },
  {
   "nom": "Kale Kapısı ve Saat Kulesi",
   "lat": 39.9377387,
   "lng": 32.8636557,
   "coordonnees": {
    "lat": 39.9377387,
    "lng": 32.8636557
   },
   "categorie": "Histoire",
   "mapsUrl": "https://maps.google.com/?q=39.9377387,32.8636557",
   "source": "osm"
  },
  {
   "nom": "Muzaffer Sarıözen Anıtı",
   "lat": 39.932638,
   "lng": 32.8528239,
   "coordonnees": {
    "lat": 39.932638,
    "lng": 32.8528239
   },
   "categorie": "À voir",
   "mapsUrl": "https://maps.google.com/?q=39.932638,32.8528239",
   "source": "osm"
  },
  {
   "nom": "Aziz Klemens Kilisesi",
   "lat": 39.9390253,
   "lng": 32.8596754,
   "coordonnees": {
    "lat": 39.9390253,
    "lng": 32.8596754
   },
   "categorie": "Histoire",
   "mapsUrl": "https://maps.google.com/?q=39.9390253,32.8596754",
   "source": "osm"
  },
  {
   "nom": "Kurtuluş Parkı",
   "lat": 39.9267556,
   "lng": 32.8636606,
   "coordonnees": {
    "lat": 39.9267556,
    "lng": 32.8636606
   },
   "categorie": "Nature",
   "mapsUrl": "https://maps.google.com/?q=39.9267556,32.8636606",
   "source": "osm"
  },
  {
   "nom": "Hitit Güneş Kursu Anıtı",
   "lat": 39.9267277,
   "lng": 32.8552139,
   "coordonnees": {
    "lat": 39.9267277,
    "lng": 32.8552139
   },
   "categorie": "À voir",
   "mapsUrl": "https://maps.google.com/?q=39.9267277,32.8552139",
   "source": "osm"
  },
  {
   "nom": "Roma Tiyatrosu",
   "lat": 39.9418381,
   "lng": 32.8604726,
   "coordonnees": {
    "lat": 39.9418381,
    "lng": 32.8604726
   },
   "categorie": "À voir",
   "mapsUrl": "https://maps.google.com/?q=39.9418381,32.8604726",
   "source": "osm"
  },
  {
   "nom": "15 Temmuz",
   "lat": 39.9414456,
   "lng": 32.8545981,
   "coordonnees": {
    "lat": 39.9414456,
    "lng": 32.8545981
   },
   "categorie": "Histoire",
   "mapsUrl": "https://maps.google.com/?q=39.9414456,32.8545981",
   "source": "osm"
  },
  {
   "nom": "Ankara Kalesi",
   "lat": 39.9414931,
   "lng": 32.865427,
   "coordonnees": {
    "lat": 39.9414931,
    "lng": 32.865427
   },
   "categorie": "Histoire",
   "mapsUrl": "https://maps.google.com/?q=39.9414931,32.865427",
   "source": "osm"
  },
  {
   "nom": "Mareşal Atatürk Anıtı",
   "lat": 39.9247272,
   "lng": 32.8547407,
   "coordonnees": {
    "lat": 39.9247272,
    "lng": 32.8547407
   },
   "categorie": "À voir",
   "mapsUrl": "https://maps.google.com/?q=39.9247272,32.8547407",
   "source": "osm"
  },
  {
   "nom": "Julianus Sütunu",
   "lat": 39.9433337,
   "lng": 32.8559492,
   "coordonnees": {
    "lat": 39.9433337,
    "lng": 32.8559492
   },
   "categorie": "Histoire",
   "mapsUrl": "https://maps.google.com/?q=39.9433337,32.8559492",
   "source": "osm"
  },
  {
   "nom": "Mustafa Kemal Atatürk",
   "lat": 39.9367909,
   "lng": 32.8466503,
   "coordonnees": {
    "lat": 39.9367909,
    "lng": 32.8466503
   },
   "categorie": "Histoire",
   "mapsUrl": "https://maps.google.com/?q=39.9367909,32.8466503",
   "source": "osm"
  },
  {
   "nom": "TCDD Müzesi",
   "lat": 39.9357276,
   "lng": 32.8443246,
   "coordonnees": {
    "lat": 39.9357276,
    "lng": 32.8443246
   },
   "categorie": "Culture",
   "mapsUrl": "https://maps.google.com/?q=39.9357276,32.8443246",
   "source": "osm"
  },
  {
   "nom": "Milli Mücadele Direksiyon Binası",
   "lat": 39.9366925,
   "lng": 32.8429496,
   "coordonnees": {
    "lat": 39.9366925,
    "lng": 32.8429496
   },
   "categorie": "Culture",
   "mapsUrl": "https://maps.google.com/?q=39.9366925,32.8429496",
   "source": "osm"
  },
  {
   "nom": "Roma Hamamı Antik Kent",
   "lat": 39.9459958,
   "lng": 32.8531381,
   "coordonnees": {
    "lat": 39.9459958,
    "lng": 32.8531381
   },
   "categorie": "Culture",
   "mapsUrl": "https://maps.google.com/?q=39.9459958,32.8531381",
   "source": "osm"
  },
  {
   "nom": "Ördekli Park",
   "lat": 39.9268834,
   "lng": 32.8431758,
   "coordonnees": {
    "lat": 39.9268834,
    "lng": 32.8431758
   },
   "categorie": "Nature",
   "mapsUrl": "https://maps.google.com/?q=39.9268834,32.8431758",
   "source": "osm"
  },
  {
   "nom": "Umut Parkı",
   "lat": 39.9257175,
   "lng": 32.84399,
   "coordonnees": {
    "lat": 39.9257175,
    "lng": 32.84399
   },
   "categorie": "Nature",
   "mapsUrl": "https://maps.google.com/?q=39.9257175,32.84399",
   "source": "osm"
  },
  {
   "nom": "İnsan Hakları",
   "lat": 39.9193838,
   "lng": 32.8559962,
   "coordonnees": {
    "lat": 39.9193838,
    "lng": 32.8559962
   },
   "categorie": "À voir",
   "mapsUrl": "https://maps.google.com/?q=39.9193838,32.8559962",
   "source": "osm"
  },
  {
   "nom": "Kore'de Savaşan Türkler Anıtı",
   "lat": 39.9390125,
   "lng": 32.8416507,
   "coordonnees": {
    "lat": 39.9390125,
    "lng": 32.8416507
   },
   "categorie": "Histoire",
   "mapsUrl": "https://maps.google.com/?q=39.9390125,32.8416507",
   "source": "osm"
  },
  {
   "nom": "1'inci Derece Nirengi Pilyesi",
   "lat": 39.9325519,
   "lng": 32.8816064,
   "coordonnees": {
    "lat": 39.9325519,
    "lng": 32.8816064
   },
   "categorie": "Histoire",
   "mapsUrl": "https://maps.google.com/?q=39.9325519,32.8816064",
   "source": "osm"
  },
  {
   "nom": "Haritacılık Müzesi",
   "lat": 39.931782,
   "lng": 32.8821019,
   "coordonnees": {
    "lat": 39.931782,
    "lng": 32.8821019
   },
   "categorie": "Culture",
   "mapsUrl": "https://maps.google.com/?q=39.931782,32.8821019",
   "source": "osm"
  },
  {
   "nom": "Hadiye Tuncer Parkı",
   "lat": 39.933047,
   "lng": 32.8368652,
   "coordonnees": {
    "lat": 39.933047,
    "lng": 32.8368652
   },
   "categorie": "Nature",
   "mapsUrl": "https://maps.google.com/?q=39.933047,32.8368652",
   "source": "osm"
  },
  {
   "nom": "İnkılap Kulesi",
   "lat": 39.9250196,
   "lng": 32.8379156,
   "coordonnees": {
    "lat": 39.9250196,
    "lng": 32.8379156
   },
   "categorie": "Histoire",
   "mapsUrl": "https://maps.google.com/?q=39.9250196,32.8379156",
   "source": "osm"
  },
  {
   "nom": "Cumhuriyet Kulesi",
   "lat": 39.9257128,
   "lng": 32.8372156,
   "coordonnees": {
    "lat": 39.9257128,
    "lng": 32.8372156
   },
   "categorie": "Histoire",
   "mapsUrl": "https://maps.google.com/?q=39.9257128,32.8372156",
   "source": "osm"
  },
  {
   "nom": "Barış Kulesi",
   "lat": 39.9242893,
   "lng": 32.8366818,
   "coordonnees": {
    "lat": 39.9242893,
    "lng": 32.8366818
   },
   "categorie": "Histoire",
   "mapsUrl": "https://maps.google.com/?q=39.9242893,32.8366818",
   "source": "osm"
  },
  {
   "nom": "Hürriyet Kulesi",
   "lat": 39.9273131,
   "lng": 32.8349357,
   "coordonnees": {
    "lat": 39.9273131,
    "lng": 32.8349357
   },
   "categorie": "Histoire",
   "mapsUrl": "https://maps.google.com/?q=39.9273131,32.8349357",
   "source": "osm"
  },
  {
   "nom": "Zafer Kulesi",
   "lat": 39.9249783,
   "lng": 32.8359874,
   "coordonnees": {
    "lat": 39.9249783,
    "lng": 32.8359874
   },
   "categorie": "Histoire",
   "mapsUrl": "https://maps.google.com/?q=39.9249783,32.8359874",
   "source": "osm"
  },
  {
   "nom": "Atatürk Anıtı",
   "lat": 39.9122354,
   "lng": 32.851569,
   "coordonnees": {
    "lat": 39.9122354,
    "lng": 32.851569
   },
   "categorie": "Histoire",
   "mapsUrl": "https://maps.google.com/?q=39.9122354,32.851569",
   "source": "osm"
  },
  {
   "nom": "Mehmed Emin Resulzade Mezarı",
   "lat": 39.9444312,
   "lng": 32.8861581,
   "coordonnees": {
    "lat": 39.9444312,
    "lng": 32.8861581
   },
   "categorie": "Histoire",
   "mapsUrl": "https://maps.google.com/?q=39.9444312,32.8861581",
   "source": "osm"
  },
  {
   "nom": "Türk Telekom Telekominikasyon Müzesi",
   "lat": 39.9560929,
   "lng": 32.8666738,
   "coordonnees": {
    "lat": 39.9560929,
    "lng": 32.8666738
   },
   "categorie": "Culture",
   "mapsUrl": "https://maps.google.com/?q=39.9560929,32.8666738",
   "source": "osm"
  },
  {
   "nom": "15 Temmuz Anıtı",
   "lat": 39.9472537,
   "lng": 32.8345789,
   "coordonnees": {
    "lat": 39.9472537,
    "lng": 32.8345789
   },
   "categorie": "Histoire",
   "mapsUrl": "https://maps.google.com/?q=39.9472537,32.8345789",
   "source": "osm"
  },
  {
   "nom": "Atatürk Heykeli",
   "lat": 39.9481697,
   "lng": 32.8320814,
   "coordonnees": {
    "lat": 39.9481697,
    "lng": 32.8320814
   },
   "categorie": "À voir",
   "mapsUrl": "https://maps.google.com/?q=39.9481697,32.8320814",
   "source": "osm"
  }
 ],
 "mosqueesPrincipales": [
  {
   "nom": "MKEK Cami",
   "lat": 39.9371186,
   "lng": 32.8371977,
   "coordonnees": {
    "lat": 39.9371186,
    "lng": 32.8371977
   },
   "adresse": "Celal Bayar Blv.",
   "mapsUrl": "https://maps.google.com/?q=39.9371186,32.8371977",
   "source": "osm"
  },
  {
   "nom": "Berat Cami",
   "lat": 39.939041,
   "lng": 32.8839018,
   "coordonnees": {
    "lat": 39.939041,
    "lng": 32.8839018
   },
   "adresse": "Mamak/Ankara",
   "mapsUrl": "https://maps.google.com/?q=39.939041,32.8839018",
   "source": "osm"
  },
  {
   "nom": "TBMM Camii",
   "lat": 39.9093144,
   "lng": 32.8505163,
   "coordonnees": {
    "lat": 39.9093144,
    "lng": 32.8505163
   },
   "mapsUrl": "https://maps.google.com/?q=39.9093144,32.8505163",
   "source": "osm"
  },
  {
   "nom": "Hacı Mehmet Kantekin Camii",
   "lat": 39.9342569,
   "lng": 32.8938002,
   "coordonnees": {
    "lat": 39.9342569,
    "lng": 32.8938002
   },
   "adresse": "Mamak/Ankara",
   "mapsUrl": "https://maps.google.com/?q=39.9342569,32.8938002",
   "source": "osm"
  },
  {
   "nom": "Emek Köşe Camii",
   "lat": 39.931588,
   "lng": 32.8211504,
   "coordonnees": {
    "lat": 39.931588,
    "lng": 32.8211504
   },
   "mapsUrl": "https://maps.google.com/?q=39.931588,32.8211504",
   "source": "osm"
  },
  {
   "nom": "Öztoprak Cami",
   "lat": 39.9372517,
   "lng": 32.8982398,
   "coordonnees": {
    "lat": 39.9372517,
    "lng": 32.8982398
   },
   "adresse": "Mamak/Ankara",
   "mapsUrl": "https://maps.google.com/?q=39.9372517,32.8982398",
   "source": "osm"
  },
  {
   "nom": "Eleşkirt Cami",
   "lat": 39.9821937,
   "lng": 32.8736548,
   "coordonnees": {
    "lat": 39.9821937,
    "lng": 32.8736548
   },
   "adresse": "Eleşkirt Sk, Keçiören/Ankara",
   "mapsUrl": "https://maps.google.com/?q=39.9821937,32.8736548",
   "source": "osm"
  },
  {
   "nom": "Ulus Sitesi Mescidi",
   "lat": 39.9846004,
   "lng": 32.8686849,
   "coordonnees": {
    "lat": 39.9846004,
    "lng": 32.8686849
   },
   "mapsUrl": "https://maps.google.com/?q=39.9846004,32.8686849",
   "source": "osm"
  },
  {
   "nom": "Mescit",
   "lat": 39.9762573,
   "lng": 32.8215062,
   "coordonnees": {
    "lat": 39.9762573,
    "lng": 32.8215062
   },
   "mapsUrl": "https://maps.google.com/?q=39.9762573,32.8215062",
   "source": "osm"
  },
  {
   "nom": "R. Ganime Cebeci Cami",
   "lat": 39.9847737,
   "lng": 32.87186,
   "coordonnees": {
    "lat": 39.9847737,
    "lng": 32.87186
   },
   "adresse": "Kaya Sokak, Keçiören/Ankara",
   "mapsUrl": "https://maps.google.com/?q=39.9847737,32.87186",
   "source": "osm"
  },
  {
   "nom": "Üçgül Mescidi",
   "lat": 39.9981584,
   "lng": 32.8657267,
   "coordonnees": {
    "lat": 39.9981584,
    "lng": 32.8657267
   },
   "adresse": "Şehit Tayfun Sümer Sokak, Keçiören/Ankara",
   "mapsUrl": "https://maps.google.com/?q=39.9981584,32.8657267",
   "source": "osm"
  },
  {
   "nom": "Osmanlı Mescid-i Şerifi",
   "lat": 39.9994982,
   "lng": 32.8620715,
   "coordonnees": {
    "lat": 39.9994982,
    "lng": 32.8620715
   },
   "mapsUrl": "https://maps.google.com/?q=39.9994982,32.8620715",
   "source": "osm"
  },
  {
   "nom": "Demsa Evleri Camii",
   "lat": 39.9657077,
   "lng": 32.7823361,
   "coordonnees": {
    "lat": 39.9657077,
    "lng": 32.7823361
   },
   "mapsUrl": "https://maps.google.com/?q=39.9657077,32.7823361",
   "source": "osm"
  },
  {
   "nom": "ATB Mescidi",
   "lat": 39.9482539,
   "lng": 32.7694495,
   "coordonnees": {
    "lat": 39.9482539,
    "lng": 32.7694495
   },
   "adresse": "Ankara Ticaret Borsası, Ankara",
   "mapsUrl": "https://maps.google.com/?q=39.9482539,32.7694495",
   "source": "osm"
  },
  {
   "nom": "Ostim Bosna İş Merkezi Camii",
   "lat": 39.9667664,
   "lng": 32.7463147,
   "coordonnees": {
    "lat": 39.9667664,
    "lng": 32.7463147
   },
   "mapsUrl": "https://maps.google.com/?q=39.9667664,32.7463147",
   "source": "osm"
  },
  {
   "nom": "Harb-İş 5 Camii",
   "lat": 39.9636653,
   "lng": 32.729841,
   "coordonnees": {
    "lat": 39.9636653,
    "lng": 32.729841
   },
   "mapsUrl": "https://maps.google.com/?q=39.9636653,32.729841",
   "source": "osm"
  },
  {
   "nom": "Hasan Tamer Mescidi",
   "lat": 39.9846877,
   "lng": 32.7385818,
   "coordonnees": {
    "lat": 39.9846877,
    "lng": 32.7385818
   },
   "adresse": "1467. Cadde, Ankara",
   "mapsUrl": "https://maps.google.com/?q=39.9846877,32.7385818",
   "source": "osm"
  },
  {
   "nom": "Yıldız Camii",
   "lat": 39.7966915,
   "lng": 32.840461,
   "coordonnees": {
    "lat": 39.7966915,
    "lng": 32.840461
   },
   "mapsUrl": "https://maps.google.com/?q=39.7966915,32.840461",
   "source": "osm"
  },
  {
   "nom": "Mahmut Üzüncü Camii",
   "lat": 39.7913361,
   "lng": 32.8499637,
   "coordonnees": {
    "lat": 39.7913361,
    "lng": 32.8499637
   },
   "mapsUrl": "https://maps.google.com/?q=39.7913361,32.8499637",
   "source": "osm"
  },
  {
   "id": "osm-135458008",
   "nom": "Camii",
   "type": "mosquee",
   "lat": 40.0328792,
   "lng": 32.7940598,
   "mapsUrl": "https://maps.google.com/?q=40.0328792,32.7940598",
   "source": "osm"
  },
  {
   "id": "osm-135462525",
   "nom": "Pazar Cami Şerifi",
   "type": "mosquee",
   "adresse": "Altındağ/Ankara",
   "lat": 39.9611514,
   "lng": 32.8801679,
   "mapsUrl": "https://maps.google.com/?q=39.9611514,32.8801679",
   "source": "osm"
  },
  {
   "id": "osm-155197582",
   "nom": "Hacı Bayram Veli Camii",
   "type": "mosquee",
   "adresse": "Ankara",
   "lat": 39.9443925,
   "lng": 32.8579664,
   "mapsUrl": "https://maps.google.com/?q=39.9443925,32.8579664",
   "source": "osm"
  },
  {
   "id": "osm-184735478",
   "nom": "Kuşcağız Fatih Camii",
   "type": "mosquee",
   "adresse": "Aşık Veysel Caddesi",
   "lat": 39.998416,
   "lng": 32.8413116,
   "mapsUrl": "https://maps.google.com/?q=39.998416,32.8413116",
   "source": "osm"
  },
  {
   "id": "osm-184735482",
   "nom": "Dilek Cami",
   "type": "mosquee",
   "adresse": "Ankara",
   "lat": 39.9966584,
   "lng": 32.8384284,
   "mapsUrl": "https://maps.google.com/?q=39.9966584,32.8384284",
   "source": "osm"
  },
  {
   "id": "osm-184735483",
   "nom": "Tuğba Cami",
   "type": "mosquee",
   "adresse": "Keçiören/Ankara",
   "lat": 39.9983246,
   "lng": 32.833775,
   "mapsUrl": "https://maps.google.com/?q=39.9983246,32.833775",
   "source": "osm"
  },
  {
   "id": "osm-218835346",
   "nom": "Pursaklar Merkez Camii",
   "type": "mosquee",
   "lat": 40.0356781,
   "lng": 32.9025089,
   "mapsUrl": "https://maps.google.com/?q=40.0356781,32.9025089",
   "source": "osm"
  },
  {
   "id": "osm-222999101",
   "nom": "Tepebaşı Camii",
   "type": "mosquee",
   "adresse": "Foça Sokak, Keçiören/Ankara",
   "lat": 39.9875843,
   "lng": 32.8584549,
   "mapsUrl": "https://maps.google.com/?q=39.9875843,32.8584549",
   "source": "osm"
  },
  {
   "id": "osm-223530342",
   "nom": "Keçiören Merkez Cami",
   "type": "mosquee",
   "adresse": "Şehit Tolga Akdaş Sokağı, Ankara",
   "lat": 39.9941377,
   "lng": 32.8671846,
   "mapsUrl": "https://maps.google.com/?q=39.9941377,32.8671846",
   "source": "osm"
  },
  {
   "id": "osm-223530348",
   "nom": "Çağrı Camii",
   "type": "mosquee",
   "lat": 40.0025969,
   "lng": 32.8561579,
   "mapsUrl": "https://maps.google.com/?q=40.0025969,32.8561579",
   "source": "osm"
  },
  {
   "id": "osm-223530387",
   "nom": "Fevzi Çakmak Camii",
   "type": "mosquee",
   "adresse": "Keçiören/Ankara",
   "lat": 40.0065247,
   "lng": 32.8703052,
   "mapsUrl": "https://maps.google.com/?q=40.0065247,32.8703052",
   "source": "osm"
  },
  {
   "id": "osm-223530413",
   "nom": "Turgut Reis Cami",
   "type": "mosquee",
   "adresse": "Keçiören/Ankara",
   "lat": 40.0071617,
   "lng": 32.8797548,
   "mapsUrl": "https://maps.google.com/?q=40.0071617,32.8797548",
   "source": "osm"
  },
  {
   "id": "osm-223530428",
   "nom": "A. Menderes Merkez Cami",
   "type": "mosquee",
   "adresse": "Keçiören/Ankara",
   "lat": 40.0010312,
   "lng": 32.8818801,
   "mapsUrl": "https://maps.google.com/?q=40.0010312,32.8818801",
   "source": "osm"
  },
  {
   "id": "osm-223530447",
   "nom": "Aktepe Süleyman Cami",
   "type": "mosquee",
   "adresse": "Keçiören/Ankara",
   "lat": 39.9974107,
   "lng": 32.8854211,
   "mapsUrl": "https://maps.google.com/?q=39.9974107,32.8854211",
   "source": "osm"
  },
  {
   "id": "osm-223530537",
   "nom": "Akşemsettin Camii",
   "type": "mosquee",
   "adresse": "Keçiören/Ankara",
   "lat": 39.994,
   "lng": 32.8874392,
   "mapsUrl": "https://maps.google.com/?q=39.994,32.8874392",
   "source": "osm"
  },
  {
   "id": "osm-223557092",
   "nom": "Yunus Emre Cami",
   "type": "mosquee",
   "lat": 39.9810499,
   "lng": 32.8496488,
   "mapsUrl": "https://maps.google.com/?q=39.9810499,32.8496488",
   "source": "osm"
  },
  {
   "id": "osm-223557197",
   "nom": "Şehit Mehmet Altanlar Cami",
   "type": "mosquee",
   "lat": 39.9815417,
   "lng": 32.8423205,
   "mapsUrl": "https://maps.google.com/?q=39.9815417,32.8423205",
   "source": "osm"
  },
  {
   "id": "osm-223557393",
   "nom": "Ayvalı Merkez Camii",
   "type": "mosquee",
   "adresse": "Keçiören/Ankara",
   "lat": 39.9834517,
   "lng": 32.8194426,
   "mapsUrl": "https://maps.google.com/?q=39.9834517,32.8194426",
   "source": "osm"
  },
  {
   "id": "osm-223557443",
   "nom": "Güzelevler Cami",
   "type": "mosquee",
   "adresse": "Yenimahalle/Ankara",
   "lat": 39.9714434,
   "lng": 32.8128758,
   "mapsUrl": "https://maps.google.com/?q=39.9714434,32.8128758",
   "source": "osm"
  },
  {
   "id": "osm-223636111",
   "nom": "Hicret Cami",
   "type": "mosquee",
   "adresse": "Mamak/Ankara",
   "lat": 39.9059591,
   "lng": 32.9731969,
   "mapsUrl": "https://maps.google.com/?q=39.9059591,32.9731969",
   "source": "osm"
  },
  {
   "id": "osm-223667807",
   "nom": "İmamlar Camii",
   "type": "mosquee",
   "lat": 40.0308952,
   "lng": 32.9100528,
   "mapsUrl": "https://maps.google.com/?q=40.0308952,32.9100528",
   "source": "osm"
  },
  {
   "id": "osm-224098292",
   "nom": "Hicret Camii",
   "type": "mosquee",
   "lat": 39.9021118,
   "lng": 32.8456846,
   "mapsUrl": "https://maps.google.com/?q=39.9021118,32.8456846",
   "source": "osm"
  },
  {
   "id": "osm-224202917",
   "nom": "Fatih Camii",
   "type": "mosquee",
   "lat": 40.0331907,
   "lng": 32.9210645,
   "mapsUrl": "https://maps.google.com/?q=40.0331907,32.9210645",
   "source": "osm"
  },
  {
   "id": "osm-224454161",
   "nom": "Veysel Karani Camii",
   "type": "mosquee",
   "lat": 40.0336281,
   "lng": 32.9173451,
   "mapsUrl": "https://maps.google.com/?q=40.0336281,32.9173451",
   "source": "osm"
  },
  {
   "id": "osm-224503814",
   "nom": "Mehmet Zahid Kotku Cami",
   "type": "mosquee",
   "adresse": "Çankaya/Ankara",
   "lat": 39.8908632,
   "lng": 32.8417496,
   "mapsUrl": "https://maps.google.com/?q=39.8908632,32.8417496",
   "source": "osm"
  },
  {
   "id": "osm-224841239",
   "nom": "Sokullu Fatih Camii",
   "type": "mosquee",
   "lat": 39.8868332,
   "lng": 32.837537,
   "mapsUrl": "https://maps.google.com/?q=39.8868332,32.837537",
   "source": "osm"
  },
  {
   "id": "osm-225375121",
   "nom": "Demirciler Camii",
   "type": "mosquee",
   "lat": 40.0376949,
   "lng": 32.926895,
   "mapsUrl": "https://maps.google.com/?q=40.0376949,32.926895",
   "source": "osm"
  },
  {
   "id": "osm-225752638",
   "nom": "Odtü Mescit",
   "type": "mosquee",
   "lat": 39.8853833,
   "lng": 32.7839759,
   "mapsUrl": "https://maps.google.com/?q=39.8853833,32.7839759",
   "source": "osm"
  },
  {
   "id": "osm-226241457",
   "nom": "Hacettepe Camii",
   "type": "mosquee",
   "lat": 39.9302361,
   "lng": 32.8672455,
   "mapsUrl": "https://maps.google.com/?q=39.9302361,32.8672455",
   "source": "osm"
  },
  {
   "id": "osm-226763983",
   "nom": "Abdulhadi Kurtuluş Merkez Cami",
   "type": "mosquee",
   "adresse": "Çankaya/Ankara",
   "lat": 39.9256808,
   "lng": 32.866634,
   "mapsUrl": "https://maps.google.com/?q=39.9256808,32.866634",
   "source": "osm"
  },
  {
   "id": "osm-227701826",
   "nom": "Anakadın Camii",
   "type": "mosquee",
   "lat": 39.9799165,
   "lng": 32.828069,
   "mapsUrl": "https://maps.google.com/?q=39.9799165,32.828069",
   "source": "osm"
  },
  {
   "id": "osm-227702158",
   "nom": "Polisevleri Camii",
   "type": "mosquee",
   "lat": 39.9697995,
   "lng": 32.8307366,
   "mapsUrl": "https://maps.google.com/?q=39.9697995,32.8307366",
   "source": "osm"
  },
  {
   "id": "osm-227703273",
   "nom": "İmam-ı Azam Cami",
   "type": "mosquee",
   "lat": 39.9790964,
   "lng": 32.8229916,
   "mapsUrl": "https://maps.google.com/?q=39.9790964,32.8229916",
   "source": "osm"
  },
  {
   "id": "osm-227759116",
   "nom": "Kuba Camii",
   "type": "mosquee",
   "lat": 39.9800996,
   "lng": 32.8359925,
   "mapsUrl": "https://maps.google.com/?q=39.9800996,32.8359925",
   "source": "osm"
  },
  {
   "id": "osm-228708692",
   "nom": "Kandil Camii",
   "type": "mosquee",
   "lat": 39.8894001,
   "lng": 32.829513,
   "mapsUrl": "https://maps.google.com/?q=39.8894001,32.829513",
   "source": "osm"
  },
  {
   "id": "osm-229893528",
   "nom": "Yukarı Öveçler Ulu Camii",
   "type": "mosquee",
   "lat": 39.8791916,
   "lng": 32.827329,
   "mapsUrl": "https://maps.google.com/?q=39.8791916,32.827329",
   "source": "osm"
  },
  {
   "id": "osm-230244638",
   "nom": "Çamlıca Merkez Camii",
   "type": "mosquee",
   "lat": 39.9544858,
   "lng": 32.7856582,
   "mapsUrl": "https://maps.google.com/?q=39.9544858,32.7856582",
   "source": "osm"
  },
  {
   "id": "osm-231155956",
   "nom": "Fatih Sultan Mehmet Cami",
   "type": "mosquee",
   "lat": 39.9484213,
   "lng": 32.7805772,
   "mapsUrl": "https://maps.google.com/?q=39.9484213,32.7805772",
   "source": "osm"
  },
  {
   "id": "osm-231398070",
   "nom": "Etlik Merkez Cami",
   "type": "mosquee",
   "lat": 39.9735716,
   "lng": 32.8417087,
   "mapsUrl": "https://maps.google.com/?q=39.9735716,32.8417087",
   "source": "osm"
  },
  {
   "id": "osm-240953407",
   "nom": "Münir - Neriman İslamcıoğlu Camii",
   "type": "mosquee",
   "lat": 39.8827268,
   "lng": 32.8250399,
   "mapsUrl": "https://maps.google.com/?q=39.8827268,32.8250399",
   "source": "osm"
  },
  {
   "id": "osm-241104914",
   "nom": "Ehlibeyt Camii",
   "type": "mosquee",
   "lat": 39.8967969,
   "lng": 32.8179199,
   "mapsUrl": "https://maps.google.com/?q=39.8967969,32.8179199",
   "source": "osm"
  }
 ],
 "tags": [
  "capitale",
  "authentique",
  "histoire",
  "anatolie",
  "spirituel",
  "famille"
 ],
 "description_en": "Ankara, in Turkey, is a halal-friendly destination with a Halal Trust Score of 4.4/5. Muslim travelers will find 147 halal restaurants listed, 3,000 mosques, real-time prayer times and the Qibla direction — a complete guide to travel with peace of mind.",
 "metaDescription_en": "Halal guide to Ankara: 147 halal restaurants listed, 3,000 mosques, prayer times and tips for Muslim travelers. Halal Trust Score 4.4/5.",
 "nom_en": "Ankara",
 "boucheries": [],
 "infos_pratiques_en": {
  "langue": "Turkish",
  "monnaie": "Turkish lira (TRY)",
  "meilleure_periode": "April to June, Sept to Oct",
  "appel_priere": "5 times a day",
  "nourriture_halal": "Largement disponible",
  "alcool": "Available Mays discret"
 },
 "dataPurgedAt": "2026-07-15",
 "osmEnrichedAt": "2026-07-15"
}