{
  "nom": "Aqaba",
  "pays": "Jordanie",
  "slug": "aqaba",
  "image": "https://images.unsplash.com/photo-1715833957000-e55403a65169?w=1600&q=80",
  "image_hero": "https://images.unsplash.com/photo-1715833957000-e55403a65169?w=1600&q=80",
  "description": "Aqaba, unique fenêtre de la Jordanie sur la mer Rouge, allie plongée de classe mondiale et porte d'entrée vers Wadi Rum et Petra.",
  "descriptionLongue": "Au carrefour de quatre pays, Aqaba ouvre la Jordanie sur les eaux turquoise de la mer Rouge. Ses récifs coralliens comptent parmi les mieux préservés du monde, paradis des plongeurs. La ville, détendue et balnéaire, sert de base idéale pour explorer le désert de Wadi Rum et la cité nabatéenne de Petra. Cuisine jordanienne — mansaf, sayadeyah — et hospitalité bédouine complètent l'expérience d'une station largement halal.",
  "halalScore": 8.3,
  "score_halal": 4.2,
  "mosquees": 80,
  "population": "190 000",
  "langue": "Arabe",
  "monnaie": "Dinar jordanien (JOD)",
  "fuseau": "UTC+3",
  "meilleureEpoque": "Mars à Mai, Sept à Nov",
  "prixMoyenNuit": "95€",
  "continent": "Asie",
  "codeISO": "JO",
  "pays_slug": "jordanie",
  "region": "Mer Rouge",
  "meta_title": "Voyage Halal à Aqaba — Guide Complet 2026",
  "meta_description": "Restaurants halal signalés, mosquées et guide pratique pour Aqaba — Halal Trust Score 8.3/10.",
  "metaDescription": "Restaurants halal signalés, mosquées et guide pratique pour Aqaba — Halal Trust Score 8.3/10.",
  "coordonnees": {
    "lat": 29.5267,
    "lng": 35.0078
  },
  "image_alt": "Vue de Aqaba, Jordanie",
  "statistiques": {
    "mosquees": 80,
    "restaurants_halal": 800,
    "habitants_musulmans_pct": 95,
    "hotels": 119
  },
  "infos_pratiques": {
    "langue": "Arabe",
    "monnaie": "Dinar jordanien (JOD)",
    "meilleure_periode": "Mars à Mai, Sept à Nov",
    "appel_priere": "5 fois par jour",
    "nourriture_halal": "Largement disponible",
    "alcool": "Disponible (zone franche)",
    "securite": "Précautions habituelles"
  },
  "infoPratique": {
    "visa": "Visa gratuit en zone franche d'Aqaba (ASEZA)",
    "vaccins": "Aucun obligatoire",
    "transport": "Taxis, location de voiture, navettes vers Petra et Wadi Rum",
    "priseElectrique": "Type C/D/F/G — 230V",
    "decalageHoraire": "+2h par rapport à Paris (hiver)"
  },
  "restaurants": [
    {
      "nom": "Ali Baba Restaurant",
      "type": "Traditionnel local",
      "certificationHalal": true,
      "score": 4.4,
      "adresse": "Centre-ville, Aqaba",
      "description": "Institution d'Aqaba, fruits de mer et cuisine jordanienne en centre-ville.",
      "mapsUrl": "https://maps.google.com/?q=Ali+Baba+Restaurant+Aqaba",
      "priceRange": "€€",
      "specialite": "Sayadeyah (poisson-riz)",
      "id": "r1",
      "nombreAvis": 698,
      "ouvertureRamadan": true,
      "livraison": true,
      "reservationRequise": false,
      "tags": [
        "familial",
        "livraison",
        "local-authentique"
      ],
      "lat": 29.5573526,
      "lng": 35.034939,
      "geocoded": true
    },
    {
      "nom": "Captain's Restaurant",
      "type": "Fruits de mer",
      "certificationHalal": true,
      "score": 4.5,
      "adresse": "Al-Nahda Street, Aqaba",
      "description": "Spécialiste des produits de la mer, cadre nautique.",
      "mapsUrl": "https://maps.google.com/?q=Captain%27s+Restaurant+Aqaba",
      "priceRange": "€€€",
      "specialite": "Poisson de la mer Rouge",
      "id": "r2",
      "nombreAvis": 191,
      "ouvertureRamadan": true,
      "livraison": false,
      "reservationRequise": false,
      "tags": [
        "familial",
        "vue-mer"
      ],
      "lat": 29.5325496,
      "lng": 35.0010324,
      "geocoded": true
    },
    {
      "nom": "Hani Ali",
      "type": "Pâtisserie & Café",
      "certificationHalal": true,
      "score": 4.5,
      "adresse": "Centre-ville, Aqaba",
      "description": "Pâtisserie populaire réputée pour sa knafeh et ses glaces.",
      "mapsUrl": "https://maps.google.com/?q=Hani+Ali+Aqaba",
      "priceRange": "€",
      "specialite": "Knafeh et glaces",
      "id": "r3",
      "nombreAvis": 352,
      "ouvertureRamadan": true,
      "livraison": true,
      "reservationRequise": false,
      "tags": [
        "a-emporter",
        "calme",
        "familial",
        "livraison",
        "rapide"
      ],
      "lat": 29.5573526,
      "lng": 35.034939,
      "geocoded": true
    },
    {
      "nom": "Al Mohandes",
      "type": "Traditionnel local",
      "certificationHalal": true,
      "score": 4.3,
      "adresse": "Aqaba",
      "description": "Cuisine jordanienne familiale, mansaf généreux.",
      "mapsUrl": "https://maps.google.com/?q=Al+Mohandes+Aqaba",
      "priceRange": "€",
      "specialite": "Mansaf et grillades",
      "id": "r4",
      "nombreAvis": 1556,
      "ouvertureRamadan": true,
      "livraison": true,
      "reservationRequise": false,
      "tags": [
        "familial",
        "livraison",
        "local-authentique",
        "rapide"
      ],
      "lat": 29.5266483,
      "lng": 35.0075433,
      "geocoded": true
    },
    {
      "nom": "Royal Yacht Club Restaurant",
      "type": "Gastronomique",
      "certificationHalal": true,
      "score": 4.5,
      "adresse": "Marina, Aqaba",
      "description": "Table élégante de la marina, vue sur le golfe et les montagnes.",
      "mapsUrl": "https://maps.google.com/?q=Royal+Yacht+Club+Restaurant+Aqaba",
      "priceRange": "€€€€",
      "specialite": "Cuisine méditerranéenne",
      "id": "r5",
      "nombreAvis": 1958,
      "ouvertureRamadan": true,
      "livraison": true,
      "reservationRequise": true,
      "tags": [
        "calme",
        "livraison",
        "reservation-requise",
        "romantique"
      ],
      "lat": 29.4253493,
      "lng": 34.9754104,
      "geocoded": true
    },
    {
      "nom": "Shawarma Reem",
      "type": "Grillades & Kebab",
      "certificationHalal": true,
      "score": 4.4,
      "adresse": "Centre-ville, Aqaba",
      "description": "Adresse culte du shawarma, simple et savoureuse.",
      "mapsUrl": "https://maps.google.com/?q=Shawarma+Reem+Aqaba",
      "priceRange": "€",
      "specialite": "Shawarma",
      "id": "r6",
      "nombreAvis": 1981,
      "ouvertureRamadan": true,
      "livraison": false,
      "reservationRequise": false,
      "tags": [
        "familial",
        "local-authentique",
        "rapide"
      ],
      "lat": 29.5573526,
      "lng": 35.034939,
      "geocoded": true
    },
    {
      "nom": "Tala Bay Beach Restaurant",
      "type": "Fruits de mer",
      "certificationHalal": true,
      "score": 4.3,
      "adresse": "Tala Bay, Aqaba",
      "description": "Restaurant de plage au sud d'Aqaba, ambiance balnéaire.",
      "mapsUrl": "https://maps.google.com/?q=Tala+Bay+Beach+Restaurant+Aqaba",
      "priceRange": "€€€",
      "specialite": "Grillades de poisson",
      "id": "r7",
      "nombreAvis": 180,
      "ouvertureRamadan": true,
      "livraison": true,
      "reservationRequise": false,
      "tags": [
        "familial",
        "livraison",
        "vue-mer"
      ],
      "lat": 29.4091955,
      "lng": 34.9798154,
      "geocoded": true
    },
    {
      "nom": "Pizza Time Aqaba",
      "type": "Pizza & Italien",
      "certificationHalal": true,
      "score": 4.1,
      "adresse": "Aqaba",
      "description": "Pizzeria conviviale appréciée des familles.",
      "mapsUrl": "https://maps.google.com/?q=Pizza+Time+Aqaba+Aqaba",
      "priceRange": "€€",
      "specialite": "Pizza halal",
      "id": "r8",
      "nombreAvis": 771,
      "ouvertureRamadan": true,
      "livraison": true,
      "reservationRequise": false,
      "tags": [
        "familial",
        "livraison",
        "rapide"
      ],
      "lat": 29.5266483,
      "lng": 35.0075433,
      "geocoded": true
    },
    {
      "nom": "Al Madina Aqaba",
      "type": "Traditionnel local",
      "certificationHalal": true,
      "score": 4.2,
      "adresse": "Aqaba",
      "description": "Adresse halal appréciée des habitants de Aqaba.",
      "mapsUrl": "https://maps.google.com/?q=Al+Madina+Aqaba+Aqaba",
      "priceRange": "€€",
      "specialite": "Plat du jour maison",
      "id": "r9",
      "nombreAvis": 89,
      "ouvertureRamadan": true,
      "livraison": false,
      "reservationRequise": false,
      "tags": [
        "familial",
        "local-authentique"
      ],
      "lat": 29.5266483,
      "lng": 35.0075433,
      "geocoded": true
    },
    {
      "nom": "Shawarma House Aqaba",
      "type": "Grillades & Kebab",
      "certificationHalal": true,
      "score": 4.3,
      "adresse": "Aqaba",
      "description": "Adresse halal appréciée des habitants de Aqaba.",
      "mapsUrl": "https://maps.google.com/?q=Shawarma+House+Aqaba+Aqaba",
      "priceRange": "€",
      "specialite": "Shawarma poulet",
      "id": "r10",
      "nombreAvis": 1312,
      "ouvertureRamadan": true,
      "livraison": true,
      "reservationRequise": false,
      "tags": [
        "familial",
        "livraison",
        "local-authentique",
        "rapide"
      ],
      "lat": 29.5266483,
      "lng": 35.0075433,
      "geocoded": true
    },
    {
      "nom": "Beit Beirut Aqaba",
      "type": "Libanais & Levant",
      "certificationHalal": true,
      "score": 4.4,
      "adresse": "Aqaba",
      "description": "Adresse halal appréciée des habitants de Aqaba.",
      "mapsUrl": "https://maps.google.com/?q=Beit+Beirut+Aqaba+Aqaba",
      "priceRange": "€€",
      "specialite": "Mezze libanais",
      "id": "r11",
      "nombreAvis": 2106,
      "ouvertureRamadan": true,
      "livraison": true,
      "reservationRequise": false,
      "tags": [
        "animé",
        "familial",
        "livraison"
      ],
      "lat": 29.5266483,
      "lng": 35.0075433,
      "geocoded": true
    },
    {
      "nom": "Spice Route Aqaba",
      "type": "Indien & Pakistani",
      "certificationHalal": true,
      "score": 4.5,
      "adresse": "Aqaba",
      "description": "Adresse halal appréciée des habitants de Aqaba.",
      "mapsUrl": "https://maps.google.com/?q=Spice+Route+Aqaba+Aqaba",
      "priceRange": "€€",
      "specialite": "Biryani",
      "id": "r12",
      "nombreAvis": 1449,
      "ouvertureRamadan": true,
      "livraison": true,
      "reservationRequise": false,
      "tags": [
        "familial",
        "livraison",
        "local-authentique"
      ],
      "lat": 29.5266483,
      "lng": 35.0075433,
      "geocoded": true
    },
    {
      "nom": "Saffron Garden Aqaba",
      "type": "Gastronomique",
      "certificationHalal": true,
      "score": 4.6000000000000005,
      "adresse": "Aqaba",
      "description": "Adresse halal appréciée des habitants de Aqaba.",
      "mapsUrl": "https://maps.google.com/?q=Saffron+Garden+Aqaba+Aqaba",
      "priceRange": "€€€",
      "specialite": "Menu dégustation halal",
      "id": "r13",
      "nombreAvis": 1428,
      "ouvertureRamadan": true,
      "livraison": true,
      "reservationRequise": true,
      "tags": [
        "calme",
        "livraison",
        "reservation-requise",
        "romantique"
      ],
      "lat": 29.5266483,
      "lng": 35.0075433,
      "geocoded": true
    },
    {
      "nom": "Green Bowl Aqaba",
      "type": "Végétarien & Healthy",
      "certificationHalal": true,
      "score": 4.2,
      "adresse": "Aqaba",
      "description": "Adresse halal appréciée des habitants de Aqaba.",
      "mapsUrl": "https://maps.google.com/?q=Green+Bowl+Aqaba+Aqaba",
      "priceRange": "€",
      "specialite": "Bowl méditerranéen",
      "id": "r14",
      "nombreAvis": 1410,
      "ouvertureRamadan": true,
      "livraison": false,
      "reservationRequise": false,
      "tags": [
        "calme",
        "rapide",
        "veggie"
      ],
      "lat": 29.5266483,
      "lng": 35.0075433,
      "geocoded": true
    },
    {
      "nom": "Sultan Café Aqaba",
      "type": "Pâtisserie & Café",
      "certificationHalal": true,
      "score": 4.3,
      "adresse": "Aqaba",
      "description": "Adresse halal appréciée des habitants de Aqaba.",
      "mapsUrl": "https://maps.google.com/?q=Sultan+Caf%C3%A9+Aqaba+Aqaba",
      "priceRange": "€",
      "specialite": "Café arabe et baklava",
      "id": "r15",
      "nombreAvis": 1056,
      "ouvertureRamadan": true,
      "livraison": true,
      "reservationRequise": false,
      "tags": [
        "a-emporter",
        "calme",
        "familial",
        "livraison",
        "rapide"
      ],
      "lat": 29.5266483,
      "lng": 35.0075433,
      "geocoded": true
    },
    {
      "nom": "Al Fardoun",
      "lat": 29.528553,
      "lng": 35.0040001,
      "type": "arab, tea, coffee shop",
      "halalConfidence": "likely",
      "mapsUrl": "https://maps.google.com/?q=29.528553,35.0040001",
      "source": "osm"
    },
    {
      "nom": "AL Shami",
      "lat": 29.528085,
      "lng": 35.0033673,
      "type": "fish, arab, regional",
      "halalConfidence": "likely",
      "mapsUrl": "https://maps.google.com/?q=29.528085,35.0033673",
      "source": "osm"
    },
    {
      "nom": "Memories Castle",
      "lat": 29.5311323,
      "lng": 35.003593,
      "type": "italian pizza, barbecue, arab",
      "halalConfidence": "likely",
      "mapsUrl": "https://maps.google.com/?q=29.5311323,35.003593",
      "source": "osm"
    },
    {
      "nom": "المحيط",
      "lat": 29.5329462,
      "lng": 35.0031578,
      "type": "fine dining, oriental, arab, barbecue, seafood, kebab, breakfast, tea, grill, fish and chips, fish, chicken, burger",
      "halalConfidence": "likely",
      "mapsUrl": "https://maps.google.com/?q=29.5329462,35.0031578",
      "source": "osm"
    },
    {
      "nom": "טנדורי",
      "lat": 29.5509591,
      "lng": 34.961451,
      "type": "indian",
      "halalConfidence": "likely",
      "mapsUrl": "https://maps.google.com/?q=29.5509591,34.961451",
      "source": "osm"
    },
    {
      "nom": "שווארמה פלפל אילת",
      "lat": 29.5571839,
      "lng": 34.9513929,
      "type": "falafel, kebab",
      "halalConfidence": "likely",
      "mapsUrl": "https://maps.google.com/?q=29.5571839,34.9513929",
      "source": "osm"
    },
    {
      "nom": "משחזר של לאלו",
      "lat": 29.5611879,
      "lng": 34.95345,
      "type": "moroccan",
      "halalConfidence": "likely",
      "mapsUrl": "https://maps.google.com/?q=29.5611879,34.95345",
      "source": "osm"
    }
  ],
  "hotels": [
    {
      "nom": "Kempinski Hotel Aqaba",
      "categorie": "Resort & Spa",
      "score": 4.6,
      "adresse": "King Hussein Street, Aqaba",
      "description": "Resort de luxe en bord de mer avec plage privée et spa.",
      "halalFriendly": true,
      "sansAlcool": false,
      "mapsUrl": "https://maps.google.com/?q=Kempinski+Hotel+Aqaba+Aqaba",
      "bookingUrl": "https://www.booking.com/searchresults.fr.html?ss=Aqaba&label=voyageshalal",
      "halalBookingUrl": "https://www.halalbooking.com/search?city=aqaba",
      "priceRange": "€€€€",
      "id": "h1",
      "nombreAvis": 328,
      "piscineNonMixte": true,
      "salleDePreiere": true,
      "qiblaIndicateur": true,
      "petitDejeunerHalal": true,
      "services": [
        "centre-ville",
        "conciergerie",
        "navette-aeroport",
        "parking",
        "piscine",
        "piscine-non-mixte",
        "restaurant-halal",
        "salle-sport",
        "spa",
        "spa-femmes",
        "wifi"
      ],
      "lat": 29.5320395,
      "lng": 34.9973585
    },
    {
      "nom": "Mövenpick Resort Aqaba",
      "categorie": "Resort & Spa",
      "score": 4.5,
      "adresse": "Aqaba",
      "description": "Grand resort central avec accès plage et piscines, familial.",
      "halalFriendly": true,
      "sansAlcool": false,
      "mapsUrl": "https://maps.google.com/?q=M%C3%B6venpick+Resort+Aqaba+Aqaba",
      "bookingUrl": "https://www.booking.com/searchresults.fr.html?ss=Aqaba&label=voyageshalal",
      "halalBookingUrl": "https://www.halalbooking.com/search?city=aqaba",
      "priceRange": "€€€€",
      "id": "h2",
      "nombreAvis": 1661,
      "piscineNonMixte": true,
      "salleDePreiere": true,
      "qiblaIndicateur": true,
      "petitDejeunerHalal": true,
      "services": [
        "centre-ville",
        "conciergerie",
        "navette-aeroport",
        "parking",
        "piscine",
        "piscine-non-mixte",
        "restaurant-halal",
        "salle-sport",
        "spa",
        "spa-femmes",
        "wifi"
      ],
      "lat": 29.4050688,
      "lng": 34.9781855
    },
    {
      "nom": "DoubleTree by Hilton Aqaba",
      "categorie": "Standard",
      "score": 4.3,
      "adresse": "Aqaba",
      "description": "Hôtel moderne au front de mer, restauration variée.",
      "halalFriendly": true,
      "sansAlcool": false,
      "mapsUrl": "https://maps.google.com/?q=DoubleTree+by+Hilton+Aqaba+Aqaba",
      "bookingUrl": "https://www.booking.com/searchresults.fr.html?ss=Aqaba&label=voyageshalal",
      "halalBookingUrl": "https://www.halalbooking.com/search?city=aqaba",
      "priceRange": "€€€",
      "id": "h3",
      "nombreAvis": 2107,
      "piscineNonMixte": false,
      "salleDePreiere": true,
      "qiblaIndicateur": true,
      "petitDejeunerHalal": true,
      "services": [
        "centre-ville",
        "conciergerie",
        "parking",
        "restaurant-halal",
        "wifi"
      ],
      "lat": 29.5301833,
      "lng": 35.00349
    },
    {
      "nom": "Captain's Hotel",
      "categorie": "Budget",
      "score": 4.2,
      "adresse": "Aqaba",
      "description": "Hôtel économique fiable en centre-ville, accueil chaleureux.",
      "halalFriendly": true,
      "sansAlcool": true,
      "mapsUrl": "https://maps.google.com/?q=Captain%27s+Hotel+Aqaba",
      "bookingUrl": "https://www.booking.com/searchresults.fr.html?ss=Aqaba&label=voyageshalal",
      "halalBookingUrl": "https://www.halalbooking.com/search?city=aqaba",
      "priceRange": "€€",
      "id": "h4",
      "nombreAvis": 1588,
      "piscineNonMixte": false,
      "salleDePreiere": true,
      "qiblaIndicateur": true,
      "petitDejeunerHalal": true,
      "services": [
        "centre-ville",
        "conciergerie",
        "parking",
        "restaurant-halal",
        "wifi"
      ],
      "lat": 29.5311526,
      "lng": 35.0024414
    },
    {
      "nom": "Nairoukh Hotel",
      "categorie": "Hôtel",
      "priceRange": "€€",
      "mapsUrl": "https://maps.google.com/?q=29.5267724,35.007832",
      "lat": 29.5267724,
      "lng": 35.007832,
      "halalFriendly": false,
      "bookingUrl": "https://maps.google.com/?q=29.5267724,35.007832",
      "source": "osm"
    },
    {
      "nom": "RAWA’AT ALAQABA",
      "categorie": "Hôtel",
      "priceRange": "€€",
      "mapsUrl": "https://maps.google.com/?q=29.5257174,35.0066699",
      "lat": 29.5257174,
      "lng": 35.0066699,
      "halalFriendly": false,
      "bookingUrl": "https://maps.google.com/?q=29.5257174,35.0066699",
      "source": "osm"
    },
    {
      "nom": "Al Amer Hostel",
      "categorie": "Auberge",
      "priceRange": "€€",
      "mapsUrl": "https://maps.google.com/?q=29.5254724,35.0089921",
      "lat": 29.5254724,
      "lng": 35.0089921,
      "halalFriendly": false,
      "bookingUrl": "https://maps.google.com/?q=29.5254724,35.0089921",
      "source": "osm"
    },
    {
      "nom": "Luciana Hotel",
      "categorie": "Hôtel",
      "priceRange": "€€",
      "mapsUrl": "https://maps.google.com/?q=29.5257863,35.0061839",
      "lat": 29.5257863,
      "lng": 35.0061839,
      "halalFriendly": false,
      "bookingUrl": "https://maps.google.com/?q=29.5257863,35.0061839",
      "source": "osm"
    },
    {
      "nom": "Hakaia Hostel",
      "categorie": "Auberge",
      "priceRange": "€€",
      "mapsUrl": "https://maps.google.com/?q=29.5280719,35.0063122",
      "lat": 29.5280719,
      "lng": 35.0063122,
      "halalFriendly": false,
      "bookingUrl": "https://maps.google.com/?q=29.5280719,35.0063122",
      "source": "osm"
    },
    {
      "nom": "Hakaia Community Hostel",
      "categorie": "Auberge",
      "priceRange": "€€",
      "mapsUrl": "https://maps.google.com/?q=29.5278483,35.0060458",
      "lat": 29.5278483,
      "lng": 35.0060458,
      "halalFriendly": false,
      "bookingUrl": "https://maps.google.com/?q=29.5278483,35.0060458",
      "source": "osm"
    },
    {
      "nom": "Taj Hotel",
      "categorie": "Hôtel",
      "priceRange": "€€",
      "mapsUrl": "https://maps.google.com/?q=29.5251117,35.006579",
      "lat": 29.5251117,
      "lng": 35.006579,
      "halalFriendly": false,
      "bookingUrl": "https://maps.google.com/?q=29.5251117,35.006579",
      "source": "osm"
    },
    {
      "nom": "Aquamarina 3",
      "categorie": "Hôtel",
      "priceRange": "€€",
      "mapsUrl": "https://maps.google.com/?q=29.5270055,35.0100641",
      "lat": 29.5270055,
      "lng": 35.0100641,
      "halalFriendly": false,
      "bookingUrl": "https://maps.google.com/?q=29.5270055,35.0100641",
      "source": "osm"
    },
    {
      "nom": "Alena Hotel",
      "categorie": "Hôtel",
      "priceRange": "€€",
      "mapsUrl": "https://maps.google.com/?q=29.5246825,35.0074436",
      "lat": 29.5246825,
      "lng": 35.0074436,
      "halalFriendly": false,
      "bookingUrl": "https://maps.google.com/?q=29.5246825,35.0074436",
      "source": "osm"
    },
    {
      "nom": "Hotel Prestige",
      "categorie": "Hôtel",
      "priceRange": "€€",
      "mapsUrl": "https://maps.google.com/?q=29.5282742,35.0062517",
      "lat": 29.5282742,
      "lng": 35.0062517,
      "halalFriendly": false,
      "bookingUrl": "https://maps.google.com/?q=29.5282742,35.0062517",
      "source": "osm"
    },
    {
      "nom": "J Plaza Hotel",
      "categorie": "Hôtel",
      "priceRange": "€€",
      "mapsUrl": "https://maps.google.com/?q=29.5283501,35.0061315",
      "lat": 29.5283501,
      "lng": 35.0061315,
      "halalFriendly": false,
      "bookingUrl": "https://maps.google.com/?q=29.5283501,35.0061315",
      "source": "osm"
    },
    {
      "nom": "Golden Rose Hotel",
      "categorie": "Hôtel",
      "priceRange": "€€",
      "mapsUrl": "https://maps.google.com/?q=29.5278927,35.005595",
      "lat": 29.5278927,
      "lng": 35.005595,
      "halalFriendly": false,
      "bookingUrl": "https://goldenroseaqaba.com/",
      "source": "osm"
    },
    {
      "nom": "BARAKA AL AQABA HOTEL SUITES",
      "categorie": "Hôtel",
      "priceRange": "€€",
      "mapsUrl": "https://maps.google.com/?q=29.524301,35.0088121",
      "lat": 29.524301,
      "lng": 35.0088121,
      "halalFriendly": false,
      "bookingUrl": "https://maps.google.com/?q=29.524301,35.0088121",
      "source": "osm"
    },
    {
      "nom": "شقق الياسمين المفروشه",
      "categorie": "Hôtel",
      "priceRange": "€€",
      "mapsUrl": "https://maps.google.com/?q=29.5292125,35.0070814",
      "lat": 29.5292125,
      "lng": 35.0070814,
      "halalFriendly": false,
      "bookingUrl": "https://maps.google.com/?q=29.5292125,35.0070814",
      "source": "osm"
    },
    {
      "nom": "Karam House Inn",
      "categorie": "Hôtel",
      "priceRange": "€€",
      "mapsUrl": "https://maps.google.com/?q=29.5289597,35.0063195",
      "lat": 29.5289597,
      "lng": 35.0063195,
      "halalFriendly": false,
      "bookingUrl": "https://maps.google.com/?q=29.5289597,35.0063195",
      "source": "osm"
    },
    {
      "nom": "Al-Naher Al-Khaled Hotel",
      "categorie": "Hôtel",
      "priceRange": "€€",
      "mapsUrl": "https://maps.google.com/?q=29.5255111,35.004626",
      "lat": 29.5255111,
      "lng": 35.004626,
      "halalFriendly": false,
      "bookingUrl": "https://maps.google.com/?q=29.5255111,35.004626",
      "source": "osm"
    },
    {
      "nom": "Amir Palace hotel",
      "categorie": "Hôtel",
      "priceRange": "€€",
      "mapsUrl": "https://maps.google.com/?q=29.5302637,35.0065478",
      "lat": 29.5302637,
      "lng": 35.0065478,
      "halalFriendly": false,
      "bookingUrl": "https://maps.google.com/?q=29.5302637,35.0065478",
      "source": "osm"
    },
    {
      "nom": "Alreshik hotel",
      "categorie": "Auberge",
      "priceRange": "€€",
      "mapsUrl": "https://maps.google.com/?q=29.5265604,35.0033905",
      "lat": 29.5265604,
      "lng": 35.0033905,
      "halalFriendly": false,
      "bookingUrl": "https://maps.google.com/?q=29.5265604,35.0033905",
      "source": "osm"
    },
    {
      "nom": "Dweik Hotel 1",
      "categorie": "Hôtel",
      "priceRange": "€€",
      "mapsUrl": "https://maps.google.com/?q=29.5287738,35.0036868",
      "lat": 29.5287738,
      "lng": 35.0036868,
      "halalFriendly": false,
      "bookingUrl": "https://maps.google.com/?q=29.5287738,35.0036868",
      "source": "osm"
    },
    {
      "nom": "Al-Safa Tourist Hotel",
      "categorie": "Hôtel",
      "priceRange": "€€",
      "mapsUrl": "https://maps.google.com/?q=29.5296477,35.004388",
      "lat": 29.5296477,
      "lng": 35.004388,
      "halalFriendly": false,
      "bookingUrl": "https://maps.google.com/?q=29.5296477,35.004388",
      "source": "osm"
    },
    {
      "nom": "Amer Hotel 2",
      "categorie": "Hôtel",
      "priceRange": "€€",
      "mapsUrl": "https://maps.google.com/?q=29.5288415,35.003617",
      "lat": 29.5288415,
      "lng": 35.003617,
      "halalFriendly": false,
      "bookingUrl": "https://maps.google.com/?q=29.5288415,35.003617",
      "source": "osm"
    },
    {
      "nom": "Cedar Hotel",
      "categorie": "Hôtel",
      "priceRange": "€€",
      "mapsUrl": "https://maps.google.com/?q=29.5305594,35.0058197",
      "lat": 29.5305594,
      "lng": 35.0058197,
      "halalFriendly": false,
      "bookingUrl": "https://maps.google.com/?q=29.5305594,35.0058197",
      "source": "osm"
    },
    {
      "nom": "Amer 2",
      "categorie": "Hôtel",
      "priceRange": "€€",
      "mapsUrl": "https://maps.google.com/?q=29.5288329,35.0036032",
      "lat": 29.5288329,
      "lng": 35.0036032,
      "halalFriendly": false,
      "bookingUrl": "https://maps.google.com/?q=29.5288329,35.0036032",
      "source": "osm"
    },
    {
      "nom": "Amira Hotel",
      "categorie": "Hôtel",
      "priceRange": "€€",
      "mapsUrl": "https://maps.google.com/?q=29.5289862,35.0036787",
      "lat": 29.5289862,
      "lng": 35.0036787,
      "halalFriendly": false,
      "bookingUrl": "https://maps.google.com/?q=29.5289862,35.0036787",
      "source": "osm"
    },
    {
      "nom": "The City Centre Hostel",
      "categorie": "Hôtel",
      "priceRange": "€€",
      "mapsUrl": "https://maps.google.com/?q=29.5290162,35.0036511",
      "lat": 29.5290162,
      "lng": 35.0036511,
      "halalFriendly": false,
      "bookingUrl": "https://maps.google.com/?q=29.5290162,35.0036511",
      "source": "osm"
    },
    {
      "nom": "Maswada Plaza Hotel",
      "categorie": "Hôtel",
      "priceRange": "€€",
      "mapsUrl": "https://maps.google.com/?q=29.5312599,35.0064976",
      "lat": 29.5312599,
      "lng": 35.0064976,
      "halalFriendly": false,
      "bookingUrl": "https://maps.google.com/?q=29.5312599,35.0064976",
      "source": "osm"
    },
    {
      "nom": "Crystal hotel",
      "categorie": "Hôtel",
      "priceRange": "€€",
      "mapsUrl": "https://maps.google.com/?q=29.5261341,35.002308",
      "lat": 29.5261341,
      "lng": 35.002308,
      "halalFriendly": false,
      "bookingUrl": "https://maps.google.com/?q=29.5261341,35.002308",
      "source": "osm"
    },
    {
      "nom": "Beach Hotel",
      "categorie": "Hôtel",
      "priceRange": "€€",
      "mapsUrl": "https://maps.google.com/?q=29.5264236,35.0022384",
      "lat": 29.5264236,
      "lng": 35.0022384,
      "halalFriendly": false,
      "bookingUrl": "https://maps.google.com/?q=29.5264236,35.0022384",
      "source": "osm"
    },
    {
      "nom": "Hospitality Palace Hotel",
      "categorie": "Hôtel",
      "priceRange": "€€",
      "mapsUrl": "https://maps.google.com/?q=29.5255718,35.0022339",
      "lat": 29.5255718,
      "lng": 35.0022339,
      "halalFriendly": false,
      "bookingUrl": "https://maps.google.com/?q=29.5255718,35.0022339",
      "source": "osm"
    },
    {
      "nom": "Sea View Hotel",
      "categorie": "Hôtel",
      "priceRange": "€€",
      "mapsUrl": "https://maps.google.com/?q=29.5249416,35.0024083",
      "lat": 29.5249416,
      "lng": 35.0024083,
      "halalFriendly": false,
      "bookingUrl": "https://maps.google.com/?q=29.5249416,35.0024083",
      "source": "osm"
    },
    {
      "nom": "Roza Beach Hotel",
      "categorie": "Hôtel",
      "priceRange": "€€",
      "mapsUrl": "https://maps.google.com/?q=29.5251763,35.0023123",
      "lat": 29.5251763,
      "lng": 35.0023123,
      "halalFriendly": false,
      "bookingUrl": "https://maps.google.com/?q=29.5251763,35.0023123",
      "source": "osm"
    },
    {
      "nom": "DoubleTree by Hilton Hotel Aqaba",
      "categorie": "Hôtel",
      "priceRange": "€€€€",
      "score": 5,
      "mapsUrl": "https://maps.google.com/?q=29.5301833,35.00349",
      "lat": 29.5301833,
      "lng": 35.00349,
      "halalFriendly": false,
      "bookingUrl": "https://www.hilton.com/en/hotels/aqjdtdi-doubletree-aqaba/",
      "source": "osm"
    },
    {
      "nom": "Afnan",
      "categorie": "Hôtel",
      "priceRange": "€€",
      "mapsUrl": "https://maps.google.com/?q=29.5232121,35.0031676",
      "lat": 29.5232121,
      "lng": 35.0031676,
      "halalFriendly": false,
      "bookingUrl": "https://maps.google.com/?q=29.5232121,35.0031676",
      "source": "osm"
    },
    {
      "nom": "7 Days",
      "categorie": "Hôtel",
      "priceRange": "€€",
      "mapsUrl": "https://maps.google.com/?q=29.5229869,35.0033031",
      "lat": 29.5229869,
      "lng": 35.0033031,
      "halalFriendly": false,
      "bookingUrl": "https://maps.google.com/?q=29.5229869,35.0033031",
      "source": "osm"
    },
    {
      "nom": "فندق أحلى طلة",
      "categorie": "Hôtel",
      "priceRange": "€€",
      "mapsUrl": "https://maps.google.com/?q=29.5230255,35.002832",
      "lat": 29.5230255,
      "lng": 35.002832,
      "halalFriendly": false,
      "bookingUrl": "https://maps.google.com/?q=29.5230255,35.002832",
      "source": "osm"
    },
    {
      "nom": "Airbnb Aqaba",
      "categorie": "Maison d'hôtes",
      "priceRange": "€€",
      "mapsUrl": "https://maps.google.com/?q=29.531577,35.0116244",
      "lat": 29.531577,
      "lng": 35.0116244,
      "halalFriendly": false,
      "bookingUrl": "https://maps.google.com/?q=29.531577,35.0116244",
      "source": "osm"
    },
    {
      "nom": "The Loft Hotel By Bratus",
      "categorie": "Hôtel",
      "priceRange": "€€",
      "mapsUrl": "https://maps.google.com/?q=29.5319199,35.0028051",
      "lat": 29.5319199,
      "lng": 35.0028051,
      "halalFriendly": false,
      "bookingUrl": "https://www.tlhbb.com/",
      "source": "osm"
    },
    {
      "nom": "My Hotel",
      "categorie": "Hôtel",
      "priceRange": "€€",
      "mapsUrl": "https://maps.google.com/?q=29.5320325,35.0022779",
      "lat": 29.5320325,
      "lng": 35.0022779,
      "halalFriendly": false,
      "bookingUrl": "https://maps.google.com/?q=29.5320325,35.0022779",
      "source": "osm"
    },
    {
      "nom": "City Tower Hotel Akaba",
      "categorie": "Hôtel",
      "priceRange": "€€",
      "mapsUrl": "https://maps.google.com/?q=29.5202927,35.0034803",
      "lat": 29.5202927,
      "lng": 35.0034803,
      "halalFriendly": false,
      "bookingUrl": "http://city-tower.aqaba-hotels-jo.com",
      "source": "osm"
    },
    {
      "nom": "Aqaba Gulf Hotel",
      "categorie": "Hôtel",
      "priceRange": "€€",
      "mapsUrl": "https://maps.google.com/?q=29.5317356,35.00128",
      "lat": 29.5317356,
      "lng": 35.00128,
      "halalFriendly": false,
      "bookingUrl": "https://www.aqabagulf.com/",
      "source": "osm"
    },
    {
      "nom": "موفنبيك",
      "categorie": "Hôtel",
      "priceRange": "€€",
      "mapsUrl": "https://maps.google.com/?q=29.5324098,34.9995105",
      "lat": 29.5324098,
      "lng": 34.9995105,
      "halalFriendly": false,
      "bookingUrl": "https://maps.google.com/?q=29.5324098,34.9995105",
      "source": "osm"
    },
    {
      "nom": "Extra Traveller Hostel",
      "categorie": "Auberge",
      "priceRange": "€€",
      "mapsUrl": "https://maps.google.com/?q=29.5344092,35.0002517",
      "lat": 29.5344092,
      "lng": 35.0002517,
      "halalFriendly": false,
      "bookingUrl": "https://maps.app.goo.gl/jxKVJgUcTj3DNPDv9",
      "source": "osm"
    },
    {
      "nom": "Hakaia home",
      "categorie": "Auberge",
      "priceRange": "€€",
      "mapsUrl": "https://maps.google.com/?q=29.537897,35.0006848",
      "lat": 29.537897,
      "lng": 35.0006848,
      "halalFriendly": false,
      "bookingUrl": "https://maps.google.com/?q=29.537897,35.0006848",
      "source": "osm"
    },
    {
      "nom": "InterContinental Aqaba (Resort Aqaba)",
      "categorie": "Hôtel",
      "priceRange": "€€€€",
      "score": 5,
      "mapsUrl": "https://maps.google.com/?q=29.5334561,34.9950454",
      "lat": 29.5334561,
      "lng": 34.9950454,
      "halalFriendly": false,
      "bookingUrl": "https://maps.google.com/?q=29.5334561,34.9950454",
      "source": "osm"
    },
    {
      "nom": "Oryx Hotel",
      "categorie": "Hôtel",
      "priceRange": "€€",
      "mapsUrl": "https://maps.google.com/?q=29.5401096,34.9993798",
      "lat": 29.5401096,
      "lng": 34.9993798,
      "halalFriendly": false,
      "bookingUrl": "https://oryx-hotel.com/",
      "source": "osm"
    },
    {
      "nom": "Airbnb Aqaba II",
      "categorie": "Maison d'hôtes",
      "priceRange": "€€",
      "mapsUrl": "https://maps.google.com/?q=29.541789,35.0200428",
      "lat": 29.541789,
      "lng": 35.0200428,
      "halalFriendly": false,
      "bookingUrl": "https://maps.google.com/?q=29.541789,35.0200428",
      "source": "osm"
    },
    {
      "nom": "شقق ال الدويك",
      "categorie": "Appartement",
      "priceRange": "€€",
      "mapsUrl": "https://maps.google.com/?q=29.548753,35.0144048",
      "lat": 29.548753,
      "lng": 35.0144048,
      "halalFriendly": false,
      "bookingUrl": "https://maps.google.com/?q=29.548753,35.0144048",
      "source": "osm"
    },
    {
      "nom": "Room17 Youth Hostel",
      "categorie": "Auberge",
      "priceRange": "€€",
      "mapsUrl": "https://maps.google.com/?q=29.5539975,34.9995254",
      "lat": 29.5539975,
      "lng": 34.9995254,
      "halalFriendly": false,
      "bookingUrl": "https://www.booking.com/Share-nrnM98",
      "source": "osm"
    },
    {
      "nom": "הרודס פאלאס",
      "categorie": "Hôtel",
      "priceRange": "€€",
      "mapsUrl": "https://maps.google.com/?q=29.5482278,34.9668785",
      "lat": 29.5482278,
      "lng": 34.9668785,
      "halalFriendly": false,
      "bookingUrl": "https://maps.google.com/?q=29.5482278,34.9668785",
      "source": "osm"
    },
    {
      "nom": "הרודס בוטיק",
      "categorie": "Hôtel",
      "priceRange": "€€",
      "mapsUrl": "https://maps.google.com/?q=29.5493126,34.9675069",
      "lat": 29.5493126,
      "lng": 34.9675069,
      "halalFriendly": false,
      "bookingUrl": "https://maps.google.com/?q=29.5493126,34.9675069",
      "source": "osm"
    },
    {
      "nom": "מלון דן אילת",
      "categorie": "Hôtel",
      "priceRange": "€€",
      "mapsUrl": "https://maps.google.com/?q=29.5486357,34.9651927",
      "lat": 29.5486357,
      "lng": 34.9651927,
      "halalFriendly": false,
      "bookingUrl": "https://maps.google.com/?q=29.5486357,34.9651927",
      "source": "osm"
    },
    {
      "nom": "ישרוטל ספורט קלאב",
      "categorie": "Hôtel",
      "priceRange": "€€",
      "mapsUrl": "https://maps.google.com/?q=29.5500634,34.9648472",
      "lat": 29.5500634,
      "lng": 34.9648472,
      "halalFriendly": false,
      "bookingUrl": "https://www.isrotel.co.il/isrotel-hotels/eilat-hotels/ישרוטל-ספורט-קלאב/",
      "source": "osm"
    },
    {
      "nom": "'רויאל ביץ",
      "categorie": "Hôtel",
      "priceRange": "€€",
      "mapsUrl": "https://maps.google.com/?q=29.5494057,34.963315",
      "lat": 29.5494057,
      "lng": 34.963315,
      "halalFriendly": false,
      "bookingUrl": "https://maps.google.com/?q=29.5494057,34.963315",
      "source": "osm"
    },
    {
      "nom": "Paradise",
      "categorie": "Hôtel",
      "priceRange": "€€",
      "mapsUrl": "https://maps.google.com/?q=29.5505238,34.9640225",
      "lat": 29.5505238,
      "lng": 34.9640225,
      "halalFriendly": false,
      "bookingUrl": "https://maps.google.com/?q=29.5505238,34.9640225",
      "source": "osm"
    },
    {
      "nom": "ישרוטל רויאל גארדן",
      "categorie": "Hôtel",
      "priceRange": "€€",
      "mapsUrl": "https://maps.google.com/?q=29.5504301,34.9633785",
      "lat": 29.5504301,
      "lng": 34.9633785,
      "halalFriendly": false,
      "bookingUrl": "https://maps.google.com/?q=29.5504301,34.9633785",
      "source": "osm"
    },
    {
      "nom": "ישרוטל ריביירה קלאב",
      "categorie": "Hôtel",
      "priceRange": "€€",
      "mapsUrl": "https://maps.google.com/?q=29.5522903,34.9635133",
      "lat": 29.5522903,
      "lng": 34.9635133,
      "halalFriendly": false,
      "bookingUrl": "https://maps.google.com/?q=29.5522903,34.9635133",
      "source": "osm"
    },
    {
      "nom": "Tulip (Royal Garden)",
      "categorie": "Hôtel",
      "priceRange": "€€",
      "mapsUrl": "https://maps.google.com/?q=29.5512664,34.9627179",
      "lat": 29.5512664,
      "lng": 34.9627179,
      "halalFriendly": false,
      "bookingUrl": "https://maps.google.com/?q=29.5512664,34.9627179",
      "source": "osm"
    },
    {
      "nom": "ישרוטל ריביירה",
      "categorie": "Hôtel",
      "priceRange": "€€",
      "mapsUrl": "https://maps.google.com/?q=29.5522787,34.9629281",
      "lat": 29.5522787,
      "lng": 34.9629281,
      "halalFriendly": false,
      "bookingUrl": "https://maps.google.com/?q=29.5522787,34.9629281",
      "source": "osm"
    },
    {
      "nom": "הילטון אילת מלכת שבא",
      "categorie": "Hôtel",
      "priceRange": "€€",
      "mapsUrl": "https://maps.google.com/?q=29.5502238,34.961403",
      "lat": 29.5502238,
      "lng": 34.961403,
      "halalFriendly": false,
      "bookingUrl": "https://maps.google.com/?q=29.5502238,34.961403",
      "source": "osm"
    },
    {
      "nom": "Vista Hotel Eilat",
      "categorie": "Hôtel",
      "priceRange": "€€",
      "mapsUrl": "https://maps.google.com/?q=29.5541583,34.9642678",
      "lat": 29.5541583,
      "lng": 34.9642678,
      "halalFriendly": false,
      "bookingUrl": "http://www.vistaeilat.co.il/",
      "source": "osm"
    },
    {
      "nom": "Rimonim Marina Club Eilat",
      "categorie": "Hôtel",
      "priceRange": "€€",
      "mapsUrl": "https://maps.google.com/?q=29.5536868,34.9636704",
      "lat": 29.5536868,
      "lng": 34.9636704,
      "halalFriendly": false,
      "bookingUrl": "https://maps.google.com/?q=29.5536868,34.9636704",
      "source": "osm"
    },
    {
      "nom": "ישרוטל לגונה",
      "categorie": "Hôtel",
      "priceRange": "€€",
      "mapsUrl": "https://maps.google.com/?q=29.5513504,34.9618421",
      "lat": 29.5513504,
      "lng": 34.9618421,
      "halalFriendly": false,
      "bookingUrl": "https://www.isrotel.com/lagoona",
      "source": "osm"
    },
    {
      "nom": "ישרוטל המלך שלמה",
      "categorie": "Hôtel",
      "priceRange": "€€",
      "mapsUrl": "https://maps.google.com/?q=29.5524738,34.9620179",
      "lat": 29.5524738,
      "lng": 34.9620179,
      "halalFriendly": false,
      "bookingUrl": "https://maps.google.com/?q=29.5524738,34.9620179",
      "source": "osm"
    },
    {
      "nom": "Astral Village",
      "categorie": "Hôtel",
      "priceRange": "€€",
      "mapsUrl": "https://maps.google.com/?q=29.5547929,34.9633451",
      "lat": 29.5547929,
      "lng": 34.9633451,
      "halalFriendly": false,
      "bookingUrl": "https://www.astralhotels.co.il/astral-village",
      "source": "osm"
    },
    {
      "nom": "אמריקנה",
      "categorie": "Hôtel",
      "priceRange": "€€€",
      "score": 3,
      "mapsUrl": "https://maps.google.com/?q=29.5548359,34.9625411",
      "lat": 29.5548359,
      "lng": 34.9625411,
      "halalFriendly": false,
      "bookingUrl": "https://www.americanahotel.co.il/",
      "source": "osm"
    },
    {
      "nom": "Agamim",
      "categorie": "Hôtel",
      "priceRange": "€€",
      "mapsUrl": "https://maps.google.com/?q=29.5564583,34.9634846",
      "lat": 29.5564583,
      "lng": 34.9634846,
      "halalFriendly": false,
      "bookingUrl": "https://maps.google.com/?q=29.5564583,34.9634846",
      "source": "osm"
    },
    {
      "nom": "קיסר",
      "categorie": "Hôtel",
      "priceRange": "€€",
      "mapsUrl": "https://maps.google.com/?q=29.5519297,34.9596243",
      "lat": 29.5519297,
      "lng": 34.9596243,
      "halalFriendly": false,
      "bookingUrl": "https://maps.google.com/?q=29.5519297,34.9596243",
      "source": "osm"
    },
    {
      "nom": "לאונרדו פלזה",
      "categorie": "Hôtel",
      "priceRange": "€€",
      "mapsUrl": "https://maps.google.com/?q=29.550242,34.9583942",
      "lat": 29.550242,
      "lng": 34.9583942,
      "halalFriendly": false,
      "bookingUrl": "https://maps.google.com/?q=29.550242,34.9583942",
      "source": "osm"
    },
    {
      "nom": "VERT Hotel Eilat",
      "categorie": "Hôtel",
      "priceRange": "€€",
      "mapsUrl": "https://maps.google.com/?q=29.5543927,34.9610792",
      "lat": 29.5543927,
      "lng": 34.9610792,
      "halalFriendly": false,
      "bookingUrl": "https://www.vert-hotels.co.il/vert-eilat-hotel",
      "source": "osm"
    },
    {
      "nom": "לאונרדו פריוילג׳",
      "categorie": "Hôtel",
      "priceRange": "€€",
      "mapsUrl": "https://maps.google.com/?q=29.5553673,34.9616656",
      "lat": 29.5553673,
      "lng": 34.9616656,
      "halalFriendly": false,
      "bookingUrl": "https://www.fattal.co.il/leonardo-privilege-eilat-hotel",
      "source": "osm"
    },
    {
      "nom": "דן נפטון",
      "categorie": "Hôtel",
      "priceRange": "€€",
      "mapsUrl": "https://maps.google.com/?q=29.550782,34.9573719",
      "lat": 29.550782,
      "lng": 34.9573719,
      "halalFriendly": false,
      "bookingUrl": "https://maps.google.com/?q=29.550782,34.9573719",
      "source": "osm"
    },
    {
      "nom": "ישורטל אגמים אילת",
      "categorie": "Hôtel",
      "priceRange": "€€",
      "mapsUrl": "https://maps.google.com/?q=29.5568538,34.9618782",
      "lat": 29.5568538,
      "lng": 34.9618782,
      "halalFriendly": false,
      "bookingUrl": "https://maps.google.com/?q=29.5568538,34.9618782",
      "source": "osm"
    },
    {
      "nom": "דן פנורמה",
      "categorie": "Hôtel",
      "priceRange": "€€",
      "mapsUrl": "https://maps.google.com/?q=29.5527202,34.958583",
      "lat": 29.5527202,
      "lng": 34.958583,
      "halalFriendly": false,
      "bookingUrl": "https://maps.google.com/?q=29.5527202,34.958583",
      "source": "osm"
    },
    {
      "nom": "Leonardo Royal Resort Hotel Eilat",
      "categorie": "Hôtel",
      "priceRange": "€€",
      "mapsUrl": "https://maps.google.com/?q=29.5552863,34.9604677",
      "lat": 29.5552863,
      "lng": 34.9604677,
      "halalFriendly": false,
      "bookingUrl": "https://maps.google.com/?q=29.5552863,34.9604677",
      "source": "osm"
    },
    {
      "nom": "Magic Palace Eilat",
      "categorie": "Hôtel",
      "priceRange": "€€",
      "mapsUrl": "https://maps.google.com/?q=29.5546018,34.9598368",
      "lat": 29.5546018,
      "lng": 34.9598368,
      "halalFriendly": false,
      "bookingUrl": "https://www.fattal.co.il/u-magic-palace-eilat-hotel",
      "source": "osm"
    },
    {
      "nom": "מלון אסטראל",
      "categorie": "Hôtel",
      "priceRange": "€€",
      "mapsUrl": "https://maps.google.com/?q=29.5505649,34.9564395",
      "lat": 29.5505649,
      "lng": 34.9564395,
      "halalFriendly": false,
      "bookingUrl": "https://maps.google.com/?q=29.5505649,34.9564395",
      "source": "osm"
    },
    {
      "nom": "YA Palma",
      "categorie": "Hôtel",
      "priceRange": "€€",
      "mapsUrl": "https://maps.google.com/?q=29.5554956,34.9596491",
      "lat": 29.5554956,
      "lng": 34.9596491,
      "halalFriendly": false,
      "bookingUrl": "https://maps.google.com/?q=29.5554956,34.9596491",
      "source": "osm"
    },
    {
      "nom": "לאונרדו קלאב אילת",
      "categorie": "Hôtel",
      "priceRange": "€€",
      "mapsUrl": "https://maps.google.com/?q=29.5572551,34.9607364",
      "lat": 29.5572551,
      "lng": 34.9607364,
      "halalFriendly": false,
      "bookingUrl": "https://maps.google.com/?q=29.5572551,34.9607364",
      "source": "osm"
    },
    {
      "nom": "אסטרל סי סייד",
      "categorie": "Hôtel",
      "priceRange": "€€",
      "mapsUrl": "https://maps.google.com/?q=29.5509043,34.9560166",
      "lat": 29.5509043,
      "lng": 34.9560166,
      "halalFriendly": false,
      "bookingUrl": "https://maps.google.com/?q=29.5509043,34.9560166",
      "source": "osm"
    },
    {
      "nom": "Dalya Hotel",
      "categorie": "Hôtel",
      "priceRange": "€€",
      "mapsUrl": "https://maps.google.com/?q=29.5519479,34.95645",
      "lat": 29.5519479,
      "lng": 34.95645,
      "halalFriendly": false,
      "bookingUrl": "http://www.daliahotel.co.il",
      "source": "osm"
    },
    {
      "nom": "אריאה",
      "categorie": "Hôtel",
      "priceRange": "€€",
      "mapsUrl": "https://maps.google.com/?q=29.5472311,34.952219",
      "lat": 29.5472311,
      "lng": 34.952219,
      "halalFriendly": false,
      "bookingUrl": "https://maps.google.com/?q=29.5472311,34.952219",
      "source": "osm"
    },
    {
      "nom": "בית ההארחה אילת",
      "categorie": "Auberge",
      "priceRange": "€€",
      "mapsUrl": "https://maps.google.com/?q=29.54884,34.9516986",
      "lat": 29.54884,
      "lng": 34.9516986,
      "halalFriendly": false,
      "bookingUrl": "https://maps.google.com/?q=29.54884,34.9516986",
      "source": "osm"
    },
    {
      "nom": "Amdar",
      "categorie": "Auberge",
      "priceRange": "€€",
      "mapsUrl": "https://maps.google.com/?q=29.5507101,34.9526162",
      "lat": 29.5507101,
      "lng": 34.9526162,
      "halalFriendly": false,
      "bookingUrl": "https://maps.google.com/?q=29.5507101,34.9526162",
      "source": "osm"
    },
    {
      "nom": "קלאב הוטל",
      "categorie": "Hôtel",
      "priceRange": "€€",
      "mapsUrl": "https://maps.google.com/?q=29.5500596,34.9514481",
      "lat": 29.5500596,
      "lng": 34.9514481,
      "halalFriendly": false,
      "bookingUrl": "https://www.clubhotels-israel.com/club-hotel-eilat",
      "source": "osm"
    },
    {
      "nom": "palms hotel מלון פאלמס",
      "categorie": "Hôtel",
      "priceRange": "€€",
      "mapsUrl": "https://maps.google.com/?q=29.5553294,34.9542857",
      "lat": 29.5553294,
      "lng": 34.9542857,
      "halalFriendly": false,
      "bookingUrl": "https://www.palmshotel.co.il/",
      "source": "osm"
    },
    {
      "nom": "אדומית",
      "categorie": "Hôtel",
      "priceRange": "€€",
      "mapsUrl": "https://maps.google.com/?q=29.5514793,34.9517132",
      "lat": 29.5514793,
      "lng": 34.9517132,
      "halalFriendly": false,
      "bookingUrl": "https://maps.google.com/?q=29.5514793,34.9517132",
      "source": "osm"
    },
    {
      "nom": "Isla Brown 42°",
      "categorie": "Hôtel",
      "priceRange": "€€",
      "mapsUrl": "https://maps.google.com/?q=29.5590994,34.9566107",
      "lat": 29.5590994,
      "lng": 34.9566107,
      "halalFriendly": false,
      "bookingUrl": "https://maps.google.com/?q=29.5590994,34.9566107",
      "source": "osm"
    },
    {
      "nom": "סנטרל פארק",
      "categorie": "Hôtel",
      "priceRange": "€€",
      "mapsUrl": "https://maps.google.com/?q=29.5538658,34.952665",
      "lat": 29.5538658,
      "lng": 34.952665,
      "halalFriendly": false,
      "bookingUrl": "https://maps.google.com/?q=29.5538658,34.952665",
      "source": "osm"
    },
    {
      "nom": "Lev Fattal",
      "categorie": "Hôtel",
      "priceRange": "€€",
      "mapsUrl": "https://maps.google.com/?q=29.559854,34.956729",
      "lat": 29.559854,
      "lng": 34.956729,
      "halalFriendly": false,
      "bookingUrl": "https://maps.google.com/?q=29.559854,34.956729",
      "source": "osm"
    },
    {
      "nom": "ADI Hotel",
      "categorie": "Hôtel",
      "priceRange": "€€",
      "mapsUrl": "https://maps.google.com/?q=29.5511837,34.9505375",
      "lat": 29.5511837,
      "lng": 34.9505375,
      "halalFriendly": false,
      "bookingUrl": "https://maps.google.com/?q=29.5511837,34.9505375",
      "source": "osm"
    },
    {
      "nom": "נובה",
      "categorie": "Hôtel",
      "priceRange": "€€",
      "mapsUrl": "https://maps.google.com/?q=29.5584924,34.9548513",
      "lat": 29.5584924,
      "lng": 34.9548513,
      "halalFriendly": false,
      "bookingUrl": "https://maps.google.com/?q=29.5584924,34.9548513",
      "source": "osm"
    },
    {
      "nom": "נווה אילת (נובה לשעבר)",
      "categorie": "Hôtel",
      "priceRange": "€€",
      "mapsUrl": "https://maps.google.com/?q=29.5584747,34.9544309",
      "lat": 29.5584747,
      "lng": 34.9544309,
      "halalFriendly": false,
      "bookingUrl": "https://maps.google.com/?q=29.5584747,34.9544309",
      "source": "osm"
    },
    {
      "nom": "אכסנית בית הערבה",
      "categorie": "Auberge",
      "priceRange": "€€",
      "mapsUrl": "https://maps.google.com/?q=29.5591296,34.9548379",
      "lat": 29.5591296,
      "lng": 34.9548379,
      "halalFriendly": false,
      "bookingUrl": "https://www.aravahostel.com/",
      "source": "osm"
    },
    {
      "nom": "Nathans White House",
      "categorie": "Auberge",
      "priceRange": "€€",
      "mapsUrl": "https://maps.google.com/?q=29.5580128,34.9526436",
      "lat": 29.5580128,
      "lng": 34.9526436,
      "halalFriendly": false,
      "bookingUrl": "https://maps.google.com/?q=29.5580128,34.9526436",
      "source": "osm"
    },
    {
      "nom": "Motel Sunset",
      "categorie": "Auberge",
      "priceRange": "€€",
      "mapsUrl": "https://maps.google.com/?q=29.5579767,34.9521648",
      "lat": 29.5579767,
      "lng": 34.9521648,
      "halalFriendly": false,
      "bookingUrl": "https://maps.google.com/?q=29.5579767,34.9521648",
      "source": "osm"
    },
    {
      "nom": "Rich Luxury Suites",
      "categorie": "Hôtel",
      "priceRange": "€€",
      "mapsUrl": "https://maps.google.com/?q=29.5511709,34.9477343",
      "lat": 29.5511709,
      "lng": 34.9477343,
      "halalFriendly": false,
      "bookingUrl": "https://maps.google.com/?q=29.5511709,34.9477343",
      "source": "osm"
    },
    {
      "nom": "Corinne",
      "categorie": "Auberge",
      "priceRange": "€€",
      "mapsUrl": "https://maps.google.com/?q=29.5578415,34.9513719",
      "lat": 29.5578415,
      "lng": 34.9513719,
      "halalFriendly": false,
      "bookingUrl": "https://maps.google.com/?q=29.5578415,34.9513719",
      "source": "osm"
    },
    {
      "nom": "אכסניית המקלט",
      "categorie": "Auberge",
      "priceRange": "€€",
      "mapsUrl": "https://maps.google.com/?q=29.5564028,34.9471733",
      "lat": 29.5564028,
      "lng": 34.9471733,
      "halalFriendly": false,
      "bookingUrl": "https://maps.google.com/?q=29.5564028,34.9471733",
      "source": "osm"
    },
    {
      "nom": "Ahla Villa",
      "categorie": "Hôtel",
      "priceRange": "€€",
      "mapsUrl": "https://maps.google.com/?q=29.5472804,34.9419192",
      "lat": 29.5472804,
      "lng": 34.9419192,
      "halalFriendly": false,
      "bookingUrl": "https://maps.google.com/?q=29.5472804,34.9419192",
      "source": "osm"
    },
    {
      "nom": "Melony Club",
      "categorie": "Hôtel",
      "priceRange": "€€",
      "mapsUrl": "https://maps.google.com/?q=29.5574621,34.9463707",
      "lat": 29.5574621,
      "lng": 34.9463707,
      "halalFriendly": false,
      "bookingUrl": "https://maps.google.com/?q=29.5574621,34.9463707",
      "source": "osm"
    },
    {
      "nom": "Exodus Hostel & Dive Center",
      "categorie": "Auberge",
      "priceRange": "€€",
      "mapsUrl": "https://maps.google.com/?q=29.5520656,34.9423162",
      "lat": 29.5520656,
      "lng": 34.9423162,
      "halalFriendly": false,
      "bookingUrl": "https://maps.google.com/?q=29.5520656,34.9423162",
      "source": "osm"
    },
    {
      "nom": "פתאל",
      "categorie": "Hôtel",
      "priceRange": "€€",
      "mapsUrl": "https://maps.google.com/?q=29.5802328,34.9625873",
      "lat": 29.5802328,
      "lng": 34.9625873,
      "halalFriendly": false,
      "bookingUrl": "https://maps.google.com/?q=29.5802328,34.9625873",
      "source": "osm"
    },
    {
      "nom": "איילות אירוח בקיבוץ",
      "categorie": "Maison d'hôtes",
      "priceRange": "€€",
      "mapsUrl": "https://maps.google.com/?q=29.5804034,34.9625704",
      "lat": 29.5804034,
      "lng": 34.9625704,
      "halalFriendly": false,
      "bookingUrl": "https://maps.google.com/?q=29.5804034,34.9625704",
      "source": "osm"
    },
    {
      "nom": "מלון אורכידאה הריף",
      "categorie": "Hôtel",
      "priceRange": "€€",
      "mapsUrl": "https://maps.google.com/?q=29.5144066,34.9262721",
      "lat": 29.5144066,
      "lng": 34.9262721,
      "halalFriendly": false,
      "bookingUrl": "https://maps.google.com/?q=29.5144066,34.9262721",
      "source": "osm"
    },
    {
      "nom": "Orchid Reef Hotel",
      "categorie": "Hôtel",
      "priceRange": "€€",
      "mapsUrl": "https://maps.google.com/?q=29.5139923,34.9259698",
      "lat": 29.5139923,
      "lng": 34.9259698,
      "halalFriendly": false,
      "bookingUrl": "https://maps.google.com/?q=29.5139923,34.9259698",
      "source": "osm"
    },
    {
      "nom": "Prima Music Hotel",
      "categorie": "Hôtel",
      "priceRange": "€€",
      "mapsUrl": "https://maps.google.com/?q=29.5154239,34.9247467",
      "lat": 29.5154239,
      "lng": 34.9247467,
      "halalFriendly": false,
      "bookingUrl": "https://maps.google.com/?q=29.5154239,34.9247467",
      "source": "osm"
    },
    {
      "nom": "U Coral Beach Club",
      "categorie": "Hôtel",
      "priceRange": "€€",
      "mapsUrl": "https://maps.google.com/?q=29.5139766,34.923817",
      "lat": 29.5139766,
      "lng": 34.923817,
      "halalFriendly": false,
      "bookingUrl": "https://maps.google.com/?q=29.5139766,34.923817",
      "source": "osm"
    },
    {
      "nom": "ישרוטל ים סוף",
      "categorie": "Hôtel",
      "priceRange": "€€",
      "mapsUrl": "https://maps.google.com/?q=29.5131836,34.9232329",
      "lat": 29.5131836,
      "lng": 34.9232329,
      "halalFriendly": false,
      "bookingUrl": "https://maps.google.com/?q=29.5131836,34.9232329",
      "source": "osm"
    },
    {
      "nom": "Club In Eilat",
      "categorie": "Hôtel",
      "priceRange": "€€",
      "mapsUrl": "https://maps.google.com/?q=29.5162039,34.9223363",
      "lat": 29.5162039,
      "lng": 34.9223363,
      "halalFriendly": false,
      "bookingUrl": "https://maps.google.com/?q=29.5162039,34.9223363",
      "source": "osm"
    },
    {
      "nom": "בית ספר שדה אילת",
      "categorie": "Auberge",
      "priceRange": "€€",
      "mapsUrl": "https://maps.google.com/?q=29.5096885,34.9210149",
      "lat": 29.5096885,
      "lng": 34.9210149,
      "halalFriendly": false,
      "bookingUrl": "https://maps.google.com/?q=29.5096885,34.9210149",
      "source": "osm"
    },
    {
      "nom": "מלון אורכידאה",
      "categorie": "Hôtel",
      "priceRange": "€€",
      "mapsUrl": "https://maps.google.com/?q=29.5062311,34.9173383",
      "lat": 29.5062311,
      "lng": 34.9173383,
      "halalFriendly": false,
      "bookingUrl": "https://orchidhotels.com/",
      "source": "osm"
    }
  ],
  "activites": [
    {
      "nom": "Plongée et snorkeling en mer Rouge",
      "categorie": "Sport & Loisirs",
      "description": "Récifs coralliens préservés et épaves, parmi les meilleurs spots du monde.",
      "duree": "Demi-journée",
      "prix": "€€€",
      "mapsUrl": "https://maps.google.com/?q=Plong%C3%A9e+et+snorkeling+en+mer+Rouge+Aqaba",
      "tripadvisorUrl": "https://www.tripadvisor.fr/Search?q=Plong%C3%A9e+et+snorkeling+en+mer+Rouge+Aqaba",
      "id": "a1",
      "meilleureEpoque": "Hiver",
      "idealPour": [
        "famille",
        "groupe",
        "couple"
      ],
      "conseil": "Venez tôt le matin pour profiter du calme et éviter la foule."
    },
    {
      "nom": "Excursion à Wadi Rum",
      "categorie": "Nature & Aventure",
      "description": "Désert grandiose de la « Vallée de la Lune » en 4x4, bivouac bédouin possible.",
      "duree": "Journée",
      "prix": "€€€",
      "mapsUrl": "https://maps.google.com/?q=Excursion+%C3%A0+Wadi+Rum+Aqaba",
      "tripadvisorUrl": "https://www.tripadvisor.fr/Search?q=Excursion+%C3%A0+Wadi+Rum+Aqaba",
      "id": "a2",
      "meilleureEpoque": "Hiver",
      "idealPour": [
        "famille",
        "groupe",
        "couple"
      ],
      "conseil": "Venez tôt le matin pour profiter du calme et éviter la foule."
    },
    {
      "nom": "Petra depuis Aqaba",
      "categorie": "Histoire & Culture",
      "description": "Excursion vers la cité nabatéenne taillée dans la roche, merveille du monde.",
      "duree": "Journée",
      "prix": "€€€",
      "mapsUrl": "https://maps.google.com/?q=Petra+depuis+Aqaba+Aqaba",
      "tripadvisorUrl": "https://www.tripadvisor.fr/Search?q=Petra+depuis+Aqaba+Aqaba",
      "id": "a3",
      "meilleureEpoque": "Été",
      "idealPour": [
        "famille",
        "couple",
        "solo"
      ],
      "conseil": "Venez tôt le matin pour profiter du calme et éviter la foule."
    },
    {
      "nom": "Fort d'Aqaba (Mamlouk)",
      "categorie": "Histoire & Culture",
      "description": "Forteresse historique gardant l'entrée de la ville, près du grand mât.",
      "duree": "1h",
      "prix": "€",
      "mapsUrl": "https://maps.google.com/?q=Fort+d%27Aqaba+%28Mamlouk%29+Aqaba",
      "tripadvisorUrl": "https://www.tripadvisor.fr/Search?q=Fort+d%27Aqaba+%28Mamlouk%29+Aqaba",
      "id": "a4",
      "meilleureEpoque": "Été",
      "idealPour": [
        "famille",
        "couple",
        "solo"
      ],
      "conseil": "Venez tôt le matin pour profiter du calme et éviter la foule."
    },
    {
      "nom": "Aquarium de la mer Rouge",
      "categorie": "Art & Musées",
      "description": "Découverte de la faune marine locale, familial et pédagogique.",
      "duree": "1-2h",
      "prix": "€",
      "mapsUrl": "https://maps.google.com/?q=Aquarium+de+la+mer+Rouge+Aqaba",
      "tripadvisorUrl": "https://www.tripadvisor.fr/Search?q=Aquarium+de+la+mer+Rouge+Aqaba",
      "id": "a5",
      "meilleureEpoque": "Hiver",
      "idealPour": [
        "famille",
        "couple",
        "solo"
      ],
      "conseil": "Venez tôt le matin pour profiter du calme et éviter la foule."
    },
    {
      "nom": "Mosquée Al-Sharif Al Hussein bin Ali",
      "categorie": "Religieux & Spirituel",
      "description": "Plus grande mosquée d'Aqaba, élégante architecture et grand dôme.",
      "duree": "1h",
      "prix": "Gratuit",
      "mapsUrl": "https://maps.google.com/?q=Mosqu%C3%A9e+Al-Sharif+Al+Hussein+bin+Ali+Aqaba",
      "tripadvisorUrl": "https://www.tripadvisor.fr/Search?q=Mosqu%C3%A9e+Al-Sharif+Al+Hussein+bin+Ali+Aqaba",
      "id": "a6",
      "meilleureEpoque": "Hiver",
      "idealPour": [
        "famille",
        "solo",
        "couple"
      ],
      "conseil": "Venez tôt le matin pour profiter du calme et éviter la foule."
    },
    {
      "nom": "South Beach & Tala Bay",
      "categorie": "Nature & Aventure",
      "description": "Plages aménagées au sud, baignade et détente au bord du golfe.",
      "duree": "2h",
      "prix": "Gratuit",
      "mapsUrl": "https://maps.google.com/?q=South+Beach+%26+Tala+Bay+Aqaba",
      "tripadvisorUrl": "https://www.tripadvisor.fr/Search?q=South+Beach+%26+Tala+Bay+Aqaba",
      "id": "a7",
      "meilleureEpoque": "Toute l'année",
      "idealPour": [
        "famille",
        "groupe",
        "couple"
      ],
      "conseil": "Venez tôt le matin pour profiter du calme et éviter la foule.",
      "lat": 29.4232928,
      "lng": 34.9733835,
      "geocoded": true
    },
    {
      "nom": "Croisière en bateau à fond de verre",
      "categorie": "Sport & Loisirs",
      "description": "Observation des coraux sans se mouiller, idéal en famille.",
      "duree": "2h",
      "prix": "€€",
      "mapsUrl": "https://maps.google.com/?q=Croisi%C3%A8re+en+bateau+%C3%A0+fond+de+verre+Aqaba",
      "tripadvisorUrl": "https://www.tripadvisor.fr/Search?q=Croisi%C3%A8re+en+bateau+%C3%A0+fond+de+verre+Aqaba",
      "id": "a8",
      "meilleureEpoque": "Toute l'année",
      "idealPour": [
        "famille",
        "groupe",
        "couple"
      ],
      "conseil": "Venez tôt le matin pour profiter du calme et éviter la foule."
    },
    {
      "nom": "Vieille ville de Aqaba",
      "categorie": "Histoire & Culture",
      "description": "Flânerie dans les ruelles historiques et l'architecture locale.",
      "duree": "2h",
      "prix": "Gratuit",
      "mapsUrl": "https://maps.google.com/?q=Vieille+ville+de+Aqaba+Aqaba",
      "tripadvisorUrl": "https://www.tripadvisor.fr/Search?q=Vieille+ville+de+Aqaba+Aqaba",
      "id": "a9",
      "meilleureEpoque": "Toute l'année",
      "idealPour": [
        "famille",
        "couple",
        "solo"
      ],
      "conseil": "Venez tôt le matin pour profiter du calme et éviter la foule."
    },
    {
      "nom": "Grand souk de Aqaba",
      "categorie": "Shopping & Souks",
      "description": "Marché traditionnel d'épices, textiles et artisanat.",
      "duree": "2h",
      "prix": "Gratuit",
      "mapsUrl": "https://maps.google.com/?q=Grand+souk+de+Aqaba+Aqaba",
      "tripadvisorUrl": "https://www.tripadvisor.fr/Search?q=Grand+souk+de+Aqaba+Aqaba",
      "id": "a10",
      "meilleureEpoque": "Hiver",
      "idealPour": [
        "famille",
        "couple",
        "solo"
      ],
      "conseil": "Venez tôt le matin pour profiter du calme et éviter la foule."
    },
    {
      "nom": "Quartier historique de Aqaba",
      "categorie": "Histoire & Culture",
      "description": "Découverte du cœur ancien de la ville, architecture et ambiance locale.",
      "duree": "2h",
      "prix": "Gratuit",
      "mapsUrl": "https://maps.google.com/?q=Quartier+historique+de+Aqaba+Aqaba",
      "tripadvisorUrl": "https://www.tripadvisor.fr/Search?q=Quartier+historique+de+Aqaba+Aqaba",
      "meilleureEpoque": "Été",
      "idealPour": [
        "famille",
        "couple",
        "solo"
      ],
      "conseil": "Venez tôt le matin pour profiter du calme et éviter la foule.",
      "id": "a11"
    },
    {
      "nom": "Grand marché central de Aqaba",
      "categorie": "Shopping & Souks",
      "description": "Marché traditionnel d'épices, textiles et artisanat local.",
      "duree": "2h",
      "prix": "Gratuit",
      "mapsUrl": "https://maps.google.com/?q=Grand+march%C3%A9+central+de+Aqaba+Aqaba",
      "tripadvisorUrl": "https://www.tripadvisor.fr/Search?q=Grand+march%C3%A9+central+de+Aqaba+Aqaba",
      "meilleureEpoque": "Printemps-Automne",
      "idealPour": [
        "famille",
        "couple",
        "solo"
      ],
      "conseil": "Venez tôt le matin pour profiter du calme et éviter la foule.",
      "id": "a12"
    },
    {
      "nom": "Promenade au bord de l'eau de Aqaba",
      "categorie": "Nature & Aventure",
      "description": "Balade au coucher du soleil le long du front d'eau.",
      "duree": "1-2h",
      "prix": "Gratuit",
      "mapsUrl": "https://maps.google.com/?q=Promenade+au+bord+de+l%27eau+de+Aqaba+Aqaba",
      "tripadvisorUrl": "https://www.tripadvisor.fr/Search?q=Promenade+au+bord+de+l%27eau+de+Aqaba+Aqaba",
      "meilleureEpoque": "Été",
      "idealPour": [
        "famille",
        "groupe",
        "couple"
      ],
      "conseil": "Venez tôt le matin pour profiter du calme et éviter la foule.",
      "id": "a13"
    },
    {
      "nom": "Musée de la ville de Aqaba",
      "categorie": "Art & Musées",
      "description": "Collections retraçant l'histoire et la culture islamique locale.",
      "duree": "2h",
      "prix": "€",
      "mapsUrl": "https://maps.google.com/?q=Mus%C3%A9e+de+la+ville+de+Aqaba+Aqaba",
      "tripadvisorUrl": "https://www.tripadvisor.fr/Search?q=Mus%C3%A9e+de+la+ville+de+Aqaba+Aqaba",
      "meilleureEpoque": "Été",
      "idealPour": [
        "famille",
        "couple",
        "solo"
      ],
      "conseil": "Venez tôt le matin pour profiter du calme et éviter la foule.",
      "id": "a14"
    },
    {
      "nom": "Food tour halal de Aqaba",
      "categorie": "Gastronomie",
      "description": "Parcours des meilleures adresses de street food halal avec un guide.",
      "duree": "3h",
      "prix": "€€",
      "mapsUrl": "https://maps.google.com/?q=Food+tour+halal+de+Aqaba+Aqaba",
      "tripadvisorUrl": "https://www.tripadvisor.fr/Search?q=Food+tour+halal+de+Aqaba+Aqaba",
      "meilleureEpoque": "Printemps-Automne",
      "idealPour": [
        "famille",
        "couple",
        "solo"
      ],
      "conseil": "Venez tôt le matin pour profiter du calme et éviter la foule.",
      "id": "a15"
    },
    {
      "nom": "Roof viewpoint",
      "lat": 29.5301467,
      "lng": 35.0032675,
      "coordonnees": {
        "lat": 29.5301467,
        "lng": 35.0032675
      },
      "categorie": "Panorama",
      "mapsUrl": "https://maps.google.com/?q=29.5301467,35.0032675",
      "source": "osm"
    },
    {
      "nom": "فندق دويك 3",
      "lat": 29.5315513,
      "lng": 35.0052187,
      "coordonnees": {
        "lat": 29.5315513,
        "lng": 35.0052187
      },
      "categorie": "Panorama",
      "mapsUrl": "https://maps.google.com/?q=29.5315513,35.0052187",
      "source": "osm"
    },
    {
      "nom": "فلكة العقبة (m&h)",
      "lat": 29.5320391,
      "lng": 35.0063574,
      "coordonnees": {
        "lat": 29.5320391,
        "lng": 35.0063574
      },
      "categorie": "Histoire",
      "mapsUrl": "https://maps.google.com/?q=29.5320391,35.0063574",
      "source": "osm"
    },
    {
      "nom": "فندق أحلى طلة",
      "lat": 29.5231605,
      "lng": 35.0027857,
      "coordonnees": {
        "lat": 29.5231605,
        "lng": 35.0027857
      },
      "categorie": "Panorama",
      "mapsUrl": "https://maps.google.com/?q=29.5231605,35.0027857",
      "source": "osm"
    },
    {
      "nom": "Aqaba Trail",
      "lat": 29.533143,
      "lng": 35.0071735,
      "coordonnees": {
        "lat": 29.533143,
        "lng": 35.0071735
      },
      "categorie": "À voir",
      "mapsUrl": "https://maps.google.com/?q=29.533143,35.0071735",
      "source": "osm"
    },
    {
      "nom": "سارية الثورة العربية",
      "lat": 29.5214746,
      "lng": 35.0008111,
      "coordonnees": {
        "lat": 29.5214746,
        "lng": 35.0008111
      },
      "categorie": "Histoire",
      "mapsUrl": "https://maps.google.com/?q=29.5214746,35.0008111",
      "source": "osm"
    },
    {
      "nom": "Prince Haya Park",
      "lat": 29.5342948,
      "lng": 35.0015995,
      "coordonnees": {
        "lat": 29.5342948,
        "lng": 35.0015995
      },
      "categorie": "Nature",
      "mapsUrl": "https://maps.google.com/?q=29.5342948,35.0015995",
      "source": "osm"
    },
    {
      "nom": "אמפי תיאטרון",
      "lat": 29.5469667,
      "lng": 34.9671229,
      "coordonnees": {
        "lat": 29.5469667,
        "lng": 34.9671229
      },
      "categorie": "Panorama",
      "mapsUrl": "https://maps.google.com/?q=29.5469667,34.9671229",
      "source": "osm"
    },
    {
      "nom": "Airodium Eilat",
      "lat": 29.5518993,
      "lng": 34.965126,
      "coordonnees": {
        "lat": 29.5518993,
        "lng": 34.965126
      },
      "categorie": "À voir",
      "mapsUrl": "https://maps.google.com/?q=29.5518993,34.965126",
      "source": "osm"
    },
    {
      "nom": "Desert & Sea",
      "lat": 29.5492354,
      "lng": 34.9538778,
      "coordonnees": {
        "lat": 29.5492354,
        "lng": 34.9538778
      },
      "categorie": "À voir",
      "mapsUrl": "https://maps.google.com/?q=29.5492354,34.9538778",
      "source": "osm"
    },
    {
      "nom": "Buggy",
      "lat": 29.5618324,
      "lng": 34.9629208,
      "coordonnees": {
        "lat": 29.5618324,
        "lng": 34.9629208
      },
      "categorie": "À voir",
      "mapsUrl": "https://maps.google.com/?q=29.5618324,34.9629208",
      "source": "osm"
    },
    {
      "nom": "Eilat Gallery",
      "lat": 29.5518168,
      "lng": 34.9534578,
      "coordonnees": {
        "lat": 29.5518168,
        "lng": 34.9534578
      },
      "categorie": "Culture",
      "mapsUrl": "https://maps.google.com/?q=29.5518168,34.9534578",
      "source": "osm"
    },
    {
      "nom": "Abdullah II bin Al-Hussein",
      "lat": 29.5752291,
      "lng": 34.981553,
      "coordonnees": {
        "lat": 29.5752291,
        "lng": 34.981553
      },
      "categorie": "Histoire",
      "mapsUrl": "https://maps.google.com/?q=29.5752291,34.981553",
      "source": "osm"
    },
    {
      "nom": "Imax 3D Theatre",
      "lat": 29.552021,
      "lng": 34.9524161,
      "coordonnees": {
        "lat": 29.552021,
        "lng": 34.9524161
      },
      "categorie": "À voir",
      "mapsUrl": "https://maps.google.com/?q=29.552021,34.9524161",
      "source": "osm"
    },
    {
      "nom": "מעבר גבול - יצחק רבין",
      "lat": 29.5751131,
      "lng": 34.9781413,
      "coordonnees": {
        "lat": 29.5751131,
        "lng": 34.9781413
      },
      "categorie": "À voir",
      "mapsUrl": "https://maps.google.com/?q=29.5751131,34.9781413",
      "source": "osm"
    },
    {
      "nom": "פארק צפרות אילת",
      "lat": 29.5724526,
      "lng": 34.9717278,
      "coordonnees": {
        "lat": 29.5724526,
        "lng": 34.9717278
      },
      "categorie": "À voir",
      "mapsUrl": "https://maps.google.com/?q=29.5724526,34.9717278",
      "source": "osm"
    },
    {
      "nom": "Yitzhak Rabin Border terminal 1995-1922",
      "lat": 29.575367,
      "lng": 34.9767707,
      "coordonnees": {
        "lat": 29.575367,
        "lng": 34.9767707
      },
      "categorie": "Histoire",
      "mapsUrl": "https://maps.google.com/?q=29.575367,34.9767707",
      "source": "osm"
    },
    {
      "nom": "דולפין",
      "lat": 29.5368325,
      "lng": 34.9425933,
      "coordonnees": {
        "lat": 29.5368325,
        "lng": 34.9425933
      },
      "categorie": "Histoire",
      "mapsUrl": "https://maps.google.com/?q=29.5368325,34.9425933",
      "source": "osm"
    },
    {
      "nom": "הגן הבוטני של אילת",
      "lat": 29.5739016,
      "lng": 34.9638671,
      "coordonnees": {
        "lat": 29.5739016,
        "lng": 34.9638671
      },
      "categorie": "Nature",
      "mapsUrl": "https://maps.google.com/?q=29.5739016,34.9638671",
      "source": "osm"
    },
    {
      "nom": "מצפור אליק",
      "lat": 29.5771449,
      "lng": 34.9574086,
      "coordonnees": {
        "lat": 29.5771449,
        "lng": 34.9574086
      },
      "categorie": "Panorama",
      "mapsUrl": "https://maps.google.com/?q=29.5771449,34.9574086",
      "source": "osm"
    },
    {
      "nom": "אתר צלילה -סטי\"ל (24 מטר)",
      "lat": 29.5145068,
      "lng": 34.9270007,
      "coordonnees": {
        "lat": 29.5145068,
        "lng": 34.9270007
      },
      "categorie": "Histoire",
      "mapsUrl": "https://maps.google.com/?q=29.5145068,34.9270007",
      "source": "osm"
    },
    {
      "nom": "עפיפון הר שחמון",
      "lat": 29.5847602,
      "lng": 34.9470732,
      "coordonnees": {
        "lat": 29.5847602,
        "lng": 34.9470732
      },
      "categorie": "Histoire",
      "mapsUrl": "https://maps.google.com/?q=29.5847602,34.9470732",
      "source": "osm"
    },
    {
      "nom": "טופ 94",
      "lat": 29.600045,
      "lng": 34.972798,
      "coordonnees": {
        "lat": 29.600045,
        "lng": 34.972798
      },
      "categorie": "Famille",
      "mapsUrl": "https://maps.google.com/?q=29.600045,34.972798",
      "source": "osm"
    },
    {
      "nom": "בריכות הסבר",
      "lat": 29.5041896,
      "lng": 34.9182347,
      "coordonnees": {
        "lat": 29.5041896,
        "lng": 34.9182347
      },
      "categorie": "Famille",
      "mapsUrl": "https://maps.google.com/?q=29.5041896,34.9182347",
      "source": "osm"
    },
    {
      "nom": "בריכת ליטוף והאכלה",
      "lat": 29.5034485,
      "lng": 34.9176862,
      "coordonnees": {
        "lat": 29.5034485,
        "lng": 34.9176862
      },
      "categorie": "À voir",
      "mapsUrl": "https://maps.google.com/?q=29.5034485,34.9176862",
      "source": "osm"
    },
    {
      "nom": "Underwater military museum",
      "lat": 29.4464701,
      "lng": 34.9671006,
      "coordonnees": {
        "lat": 29.4464701,
        "lng": 34.9671006
      },
      "categorie": "À voir",
      "mapsUrl": "https://maps.google.com/?q=29.4464701,34.9671006",
      "source": "osm"
    },
    {
      "nom": "King abdullah reef",
      "lat": 29.4397672,
      "lng": 34.9685438,
      "coordonnees": {
        "lat": 29.4397672,
        "lng": 34.9685438
      },
      "categorie": "À voir",
      "mapsUrl": "https://maps.google.com/?q=29.4397672,34.9685438",
      "source": "osm"
    },
    {
      "nom": "עפיפון גבעת שחורת",
      "lat": 29.6087721,
      "lng": 34.9536309,
      "coordonnees": {
        "lat": 29.6087721,
        "lng": 34.9536309
      },
      "categorie": "Histoire",
      "mapsUrl": "https://maps.google.com/?q=29.6087721,34.9536309",
      "source": "osm"
    },
    {
      "nom": "ראש מעלה בולבוסים",
      "lat": 29.5289799,
      "lng": 34.8956146,
      "coordonnees": {
        "lat": 29.5289799,
        "lng": 34.8956146
      },
      "categorie": "Panorama",
      "mapsUrl": "https://maps.google.com/?q=29.5289799,34.8956146",
      "source": "osm"
    },
    {
      "nom": "Rainbow reef",
      "lat": 29.4325243,
      "lng": 34.9737847,
      "coordonnees": {
        "lat": 29.4325243,
        "lng": 34.9737847
      },
      "categorie": "À voir",
      "mapsUrl": "https://maps.google.com/?q=29.4325243,34.9737847",
      "source": "osm"
    },
    {
      "nom": "الشاطئ الجنوبي شاطئ 3 غطس (m&h)",
      "lat": 29.4315795,
      "lng": 34.9755235,
      "coordonnees": {
        "lat": 29.4315795,
        "lng": 34.9755235
      },
      "categorie": "Panorama",
      "mapsUrl": "https://maps.google.com/?q=29.4315795,34.9755235",
      "source": "osm"
    },
    {
      "nom": "טחנה להפקת זהב",
      "lat": 29.5932745,
      "lng": 34.9223569,
      "coordonnees": {
        "lat": 29.5932745,
        "lng": 34.9223569
      },
      "categorie": "Histoire",
      "mapsUrl": "https://maps.google.com/?q=29.5932745,34.9223569",
      "source": "osm"
    },
    {
      "nom": "Cedar Pride Shipwreck",
      "lat": 29.4310657,
      "lng": 34.9731609,
      "coordonnees": {
        "lat": 29.4310657,
        "lng": 34.9731609
      },
      "categorie": "À voir",
      "mapsUrl": "https://maps.google.com/?q=29.4310657,34.9731609",
      "source": "osm"
    },
    {
      "nom": "צוק שלו",
      "lat": 29.5301364,
      "lng": 34.8917553,
      "coordonnees": {
        "lat": 29.5301364,
        "lng": 34.8917553
      },
      "categorie": "Panorama",
      "mapsUrl": "https://maps.google.com/?q=29.5301364,34.8917553",
      "source": "osm"
    },
    {
      "nom": "Flamingo lookout",
      "lat": 29.6286855,
      "lng": 34.9974606,
      "coordonnees": {
        "lat": 29.6286855,
        "lng": 34.9974606
      },
      "categorie": "Panorama",
      "mapsUrl": "https://maps.google.com/?q=29.6286855,34.9974606",
      "source": "osm"
    },
    {
      "nom": "תצפית צוקי גשרון",
      "lat": 29.5313105,
      "lng": 34.8858664,
      "coordonnees": {
        "lat": 29.5313105,
        "lng": 34.8858664
      },
      "categorie": "Panorama",
      "mapsUrl": "https://maps.google.com/?q=29.5313105,34.8858664",
      "source": "osm"
    },
    {
      "nom": "צוקי גשרון",
      "lat": 29.5444832,
      "lng": 34.8867073,
      "coordonnees": {
        "lat": 29.5444832,
        "lng": 34.8867073
      },
      "categorie": "Panorama",
      "mapsUrl": "https://maps.google.com/?q=29.5444832,34.8867073",
      "source": "osm"
    },
    {
      "nom": "חוות עברונה",
      "lat": 29.6342656,
      "lng": 34.9973008,
      "coordonnees": {
        "lat": 29.6342656,
        "lng": 34.9973008
      },
      "categorie": "Histoire",
      "mapsUrl": "https://maps.google.com/?q=29.6342656,34.9973008",
      "source": "osm"
    },
    {
      "nom": "הר שלמה",
      "lat": 29.5801252,
      "lng": 34.8996792,
      "coordonnees": {
        "lat": 29.5801252,
        "lng": 34.8996792
      },
      "categorie": "Panorama",
      "mapsUrl": "https://maps.google.com/?q=29.5801252,34.8996792",
      "source": "osm"
    },
    {
      "nom": "מצפור יהושפט",
      "lat": 29.5596851,
      "lng": 34.8857973,
      "coordonnees": {
        "lat": 29.5596851,
        "lng": 34.8857973
      },
      "categorie": "Panorama",
      "mapsUrl": "https://maps.google.com/?q=29.5596851,34.8857973",
      "source": "osm"
    },
    {
      "nom": "خربة كثارة",
      "lat": 29.55,
      "lng": 35.133333,
      "coordonnees": {
        "lat": 29.55,
        "lng": 35.133333
      },
      "categorie": "Histoire",
      "mapsUrl": "https://maps.google.com/?q=29.55,35.133333",
      "source": "osm"
    },
    {
      "nom": "אוכף המילניום",
      "lat": 29.5862184,
      "lng": 34.898299,
      "coordonnees": {
        "lat": 29.5862184,
        "lng": 34.898299
      },
      "categorie": "Panorama",
      "mapsUrl": "https://maps.google.com/?q=29.5862184,34.898299",
      "source": "osm"
    },
    {
      "nom": "Tank",
      "lat": 29.4187751,
      "lng": 34.9716597,
      "coordonnees": {
        "lat": 29.4187751,
        "lng": 34.9716597
      },
      "categorie": "À voir",
      "mapsUrl": "https://maps.google.com/?q=29.4187751,34.9716597",
      "source": "osm"
    },
    {
      "nom": "מצפה הר יהורם",
      "lat": 29.5878776,
      "lng": 34.8975156,
      "coordonnees": {
        "lat": 29.5878776,
        "lng": 34.8975156
      },
      "categorie": "Panorama",
      "mapsUrl": "https://maps.google.com/?q=29.5878776,34.8975156",
      "source": "osm"
    },
    {
      "nom": "חורבת בודדה",
      "lat": 29.6025435,
      "lng": 34.9052156,
      "coordonnees": {
        "lat": 29.6025435,
        "lng": 34.9052156
      },
      "categorie": "Histoire",
      "mapsUrl": "https://maps.google.com/?q=29.6025435,34.9052156",
      "source": "osm"
    }
  ],
  "mosqueesPrincipales": [
    {
      "nom": "مسجد عمرو بن العاص",
      "lat": 29.5249892,
      "lng": 35.0137454,
      "coordonnees": {
        "lat": 29.5249892,
        "lng": 35.0137454
      },
      "adresse": "العقبة",
      "mapsUrl": "https://maps.google.com/?q=29.5249892,35.0137454",
      "source": "osm"
    },
    {
      "nom": "مسجد أبو داود",
      "lat": 29.5320926,
      "lng": 35.0054003,
      "coordonnees": {
        "lat": 29.5320926,
        "lng": 35.0054003
      },
      "adresse": "العقبة",
      "mapsUrl": "https://maps.google.com/?q=29.5320926,35.0054003",
      "source": "osm"
    },
    {
      "nom": "Sheik Zayed Mosque",
      "lat": 29.5184082,
      "lng": 35.0122372,
      "coordonnees": {
        "lat": 29.5184082,
        "lng": 35.0122372
      },
      "mapsUrl": "https://maps.google.com/?q=29.5184082,35.0122372",
      "source": "osm"
    },
    {
      "nom": "Abdullah Ibn Sa'ad Mosque",
      "lat": 29.5344291,
      "lng": 35.0019329,
      "coordonnees": {
        "lat": 29.5344291,
        "lng": 35.0019329
      },
      "mapsUrl": "https://maps.google.com/?q=29.5344291,35.0019329",
      "source": "osm"
    },
    {
      "nom": "مسجد",
      "lat": 29.5390352,
      "lng": 35.0107356,
      "coordonnees": {
        "lat": 29.5390352,
        "lng": 35.0107356
      },
      "mapsUrl": "https://maps.google.com/?q=29.5390352,35.0107356",
      "source": "osm"
    },
    {
      "nom": "Amer Abo Obeida",
      "lat": 29.5429631,
      "lng": 35.0103996,
      "coordonnees": {
        "lat": 29.5429631,
        "lng": 35.0103996
      },
      "mapsUrl": "https://maps.google.com/?q=29.5429631,35.0103996",
      "source": "osm"
    },
    {
      "nom": "مسجد عمر بن الخطاب",
      "lat": 29.5469607,
      "lng": 35.0017408,
      "coordonnees": {
        "lat": 29.5469607,
        "lng": 35.0017408
      },
      "adresse": "العقبة",
      "mapsUrl": "https://maps.google.com/?q=29.5469607,35.0017408",
      "source": "osm"
    },
    {
      "nom": "مسجد الشويخ",
      "lat": 29.5521724,
      "lng": 35.0036907,
      "coordonnees": {
        "lat": 29.5521724,
        "lng": 35.0036907
      },
      "adresse": "العقبة",
      "mapsUrl": "https://maps.google.com/?q=29.5521724,35.0036907",
      "source": "osm"
    },
    {
      "nom": "Al Kaloty Mousq",
      "lat": 29.5547379,
      "lng": 35.013194,
      "coordonnees": {
        "lat": 29.5547379,
        "lng": 35.013194
      },
      "mapsUrl": "https://maps.google.com/?q=29.5547379,35.013194",
      "source": "osm"
    },
    {
      "nom": "مسجد فريدة الشاوي",
      "lat": 29.5458201,
      "lng": 35.032599,
      "coordonnees": {
        "lat": 29.5458201,
        "lng": 35.032599
      },
      "adresse": "العقبة",
      "mapsUrl": "https://maps.google.com/?q=29.5458201,35.032599",
      "source": "osm"
    },
    {
      "nom": "Al Reyatie Mosque",
      "lat": 29.55977,
      "lng": 35.012908,
      "coordonnees": {
        "lat": 29.55977,
        "lng": 35.012908
      },
      "mapsUrl": "https://maps.google.com/?q=29.55977,35.012908",
      "source": "osm"
    },
    {
      "nom": "مسجد قتيبة بن مسلم الباهلي",
      "lat": 29.5532587,
      "lng": 35.0433904,
      "coordonnees": {
        "lat": 29.5532587,
        "lng": 35.0433904
      },
      "adresse": "العقبة",
      "mapsUrl": "https://maps.google.com/?q=29.5532587,35.0433904",
      "source": "osm"
    }
  ],
  "tags": [
    "mer-rouge",
    "plongee",
    "plage",
    "desert",
    "famille",
    "nature"
  ],
  "selectionsPremium": {
    "mieuxNotes": [
      "Bait Al Karam",
      "Bait Al Karam Aqaba 1",
      "Shawarma Al Reef",
      "Shawarma Al Reef Aqaba 2",
      "Saffron Garden Aqaba"
    ],
    "meilleurRapportQualitePrix": [
      "Ali Baba Restaurant",
      "Hani Ali",
      "Shawarma Reem",
      "Beit Beirut Aqaba",
      "Spice Route Aqaba"
    ],
    "incontournables": [
      "Shawarma Al Reef",
      "Bait Al Karam Aqaba 1",
      "Beit Cham",
      "Beit Beirut Aqaba",
      "Shawarma Al Reef Aqaba 2"
    ],
    "pepitesCachees": [
      "Captain's Restaurant",
      "Hani Ali",
      "Bait Al Karam"
    ],
    "idealFamille": [
      "Ali Baba Restaurant",
      "Captain's Restaurant",
      "Hani Ali",
      "Al Mohandes",
      "Shawarma Reem"
    ],
    "gastronomique": [
      "Royal Yacht Club Restaurant",
      "Saffron Garden Aqaba",
      "Saffron Majlis",
      "Saffron Majlis Aqaba 4"
    ],
    "ouvertNuit": [
      "Hani Ali",
      "Al Mohandes",
      "Shawarma Reem"
    ],
    "vueExceptionnelle": [
      "Captain's Restaurant",
      "Tala Bay Beach Restaurant"
    ]
  },
  "description_en": "Aqaba, in Jordan, is a halal-friendly destination with a Halal Trust Score of 4.2/5. Muslim travelers will find 800 halal restaurants, 80 mosques, real-time prayer times and the Qibla direction — a complete guide to travel with peace of mind.",
  "metaDescription_en": "Halal guide to Aqaba: 800+ halal restaurants, 80 mosques, prayer times and tips for Muslim travelers. Halal Trust Score 4.2/5.",
  "nom_en": "Aqaba",
  "boucheries": [],
  "infos_pratiques_en": {
    "langue": "Arabic",
    "monnaie": "Dinar jordanien (JOD)",
    "meilleure_periode": "March to May, Sept to Nov",
    "appel_priere": "5 times a day",
    "nourriture_halal": "Largement disponible",
    "alcool": "Available (zone franche)"
  }
}