{
  "slug": "asilah",
  "nom": "Asilah",
  "pays": "Maroc",
  "pays_slug": "maroc",
  "continent": "Afrique",
  "region": "Nord du Maroc",
  "coordonnees": {
    "lat": 35.465,
    "lng": -6.0341
  },
  "codeISO": "MA",
  "score_halal": 4.5,
  "halalScore": 8.9,
  "description": "Petite cité atlantique fortifiée à la médina blanche couverte de fresques murales. Ville d'artistes réputée pour son festival culturel d'été.",
  "image": "https://upload.wikimedia.org/wikipedia/commons/thumb/c/c4/Assilah_Waterfront1.jpg/1920px-Assilah_Waterfront1.jpg",
  "image_hero": "https://upload.wikimedia.org/wikipedia/commons/thumb/c/c4/Assilah_Waterfront1.jpg/1920px-Assilah_Waterfront1.jpg",
  "metaDescription": "Petite cité atlantique fortifiée à la médina blanche couverte de fresques murales. Ville d'artistes réputée pour son festival culturel d'été.",
  "monnaie": "MAD (Dirham marocain)",
  "langue": "Arabe, Tamazight, Français",
  "statistiques": {
    "restaurants_halal": 4,
    "mosquees": 1,
    "hotels": 20
  },
  "infoPratique": {
    "monnaie": "MAD (Dirham marocain)",
    "langue": "Arabe, Tamazight, Français",
    "transport": "Accessible en bus (CTM/Supratours), grand taxi ou voiture.",
    "meilleureEpoque": "Printemps et automne (climat doux)."
  },
  "tags": [
    "halal",
    "Maroc"
  ],
  "restaurants": [
    {
      "nom": "Dar Al Maghrebia",
      "type": "moroccan",
      "priceRange": "€€",
      "mapsUrl": "https://maps.google.com/?q=35.4660937,-6.0340566",
      "lat": 35.4660937,
      "lng": -6.0340566,
      "halalConfidence": "likely",
      "source": "osm"
    },
    {
      "nom": "Lixus",
      "type": "pizza, tapas, pasta, fish, moroccan",
      "priceRange": "€€",
      "mapsUrl": "https://maps.google.com/?q=35.4663504,-6.0340553",
      "lat": 35.4663504,
      "lng": -6.0340553,
      "halalConfidence": "likely",
      "source": "osm"
    },
    {
      "nom": "Tipico locale fish S/N",
      "type": "arab, fish",
      "priceRange": "€€",
      "mapsUrl": "https://maps.google.com/?q=35.4662183,-6.0319567",
      "lat": 35.4662183,
      "lng": -6.0319567,
      "halalConfidence": "likely",
      "source": "osm"
    },
    {
      "nom": "Casa la Place",
      "type": "moroccan, seafood",
      "priceRange": "€€",
      "mapsUrl": "https://maps.google.com/?q=35.4670599,-6.0358686",
      "lat": 35.4670599,
      "lng": -6.0358686,
      "halalConfidence": "likely",
      "source": "osm"
    },
    {
      "nom": "Cafe Daya",
      "lat": 35.4638281,
      "lng": -6.0421212,
      "type": "moroccan",
      "halalConfidence": "likely",
      "mapsUrl": "https://maps.google.com/?q=35.4638281,-6.0421212",
      "source": "osm"
    }
  ],
  "hotels": [
    {
      "nom": "Hotel Las Palmas",
      "categorie": "Hôtel",
      "priceRange": "€€",
      "mapsUrl": "https://maps.google.com/?q=35.4651234,-6.0350589",
      "lat": 35.4651234,
      "lng": -6.0350589,
      "halalFriendly": false,
      "bookingUrl": "https://maps.google.com/?q=35.4651234,-6.0350589",
      "source": "osm"
    },
    {
      "nom": "Dar al Andalous",
      "categorie": "Hôtel",
      "priceRange": "€€",
      "mapsUrl": "https://maps.google.com/?q=35.4659389,-6.0351555",
      "lat": 35.4659389,
      "lng": -6.0351555,
      "halalFriendly": false,
      "bookingUrl": "https://maps.google.com/?q=35.4659389,-6.0351555",
      "source": "osm"
    },
    {
      "nom": "Chambre Tata",
      "categorie": "Appartement",
      "priceRange": "€€",
      "mapsUrl": "https://maps.google.com/?q=35.4648926,-6.0359468",
      "lat": 35.4648926,
      "lng": -6.0359468,
      "halalFriendly": false,
      "bookingUrl": "https://maps.google.com/?q=35.4648926,-6.0359468",
      "source": "osm"
    },
    {
      "nom": "Patio de la Luna",
      "categorie": "Hôtel",
      "priceRange": "€€",
      "mapsUrl": "https://maps.google.com/?q=35.4664799,-6.0356419",
      "lat": 35.4664799,
      "lng": -6.0356419,
      "halalFriendly": false,
      "bookingUrl": "https://maps.google.com/?q=35.4664799,-6.0356419",
      "source": "osm"
    },
    {
      "nom": "Hotel Azayla",
      "categorie": "Hôtel",
      "priceRange": "€€",
      "mapsUrl": "https://maps.google.com/?q=35.4671517,-6.0338008",
      "lat": 35.4671517,
      "lng": -6.0338008,
      "halalFriendly": false,
      "bookingUrl": "https://maps.google.com/?q=35.4671517,-6.0338008",
      "source": "osm"
    },
    {
      "nom": "Hotel Sahara",
      "categorie": "Maison d'hôtes",
      "priceRange": "€€",
      "mapsUrl": "https://maps.google.com/?q=35.4674321,-6.0315906",
      "lat": 35.4674321,
      "lng": -6.0315906,
      "halalFriendly": false,
      "bookingUrl": "https://maps.google.com/?q=35.4674321,-6.0315906",
      "source": "osm"
    },
    {
      "nom": "Riad Asilah",
      "categorie": "Maison d'hôtes",
      "priceRange": "€€",
      "mapsUrl": "https://maps.google.com/?q=35.4650424,-6.038228",
      "lat": 35.4650424,
      "lng": -6.038228,
      "halalFriendly": false,
      "bookingUrl": "https://maps.google.com/?q=35.4650424,-6.038228",
      "source": "osm"
    },
    {
      "nom": "Hôtel Mansour",
      "categorie": "Hôtel",
      "priceRange": "€€",
      "mapsUrl": "https://maps.google.com/?q=35.4683283,-6.0314149",
      "lat": 35.4683283,
      "lng": -6.0314149,
      "halalFriendly": false,
      "bookingUrl": "https://maps.google.com/?q=35.4683283,-6.0314149",
      "source": "osm"
    },
    {
      "nom": "Al Andalus Apartments",
      "categorie": "Hôtel",
      "priceRange": "€€",
      "mapsUrl": "https://maps.google.com/?q=35.4626448,-6.0385579",
      "lat": 35.4626448,
      "lng": -6.0385579,
      "halalFriendly": false,
      "bookingUrl": "https://www.facebook.com/Alandalusapartmets.ma/",
      "source": "osm"
    },
    {
      "nom": "Riad Aicha",
      "categorie": "Hôtel",
      "priceRange": "€€",
      "mapsUrl": "https://maps.google.com/?q=35.4645844,-6.0394071",
      "lat": 35.4645844,
      "lng": -6.0394071,
      "halalFriendly": false,
      "bookingUrl": "https://maps.google.com/?q=35.4645844,-6.0394071",
      "source": "osm"
    },
    {
      "nom": "Riad del Cielo",
      "categorie": "Auberge",
      "priceRange": "€€",
      "mapsUrl": "https://maps.google.com/?q=35.464561,-6.0397957",
      "lat": 35.464561,
      "lng": -6.0397957,
      "halalFriendly": false,
      "bookingUrl": "https://maps.google.com/?q=35.464561,-6.0397957",
      "source": "osm"
    },
    {
      "nom": "Dar pabia 21",
      "categorie": "Hôtel",
      "priceRange": "€€",
      "mapsUrl": "https://maps.google.com/?q=35.4642878,-6.0399512",
      "lat": 35.4642878,
      "lng": -6.0399512,
      "halalFriendly": false,
      "bookingUrl": "https://maps.google.com/?q=35.4642878,-6.0399512",
      "source": "osm"
    },
    {
      "nom": "MIA hostel",
      "categorie": "Auberge",
      "priceRange": "€€",
      "mapsUrl": "https://maps.google.com/?q=35.4690427,-6.0283171",
      "lat": 35.4690427,
      "lng": -6.0283171,
      "halalFriendly": false,
      "bookingUrl": "https://maps.google.com/?q=35.4690427,-6.0283171",
      "source": "osm"
    },
    {
      "nom": "Veu Le Havre Apartment",
      "categorie": "Appartement",
      "priceRange": "€€",
      "mapsUrl": "https://maps.google.com/?q=35.4705568,-6.0301978",
      "lat": 35.4705568,
      "lng": -6.0301978,
      "halalFriendly": false,
      "bookingUrl": "https://maps.google.com/?q=35.4705568,-6.0301978",
      "source": "osm"
    },
    {
      "nom": "Beach Housse",
      "categorie": "Maison d'hôtes",
      "priceRange": "€€",
      "mapsUrl": "https://maps.google.com/?q=35.4636705,-6.0418066",
      "lat": 35.4636705,
      "lng": -6.0418066,
      "halalFriendly": false,
      "bookingUrl": "https://maps.google.com/?q=35.4636705,-6.0418066",
      "source": "osm"
    },
    {
      "nom": "El Hambra",
      "categorie": "Appartement",
      "priceRange": "€€",
      "mapsUrl": "https://maps.google.com/?q=35.4707172,-6.0304539",
      "lat": 35.4707172,
      "lng": -6.0304539,
      "halalFriendly": false,
      "bookingUrl": "https://maps.google.com/?q=35.4707172,-6.0304539",
      "source": "osm"
    },
    {
      "nom": "Hotel Al Alba",
      "categorie": "Hôtel",
      "priceRange": "€€",
      "mapsUrl": "https://maps.google.com/?q=35.4709706,-6.028359",
      "lat": 35.4709706,
      "lng": -6.028359,
      "halalFriendly": false,
      "bookingUrl": "https://maps.google.com/?q=35.4709706,-6.028359",
      "source": "osm"
    },
    {
      "nom": "Al Khaima",
      "categorie": "Hôtel",
      "priceRange": "€€",
      "mapsUrl": "https://maps.google.com/?q=35.4749438,-6.0256446",
      "lat": 35.4749438,
      "lng": -6.0256446,
      "halalFriendly": false,
      "bookingUrl": "https://maps.google.com/?q=35.4749438,-6.0256446",
      "source": "osm"
    },
    {
      "nom": "Berbari Maison d'hotes",
      "categorie": "Hôtel",
      "priceRange": "€€",
      "mapsUrl": "https://maps.google.com/?q=35.4158905,-6.0081959",
      "lat": 35.4158905,
      "lng": -6.0081959,
      "halalFriendly": false,
      "bookingUrl": "https://maps.google.com/?q=35.4158905,-6.0081959",
      "source": "osm"
    },
    {
      "nom": "Dar Saad",
      "categorie": "Maison d'hôtes",
      "priceRange": "€€",
      "mapsUrl": "https://maps.google.com/?q=35.3890533,-6.0606224",
      "lat": 35.3890533,
      "lng": -6.0606224,
      "halalFriendly": false,
      "bookingUrl": "https://maps.google.com/?q=35.3890533,-6.0606224",
      "source": "osm"
    }
  ],
  "mosqueesPrincipales": [
    {
      "id": "m1",
      "nom": "Grande Mosquée de Asilah",
      "type": "Mosquée",
      "adresse": "Centre-ville, Asilah",
      "description": "Mosquée principale de la ville, prière du vendredi.",
      "note": 5,
      "acces_non_musulmans": false,
      "mapsUrl": "https://maps.google.com/?q=Grande%20Mosqu%C3%A9e%20Asilah%20Asilah%20Maroc"
    },
    {
      "nom": "Mosquée Al-Houda",
      "lat": 35.4648257,
      "lng": -6.0365985,
      "coordonnees": {
        "lat": 35.4648257,
        "lng": -6.0365985
      },
      "mapsUrl": "https://maps.google.com/?q=35.4648257,-6.0365985",
      "source": "osm"
    },
    {
      "nom": "Mosquée Molay Driss",
      "lat": 35.4661583,
      "lng": -6.0370784,
      "coordonnees": {
        "lat": 35.4661583,
        "lng": -6.0370784
      },
      "mapsUrl": "https://maps.google.com/?q=35.4661583,-6.0370784",
      "source": "osm"
    }
  ],
  "activites": [
    {
      "id": "a1",
      "nom": "Médina fortifiée et fresques",
      "categorie": "Culture",
      "description": "Remparts portugais et murs peints par des artistes du monde entier.",
      "prix": "Gratuit",
      "duree": "",
      "mapsUrl": "https://maps.google.com/?q=M%C3%A9dina%20fortifi%C3%A9e%20et%20fresques%20Asilah%20Maroc"
    },
    {
      "id": "a2",
      "nom": "Festival culturel d'Asilah",
      "categorie": "Événement",
      "description": "Festival d'arts en août : peinture murale, musique, poésie.",
      "prix": "Payant",
      "duree": "",
      "mapsUrl": "https://maps.google.com/?q=Festival%20culturel%20d%27Asilah%20Asilah%20Maroc"
    },
    {
      "id": "a3",
      "nom": "Plage d'Asilah",
      "categorie": "Nature",
      "description": "Longue plage atlantique au sable doré.",
      "prix": "Gratuit",
      "duree": "",
      "mapsUrl": "https://maps.google.com/?q=Plage%20d%27Asilah%20Asilah%20Maroc",
      "lat": 35.5459897,
      "lng": -6.0039826,
      "geocoded": true
    },
    {
      "nom": "MZC Assilah",
      "lat": 35.4647485,
      "lng": -6.0348033,
      "coordonnees": {
        "lat": 35.4647485,
        "lng": -6.0348033
      },
      "categorie": "À voir",
      "mapsUrl": "https://maps.google.com/?q=35.4647485,-6.0348033",
      "source": "osm"
    },
    {
      "nom": "Bab Al Kasbah",
      "lat": 35.4666715,
      "lng": -6.0365523,
      "coordonnees": {
        "lat": 35.4666715,
        "lng": -6.0365523
      },
      "categorie": "Panorama",
      "mapsUrl": "https://maps.google.com/?q=35.4666715,-6.0365523",
      "source": "osm"
    },
    {
      "nom": "Faces",
      "lat": 35.4659089,
      "lng": -6.0376412,
      "coordonnees": {
        "lat": 35.4659089,
        "lng": -6.0376412
      },
      "categorie": "À voir",
      "mapsUrl": "https://maps.google.com/?q=35.4659089,-6.0376412",
      "source": "osm"
    },
    {
      "nom": "Musée d’Asilah (en construction)",
      "lat": 35.4652062,
      "lng": -6.030191,
      "coordonnees": {
        "lat": 35.4652062,
        "lng": -6.030191
      },
      "categorie": "Culture",
      "mapsUrl": "https://maps.google.com/?q=35.4652062,-6.030191",
      "source": "osm"
    },
    {
      "nom": "Hands",
      "lat": 35.4650018,
      "lng": -6.038785,
      "coordonnees": {
        "lat": 35.4650018,
        "lng": -6.038785
      },
      "categorie": "À voir",
      "mapsUrl": "https://maps.google.com/?q=35.4650018,-6.038785",
      "source": "osm"
    },
    {
      "nom": "Blue calligraphy",
      "lat": 35.4663795,
      "lng": -6.0387653,
      "coordonnees": {
        "lat": 35.4663795,
        "lng": -6.0387653
      },
      "categorie": "À voir",
      "mapsUrl": "https://maps.google.com/?q=35.4663795,-6.0387653",
      "source": "osm"
    },
    {
      "nom": "Red abstraction",
      "lat": 35.4648542,
      "lng": -6.0400317,
      "coordonnees": {
        "lat": 35.4648542,
        "lng": -6.0400317
      },
      "categorie": "À voir",
      "mapsUrl": "https://maps.google.com/?q=35.4648542,-6.0400317",
      "source": "osm"
    },
    {
      "nom": "Girl",
      "lat": 35.4652225,
      "lng": -6.0412032,
      "coordonnees": {
        "lat": 35.4652225,
        "lng": -6.0412032
      },
      "categorie": "À voir",
      "mapsUrl": "https://maps.google.com/?q=35.4652225,-6.0412032",
      "source": "osm"
    },
    {
      "nom": "Mzoura",
      "lat": 35.404171,
      "lng": -5.9439278,
      "coordonnees": {
        "lat": 35.404171,
        "lng": -5.9439278
      },
      "categorie": "Histoire",
      "mapsUrl": "https://maps.google.com/?q=35.404171,-5.9439278",
      "source": "osm"
    },
    {
      "nom": "Dchar Jdid (Assilah)",
      "lat": 35.5223317,
      "lng": -5.9153525,
      "coordonnees": {
        "lat": 35.5223317,
        "lng": -5.9153525
      },
      "categorie": "Histoire",
      "mapsUrl": "https://maps.google.com/?q=35.5223317,-5.9153525",
      "source": "osm"
    }
  ],
  "imageCredit": "Wikimedia Commons",
  "osmEnriched": true,
  "osmEnrichedAt": "2026-06-30",
  "description_en": "Asilah, in Morocco, is a halal-friendly destination with a Halal Trust Score of 4.5/5. Muslim travelers will find 5 halal restaurants listed, 1 mosques, real-time prayer times and the Qibla direction — a complete guide to travel with peace of mind.",
  "metaDescription_en": "Halal guide to Asilah: 4+ halal restaurants, 1 mosques, prayer times and tips for Muslim travelers. Halal Trust Score 4.5/5.",
  "nom_en": "Asilah",
  "boucheries": []
}