{
 "nom": "Banda Aceh",
 "pays": "Indonésie",
 "slug": "banda-aceh",
 "image": "https://images.unsplash.com/photo-1584810359583-96fc9f0d2e76?w=1400&q=85",
 "image_hero": "https://images.unsplash.com/photo-1584810359583-96fc9f0d2e76?w=1400&q=85",
 "description": "Banda Aceh, la province la plus islamique d'Indonésie, applique la charia. La Grande Mosquée Baiturrahman et le mémorial du tsunami en font une destination profondément spirituelle.",
 "descriptionLongue": "Capitale de la province d'Aceh, surnommée « la véranda de La Mecque », Banda Aceh est la région la plus musulmane d'Indonésie. La majestueuse mosquée Baiturrahman, aux dômes noirs, a résisté au tsunami de 2004 dont le mémorial émeut les visiteurs. Ville 100% halal et sans alcool, Aceh offre une cuisine épicée (mie aceh, kari kambing) et une hospitalité sincère.",
 "halalScore": 9.6,
 "score_halal": 4.8,
 "mosquees": 1000,
 "population": "250 000",
 "langue": "Indonésien, Acehnais",
 "monnaie": "Roupie (IDR)",
 "fuseau": "UTC+7",
 "meilleureEpoque": "Toute l'année",
 "prixMoyenNuit": "40€",
 "continent": "Asie",
 "codeISO": "ID",
 "pays_slug": "indonesie",
 "region": "Asie du Sud-Est",
 "meta_title": "Voyage Halal à Banda Aceh — Guide Complet 2026",
 "meta_description": "Restaurants halal signalés, mosquées et guide pratique pour Banda Aceh — Halal Trust Score 9.6/10.",
 "metaDescription": "Restaurants halal signalés, mosquées et guide pratique pour Banda Aceh — Halal Trust Score 9.6/10.",
 "coordonnees": {
  "lat": 5.5483,
  "lng": 95.3238
 },
 "image_alt": "Vue de Banda Aceh, Indonésie",
 "statistiques": {
  "mosquees": 3,
  "restaurants_halal": 5,
  "habitants_musulmans_pct": 99,
  "hotels": 32
 },
 "infos_pratiques": {
  "langue": "Indonésien, Acehnais",
  "monnaie": "Roupie (IDR)",
  "meilleure_periode": "Toute l'année",
  "appel_priere": "5 fois par jour",
  "nourriture_halal": "Largement disponible",
  "alcool": "Interdit",
  "securite": "Précautions habituelles"
 },
 "infoPratique": {
  "visa": "Visa à l'arrivée ou exemption selon durée",
  "vaccins": "Aucun obligatoire",
  "transport": "Becak motorisé, Grab, location de scooter",
  "priseElectrique": "Type C/F — 230V",
  "decalageHoraire": "+6h par rapport à Paris (hiver)"
 },
 "restaurants": [
  {
   "nom": "Kebab Sirkeci",
   "lat": 5.5408726,
   "lng": 95.3161975,
   "type": "kebab",
   "halalConfidence": "likely",
   "mapsUrl": "https://maps.google.com/?q=5.5408726,95.3161975",
   "source": "osm"
  },
  {
   "nom": "Marugame Udon",
   "lat": 5.5379398,
   "lng": 95.3071261,
   "type": "udon, japanese",
   "halalConfidence": "high",
   "mapsUrl": "https://maps.google.com/?q=5.5379398,95.3071261",
   "source": "osm"
  },
  {
   "nom": "Barika Coffee",
   "lat": 5.5275179,
   "lng": 95.3291135,
   "type": "coffee shop",
   "halalConfidence": "high",
   "mapsUrl": "https://maps.google.com/?q=5.5275179,95.3291135",
   "source": "osm"
  },
  {
   "nom": "MMA Chicken Crispy",
   "lat": 5.5567587,
   "lng": 95.3444148,
   "type": "chicken, burger, kebab, indonesian",
   "halalConfidence": "high",
   "mapsUrl": "https://maps.google.com/?q=5.5567587,95.3444148",
   "source": "osm"
  },
  {
   "nom": "Kebab Mufasa",
   "lat": 5.5523861,
   "lng": 95.3464215,
   "type": "kebab, burger, fast food, street food",
   "halalConfidence": "high",
   "mapsUrl": "https://maps.google.com/?q=5.5523861,95.3464215",
   "source": "osm"
  }
 ],
 "hotels": [
  {
   "nom": "Rumoh PMI Hotel",
   "categorie": "Hôtel",
   "priceRange": "€",
   "score": 1,
   "mapsUrl": "https://maps.google.com/?q=5.5429234,95.3231572",
   "lat": 5.5429234,
   "lng": 95.3231572,
   "halalFriendly": false,
   "bookingUrl": "https://maps.google.com/?q=5.5429234,95.3231572",
   "source": "osm"
  },
  {
   "nom": "Wisma Teuku Umar",
   "categorie": "Hôtel",
   "priceRange": "€€",
   "mapsUrl": "https://maps.google.com/?q=5.5488189,95.3154621",
   "lat": 5.5488189,
   "lng": 95.3154621,
   "halalFriendly": false,
   "bookingUrl": "https://maps.google.com/?q=5.5488189,95.3154621",
   "source": "osm"
  },
  {
   "nom": "Kos Halimah",
   "categorie": "Auberge",
   "priceRange": "€€",
   "mapsUrl": "https://maps.google.com/?q=5.5515357,95.3319989",
   "lat": 5.5515357,
   "lng": 95.3319989,
   "halalFriendly": false,
   "bookingUrl": "https://maps.google.com/?q=5.5515357,95.3319989",
   "source": "osm"
  },
  {
   "nom": "Hotel 61",
   "categorie": "Hôtel",
   "priceRange": "€€",
   "mapsUrl": "https://maps.google.com/?q=5.5570289,95.32183",
   "lat": 5.5570289,
   "lng": 95.32183,
   "halalFriendly": false,
   "bookingUrl": "http://www.hotel61.co.id/",
   "source": "osm"
  },
  {
   "nom": "Hotel Aceh Barat",
   "categorie": "Auberge",
   "priceRange": "€€",
   "mapsUrl": "https://maps.google.com/?q=5.5581091,95.3204834",
   "lat": 5.5581091,
   "lng": 95.3204834,
   "halalFriendly": false,
   "bookingUrl": "https://maps.google.com/?q=5.5581091,95.3204834",
   "source": "osm"
  },
  {
   "nom": "Sentosa",
   "categorie": "Maison d'hôtes",
   "priceRange": "€€",
   "mapsUrl": "https://maps.google.com/?q=5.558664,95.3247603",
   "lat": 5.558664,
   "lng": 95.3247603,
   "halalFriendly": false,
   "bookingUrl": "https://maps.google.com/?q=5.558664,95.3247603",
   "source": "osm"
  },
  {
   "nom": "Hotel Medan",
   "categorie": "Hôtel",
   "priceRange": "€",
   "score": 1,
   "mapsUrl": "https://maps.google.com/?q=5.557515,95.3187549",
   "lat": 5.557515,
   "lng": 95.3187549,
   "halalFriendly": false,
   "bookingUrl": "https://maps.google.com/?q=5.557515,95.3187549",
   "source": "osm"
  },
  {
   "nom": "Siwah Hotel",
   "categorie": "Hôtel",
   "priceRange": "€",
   "score": 1,
   "mapsUrl": "https://maps.google.com/?q=5.5584786,95.3206998",
   "lat": 5.5584786,
   "lng": 95.3206998,
   "halalFriendly": false,
   "bookingUrl": "https://maps.google.com/?q=5.5584786,95.3206998",
   "source": "osm"
  },
  {
   "nom": "Hotel Prapat",
   "categorie": "Hôtel",
   "priceRange": "€€",
   "mapsUrl": "https://maps.google.com/?q=5.5578464,95.3187296",
   "lat": 5.5578464,
   "lng": 95.3187296,
   "halalFriendly": false,
   "bookingUrl": "https://maps.google.com/?q=5.5578464,95.3187296",
   "source": "osm"
  },
  {
   "nom": "Wisma Rita",
   "categorie": "Auberge",
   "priceRange": "€€",
   "mapsUrl": "https://maps.google.com/?q=5.5420559,95.3149043",
   "lat": 5.5420559,
   "lng": 95.3149043,
   "halalFriendly": false,
   "bookingUrl": "https://maps.google.com/?q=5.5420559,95.3149043",
   "source": "osm"
  },
  {
   "nom": "Pavilliun Seulawah",
   "categorie": "Hôtel",
   "priceRange": "€€",
   "mapsUrl": "https://maps.google.com/?q=5.5517368,95.3133967",
   "lat": 5.5517368,
   "lng": 95.3133967,
   "halalFriendly": false,
   "bookingUrl": "https://maps.google.com/?q=5.5517368,95.3133967",
   "source": "osm"
  },
  {
   "nom": "Hotel Wisata",
   "categorie": "Hôtel",
   "priceRange": "€€",
   "mapsUrl": "https://maps.google.com/?q=5.5580938,95.3187691",
   "lat": 5.5580938,
   "lng": 95.3187691,
   "halalFriendly": false,
   "bookingUrl": "https://maps.google.com/?q=5.5580938,95.3187691",
   "source": "osm"
  },
  {
   "nom": "MarshoteL Aceh",
   "categorie": "Hôtel",
   "priceRange": "€€",
   "score": 2,
   "mapsUrl": "https://maps.google.com/?q=5.5390444,95.3299051",
   "lat": 5.5390444,
   "lng": 95.3299051,
   "halalFriendly": false,
   "bookingUrl": "marshotelaceh.com",
   "source": "osm"
  },
  {
   "nom": "Lala hostel",
   "categorie": "Auberge",
   "priceRange": "€€",
   "mapsUrl": "https://maps.google.com/?q=5.5588046,95.3305673",
   "lat": 5.5588046,
   "lng": 95.3305673,
   "halalFriendly": false,
   "bookingUrl": "https://maps.google.com/?q=5.5588046,95.3305673",
   "source": "osm"
  },
  {
   "nom": "Crystall Guesthouse",
   "categorie": "Maison d'hôtes",
   "priceRange": "€€",
   "mapsUrl": "https://maps.google.com/?q=5.5490354,95.3106605",
   "lat": 5.5490354,
   "lng": 95.3106605,
   "halalFriendly": false,
   "bookingUrl": "https://maps.google.com/?q=5.5490354,95.3106605",
   "source": "osm"
  },
  {
   "nom": "Wisma Nusa Cendana",
   "categorie": "Hôtel",
   "priceRange": "€€",
   "mapsUrl": "https://maps.google.com/?q=5.5495146,95.3103125",
   "lat": 5.5495146,
   "lng": 95.3103125,
   "halalFriendly": false,
   "bookingUrl": "https://maps.google.com/?q=5.5495146,95.3103125",
   "source": "osm"
  },
  {
   "nom": "Sei Hotel",
   "categorie": "Hôtel",
   "priceRange": "€€",
   "mapsUrl": "https://maps.google.com/?q=5.5628715,95.3228745",
   "lat": 5.5628715,
   "lng": 95.3228745,
   "halalFriendly": false,
   "bookingUrl": "https://maps.google.com/?q=5.5628715,95.3228745",
   "source": "osm"
  },
  {
   "nom": "OYO",
   "categorie": "Hôtel",
   "priceRange": "€€",
   "mapsUrl": "https://maps.google.com/?q=5.5614273,95.317147",
   "lat": 5.5614273,
   "lng": 95.317147,
   "halalFriendly": false,
   "bookingUrl": "https://maps.google.com/?q=5.5614273,95.317147",
   "source": "osm"
  },
  {
   "nom": "Mulia Homestay",
   "categorie": "Maison d'hôtes",
   "priceRange": "€€",
   "mapsUrl": "https://maps.google.com/?q=5.5649442,95.3218508",
   "lat": 5.5649442,
   "lng": 95.3218508,
   "halalFriendly": false,
   "bookingUrl": "https://maps.google.com/?q=5.5649442,95.3218508",
   "source": "osm"
  },
  {
   "nom": "Hotel Rasamala",
   "categorie": "Hôtel",
   "priceRange": "€€",
   "mapsUrl": "https://maps.google.com/?q=5.5380738,95.3080118",
   "lat": 5.5380738,
   "lng": 95.3080118,
   "halalFriendly": false,
   "bookingUrl": "https://maps.google.com/?q=5.5380738,95.3080118",
   "source": "osm"
  },
  {
   "nom": "Grand Lambhuk Hotel",
   "categorie": "Hôtel",
   "priceRange": "€€",
   "mapsUrl": "https://maps.google.com/?q=5.553101,95.3423968",
   "lat": 5.553101,
   "lng": 95.3423968,
   "halalFriendly": false,
   "bookingUrl": "https://maps.google.com/?q=5.553101,95.3423968",
   "source": "osm"
  },
  {
   "nom": "Rumah Adek",
   "categorie": "Appartement",
   "priceRange": "€€",
   "mapsUrl": "https://maps.google.com/?q=5.5660449,95.3313116",
   "lat": 5.5660449,
   "lng": 95.3313116,
   "halalFriendly": false,
   "bookingUrl": "https://maps.google.com/?q=5.5660449,95.3313116",
   "source": "osm"
  },
  {
   "nom": "alhanifi",
   "categorie": "Hôtel",
   "priceRange": "€€",
   "mapsUrl": "https://maps.google.com/?q=5.5644439,95.3349087",
   "lat": 5.5644439,
   "lng": 95.3349087,
   "halalFriendly": false,
   "bookingUrl": "https://maps.google.com/?q=5.5644439,95.3349087",
   "source": "osm"
  },
  {
   "nom": "Hadrah Hotel",
   "categorie": "Hôtel",
   "priceRange": "€€",
   "mapsUrl": "https://maps.google.com/?q=5.5555569,95.3441198",
   "lat": 5.5555569,
   "lng": 95.3441198,
   "halalFriendly": false,
   "bookingUrl": "https://maps.google.com/?q=5.5555569,95.3441198",
   "source": "osm"
  },
  {
   "nom": "Grand Aceh Hotel",
   "categorie": "Hôtel",
   "priceRange": "€€",
   "mapsUrl": "https://maps.google.com/?q=5.531696,95.3385327",
   "lat": 5.531696,
   "lng": 95.3385327,
   "halalFriendly": false,
   "bookingUrl": "https://maps.google.com/?q=5.531696,95.3385327",
   "source": "osm"
  },
  {
   "nom": "Hotel Mekkah Banda Aceh",
   "categorie": "Hôtel",
   "priceRange": "€€€",
   "score": 3,
   "mapsUrl": "https://maps.google.com/?q=5.5665933,95.3378764",
   "lat": 5.5665933,
   "lng": 95.3378764,
   "halalFriendly": false,
   "bookingUrl": "hotelmekkah.com",
   "source": "osm"
  },
  {
   "nom": "Hotel Grand Permata Hati",
   "categorie": "Hôtel",
   "priceRange": "€€€",
   "score": 3,
   "mapsUrl": "https://maps.google.com/?q=5.5527576,95.2980658",
   "lat": 5.5527576,
   "lng": 95.2980658,
   "halalFriendly": false,
   "bookingUrl": "permatahatihotels.com",
   "source": "osm"
  },
  {
   "nom": "The Pade Hotel",
   "categorie": "Hôtel",
   "priceRange": "€€€",
   "score": 3,
   "mapsUrl": "https://maps.google.com/?q=5.5169627,95.3165472",
   "lat": 5.5169627,
   "lng": 95.3165472,
   "halalFriendly": false,
   "bookingUrl": "https://thepade.com/",
   "source": "osm"
  },
  {
   "nom": "Mes Mpu Aceh",
   "categorie": "Maison d'hôtes",
   "priceRange": "€€",
   "mapsUrl": "https://maps.google.com/?q=5.5158111,95.3195352",
   "lat": 5.5158111,
   "lng": 95.3195352,
   "halalFriendly": false,
   "bookingUrl": "https://maps.google.com/?q=5.5158111,95.3195352",
   "source": "osm"
  },
  {
   "nom": "Home Sweet Home",
   "categorie": "Maison d'hôtes",
   "priceRange": "€€",
   "mapsUrl": "https://maps.google.com/?q=5.5072656,95.3295747",
   "lat": 5.5072656,
   "lng": 95.3295747,
   "halalFriendly": false,
   "bookingUrl": "https://maps.google.com/?q=5.5072656,95.3295747",
   "source": "osm"
  },
  {
   "nom": "Residen tgk. Ih",
   "categorie": "Maison d'hôtes",
   "priceRange": "€€",
   "mapsUrl": "https://maps.google.com/?q=5.5549467,95.3676873",
   "lat": 5.5549467,
   "lng": 95.3676873,
   "halalFriendly": false,
   "bookingUrl": "https://maps.google.com/?q=5.5549467,95.3676873",
   "source": "osm"
  },
  {
   "nom": "Wisma Unsyiah",
   "categorie": "Auberge",
   "priceRange": "€€",
   "mapsUrl": "https://maps.google.com/?q=5.5723038,95.3683367",
   "lat": 5.5723038,
   "lng": 95.3683367,
   "halalFriendly": false,
   "bookingUrl": "https://maps.google.com/?q=5.5723038,95.3683367",
   "source": "osm"
  }
 ],
 "activites": [
  {
   "nom": "Lonceng Cakradonya",
   "lat": 5.5487223,
   "lng": 95.3207758,
   "coordonnees": {
    "lat": 5.5487223,
    "lng": 95.3207758
   },
   "categorie": "Histoire",
   "mapsUrl": "https://maps.google.com/?q=5.5487223,95.3207758",
   "source": "osm"
  },
  {
   "nom": "Monumen Kereta Api",
   "lat": 5.551682,
   "lng": 95.3193087,
   "coordonnees": {
    "lat": 5.551682,
    "lng": 95.3193087
   },
   "categorie": "Histoire",
   "mapsUrl": "https://maps.google.com/?q=5.551682,95.3193087",
   "source": "osm"
  },
  {
   "nom": "Gunongan",
   "lat": 5.5458061,
   "lng": 95.3162249,
   "coordonnees": {
    "lat": 5.5458061,
    "lng": 95.3162249
   },
   "categorie": "À voir",
   "mapsUrl": "https://maps.google.com/?q=5.5458061,95.3162249",
   "source": "osm"
  },
  {
   "nom": "Monumen Seulawah",
   "lat": 5.5492025,
   "lng": 95.3129917,
   "coordonnees": {
    "lat": 5.5492025,
    "lng": 95.3129917
   },
   "categorie": "À voir",
   "mapsUrl": "https://maps.google.com/?q=5.5492025,95.3129917",
   "source": "osm"
  },
  {
   "nom": "Tsunami Monument",
   "lat": 5.5503658,
   "lng": 95.3127972,
   "coordonnees": {
    "lat": 5.5503658,
    "lng": 95.3127972
   },
   "categorie": "À voir",
   "mapsUrl": "https://maps.google.com/?q=5.5503658,95.3127972",
   "source": "osm"
  },
  {
   "nom": "PLTD Apung",
   "lat": 5.5463878,
   "lng": 95.3067753,
   "coordonnees": {
    "lat": 5.5463878,
    "lng": 95.3067753
   },
   "categorie": "À voir",
   "mapsUrl": "https://maps.google.com/?q=5.5463878,95.3067753",
   "source": "osm"
  },
  {
   "nom": "Boats",
   "lat": 5.547211,
   "lng": 95.3045666,
   "coordonnees": {
    "lat": 5.547211,
    "lng": 95.3045666
   },
   "categorie": "À voir",
   "mapsUrl": "https://maps.google.com/?q=5.547211,95.3045666",
   "source": "osm"
  },
  {
   "nom": "Boat In The House",
   "lat": 5.5752699,
   "lng": 95.3249885,
   "coordonnees": {
    "lat": 5.5752699,
    "lng": 95.3249885
   },
   "categorie": "Histoire",
   "mapsUrl": "https://maps.google.com/?q=5.5752699,95.3249885",
   "source": "osm"
  },
  {
   "nom": "Ulee Lheue Park",
   "lat": 5.55981,
   "lng": 95.286473,
   "coordonnees": {
    "lat": 5.55981,
    "lng": 95.286473
   },
   "categorie": "À voir",
   "mapsUrl": "https://maps.google.com/?q=5.55981,95.286473",
   "source": "osm"
  },
  {
   "nom": "Tugu Darussalam",
   "lat": 5.5720598,
   "lng": 95.3699403,
   "coordonnees": {
    "lat": 5.5720598,
    "lng": 95.3699403
   },
   "categorie": "Histoire",
   "mapsUrl": "https://maps.google.com/?q=5.5720598,95.3699403",
   "source": "osm"
  },
  {
   "nom": "Museum UIN AR-RANIRY Banda Aceh",
   "lat": 5.5762634,
   "lng": 95.3684534,
   "coordonnees": {
    "lat": 5.5762634,
    "lng": 95.3684534
   },
   "categorie": "Culture",
   "mapsUrl": "https://maps.google.com/?q=5.5762634,95.3684534",
   "source": "osm"
  },
  {
   "nom": "Rumah Tomi",
   "lat": 5.5474586,
   "lng": 95.2665224,
   "coordonnees": {
    "lat": 5.5474586,
    "lng": 95.2665224
   },
   "categorie": "Histoire",
   "mapsUrl": "https://maps.google.com/?q=5.5474586,95.2665224",
   "source": "osm"
  },
  {
   "nom": "Cut Nyak Din Museum",
   "lat": 5.516687,
   "lng": 95.2716191,
   "coordonnees": {
    "lat": 5.516687,
    "lng": 95.2716191
   },
   "categorie": "Culture",
   "mapsUrl": "https://maps.google.com/?q=5.516687,95.2716191",
   "source": "osm"
  },
  {
   "nom": "Lapangan Volly",
   "lat": 5.4903485,
   "lng": 95.2641855,
   "coordonnees": {
    "lat": 5.4903485,
    "lng": 95.2641855
   },
   "categorie": "À voir",
   "mapsUrl": "https://maps.google.com/?q=5.4903485,95.2641855",
   "source": "osm"
  },
  {
   "nom": "Tempat Kerajinan Rotan",
   "lat": 5.48924,
   "lng": 95.2640219,
   "coordonnees": {
    "lat": 5.48924,
    "lng": 95.2640219
   },
   "categorie": "À voir",
   "mapsUrl": "https://maps.google.com/?q=5.48924,95.2640219",
   "source": "osm"
  },
  {
   "nom": "Pucok Krueng",
   "lat": 5.4604918,
   "lng": 95.2619611,
   "coordonnees": {
    "lat": 5.4604918,
    "lng": 95.2619611
   },
   "categorie": "À voir",
   "mapsUrl": "https://maps.google.com/?q=5.4604918,95.2619611",
   "source": "osm"
  },
  {
   "nom": "Bat cave",
   "lat": 5.4970753,
   "lng": 95.2275284,
   "coordonnees": {
    "lat": 5.4970753,
    "lng": 95.2275284
   },
   "categorie": "À voir",
   "mapsUrl": "https://maps.google.com/?q=5.4970753,95.2275284",
   "source": "osm"
  },
  {
   "nom": "Surf breaks",
   "lat": 5.4709233,
   "lng": 95.2357585,
   "coordonnees": {
    "lat": 5.4709233,
    "lng": 95.2357585
   },
   "categorie": "À voir",
   "mapsUrl": "https://maps.google.com/?q=5.4709233,95.2357585",
   "source": "osm"
  },
  {
   "nom": "Tugu Pendaratan Pertama Jepang di Aceh",
   "lat": 5.6492821,
   "lng": 95.4212527,
   "coordonnees": {
    "lat": 5.6492821,
    "lng": 95.4212527
   },
   "categorie": "Histoire",
   "mapsUrl": "https://maps.google.com/?q=5.6492821,95.4212527",
   "source": "osm"
  }
 ],
 "mosqueesPrincipales": [
  {
   "nom": "Masjid Al-Huda",
   "lat": 5.5598155,
   "lng": 95.3240066,
   "coordonnees": {
    "lat": 5.5598155,
    "lng": 95.3240066
   },
   "adresse": "Jalan Al Huda",
   "mapsUrl": "https://maps.google.com/?q=5.5598155,95.3240066",
   "source": "osm"
  },
  {
   "nom": "meunasah darul aman lam lumpu",
   "lat": 5.5340963,
   "lng": 95.273186,
   "coordonnees": {
    "lat": 5.5340963,
    "lng": 95.273186
   },
   "mapsUrl": "https://maps.google.com/?q=5.5340963,95.273186",
   "source": "osm"
  },
  {
   "nom": "Masjid Jamik Kemukiman Lamrabo",
   "lat": 5.5480143,
   "lng": 95.3944761,
   "coordonnees": {
    "lat": 5.5480143,
    "lng": 95.3944761
   },
   "mapsUrl": "https://maps.google.com/?q=5.5480143,95.3944761",
   "source": "osm"
  }
 ],
 "tags": [
  "spirituel",
  "100-halal",
  "tsunami",
  "charia",
  "culture",
  "authentique"
 ],
 "description_en": "Banda Aceh, in Indonesia, is a halal-friendly destination with a Halal Trust Score of 4.8/5. Muslim travelers will find 20 halal restaurants listed, 1,000 mosques, real-time prayer times and the Qibla direction — a complete guide to travel with peace of mind. Best time to visit: year-round.",
 "metaDescription_en": "Halal guide to Banda Aceh: 20 halal restaurants listed, 1,000 mosques, prayer times and tips for Muslim travelers. Halal Trust Score 4.8/5.",
 "nom_en": "Banda Aceh",
 "boucheries": [],
 "infos_pratiques_en": {
  "langue": "Indonesian, Acehnais",
  "monnaie": "Rupee (IDR)",
  "meilleure_periode": "Year-round",
  "appel_priere": "5 times a day",
  "nourriture_halal": "Largement disponible",
  "alcool": "Forbidden"
 },
 "dataPurgedAt": "2026-07-15"
}