{
 "nom": "Banda Aceh",
 "pays": "Indonésie",
 "slug": "banda-aceh",
 "image": "https://images.unsplash.com/photo-1584810359583-96fc9f0d2e76?w=1400&q=85",
 "image_hero": "https://images.unsplash.com/photo-1584810359583-96fc9f0d2e76?w=1400&q=85",
 "description": "Banda Aceh, la province la plus islamique d'Indonésie, applique la charia. La Grande Mosquée Baiturrahman et le mémorial du tsunami en font une destination profondément spirituelle.",
 "descriptionLongue": "Capitale de la province d'Aceh, surnommée « la véranda de La Mecque », Banda Aceh est la région la plus musulmane d'Indonésie. La majestueuse mosquée Baiturrahman, aux dômes noirs, a résisté au tsunami de 2004 dont le mémorial émeut les visiteurs. Ville 100% halal et sans alcool, Aceh offre une cuisine épicée (mie aceh, kari kambing) et une hospitalité sincère.",
 "halalScore": 9.6,
 "score_halal": 4.8,
 "mosquees": 1000,
 "population": "250 000",
 "langue": "Indonésien, Acehnais",
 "monnaie": "Roupie (IDR)",
 "fuseau": "UTC+7",
 "meilleureEpoque": "Toute l'année",
 "prixMoyenNuit": "40€",
 "continent": "Asie",
 "codeISO": "ID",
 "pays_slug": "indonesie",
 "region": "Asie du Sud-Est",
 "meta_title": "Voyage Halal à Banda Aceh — Guide Complet 2026",
 "meta_description": "Restaurants halal signalés, mosquées et guide pratique pour Banda Aceh — Halal Trust Score 9.6/10.",
 "metaDescription": "Restaurants halal signalés, mosquées et guide pratique pour Banda Aceh — Halal Trust Score 9.6/10.",
 "coordonnees": {
  "lat": 5.5483,
  "lng": 95.3238
 },
 "image_alt": "Vue de Banda Aceh, Indonésie",
 "statistiques": {
  "mosquees": 60,
  "restaurants_halal": 5,
  "habitants_musulmans_pct": 99,
  "hotels": 32
 },
 "infos_pratiques": {
  "langue": "Indonésien, Acehnais",
  "monnaie": "Roupie (IDR)",
  "meilleure_periode": "Toute l'année",
  "appel_priere": "5 fois par jour",
  "nourriture_halal": "Largement disponible",
  "alcool": "Interdit",
  "securite": "Précautions habituelles"
 },
 "infoPratique": {
  "visa": "Visa à l'arrivée ou exemption selon durée",
  "vaccins": "Aucun obligatoire",
  "transport": "Becak motorisé, Grab, location de scooter",
  "priseElectrique": "Type C/F — 230V",
  "decalageHoraire": "+6h par rapport à Paris (hiver)"
 },
 "restaurants": [
  {
   "nom": "Kebab Sirkeci",
   "lat": 5.5408726,
   "lng": 95.3161975,
   "type": "kebab",
   "halalConfidence": "likely",
   "mapsUrl": "https://maps.google.com/?q=5.5408726,95.3161975",
   "source": "osm"
  },
  {
   "nom": "Marugame Udon",
   "lat": 5.5379398,
   "lng": 95.3071261,
   "type": "udon, japanese",
   "halalConfidence": "high",
   "mapsUrl": "https://maps.google.com/?q=5.5379398,95.3071261",
   "source": "osm"
  },
  {
   "nom": "Barika Coffee",
   "lat": 5.5275179,
   "lng": 95.3291135,
   "type": "coffee shop",
   "halalConfidence": "high",
   "mapsUrl": "https://maps.google.com/?q=5.5275179,95.3291135",
   "source": "osm"
  },
  {
   "nom": "MMA Chicken Crispy",
   "lat": 5.5567587,
   "lng": 95.3444148,
   "type": "chicken, burger, kebab, indonesian",
   "halalConfidence": "high",
   "mapsUrl": "https://maps.google.com/?q=5.5567587,95.3444148",
   "source": "osm"
  },
  {
   "nom": "Kebab Mufasa",
   "lat": 5.5523861,
   "lng": 95.3464215,
   "type": "kebab, burger, fast food, street food",
   "halalConfidence": "high",
   "mapsUrl": "https://maps.google.com/?q=5.5523861,95.3464215",
   "source": "osm"
  }
 ],
 "hotels": [
  {
   "nom": "Rumoh PMI Hotel",
   "categorie": "Hôtel",
   "priceRange": "€",
   "score": 1,
   "mapsUrl": "https://maps.google.com/?q=5.5429234,95.3231572",
   "lat": 5.5429234,
   "lng": 95.3231572,
   "halalFriendly": false,
   "bookingUrl": "https://maps.google.com/?q=5.5429234,95.3231572",
   "source": "osm"
  },
  {
   "nom": "Wisma Teuku Umar",
   "categorie": "Hôtel",
   "priceRange": "€€",
   "mapsUrl": "https://maps.google.com/?q=5.5488189,95.3154621",
   "lat": 5.5488189,
   "lng": 95.3154621,
   "halalFriendly": false,
   "bookingUrl": "https://maps.google.com/?q=5.5488189,95.3154621",
   "source": "osm"
  },
  {
   "nom": "Kos Halimah",
   "categorie": "Auberge",
   "priceRange": "€€",
   "mapsUrl": "https://maps.google.com/?q=5.5515357,95.3319989",
   "lat": 5.5515357,
   "lng": 95.3319989,
   "halalFriendly": false,
   "bookingUrl": "https://maps.google.com/?q=5.5515357,95.3319989",
   "source": "osm"
  },
  {
   "nom": "Hotel 61",
   "categorie": "Hôtel",
   "priceRange": "€€",
   "mapsUrl": "https://maps.google.com/?q=5.5570289,95.32183",
   "lat": 5.5570289,
   "lng": 95.32183,
   "halalFriendly": false,
   "bookingUrl": "http://www.hotel61.co.id/",
   "source": "osm"
  },
  {
   "nom": "Hotel Aceh Barat",
   "categorie": "Auberge",
   "priceRange": "€€",
   "mapsUrl": "https://maps.google.com/?q=5.5581091,95.3204834",
   "lat": 5.5581091,
   "lng": 95.3204834,
   "halalFriendly": false,
   "bookingUrl": "https://maps.google.com/?q=5.5581091,95.3204834",
   "source": "osm"
  },
  {
   "nom": "Sentosa",
   "categorie": "Maison d'hôtes",
   "priceRange": "€€",
   "mapsUrl": "https://maps.google.com/?q=5.558664,95.3247603",
   "lat": 5.558664,
   "lng": 95.3247603,
   "halalFriendly": false,
   "bookingUrl": "https://maps.google.com/?q=5.558664,95.3247603",
   "source": "osm"
  },
  {
   "nom": "Hotel Medan",
   "categorie": "Hôtel",
   "priceRange": "€",
   "score": 1,
   "mapsUrl": "https://maps.google.com/?q=5.557515,95.3187549",
   "lat": 5.557515,
   "lng": 95.3187549,
   "halalFriendly": false,
   "bookingUrl": "https://maps.google.com/?q=5.557515,95.3187549",
   "source": "osm"
  },
  {
   "nom": "Siwah Hotel",
   "categorie": "Hôtel",
   "priceRange": "€",
   "score": 1,
   "mapsUrl": "https://maps.google.com/?q=5.5584786,95.3206998",
   "lat": 5.5584786,
   "lng": 95.3206998,
   "halalFriendly": false,
   "bookingUrl": "https://maps.google.com/?q=5.5584786,95.3206998",
   "source": "osm"
  },
  {
   "nom": "Hotel Prapat",
   "categorie": "Hôtel",
   "priceRange": "€€",
   "mapsUrl": "https://maps.google.com/?q=5.5578464,95.3187296",
   "lat": 5.5578464,
   "lng": 95.3187296,
   "halalFriendly": false,
   "bookingUrl": "https://maps.google.com/?q=5.5578464,95.3187296",
   "source": "osm"
  },
  {
   "nom": "Wisma Rita",
   "categorie": "Auberge",
   "priceRange": "€€",
   "mapsUrl": "https://maps.google.com/?q=5.5420559,95.3149043",
   "lat": 5.5420559,
   "lng": 95.3149043,
   "halalFriendly": false,
   "bookingUrl": "https://maps.google.com/?q=5.5420559,95.3149043",
   "source": "osm"
  },
  {
   "nom": "Pavilliun Seulawah",
   "categorie": "Hôtel",
   "priceRange": "€€",
   "mapsUrl": "https://maps.google.com/?q=5.5517368,95.3133967",
   "lat": 5.5517368,
   "lng": 95.3133967,
   "halalFriendly": false,
   "bookingUrl": "https://maps.google.com/?q=5.5517368,95.3133967",
   "source": "osm"
  },
  {
   "nom": "Hotel Wisata",
   "categorie": "Hôtel",
   "priceRange": "€€",
   "mapsUrl": "https://maps.google.com/?q=5.5580938,95.3187691",
   "lat": 5.5580938,
   "lng": 95.3187691,
   "halalFriendly": false,
   "bookingUrl": "https://maps.google.com/?q=5.5580938,95.3187691",
   "source": "osm"
  },
  {
   "nom": "MarshoteL Aceh",
   "categorie": "Hôtel",
   "priceRange": "€€",
   "score": 2,
   "mapsUrl": "https://maps.google.com/?q=5.5390444,95.3299051",
   "lat": 5.5390444,
   "lng": 95.3299051,
   "halalFriendly": false,
   "bookingUrl": "marshotelaceh.com",
   "source": "osm"
  },
  {
   "nom": "Lala hostel",
   "categorie": "Auberge",
   "priceRange": "€€",
   "mapsUrl": "https://maps.google.com/?q=5.5588046,95.3305673",
   "lat": 5.5588046,
   "lng": 95.3305673,
   "halalFriendly": false,
   "bookingUrl": "https://maps.google.com/?q=5.5588046,95.3305673",
   "source": "osm"
  },
  {
   "nom": "Crystall Guesthouse",
   "categorie": "Maison d'hôtes",
   "priceRange": "€€",
   "mapsUrl": "https://maps.google.com/?q=5.5490354,95.3106605",
   "lat": 5.5490354,
   "lng": 95.3106605,
   "halalFriendly": false,
   "bookingUrl": "https://maps.google.com/?q=5.5490354,95.3106605",
   "source": "osm"
  },
  {
   "nom": "Wisma Nusa Cendana",
   "categorie": "Hôtel",
   "priceRange": "€€",
   "mapsUrl": "https://maps.google.com/?q=5.5495146,95.3103125",
   "lat": 5.5495146,
   "lng": 95.3103125,
   "halalFriendly": false,
   "bookingUrl": "https://maps.google.com/?q=5.5495146,95.3103125",
   "source": "osm"
  },
  {
   "nom": "Sei Hotel",
   "categorie": "Hôtel",
   "priceRange": "€€",
   "mapsUrl": "https://maps.google.com/?q=5.5628715,95.3228745",
   "lat": 5.5628715,
   "lng": 95.3228745,
   "halalFriendly": false,
   "bookingUrl": "https://maps.google.com/?q=5.5628715,95.3228745",
   "source": "osm"
  },
  {
   "nom": "OYO",
   "categorie": "Hôtel",
   "priceRange": "€€",
   "mapsUrl": "https://maps.google.com/?q=5.5614273,95.317147",
   "lat": 5.5614273,
   "lng": 95.317147,
   "halalFriendly": false,
   "bookingUrl": "https://maps.google.com/?q=5.5614273,95.317147",
   "source": "osm"
  },
  {
   "nom": "Mulia Homestay",
   "categorie": "Maison d'hôtes",
   "priceRange": "€€",
   "mapsUrl": "https://maps.google.com/?q=5.5649442,95.3218508",
   "lat": 5.5649442,
   "lng": 95.3218508,
   "halalFriendly": false,
   "bookingUrl": "https://maps.google.com/?q=5.5649442,95.3218508",
   "source": "osm"
  },
  {
   "nom": "Hotel Rasamala",
   "categorie": "Hôtel",
   "priceRange": "€€",
   "mapsUrl": "https://maps.google.com/?q=5.5380738,95.3080118",
   "lat": 5.5380738,
   "lng": 95.3080118,
   "halalFriendly": false,
   "bookingUrl": "https://maps.google.com/?q=5.5380738,95.3080118",
   "source": "osm"
  },
  {
   "nom": "Grand Lambhuk Hotel",
   "categorie": "Hôtel",
   "priceRange": "€€",
   "mapsUrl": "https://maps.google.com/?q=5.553101,95.3423968",
   "lat": 5.553101,
   "lng": 95.3423968,
   "halalFriendly": false,
   "bookingUrl": "https://maps.google.com/?q=5.553101,95.3423968",
   "source": "osm"
  },
  {
   "nom": "Rumah Adek",
   "categorie": "Appartement",
   "priceRange": "€€",
   "mapsUrl": "https://maps.google.com/?q=5.5660449,95.3313116",
   "lat": 5.5660449,
   "lng": 95.3313116,
   "halalFriendly": false,
   "bookingUrl": "https://maps.google.com/?q=5.5660449,95.3313116",
   "source": "osm"
  },
  {
   "nom": "alhanifi",
   "categorie": "Hôtel",
   "priceRange": "€€",
   "mapsUrl": "https://maps.google.com/?q=5.5644439,95.3349087",
   "lat": 5.5644439,
   "lng": 95.3349087,
   "halalFriendly": false,
   "bookingUrl": "https://maps.google.com/?q=5.5644439,95.3349087",
   "source": "osm"
  },
  {
   "nom": "Hadrah Hotel",
   "categorie": "Hôtel",
   "priceRange": "€€",
   "mapsUrl": "https://maps.google.com/?q=5.5555569,95.3441198",
   "lat": 5.5555569,
   "lng": 95.3441198,
   "halalFriendly": false,
   "bookingUrl": "https://maps.google.com/?q=5.5555569,95.3441198",
   "source": "osm"
  },
  {
   "nom": "Grand Aceh Hotel",
   "categorie": "Hôtel",
   "priceRange": "€€",
   "mapsUrl": "https://maps.google.com/?q=5.531696,95.3385327",
   "lat": 5.531696,
   "lng": 95.3385327,
   "halalFriendly": false,
   "bookingUrl": "https://maps.google.com/?q=5.531696,95.3385327",
   "source": "osm"
  },
  {
   "nom": "Hotel Mekkah Banda Aceh",
   "categorie": "Hôtel",
   "priceRange": "€€€",
   "score": 3,
   "mapsUrl": "https://maps.google.com/?q=5.5665933,95.3378764",
   "lat": 5.5665933,
   "lng": 95.3378764,
   "halalFriendly": false,
   "bookingUrl": "hotelmekkah.com",
   "source": "osm"
  },
  {
   "nom": "Hotel Grand Permata Hati",
   "categorie": "Hôtel",
   "priceRange": "€€€",
   "score": 3,
   "mapsUrl": "https://maps.google.com/?q=5.5527576,95.2980658",
   "lat": 5.5527576,
   "lng": 95.2980658,
   "halalFriendly": false,
   "bookingUrl": "permatahatihotels.com",
   "source": "osm"
  },
  {
   "nom": "The Pade Hotel",
   "categorie": "Hôtel",
   "priceRange": "€€€",
   "score": 3,
   "mapsUrl": "https://maps.google.com/?q=5.5169627,95.3165472",
   "lat": 5.5169627,
   "lng": 95.3165472,
   "halalFriendly": false,
   "bookingUrl": "https://thepade.com/",
   "source": "osm"
  },
  {
   "nom": "Mes Mpu Aceh",
   "categorie": "Maison d'hôtes",
   "priceRange": "€€",
   "mapsUrl": "https://maps.google.com/?q=5.5158111,95.3195352",
   "lat": 5.5158111,
   "lng": 95.3195352,
   "halalFriendly": false,
   "bookingUrl": "https://maps.google.com/?q=5.5158111,95.3195352",
   "source": "osm"
  },
  {
   "nom": "Home Sweet Home",
   "categorie": "Maison d'hôtes",
   "priceRange": "€€",
   "mapsUrl": "https://maps.google.com/?q=5.5072656,95.3295747",
   "lat": 5.5072656,
   "lng": 95.3295747,
   "halalFriendly": false,
   "bookingUrl": "https://maps.google.com/?q=5.5072656,95.3295747",
   "source": "osm"
  },
  {
   "nom": "Residen tgk. Ih",
   "categorie": "Maison d'hôtes",
   "priceRange": "€€",
   "mapsUrl": "https://maps.google.com/?q=5.5549467,95.3676873",
   "lat": 5.5549467,
   "lng": 95.3676873,
   "halalFriendly": false,
   "bookingUrl": "https://maps.google.com/?q=5.5549467,95.3676873",
   "source": "osm"
  },
  {
   "nom": "Wisma Unsyiah",
   "categorie": "Auberge",
   "priceRange": "€€",
   "mapsUrl": "https://maps.google.com/?q=5.5723038,95.3683367",
   "lat": 5.5723038,
   "lng": 95.3683367,
   "halalFriendly": false,
   "bookingUrl": "https://maps.google.com/?q=5.5723038,95.3683367",
   "source": "osm"
  }
 ],
 "activites": [
  {
   "nom": "Lonceng Cakradonya",
   "lat": 5.5487223,
   "lng": 95.3207758,
   "coordonnees": {
    "lat": 5.5487223,
    "lng": 95.3207758
   },
   "categorie": "Histoire",
   "mapsUrl": "https://maps.google.com/?q=5.5487223,95.3207758",
   "source": "osm"
  },
  {
   "nom": "Monumen Kereta Api",
   "lat": 5.551682,
   "lng": 95.3193087,
   "coordonnees": {
    "lat": 5.551682,
    "lng": 95.3193087
   },
   "categorie": "Histoire",
   "mapsUrl": "https://maps.google.com/?q=5.551682,95.3193087",
   "source": "osm"
  },
  {
   "nom": "Gunongan",
   "lat": 5.5458061,
   "lng": 95.3162249,
   "coordonnees": {
    "lat": 5.5458061,
    "lng": 95.3162249
   },
   "categorie": "À voir",
   "mapsUrl": "https://maps.google.com/?q=5.5458061,95.3162249",
   "source": "osm"
  },
  {
   "nom": "Monumen Seulawah",
   "lat": 5.5492025,
   "lng": 95.3129917,
   "coordonnees": {
    "lat": 5.5492025,
    "lng": 95.3129917
   },
   "categorie": "À voir",
   "mapsUrl": "https://maps.google.com/?q=5.5492025,95.3129917",
   "source": "osm"
  },
  {
   "nom": "Tsunami Monument",
   "lat": 5.5503658,
   "lng": 95.3127972,
   "coordonnees": {
    "lat": 5.5503658,
    "lng": 95.3127972
   },
   "categorie": "À voir",
   "mapsUrl": "https://maps.google.com/?q=5.5503658,95.3127972",
   "source": "osm"
  },
  {
   "nom": "PLTD Apung",
   "lat": 5.5463878,
   "lng": 95.3067753,
   "coordonnees": {
    "lat": 5.5463878,
    "lng": 95.3067753
   },
   "categorie": "À voir",
   "mapsUrl": "https://maps.google.com/?q=5.5463878,95.3067753",
   "source": "osm"
  },
  {
   "nom": "Boats",
   "lat": 5.547211,
   "lng": 95.3045666,
   "coordonnees": {
    "lat": 5.547211,
    "lng": 95.3045666
   },
   "categorie": "À voir",
   "mapsUrl": "https://maps.google.com/?q=5.547211,95.3045666",
   "source": "osm"
  },
  {
   "nom": "Boat In The House",
   "lat": 5.5752699,
   "lng": 95.3249885,
   "coordonnees": {
    "lat": 5.5752699,
    "lng": 95.3249885
   },
   "categorie": "Histoire",
   "mapsUrl": "https://maps.google.com/?q=5.5752699,95.3249885",
   "source": "osm"
  },
  {
   "nom": "Ulee Lheue Park",
   "lat": 5.55981,
   "lng": 95.286473,
   "coordonnees": {
    "lat": 5.55981,
    "lng": 95.286473
   },
   "categorie": "À voir",
   "mapsUrl": "https://maps.google.com/?q=5.55981,95.286473",
   "source": "osm"
  },
  {
   "nom": "Tugu Darussalam",
   "lat": 5.5720598,
   "lng": 95.3699403,
   "coordonnees": {
    "lat": 5.5720598,
    "lng": 95.3699403
   },
   "categorie": "Histoire",
   "mapsUrl": "https://maps.google.com/?q=5.5720598,95.3699403",
   "source": "osm"
  },
  {
   "nom": "Museum UIN AR-RANIRY Banda Aceh",
   "lat": 5.5762634,
   "lng": 95.3684534,
   "coordonnees": {
    "lat": 5.5762634,
    "lng": 95.3684534
   },
   "categorie": "Culture",
   "mapsUrl": "https://maps.google.com/?q=5.5762634,95.3684534",
   "source": "osm"
  },
  {
   "nom": "Rumah Tomi",
   "lat": 5.5474586,
   "lng": 95.2665224,
   "coordonnees": {
    "lat": 5.5474586,
    "lng": 95.2665224
   },
   "categorie": "Histoire",
   "mapsUrl": "https://maps.google.com/?q=5.5474586,95.2665224",
   "source": "osm"
  },
  {
   "nom": "Cut Nyak Din Museum",
   "lat": 5.516687,
   "lng": 95.2716191,
   "coordonnees": {
    "lat": 5.516687,
    "lng": 95.2716191
   },
   "categorie": "Culture",
   "mapsUrl": "https://maps.google.com/?q=5.516687,95.2716191",
   "source": "osm"
  },
  {
   "nom": "Lapangan Volly",
   "lat": 5.4903485,
   "lng": 95.2641855,
   "coordonnees": {
    "lat": 5.4903485,
    "lng": 95.2641855
   },
   "categorie": "À voir",
   "mapsUrl": "https://maps.google.com/?q=5.4903485,95.2641855",
   "source": "osm"
  },
  {
   "nom": "Tempat Kerajinan Rotan",
   "lat": 5.48924,
   "lng": 95.2640219,
   "coordonnees": {
    "lat": 5.48924,
    "lng": 95.2640219
   },
   "categorie": "À voir",
   "mapsUrl": "https://maps.google.com/?q=5.48924,95.2640219",
   "source": "osm"
  },
  {
   "nom": "Pucok Krueng",
   "lat": 5.4604918,
   "lng": 95.2619611,
   "coordonnees": {
    "lat": 5.4604918,
    "lng": 95.2619611
   },
   "categorie": "À voir",
   "mapsUrl": "https://maps.google.com/?q=5.4604918,95.2619611",
   "source": "osm"
  },
  {
   "nom": "Bat cave",
   "lat": 5.4970753,
   "lng": 95.2275284,
   "coordonnees": {
    "lat": 5.4970753,
    "lng": 95.2275284
   },
   "categorie": "À voir",
   "mapsUrl": "https://maps.google.com/?q=5.4970753,95.2275284",
   "source": "osm"
  },
  {
   "nom": "Surf breaks",
   "lat": 5.4709233,
   "lng": 95.2357585,
   "coordonnees": {
    "lat": 5.4709233,
    "lng": 95.2357585
   },
   "categorie": "À voir",
   "mapsUrl": "https://maps.google.com/?q=5.4709233,95.2357585",
   "source": "osm"
  },
  {
   "nom": "Tugu Pendaratan Pertama Jepang di Aceh",
   "lat": 5.6492821,
   "lng": 95.4212527,
   "coordonnees": {
    "lat": 5.6492821,
    "lng": 95.4212527
   },
   "categorie": "Histoire",
   "mapsUrl": "https://maps.google.com/?q=5.6492821,95.4212527",
   "source": "osm"
  }
 ],
 "mosqueesPrincipales": [
  {
   "nom": "Masjid Al-Huda",
   "lat": 5.5598155,
   "lng": 95.3240066,
   "coordonnees": {
    "lat": 5.5598155,
    "lng": 95.3240066
   },
   "adresse": "Jalan Al Huda",
   "mapsUrl": "https://maps.google.com/?q=5.5598155,95.3240066",
   "source": "osm"
  },
  {
   "nom": "meunasah darul aman lam lumpu",
   "lat": 5.5340963,
   "lng": 95.273186,
   "coordonnees": {
    "lat": 5.5340963,
    "lng": 95.273186
   },
   "mapsUrl": "https://maps.google.com/?q=5.5340963,95.273186",
   "source": "osm"
  },
  {
   "nom": "Masjid Jamik Kemukiman Lamrabo",
   "lat": 5.5480143,
   "lng": 95.3944761,
   "coordonnees": {
    "lat": 5.5480143,
    "lng": 95.3944761
   },
   "mapsUrl": "https://maps.google.com/?q=5.5480143,95.3944761",
   "source": "osm"
  },
  {
   "id": "osm-43714436",
   "nom": "Masjid Agung Al-Makmur",
   "type": "mosquee",
   "lat": 5.5673737,
   "lng": 95.3385172,
   "mapsUrl": "https://maps.google.com/?q=5.5673737,95.3385172",
   "source": "osm"
  },
  {
   "id": "osm-61164428",
   "nom": "Masjid Raya Baiturrahman",
   "type": "mosquee",
   "adresse": "Jalan Mohammad Jam, Banda Aceh",
   "lat": 5.5536263,
   "lng": 95.3171968,
   "mapsUrl": "https://maps.google.com/?q=5.5536263,95.3171968",
   "source": "osm"
  },
  {
   "id": "osm-110854348",
   "nom": "Masjid Bustanul Jannah",
   "type": "mosquee",
   "lat": 5.5263322,
   "lng": 95.2840219,
   "mapsUrl": "https://maps.google.com/?q=5.5263322,95.2840219",
   "source": "osm"
  },
  {
   "id": "osm-212388231",
   "nom": "Mesjid Baitul Muqarrabien",
   "type": "mosquee",
   "lat": 5.5470394,
   "lng": 95.3098777,
   "mapsUrl": "https://maps.google.com/?q=5.5470394,95.3098777",
   "source": "osm"
  },
  {
   "id": "osm-212409776",
   "nom": "Al Munawwarah",
   "type": "mosquee",
   "lat": 5.5519232,
   "lng": 95.3082826,
   "mapsUrl": "https://maps.google.com/?q=5.5519232,95.3082826",
   "source": "osm"
  },
  {
   "id": "osm-214137097",
   "nom": "Masjid Babuzamzam",
   "type": "mosquee",
   "lat": 5.5629719,
   "lng": 95.3205229,
   "mapsUrl": "https://maps.google.com/?q=5.5629719,95.3205229",
   "source": "osm"
  },
  {
   "id": "osm-220298049",
   "nom": "mesjid ar-rahman",
   "type": "mosquee",
   "lat": 5.5488926,
   "lng": 95.339203,
   "mapsUrl": "https://maps.google.com/?q=5.5488926,95.339203",
   "source": "osm"
  },
  {
   "id": "osm-228772253",
   "nom": "Mana Gp. Pande",
   "type": "mosquee",
   "lat": 5.5689719,
   "lng": 95.3142926,
   "mapsUrl": "https://maps.google.com/?q=5.5689719,95.3142926",
   "source": "osm"
  },
  {
   "id": "osm-228772306",
   "nom": "Mesjid Tgk DiKandang",
   "type": "mosquee",
   "lat": 5.5702607,
   "lng": 95.3142482,
   "mapsUrl": "https://maps.google.com/?q=5.5702607,95.3142482",
   "source": "osm"
  },
  {
   "id": "osm-228775865",
   "nom": "Mesjid Al Muchsin",
   "type": "mosquee",
   "lat": 5.567759,
   "lng": 95.3168784,
   "mapsUrl": "https://maps.google.com/?q=5.567759,95.3168784",
   "source": "osm"
  },
  {
   "id": "osm-228778320",
   "nom": "Meunasah Peulanggahan",
   "type": "mosquee",
   "lat": 5.5623696,
   "lng": 95.3127178,
   "mapsUrl": "https://maps.google.com/?q=5.5623696,95.3127178",
   "source": "osm"
  },
  {
   "id": "osm-228780883",
   "nom": "Mesjid Tgk Dianjong",
   "type": "mosquee",
   "lat": 5.5648243,
   "lng": 95.3169777,
   "mapsUrl": "https://maps.google.com/?q=5.5648243,95.3169777",
   "source": "osm"
  },
  {
   "id": "osm-244177308",
   "nom": "Masjid Baitul Musyahadah",
   "type": "mosquee",
   "lat": 5.536437,
   "lng": 95.307283,
   "mapsUrl": "https://maps.google.com/?q=5.536437,95.307283",
   "source": "osm"
  },
  {
   "id": "osm-271374279",
   "nom": "Mesjid",
   "type": "mosquee",
   "lat": 5.4901459,
   "lng": 95.2605868,
   "mapsUrl": "https://maps.google.com/?q=5.4901459,95.2605868",
   "source": "osm"
  },
  {
   "id": "osm-271383981",
   "nom": "Masjid Al-Hasyimah (Putih)",
   "type": "mosquee",
   "adresse": "Jalan T.Nyak Arief, Banda Aceh",
   "lat": 5.5728729,
   "lng": 95.3620463,
   "mapsUrl": "https://maps.google.com/?q=5.5728729,95.3620463",
   "source": "osm"
  },
  {
   "id": "osm-271407410",
   "nom": "Masjid Tgk Chik Dilamnyong",
   "type": "mosquee",
   "adresse": "Jalan Tgk Chik Dilamnyong 2, Banda Aceh",
   "lat": 5.5701572,
   "lng": 95.364629,
   "mapsUrl": "https://maps.google.com/?q=5.5701572,95.364629",
   "source": "osm"
  },
  {
   "id": "osm-301822541",
   "nom": "Masjid Asrama Haji",
   "type": "mosquee",
   "lat": 5.5721036,
   "lng": 95.3452579,
   "mapsUrl": "https://maps.google.com/?q=5.5721036,95.3452579",
   "source": "osm"
  },
  {
   "id": "osm-301826618",
   "nom": "Mesjid Darul Falah",
   "type": "mosquee",
   "lat": 5.5660817,
   "lng": 95.3484665,
   "mapsUrl": "https://maps.google.com/?q=5.5660817,95.3484665",
   "source": "osm"
  },
  {
   "id": "osm-301826660",
   "nom": "Masjid Al Badar",
   "type": "mosquee",
   "lat": 5.5687871,
   "lng": 95.3425612,
   "mapsUrl": "https://maps.google.com/?q=5.5687871,95.3425612",
   "source": "osm"
  },
  {
   "id": "osm-302432161",
   "nom": "Masjid Raudhatul Jannah",
   "type": "mosquee",
   "lat": 5.5640328,
   "lng": 95.3399711,
   "mapsUrl": "https://maps.google.com/?q=5.5640328,95.3399711",
   "source": "osm"
  },
  {
   "id": "osm-303385852",
   "nom": "Masjid Besar Pahlawan",
   "type": "mosquee",
   "lat": 5.546405,
   "lng": 95.323368,
   "mapsUrl": "https://maps.google.com/?q=5.546405,95.323368",
   "source": "osm"
  },
  {
   "id": "osm-303385862",
   "nom": "meunasah gampong lampaloh",
   "type": "mosquee",
   "lat": 5.5456845,
   "lng": 95.3284672,
   "mapsUrl": "https://maps.google.com/?q=5.5456845,95.3284672",
   "source": "osm"
  },
  {
   "id": "osm-303398548",
   "nom": "Masjid Al-Anshar",
   "type": "mosquee",
   "lat": 5.5634089,
   "lng": 95.322119,
   "mapsUrl": "https://maps.google.com/?q=5.5634089,95.322119",
   "source": "osm"
  },
  {
   "id": "osm-303399714",
   "nom": "Masjid Al-Abrar Lamdingin",
   "type": "mosquee",
   "lat": 5.5702119,
   "lng": 95.329009,
   "mapsUrl": "https://maps.google.com/?q=5.5702119,95.329009",
   "source": "osm"
  },
  {
   "id": "osm-303399739",
   "nom": "Masjid Lambaro Skep",
   "type": "mosquee",
   "lat": 5.5707266,
   "lng": 95.3335993,
   "mapsUrl": "https://maps.google.com/?q=5.5707266,95.3335993",
   "source": "osm"
  },
  {
   "id": "osm-303402014",
   "nom": "Musala Polisi Perairan Lampulo",
   "type": "mosquee",
   "lat": 5.5781327,
   "lng": 95.3215347,
   "mapsUrl": "https://maps.google.com/?q=5.5781327,95.3215347",
   "source": "osm"
  },
  {
   "id": "osm-303407634",
   "nom": "Masjid Sabilil Jannah",
   "type": "mosquee",
   "lat": 5.5559471,
   "lng": 95.3481716,
   "mapsUrl": "https://maps.google.com/?q=5.5559471,95.3481716",
   "source": "osm"
  },
  {
   "id": "osm-303408089",
   "nom": "Masjid Baitussalihin Ulee Kareng",
   "type": "mosquee",
   "lat": 5.550944,
   "lng": 95.355676,
   "mapsUrl": "https://maps.google.com/?q=5.550944,95.355676",
   "source": "osm"
  },
  {
   "id": "osm-303592085",
   "nom": "mesjid besar Suhada",
   "type": "mosquee",
   "lat": 5.5696801,
   "lng": 95.355265,
   "mapsUrl": "https://maps.google.com/?q=5.5696801,95.355265",
   "source": "osm"
  },
  {
   "id": "osm-303592099",
   "nom": "Mesjid Jamik Unsyiah",
   "type": "mosquee",
   "lat": 5.5708394,
   "lng": 95.3714688,
   "mapsUrl": "https://maps.google.com/?q=5.5708394,95.3714688",
   "source": "osm"
  },
  {
   "id": "osm-303595476",
   "nom": "Masjid Hidayatul Islam",
   "type": "mosquee",
   "lat": 5.5604889,
   "lng": 95.3626972,
   "mapsUrl": "https://maps.google.com/?q=5.5604889,95.3626972",
   "source": "osm"
  },
  {
   "id": "osm-303596988",
   "nom": "MASJID GAMPONG ILIE",
   "type": "mosquee",
   "lat": 5.543858,
   "lng": 95.3498892,
   "mapsUrl": "https://maps.google.com/?q=5.543858,95.3498892",
   "source": "osm"
  },
  {
   "id": "osm-304285731",
   "nom": "Masjid Babussalam",
   "type": "mosquee",
   "lat": 5.5597189,
   "lng": 95.3057369,
   "mapsUrl": "https://maps.google.com/?q=5.5597189,95.3057369",
   "source": "osm"
  },
  {
   "id": "osm-304291353",
   "nom": "Masjid BANI SALIM",
   "type": "mosquee",
   "lat": 5.5574494,
   "lng": 95.310715,
   "mapsUrl": "https://maps.google.com/?q=5.5574494,95.310715",
   "source": "osm"
  },
  {
   "id": "osm-304291359",
   "nom": "Mesjid Ayoedhya",
   "type": "mosquee",
   "lat": 5.5633511,
   "lng": 95.3011283,
   "mapsUrl": "https://maps.google.com/?q=5.5633511,95.3011283",
   "source": "osm"
  },
  {
   "id": "osm-304329493",
   "nom": "Mesjid Baiturrahim",
   "type": "mosquee",
   "lat": 5.5559024,
   "lng": 95.2840532,
   "mapsUrl": "https://maps.google.com/?q=5.5559024,95.2840532",
   "source": "osm"
  },
  {
   "id": "osm-304345533",
   "nom": "Masjid Al Ghafur Gani",
   "type": "mosquee",
   "lat": 5.5136181,
   "lng": 95.379451,
   "mapsUrl": "https://maps.google.com/?q=5.5136181,95.379451",
   "source": "osm"
  },
  {
   "id": "osm-304353112",
   "nom": "Meunasah Fathun Mubin Dusun Utara Darussalam",
   "type": "mosquee",
   "lat": 5.5737168,
   "lng": 95.3706412,
   "mapsUrl": "https://maps.google.com/?q=5.5737168,95.3706412",
   "source": "osm"
  },
  {
   "id": "osm-304432825",
   "nom": "Masjid Besar Baitul Maghfirah",
   "type": "mosquee",
   "lat": 5.5337672,
   "lng": 95.2807856,
   "mapsUrl": "https://maps.google.com/?q=5.5337672,95.2807856",
   "source": "osm"
  },
  {
   "id": "osm-304441421",
   "nom": "Bisnis Lampoh Daya",
   "type": "mosquee",
   "lat": 5.5341251,
   "lng": 95.2886482,
   "mapsUrl": "https://maps.google.com/?q=5.5341251,95.2886482",
   "source": "osm"
  },
  {
   "id": "osm-304443891",
   "nom": "Masjid Liwaulhamdi",
   "type": "mosquee",
   "lat": 5.5336708,
   "lng": 95.2939526,
   "mapsUrl": "https://maps.google.com/?q=5.5336708,95.2939526",
   "source": "osm"
  },
  {
   "id": "osm-304446472",
   "nom": "Mesjid Babuttaqwa",
   "type": "mosquee",
   "lat": 5.5298802,
   "lng": 95.2954532,
   "mapsUrl": "https://maps.google.com/?q=5.5298802,95.2954532",
   "source": "osm"
  },
  {
   "id": "osm-304455426",
   "nom": "Mesjid Baburrahmah",
   "type": "mosquee",
   "lat": 5.5345506,
   "lng": 95.3009271,
   "mapsUrl": "https://maps.google.com/?q=5.5345506,95.3009271",
   "source": "osm"
  },
  {
   "id": "osm-304480843",
   "nom": "Mushalla Al-Musafir",
   "type": "mosquee",
   "lat": 5.5407948,
   "lng": 95.3050603,
   "mapsUrl": "https://maps.google.com/?q=5.5407948,95.3050603",
   "source": "osm"
  },
  {
   "id": "osm-304481539",
   "nom": "Musholla An Nur",
   "type": "mosquee",
   "lat": 5.5375677,
   "lng": 95.3054309,
   "mapsUrl": "https://maps.google.com/?q=5.5375677,95.3054309",
   "source": "osm"
  },
  {
   "id": "osm-304641485",
   "nom": "Masjid AL Furqan",
   "type": "mosquee",
   "lat": 5.5559897,
   "lng": 95.3331218,
   "mapsUrl": "https://maps.google.com/?q=5.5559897,95.3331218",
   "source": "osm"
  },
  {
   "id": "osm-304641488",
   "nom": "Masjid Babuttaqwa XII",
   "type": "mosquee",
   "lat": 5.5546831,
   "lng": 95.3298301,
   "mapsUrl": "https://maps.google.com/?q=5.5546831,95.3298301",
   "source": "osm"
  },
  {
   "id": "osm-304641490",
   "nom": "Masjid Al Khodir",
   "type": "mosquee",
   "lat": 5.5552611,
   "lng": 95.327757,
   "mapsUrl": "https://maps.google.com/?q=5.5552611,95.327757",
   "source": "osm"
  },
  {
   "id": "osm-305081255",
   "nom": "Mushollah al furqan",
   "type": "mosquee",
   "lat": 5.5287634,
   "lng": 95.2833841,
   "mapsUrl": "https://maps.google.com/?q=5.5287634,95.2833841",
   "source": "osm"
  },
  {
   "id": "osm-305100533",
   "nom": "Mesjid Lamlagang",
   "type": "mosquee",
   "lat": 5.5334813,
   "lng": 95.3135669,
   "mapsUrl": "https://maps.google.com/?q=5.5334813,95.3135669",
   "source": "osm"
  },
  {
   "id": "osm-305114609",
   "nom": "Mesjid Babunnajah",
   "type": "mosquee",
   "lat": 5.5417828,
   "lng": 95.2945471,
   "mapsUrl": "https://maps.google.com/?q=5.5417828,95.2945471",
   "source": "osm"
  },
  {
   "id": "osm-305483107",
   "nom": "Masjid TVRI",
   "type": "mosquee",
   "lat": 5.5096374,
   "lng": 95.3039928,
   "mapsUrl": "https://maps.google.com/?q=5.5096374,95.3039928",
   "source": "osm"
  },
  {
   "id": "osm-305792261",
   "nom": "Masjid Al Falah",
   "type": "mosquee",
   "lat": 5.5429801,
   "lng": 95.3152587,
   "mapsUrl": "https://maps.google.com/?q=5.5429801,95.3152587",
   "source": "osm"
  },
  {
   "id": "osm-305828705",
   "nom": "Masjid Al Faizien",
   "type": "mosquee",
   "adresse": "Jalan Soekarno-Hatta",
   "lat": 5.5143552,
   "lng": 95.3254254,
   "mapsUrl": "https://maps.google.com/?q=5.5143552,95.3254254",
   "source": "osm"
  },
  {
   "id": "osm-306032912",
   "nom": "masjid Al hidayah",
   "type": "mosquee",
   "lat": 5.52995,
   "lng": 95.3369249,
   "mapsUrl": "https://maps.google.com/?q=5.52995,95.3369249",
   "source": "osm"
  },
  {
   "id": "osm-306177435",
   "nom": "Mesjid Tgk Chik Mihraja Gurah",
   "type": "mosquee",
   "lat": 5.5322834,
   "lng": 95.2736941,
   "mapsUrl": "https://maps.google.com/?q=5.5322834,95.2736941",
   "source": "osm"
  },
  {
   "id": "osm-306370548",
   "nom": "mesjid Jamik Silang Rukoh Blang Krueng",
   "type": "mosquee",
   "lat": 5.5838613,
   "lng": 95.3687058,
   "mapsUrl": "https://maps.google.com/?q=5.5838613,95.3687058",
   "source": "osm"
  }
 ],
 "tags": [
  "spirituel",
  "100-halal",
  "tsunami",
  "charia",
  "culture",
  "authentique"
 ],
 "description_en": "Banda Aceh, in Indonesia, is a halal-friendly destination with a Halal Trust Score of 4.8/5. Muslim travelers will find 20 halal restaurants listed, 1,000 mosques, real-time prayer times and the Qibla direction — a complete guide to travel with peace of mind. Best time to visit: year-round.",
 "metaDescription_en": "Halal guide to Banda Aceh: 20 halal restaurants listed, 1,000 mosques, prayer times and tips for Muslim travelers. Halal Trust Score 4.8/5.",
 "nom_en": "Banda Aceh",
 "boucheries": [],
 "infos_pratiques_en": {
  "langue": "Indonesian, Acehnais",
  "monnaie": "Rupee (IDR)",
  "meilleure_periode": "Year-round",
  "appel_priere": "5 times a day",
  "nourriture_halal": "Largement disponible",
  "alcool": "Forbidden"
 },
 "dataPurgedAt": "2026-07-15",
 "osmEnrichedAt": "2026-07-15"
}