{
  "slug": "belgrade",
  "nom": "Belgrade",
  "pays": "Serbie",
  "pays_slug": "serbie",
  "continent": "Europe",
  "region": "Serbie",
  "coordonnees": {
    "lat": 44.7866,
    "lng": 20.4489
  },
  "codeISO": "RS",
  "score_halal": 3.2,
  "halalScore": 6.4,
  "description": "Belgrade, Serbie. Repérez les restaurants halal et les mosquées via l'application.",
  "metaDescription": "Belgrade, Serbie. Repérez les restaurants halal et les mosquées via l'application.",
  "image": "https://upload.wikimedia.org/wikipedia/commons/thumb/d/dd/Airport_City%2C_Belgrade_27.jpg/1920px-Airport_City%2C_Belgrade_27.jpg",
  "image_hero": "https://upload.wikimedia.org/wikipedia/commons/thumb/d/dd/Airport_City%2C_Belgrade_27.jpg/1920px-Airport_City%2C_Belgrade_27.jpg",
  "imageCredit": "Wikimedia Commons",
  "scoreIndicatif": true,
  "statistiques": {
    "restaurants_halal": 42,
    "mosquees": 2,
    "hotels": 120
  },
  "infoPratique": {
    "transport": "Accessible par avion et transports locaux.",
    "meilleureEpoque": "Selon la saison.",
    "conseilHalal": "Repérez restaurants halal et mosquées via l'application."
  },
  "tags": [
    "halal",
    "europe"
  ],
  "restaurants": [
    {
      "nom": "Pravi Döner",
      "type": "Restaurant halal",
      "priceRange": "€€",
      "mapsUrl": "https://maps.google.com/?q=44.7995477,20.4710537",
      "lat": 44.7995477,
      "lng": 20.4710537,
      "halalConfidence": "yes",
      "source": "osm"
    },
    {
      "nom": "Indian Arab Restaurant",
      "type": "indian",
      "priceRange": "€€",
      "mapsUrl": "https://maps.google.com/?q=44.8143752,20.459192",
      "lat": 44.8143752,
      "lng": 20.459192,
      "halalConfidence": "yes",
      "source": "osm"
    },
    {
      "nom": "Meze",
      "type": "turkish",
      "priceRange": "€€",
      "mapsUrl": "https://maps.google.com/?q=44.8151059,20.4560076",
      "lat": 44.8151059,
      "lng": 20.4560076,
      "halalConfidence": "yes",
      "source": "osm"
    },
    {
      "nom": "Ханан",
      "type": "lebanese",
      "priceRange": "€€",
      "mapsUrl": "https://maps.google.com/?q=44.8149573,20.4658221",
      "lat": 44.8149573,
      "lng": 20.4658221,
      "halalConfidence": "yes",
      "source": "osm"
    },
    {
      "nom": "Beef Noodles",
      "type": "chinese",
      "priceRange": "€€",
      "mapsUrl": "https://maps.google.com/?q=44.8158012,20.4626929",
      "lat": 44.8158012,
      "lng": 20.4626929,
      "halalConfidence": "yes",
      "source": "osm"
    },
    {
      "nom": "Afifa Halal food",
      "type": "turkish, lebanese",
      "priceRange": "€€",
      "mapsUrl": "https://maps.google.com/?q=44.8217778,20.4578654",
      "lat": 44.8217778,
      "lng": 20.4578654,
      "halalConfidence": "yes",
      "source": "osm"
    },
    {
      "nom": "Peking",
      "type": "chinese",
      "priceRange": "€€",
      "mapsUrl": "https://maps.google.com/?q=44.8034781,20.3967248",
      "lat": 44.8034781,
      "lng": 20.3967248,
      "halalConfidence": "yes",
      "source": "osm"
    },
    {
      "nom": "McDonald's",
      "type": "burger",
      "priceRange": "€€",
      "mapsUrl": "https://maps.google.com/?q=44.713393,20.5601222",
      "lat": 44.713393,
      "lng": 20.5601222,
      "halalConfidence": "yes",
      "source": "osm"
    },
    {
      "nom": "Gurmania",
      "type": "pizza, burger, sandwich, kebab",
      "priceRange": "€€",
      "mapsUrl": "https://maps.google.com/?q=44.8033439,20.4544034",
      "lat": 44.8033439,
      "lng": 20.4544034,
      "halalConfidence": "likely",
      "source": "osm"
    },
    {
      "nom": "LavShawarma",
      "type": "shawarma, regional",
      "priceRange": "€€",
      "mapsUrl": "https://maps.google.com/?q=44.7840904,20.4180684",
      "lat": 44.7840904,
      "lng": 20.4180684,
      "halalConfidence": "likely",
      "source": "osm"
    },
    {
      "nom": "MC.giros",
      "type": "greek, regional, shawarma",
      "priceRange": "€€",
      "mapsUrl": "https://maps.google.com/?q=44.7839822,20.4180722",
      "lat": 44.7839822,
      "lng": 20.4180722,
      "halalConfidence": "likely",
      "source": "osm"
    },
    {
      "nom": "Hanan Shawarma Damask",
      "type": "lebanese",
      "priceRange": "€€",
      "mapsUrl": "https://maps.google.com/?q=44.8033205,20.469673",
      "lat": 44.8033205,
      "lng": 20.469673,
      "halalConfidence": "likely",
      "source": "osm"
    },
    {
      "nom": "Shavarma patrol",
      "type": "shawarma",
      "priceRange": "€€",
      "mapsUrl": "https://maps.google.com/?q=44.795305,20.4780796",
      "lat": 44.795305,
      "lng": 20.4780796,
      "halalConfidence": "likely",
      "source": "osm"
    },
    {
      "nom": "Byblos Express",
      "type": "lebanese",
      "priceRange": "€€",
      "mapsUrl": "https://maps.google.com/?q=44.7997838,20.4747926",
      "lat": 44.7997838,
      "lng": 20.4747926,
      "halalConfidence": "likely",
      "source": "osm"
    },
    {
      "nom": "Питер",
      "type": "kebab",
      "priceRange": "€€",
      "mapsUrl": "https://maps.google.com/?q=44.8064808,20.4675159",
      "lat": 44.8064808,
      "lng": 20.4675159,
      "halalConfidence": "likely",
      "source": "osm"
    },
    {
      "nom": "Studio Shawarma",
      "type": "shawarma, lebanese",
      "priceRange": "€€",
      "mapsUrl": "https://maps.google.com/?q=44.8089612,20.4629734",
      "lat": 44.8089612,
      "lng": 20.4629734,
      "halalConfidence": "likely",
      "source": "osm"
    },
    {
      "nom": "Ararat Banovo Brdo",
      "type": "lebanese",
      "priceRange": "€€",
      "mapsUrl": "https://maps.google.com/?q=44.7736943,20.4194959",
      "lat": 44.7736943,
      "lng": 20.4194959,
      "halalConfidence": "likely",
      "source": "osm"
    },
    {
      "nom": "King Tut",
      "type": "egyptian",
      "priceRange": "€€",
      "mapsUrl": "https://maps.google.com/?q=44.8079039,20.4698411",
      "lat": 44.8079039,
      "lng": 20.4698411,
      "halalConfidence": "likely",
      "source": "osm"
    },
    {
      "nom": "Doner kuća",
      "type": "shawarma, falafel",
      "priceRange": "€€",
      "mapsUrl": "https://maps.google.com/?q=44.8121874,20.456064",
      "lat": 44.8121874,
      "lng": 20.456064,
      "halalConfidence": "likely",
      "source": "osm"
    },
    {
      "nom": "Istanbul",
      "type": "turkish",
      "priceRange": "€€",
      "mapsUrl": "https://maps.google.com/?q=44.8120254,20.458674",
      "lat": 44.8120254,
      "lng": 20.458674,
      "halalConfidence": "likely",
      "source": "osm"
    },
    {
      "nom": "R-tiam",
      "type": "uyghur",
      "priceRange": "€€",
      "mapsUrl": "https://maps.google.com/?q=44.8121951,20.4602136",
      "lat": 44.8121951,
      "lng": 20.4602136,
      "halalConfidence": "likely",
      "source": "osm"
    },
    {
      "nom": "Real Berlin Doner",
      "type": "shawarma",
      "priceRange": "€€",
      "mapsUrl": "https://maps.google.com/?q=44.8139454,20.455742",
      "lat": 44.8139454,
      "lng": 20.455742,
      "halalConfidence": "likely",
      "source": "osm"
    },
    {
      "nom": "Šaurmović",
      "type": "shawarma",
      "priceRange": "€€",
      "mapsUrl": "https://maps.google.com/?q=44.814159,20.4557448",
      "lat": 44.814159,
      "lng": 20.4557448,
      "halalConfidence": "likely",
      "source": "osm"
    },
    {
      "nom": "Миг",
      "type": "kebab, balkan",
      "priceRange": "€€",
      "mapsUrl": "https://maps.google.com/?q=44.8142757,20.4563993",
      "lat": 44.8142757,
      "lng": 20.4563993,
      "halalConfidence": "likely",
      "source": "osm"
    },
    {
      "nom": "Hungry Ridiculous Bear",
      "type": "kebab",
      "priceRange": "€€",
      "mapsUrl": "https://maps.google.com/?q=44.812054,20.4719415",
      "lat": 44.812054,
      "lng": 20.4719415,
      "halalConfidence": "likely",
      "source": "osm"
    },
    {
      "nom": "Yalla Yalla",
      "type": "lebanese",
      "priceRange": "€€",
      "mapsUrl": "https://maps.google.com/?q=44.8158089,20.4626246",
      "lat": 44.8158089,
      "lng": 20.4626246,
      "halalConfidence": "likely",
      "source": "osm"
    },
    {
      "nom": "Žar Sanja",
      "type": "regional, burger, kebab",
      "priceRange": "€€",
      "mapsUrl": "https://maps.google.com/?q=44.7666335,20.4821179",
      "lat": 44.7666335,
      "lng": 20.4821179,
      "halalConfidence": "likely",
      "source": "osm"
    },
    {
      "nom": "Gyropolis",
      "type": "kebab, greek",
      "priceRange": "€€",
      "mapsUrl": "https://maps.google.com/?q=44.8162488,20.4616285",
      "lat": 44.8162488,
      "lng": 20.4616285,
      "halalConfidence": "likely",
      "source": "osm"
    },
    {
      "nom": "OG Kebab",
      "type": "kebab",
      "priceRange": "€€",
      "mapsUrl": "https://maps.google.com/?q=44.7995306,20.4889584",
      "lat": 44.7995306,
      "lng": 20.4889584,
      "halalConfidence": "likely",
      "source": "osm"
    },
    {
      "nom": "Zein Express",
      "type": "lebanese",
      "priceRange": "€€",
      "mapsUrl": "https://maps.google.com/?q=44.794689,20.4914434",
      "lat": 44.794689,
      "lng": 20.4914434,
      "halalConfidence": "likely",
      "source": "osm"
    },
    {
      "nom": "Ararat",
      "type": "lebanese",
      "priceRange": "€€",
      "mapsUrl": "https://maps.google.com/?q=44.8041881,20.4868589",
      "lat": 44.8041881,
      "lng": 20.4868589,
      "halalConfidence": "likely",
      "source": "osm"
    },
    {
      "nom": "Byblos",
      "type": "lebanese",
      "priceRange": "€€",
      "mapsUrl": "https://maps.google.com/?q=44.8046346,20.4111676",
      "lat": 44.8046346,
      "lng": 20.4111676,
      "halalConfidence": "likely",
      "source": "osm"
    },
    {
      "nom": "Tri stola",
      "type": "turkish",
      "priceRange": "€€",
      "mapsUrl": "https://maps.google.com/?q=44.8029709,20.4887519",
      "lat": 44.8029709,
      "lng": 20.4887519,
      "halalConfidence": "likely",
      "source": "osm"
    },
    {
      "nom": "Anadolija",
      "type": "turkish",
      "priceRange": "€€",
      "mapsUrl": "https://maps.google.com/?q=44.8202471,20.46347",
      "lat": 44.8202471,
      "lng": 20.46347,
      "halalConfidence": "likely",
      "source": "osm"
    },
    {
      "nom": "Shawarma Hanan Jerusalim",
      "type": "kebab, shawarma, falafel, lebanese",
      "priceRange": "€€",
      "mapsUrl": "https://maps.google.com/?q=44.821058,20.4625566",
      "lat": 44.821058,
      "lng": 20.4625566,
      "halalConfidence": "likely",
      "source": "osm"
    },
    {
      "nom": "Vraperija",
      "type": "shawarma",
      "priceRange": "€€",
      "mapsUrl": "https://maps.google.com/?q=44.8243252,20.4574836",
      "lat": 44.8243252,
      "lng": 20.4574836,
      "halalConfidence": "likely",
      "source": "osm"
    },
    {
      "nom": "Кебаб",
      "type": "kebab",
      "priceRange": "€€",
      "mapsUrl": "https://maps.google.com/?q=44.8305728,20.4146319",
      "lat": 44.8305728,
      "lng": 20.4146319,
      "halalConfidence": "likely",
      "source": "osm"
    },
    {
      "nom": "Фалафел ћоше",
      "type": "arab, falafel, mediterranean",
      "priceRange": "€€",
      "mapsUrl": "https://maps.google.com/?q=44.8102011,20.3830568",
      "lat": 44.8102011,
      "lng": 20.3830568,
      "halalConfidence": "likely",
      "source": "osm"
    },
    {
      "nom": "Mr Keh",
      "type": "russian, shawarma",
      "priceRange": "€€",
      "mapsUrl": "https://maps.google.com/?q=44.8488494,20.4119685",
      "lat": 44.8488494,
      "lng": 20.4119685,
      "halalConfidence": "likely",
      "source": "osm"
    },
    {
      "nom": "Ja & Majka",
      "type": "burger, pizza, kebab",
      "priceRange": "€€",
      "mapsUrl": "https://maps.google.com/?q=44.841935,20.3844085",
      "lat": 44.841935,
      "lng": 20.3844085,
      "halalConfidence": "likely",
      "source": "osm"
    },
    {
      "nom": "Avalska Trpeza",
      "type": "burger, kebab",
      "priceRange": "€€",
      "mapsUrl": "https://maps.google.com/?q=44.7217996,20.5409692",
      "lat": 44.7217996,
      "lng": 20.5409692,
      "halalConfidence": "likely",
      "source": "osm"
    }
  ],
  "hotels": [
    {
      "nom": "Villa Mystique",
      "categorie": "Auberge",
      "priceRange": "€€",
      "mapsUrl": "https://maps.google.com/?q=44.7844559,20.4464622",
      "lat": 44.7844559,
      "lng": 20.4464622,
      "halalFriendly": false,
      "bookingUrl": "https://www.villamystique.com/",
      "source": "osm"
    },
    {
      "nom": "Villa Bell Hill",
      "categorie": "Hôtel",
      "priceRange": "€€",
      "mapsUrl": "https://maps.google.com/?q=44.7808781,20.4510989",
      "lat": 44.7808781,
      "lng": 20.4510989,
      "halalFriendly": false,
      "bookingUrl": "https://www.discovercrystalriverfl.com/directory/bell-villa-motel/",
      "source": "osm"
    },
    {
      "nom": "The Babe Hotel",
      "categorie": "Hôtel",
      "priceRange": "€€",
      "mapsUrl": "https://maps.google.com/?q=44.7932263,20.4416483",
      "lat": 44.7932263,
      "lng": 20.4416483,
      "halalFriendly": false,
      "bookingUrl": "https://thebabehotel.com",
      "source": "osm"
    },
    {
      "nom": "Vila Senjak",
      "categorie": "Maison d'hôtes",
      "priceRange": "€€",
      "mapsUrl": "https://maps.google.com/?q=44.7948928,20.4458484",
      "lat": 44.7948928,
      "lng": 20.4458484,
      "halalFriendly": false,
      "bookingUrl": "http://www.vilasenjak.com",
      "source": "osm"
    },
    {
      "nom": "Green Garden",
      "categorie": "Auberge",
      "priceRange": "€€",
      "mapsUrl": "https://maps.google.com/?q=44.7859079,20.4614809",
      "lat": 44.7859079,
      "lng": 20.4614809,
      "halalFriendly": false,
      "bookingUrl": "https://maps.google.com/?q=44.7859079,20.4614809",
      "source": "osm"
    },
    {
      "nom": "Минт",
      "categorie": "Hôtel",
      "priceRange": "€€",
      "mapsUrl": "https://maps.google.com/?q=44.7958086,20.4477281",
      "lat": 44.7958086,
      "lng": 20.4477281,
      "halalFriendly": false,
      "bookingUrl": "http://www.hotelmintbelgrade.com",
      "source": "osm"
    },
    {
      "nom": "Kalina Rooms",
      "categorie": "Maison d'hôtes",
      "priceRange": "€€",
      "mapsUrl": "https://maps.google.com/?q=44.7946134,20.4562352",
      "lat": 44.7946134,
      "lng": 20.4562352,
      "halalFriendly": false,
      "bookingUrl": "https://maps.google.com/?q=44.7946134,20.4562352",
      "source": "osm"
    },
    {
      "nom": "Radisson Collection Hotel, Old Mill Belgrade",
      "categorie": "Hôtel",
      "priceRange": "€€€€",
      "score": 4,
      "mapsUrl": "https://maps.google.com/?q=44.7972328,20.4475189",
      "lat": 44.7972328,
      "lng": 20.4475189,
      "halalFriendly": false,
      "bookingUrl": "https://www.radissonhotels.com/en-us/hotels/radisson-collection-old-mill-belgrade",
      "source": "osm"
    },
    {
      "nom": "Hotel Prestige",
      "categorie": "Hôtel",
      "priceRange": "€€",
      "mapsUrl": "https://maps.google.com/?q=44.784219,20.4341692",
      "lat": 44.784219,
      "lng": 20.4341692,
      "halalFriendly": false,
      "bookingUrl": "https://maps.google.com/?q=44.784219,20.4341692",
      "source": "osm"
    },
    {
      "nom": "Fair Hostel",
      "categorie": "Auberge",
      "priceRange": "€€",
      "mapsUrl": "https://maps.google.com/?q=44.7956975,20.4405224",
      "lat": 44.7956975,
      "lng": 20.4405224,
      "halalFriendly": false,
      "bookingUrl": "https://maps.google.com/?q=44.7956975,20.4405224",
      "source": "osm"
    },
    {
      "nom": "Гарни Хотел Завичај",
      "categorie": "Hôtel",
      "priceRange": "€€€€",
      "score": 4,
      "mapsUrl": "https://maps.google.com/?q=44.7938168,20.4605053",
      "lat": 44.7938168,
      "lng": 20.4605053,
      "halalFriendly": false,
      "bookingUrl": "http://hotelzavicaj.rs",
      "source": "osm"
    },
    {
      "nom": "Amarilis 717",
      "categorie": "Hôtel",
      "priceRange": "€€",
      "mapsUrl": "https://maps.google.com/?q=44.7952337,20.4393042",
      "lat": 44.7952337,
      "lng": 20.4393042,
      "halalFriendly": false,
      "bookingUrl": "https://maps.google.com/?q=44.7952337,20.4393042",
      "source": "osm"
    },
    {
      "nom": "011",
      "categorie": "Auberge",
      "priceRange": "€€",
      "mapsUrl": "https://maps.google.com/?q=44.7938883,20.4365221",
      "lat": 44.7938883,
      "lng": 20.4365221,
      "halalFriendly": false,
      "bookingUrl": "https://maps.google.com/?q=44.7938883,20.4365221",
      "source": "osm"
    },
    {
      "nom": "Plaza Hostel Belgrade",
      "categorie": "Auberge",
      "priceRange": "€€",
      "mapsUrl": "https://maps.google.com/?q=44.7920095,20.4631487",
      "lat": 44.7920095,
      "lng": 20.4631487,
      "halalFriendly": false,
      "bookingUrl": "https://www.plazahostel.com/",
      "source": "osm"
    },
    {
      "nom": "Haron Sport Pansion",
      "categorie": "Maison d'hôtes",
      "priceRange": "€€",
      "mapsUrl": "https://maps.google.com/?q=44.7905687,20.464789",
      "lat": 44.7905687,
      "lng": 20.464789,
      "halalFriendly": false,
      "bookingUrl": "https://maps.google.com/?q=44.7905687,20.464789",
      "source": "osm"
    },
    {
      "nom": "Ferrit",
      "categorie": "Maison d'hôtes",
      "priceRange": "€€",
      "mapsUrl": "https://maps.google.com/?q=44.7910531,20.4660005",
      "lat": 44.7910531,
      "lng": 20.4660005,
      "halalFriendly": false,
      "bookingUrl": "https://maps.google.com/?q=44.7910531,20.4660005",
      "source": "osm"
    },
    {
      "nom": "Victory Dedinje",
      "categorie": "Hôtel",
      "priceRange": "€€",
      "mapsUrl": "https://maps.google.com/?q=44.7755763,20.4591705",
      "lat": 44.7755763,
      "lng": 20.4591705,
      "halalFriendly": false,
      "bookingUrl": "https://maps.google.com/?q=44.7755763,20.4591705",
      "source": "osm"
    },
    {
      "nom": "Конак Дедиње",
      "categorie": "Hôtel",
      "priceRange": "€€",
      "mapsUrl": "https://maps.google.com/?q=44.7751537,20.4585383",
      "lat": 44.7751537,
      "lng": 20.4585383,
      "halalFriendly": false,
      "bookingUrl": "http://konakdedinje.com/",
      "source": "osm"
    },
    {
      "nom": "Riverside Rooms",
      "categorie": "Maison d'hôtes",
      "priceRange": "€€",
      "mapsUrl": "https://maps.google.com/?q=44.7973363,20.4351841",
      "lat": 44.7973363,
      "lng": 20.4351841,
      "halalFriendly": false,
      "bookingUrl": "https://maps.google.com/?q=44.7973363,20.4351841",
      "source": "osm"
    },
    {
      "nom": "Самачки хотел МУП",
      "categorie": "Hôtel",
      "priceRange": "€€",
      "mapsUrl": "https://maps.google.com/?q=44.8009312,20.4530386",
      "lat": 44.8009312,
      "lng": 20.4530386,
      "halalFriendly": false,
      "bookingUrl": "https://maps.google.com/?q=44.8009312,20.4530386",
      "source": "osm"
    },
    {
      "nom": "Nobel",
      "categorie": "Hôtel",
      "priceRange": "€€€€",
      "score": 4,
      "mapsUrl": "https://maps.google.com/?q=44.8008254,20.4556988",
      "lat": 44.8008254,
      "lng": 20.4556988,
      "halalFriendly": false,
      "bookingUrl": "https://nobelbelgrade.business.site/",
      "source": "osm"
    },
    {
      "nom": "Apartmani Chess",
      "categorie": "Appartement",
      "priceRange": "€€",
      "mapsUrl": "https://maps.google.com/?q=44.8013644,20.4565949",
      "lat": 44.8013644,
      "lng": 20.4565949,
      "halalFriendly": false,
      "bookingUrl": "https://maps.google.com/?q=44.8013644,20.4565949",
      "source": "osm"
    },
    {
      "nom": "Crystal",
      "categorie": "Hôtel",
      "priceRange": "€€",
      "mapsUrl": "https://maps.google.com/?q=44.7953678,20.4674204",
      "lat": 44.7953678,
      "lng": 20.4674204,
      "halalFriendly": false,
      "bookingUrl": "https://maps.google.com/?q=44.7953678,20.4674204",
      "source": "osm"
    },
    {
      "nom": "Врачар ризорт",
      "categorie": "Hôtel",
      "priceRange": "€€",
      "mapsUrl": "https://maps.google.com/?q=44.7941188,20.4694983",
      "lat": 44.7941188,
      "lng": 20.4694983,
      "halalFriendly": false,
      "bookingUrl": "https://vracarresort.com/",
      "source": "osm"
    },
    {
      "nom": "Вила Булевар",
      "categorie": "Maison d'hôtes",
      "priceRange": "€€",
      "mapsUrl": "https://maps.google.com/?q=44.778986,20.4695279",
      "lat": 44.778986,
      "lng": 20.4695279,
      "halalFriendly": false,
      "bookingUrl": "https://vilabulevar.rs",
      "source": "osm"
    },
    {
      "nom": "Hotel Rex",
      "categorie": "Hôtel",
      "priceRange": "€€",
      "mapsUrl": "https://maps.google.com/?q=44.8030768,20.4550263",
      "lat": 44.8030768,
      "lng": 20.4550263,
      "halalFriendly": false,
      "bookingUrl": "https://maps.google.com/?q=44.8030768,20.4550263",
      "source": "osm"
    },
    {
      "nom": "Move In Apartments",
      "categorie": "Hôtel",
      "priceRange": "€€",
      "mapsUrl": "https://maps.google.com/?q=44.8038886,20.4546656",
      "lat": 44.8038886,
      "lng": 20.4546656,
      "halalFriendly": false,
      "bookingUrl": "https://maps.google.com/?q=44.8038886,20.4546656",
      "source": "osm"
    },
    {
      "nom": "Hidden Gem",
      "categorie": "Appartement",
      "priceRange": "€€",
      "mapsUrl": "https://maps.google.com/?q=44.7699206,20.4582525",
      "lat": 44.7699206,
      "lng": 20.4582525,
      "halalFriendly": false,
      "bookingUrl": "https://hiddengemvilla.business.site/",
      "source": "osm"
    },
    {
      "nom": "Slavija Space",
      "categorie": "Appartement",
      "priceRange": "€€",
      "mapsUrl": "https://maps.google.com/?q=44.8013169,20.4636334",
      "lat": 44.8013169,
      "lng": 20.4636334,
      "halalFriendly": false,
      "bookingUrl": "https://maps.google.com/?q=44.8013169,20.4636334",
      "source": "osm"
    },
    {
      "nom": "Tesla Hotel",
      "categorie": "Hôtel",
      "priceRange": "€€",
      "mapsUrl": "https://maps.google.com/?q=44.7952834,20.4724385",
      "lat": 44.7952834,
      "lng": 20.4724385,
      "halalFriendly": false,
      "bookingUrl": "https://www.hoteltesla.rs/",
      "source": "osm"
    },
    {
      "nom": "Black Sheep",
      "categorie": "Auberge",
      "priceRange": "€€",
      "mapsUrl": "https://maps.google.com/?q=44.8024011,20.4652074",
      "lat": 44.8024011,
      "lng": 20.4652074,
      "halalFriendly": false,
      "bookingUrl": "https://maps.google.com/?q=44.8024011,20.4652074",
      "source": "osm"
    },
    {
      "nom": "Saint Ten Hotel",
      "categorie": "Hôtel",
      "priceRange": "€€",
      "mapsUrl": "https://maps.google.com/?q=44.8013858,20.4670485",
      "lat": 44.8013858,
      "lng": 20.4670485,
      "halalFriendly": false,
      "bookingUrl": "https://www.saintten.com/",
      "source": "osm"
    },
    {
      "nom": "Funky House",
      "categorie": "Appartement",
      "priceRange": "€€",
      "mapsUrl": "https://maps.google.com/?q=44.7959278,20.47366",
      "lat": 44.7959278,
      "lng": 20.47366,
      "halalFriendly": false,
      "bookingUrl": "https://maps.google.com/?q=44.7959278,20.47366",
      "source": "osm"
    },
    {
      "nom": "Клуб Топчидер",
      "categorie": "Maison d'hôtes",
      "priceRange": "€€",
      "mapsUrl": "https://maps.google.com/?q=44.7669948,20.4441136",
      "lat": 44.7669948,
      "lng": 20.4441136,
      "halalFriendly": false,
      "bookingUrl": "https://maps.google.com/?q=44.7669948,20.4441136",
      "source": "osm"
    },
    {
      "nom": "Belgrade Boutique House",
      "categorie": "Hôtel",
      "priceRange": "€€",
      "mapsUrl": "https://maps.google.com/?q=44.7674129,20.4568779",
      "lat": 44.7674129,
      "lng": 20.4568779,
      "halalFriendly": false,
      "bookingUrl": "https://www.belgradeboutiquehotel.com",
      "source": "osm"
    },
    {
      "nom": "Славија",
      "categorie": "Hôtel",
      "priceRange": "€€",
      "mapsUrl": "https://maps.google.com/?q=44.8020123,20.4672872",
      "lat": 44.8020123,
      "lng": 20.4672872,
      "halalFriendly": false,
      "bookingUrl": "https://maps.google.com/?q=44.8020123,20.4672872",
      "source": "osm"
    },
    {
      "nom": "Sleep n' Drive",
      "categorie": "Appartement",
      "priceRange": "€€",
      "mapsUrl": "https://maps.google.com/?q=44.7916782,20.4765682",
      "lat": 44.7916782,
      "lng": 20.4765682,
      "halalFriendly": false,
      "bookingUrl": "https://maps.google.com/?q=44.7916782,20.4765682",
      "source": "osm"
    },
    {
      "nom": "Konak Stella",
      "categorie": "Hôtel",
      "priceRange": "€€",
      "mapsUrl": "https://maps.google.com/?q=44.7944129,20.4755064",
      "lat": 44.7944129,
      "lng": 20.4755064,
      "halalFriendly": false,
      "bookingUrl": "https://konak-stella.visitaserbia.com/en/",
      "source": "osm"
    },
    {
      "nom": "Apartman Aries",
      "categorie": "Appartement",
      "priceRange": "€€",
      "mapsUrl": "https://maps.google.com/?q=44.7969643,20.4737515",
      "lat": 44.7969643,
      "lng": 20.4737515,
      "halalFriendly": false,
      "bookingUrl": "https://www.airbnb.com/rooms/51669935",
      "source": "osm"
    },
    {
      "nom": "Miavik",
      "categorie": "Auberge",
      "priceRange": "€€",
      "mapsUrl": "https://maps.google.com/?q=44.8067621,20.4553443",
      "lat": 44.8067621,
      "lng": 20.4553443,
      "halalFriendly": false,
      "bookingUrl": "https://maps.google.com/?q=44.8067621,20.4553443",
      "source": "osm"
    },
    {
      "nom": "moj stan",
      "categorie": "Appartement",
      "priceRange": "€€",
      "mapsUrl": "https://maps.google.com/?q=44.7817871,20.4203534",
      "lat": 44.7817871,
      "lng": 20.4203534,
      "halalFriendly": false,
      "bookingUrl": "https://maps.google.com/?q=44.7817871,20.4203534",
      "source": "osm"
    },
    {
      "nom": "Omia",
      "categorie": "Hôtel",
      "priceRange": "€€",
      "mapsUrl": "https://maps.google.com/?q=44.8065622,20.4574934",
      "lat": 44.8065622,
      "lng": 20.4574934,
      "halalFriendly": false,
      "bookingUrl": "https://maps.google.com/?q=44.8065622,20.4574934",
      "source": "osm"
    },
    {
      "nom": "Апартмани Вождовац",
      "categorie": "Maison d'hôtes",
      "priceRange": "€€",
      "mapsUrl": "https://maps.google.com/?q=44.7749495,20.4743616",
      "lat": 44.7749495,
      "lng": 20.4743616,
      "halalFriendly": false,
      "bookingUrl": "https://maps.google.com/?q=44.7749495,20.4743616",
      "source": "osm"
    },
    {
      "nom": "Хилтон Београд",
      "categorie": "Hôtel",
      "priceRange": "€€€€",
      "score": 5,
      "mapsUrl": "https://maps.google.com/?q=44.8044271,20.4661393",
      "lat": 44.8044271,
      "lng": 20.4661393,
      "halalFriendly": false,
      "bookingUrl": "https://www.hilton.com/en/hotels/begbshi-hilton-belgrade/",
      "source": "osm"
    },
    {
      "nom": "Sun",
      "categorie": "Auberge",
      "priceRange": "€€",
      "mapsUrl": "https://maps.google.com/?q=44.7984314,20.4753357",
      "lat": 44.7984314,
      "lng": 20.4753357,
      "halalFriendly": false,
      "bookingUrl": "https://sun-hostel-belgrade.worhot.com/",
      "source": "osm"
    },
    {
      "nom": "Moxy Belgrade",
      "categorie": "Hôtel",
      "priceRange": "€€",
      "mapsUrl": "https://maps.google.com/?q=44.8051516,20.4660386",
      "lat": 44.8051516,
      "lng": 20.4660386,
      "halalFriendly": false,
      "bookingUrl": "https://www.marriott.com/en-us/hotels/begox-moxy-belgrade/overview/",
      "source": "osm"
    },
    {
      "nom": "Belgrade City Hotel",
      "categorie": "Hôtel",
      "priceRange": "€€",
      "mapsUrl": "https://maps.google.com/?q=44.8085027,20.4575266",
      "lat": 44.8085027,
      "lng": 20.4575266,
      "halalFriendly": false,
      "bookingUrl": "https://www.bgcityhotel.com/",
      "source": "osm"
    },
    {
      "nom": "Argo",
      "categorie": "Hôtel",
      "priceRange": "€€",
      "mapsUrl": "https://maps.google.com/?q=44.8066091,20.464608",
      "lat": 44.8066091,
      "lng": 20.464608,
      "halalFriendly": false,
      "bookingUrl": "https://maps.google.com/?q=44.8066091,20.464608",
      "source": "osm"
    },
    {
      "nom": "Marquise",
      "categorie": "Hôtel",
      "priceRange": "€€",
      "mapsUrl": "https://maps.google.com/?q=44.8067378,20.4657456",
      "lat": 44.8067378,
      "lng": 20.4657456,
      "halalFriendly": false,
      "bookingUrl": "https://maps.google.com/?q=44.8067378,20.4657456",
      "source": "osm"
    },
    {
      "nom": "Атлас Апартмани",
      "categorie": "Auberge",
      "priceRange": "€€",
      "mapsUrl": "https://maps.google.com/?q=44.7748895,20.477547",
      "lat": 44.7748895,
      "lng": 20.477547,
      "halalFriendly": false,
      "bookingUrl": "https://maps.google.com/?q=44.7748895,20.477547",
      "source": "osm"
    },
    {
      "nom": "Queen’s Astoria Design Hotel",
      "categorie": "Hôtel",
      "priceRange": "€€",
      "mapsUrl": "https://maps.google.com/?q=44.8093142,20.4574585",
      "lat": 44.8093142,
      "lng": 20.4574585,
      "halalFriendly": false,
      "bookingUrl": "https://www.astoria.rs/",
      "source": "osm"
    },
    {
      "nom": "Downtown hostel",
      "categorie": "Auberge",
      "priceRange": "€€",
      "mapsUrl": "https://maps.google.com/?q=44.8095564,20.4565606",
      "lat": 44.8095564,
      "lng": 20.4565606,
      "halalFriendly": false,
      "bookingUrl": "http://www.downtownbelgradehostel.com",
      "source": "osm"
    },
    {
      "nom": "Марк",
      "categorie": "Hôtel",
      "priceRange": "€€",
      "mapsUrl": "https://maps.google.com/?q=44.8072468,20.4653109",
      "lat": 44.8072468,
      "lng": 20.4653109,
      "halalFriendly": false,
      "bookingUrl": "https://www.markhotelbelgrade.com/sr/",
      "source": "osm"
    },
    {
      "nom": "Šumadija",
      "categorie": "Hôtel",
      "priceRange": "€€€€",
      "score": 4,
      "mapsUrl": "https://maps.google.com/?q=44.7819277,20.416136",
      "lat": 44.7819277,
      "lng": 20.416136,
      "halalFriendly": false,
      "bookingUrl": "https://hotelsumadija.rs",
      "source": "osm"
    },
    {
      "nom": "Public House Hotel",
      "categorie": "Hôtel",
      "priceRange": "€€",
      "mapsUrl": "https://maps.google.com/?q=44.8082124,20.4628638",
      "lat": 44.8082124,
      "lng": 20.4628638,
      "halalFriendly": false,
      "bookingUrl": "https://maps.google.com/?q=44.8082124,20.4628638",
      "source": "osm"
    },
    {
      "nom": "M",
      "categorie": "Auberge",
      "priceRange": "€€",
      "mapsUrl": "https://maps.google.com/?q=44.8096352,20.4584866",
      "lat": 44.8096352,
      "lng": 20.4584866,
      "halalFriendly": false,
      "bookingUrl": "https://maps.google.com/?q=44.8096352,20.4584866",
      "source": "osm"
    },
    {
      "nom": "Allegra",
      "categorie": "Hôtel",
      "priceRange": "€€",
      "mapsUrl": "https://maps.google.com/?q=44.7988305,20.4784455",
      "lat": 44.7988305,
      "lng": 20.4784455,
      "halalFriendly": false,
      "bookingUrl": "https://maps.google.com/?q=44.7988305,20.4784455",
      "source": "osm"
    },
    {
      "nom": "Eleven Hostel",
      "categorie": "Auberge",
      "priceRange": "€€",
      "mapsUrl": "https://maps.google.com/?q=44.8102814,20.4572414",
      "lat": 44.8102814,
      "lng": 20.4572414,
      "halalFriendly": false,
      "bookingUrl": "https://maps.google.com/?q=44.8102814,20.4572414",
      "source": "osm"
    },
    {
      "nom": "ABBA",
      "categorie": "Hôtel",
      "priceRange": "€€€€",
      "score": 4,
      "mapsUrl": "https://maps.google.com/?q=44.7876812,20.4833191",
      "lat": 44.7876812,
      "lng": 20.4833191,
      "halalFriendly": false,
      "bookingUrl": "https://maps.google.com/?q=44.7876812,20.4833191",
      "source": "osm"
    },
    {
      "nom": "City Break Hostel 5th Floor",
      "categorie": "Auberge",
      "priceRange": "€€",
      "mapsUrl": "https://maps.google.com/?q=44.8059895,20.469981",
      "lat": 44.8059895,
      "lng": 20.469981,
      "halalFriendly": false,
      "bookingUrl": "https://www.meininger-hotels.com/en/",
      "source": "osm"
    },
    {
      "nom": "Mr. President",
      "categorie": "Hôtel",
      "priceRange": "€€",
      "mapsUrl": "https://maps.google.com/?q=44.8108062,20.4552125",
      "lat": 44.8108062,
      "lng": 20.4552125,
      "halalFriendly": false,
      "bookingUrl": "https://maps.google.com/?q=44.8108062,20.4552125",
      "source": "osm"
    },
    {
      "nom": "Feel Belgrade Apartments",
      "categorie": "Hôtel",
      "priceRange": "€€",
      "mapsUrl": "https://maps.google.com/?q=44.8102734,20.458774",
      "lat": 44.8102734,
      "lng": 20.458774,
      "halalFriendly": false,
      "bookingUrl": "https://maps.google.com/?q=44.8102734,20.458774",
      "source": "osm"
    },
    {
      "nom": "Трим",
      "categorie": "Hôtel",
      "priceRange": "€€",
      "mapsUrl": "https://maps.google.com/?q=44.7666463,20.4279804",
      "lat": 44.7666463,
      "lng": 20.4279804,
      "halalFriendly": false,
      "bookingUrl": "https://maps.google.com/?q=44.7666463,20.4279804",
      "source": "osm"
    },
    {
      "nom": "Garden 40",
      "categorie": "Maison d'hôtes",
      "priceRange": "€€",
      "mapsUrl": "https://maps.google.com/?q=44.8105126,20.4585664",
      "lat": 44.8105126,
      "lng": 20.4585664,
      "halalFriendly": false,
      "bookingUrl": "https://maps.google.com/?q=44.8105126,20.4585664",
      "source": "osm"
    },
    {
      "nom": "Хабитат",
      "categorie": "Auberge",
      "priceRange": "€€",
      "mapsUrl": "https://maps.google.com/?q=44.8091232,20.4641726",
      "lat": 44.8091232,
      "lng": 20.4641726,
      "halalFriendly": false,
      "bookingUrl": "https://maps.google.com/?q=44.8091232,20.4641726",
      "source": "osm"
    },
    {
      "nom": "Garni Prime Hotel",
      "categorie": "Hôtel",
      "priceRange": "€€€€",
      "score": 4,
      "mapsUrl": "https://maps.google.com/?q=44.799281,20.4794372",
      "lat": 44.799281,
      "lng": 20.4794372,
      "halalFriendly": false,
      "bookingUrl": "http://www.hotelprime.rs/index.php",
      "source": "osm"
    },
    {
      "nom": "Crowne Plaza Belgrade",
      "categorie": "Hôtel",
      "priceRange": "€€",
      "mapsUrl": "https://maps.google.com/?q=44.8094351,20.4341496",
      "lat": 44.8094351,
      "lng": 20.4341496,
      "halalFriendly": false,
      "bookingUrl": "https://www.ihg.com/crowneplaza/hotels/us/en/belgrade/begcp/hoteldetail?msockid=099ed04bd39460b90f82de65d2096186",
      "source": "osm"
    },
    {
      "nom": "Краун Плаза Београд",
      "categorie": "Hôtel",
      "priceRange": "€€",
      "mapsUrl": "https://maps.google.com/?q=44.8094286,20.4340892",
      "lat": 44.8094286,
      "lng": 20.4340892,
      "halalFriendly": false,
      "bookingUrl": "https://maps.google.com/?q=44.8094286,20.4340892",
      "source": "osm"
    },
    {
      "nom": "Орашац гарни",
      "categorie": "Hôtel",
      "priceRange": "€€",
      "mapsUrl": "https://maps.google.com/?q=44.7736354,20.418472",
      "lat": 44.7736354,
      "lng": 20.418472,
      "halalFriendly": false,
      "bookingUrl": "https://hotelorasacgarni.rs/",
      "source": "osm"
    },
    {
      "nom": "Veklich House",
      "categorie": "Maison d'hôtes",
      "priceRange": "€€",
      "mapsUrl": "https://maps.google.com/?q=44.7616543,20.4547522",
      "lat": 44.7616543,
      "lng": 20.4547522,
      "halalFriendly": false,
      "bookingUrl": "https://maps.google.com/?q=44.7616543,20.4547522",
      "source": "osm"
    },
    {
      "nom": "Sky Hotel",
      "categorie": "Hôtel",
      "priceRange": "€€",
      "mapsUrl": "https://maps.google.com/?q=44.811079,20.4579587",
      "lat": 44.811079,
      "lng": 20.4579587,
      "halalFriendly": false,
      "bookingUrl": "https://maps.google.com/?q=44.811079,20.4579587",
      "source": "osm"
    },
    {
      "nom": "Hotel Jardin",
      "categorie": "Hôtel",
      "priceRange": "€€",
      "mapsUrl": "https://maps.google.com/?q=44.8084644,20.4673114",
      "lat": 44.8084644,
      "lng": 20.4673114,
      "halalFriendly": false,
      "bookingUrl": "https://hoteljardinbelgrade.com",
      "source": "osm"
    },
    {
      "nom": "Хотел Праг",
      "categorie": "Hôtel",
      "priceRange": "€€€",
      "score": 3,
      "mapsUrl": "https://maps.google.com/?q=44.8110001,20.459839",
      "lat": 44.8110001,
      "lng": 20.459839,
      "halalFriendly": false,
      "bookingUrl": "https://www.hotelprag.rs/",
      "source": "osm"
    },
    {
      "nom": "Jump Inn Hotel",
      "categorie": "Hôtel",
      "priceRange": "€€",
      "mapsUrl": "https://maps.google.com/?q=44.8122598,20.4538043",
      "lat": 44.8122598,
      "lng": 20.4538043,
      "halalFriendly": false,
      "bookingUrl": "https://www.jumpinnhotelbelgrade.com/",
      "source": "osm"
    },
    {
      "nom": "Nobel Design",
      "categorie": "Hôtel",
      "priceRange": "€€",
      "mapsUrl": "https://maps.google.com/?q=44.8112727,20.4601096",
      "lat": 44.8112727,
      "lng": 20.4601096,
      "halalFriendly": false,
      "bookingUrl": "https://maps.google.com/?q=44.8112727,20.4601096",
      "source": "osm"
    },
    {
      "nom": "Mercure Belgrade Excelsior",
      "categorie": "Hôtel",
      "priceRange": "€€",
      "mapsUrl": "https://maps.google.com/?q=44.8097815,20.4657049",
      "lat": 44.8097815,
      "lng": 20.4657049,
      "halalFriendly": false,
      "bookingUrl": "http://www.hotelexcelsior.co.rs/",
      "source": "osm"
    },
    {
      "nom": "Lola Hotel",
      "categorie": "Hôtel",
      "priceRange": "€€",
      "mapsUrl": "https://maps.google.com/?q=44.805437,20.4743268",
      "lat": 44.805437,
      "lng": 20.4743268,
      "halalFriendly": false,
      "bookingUrl": "https://maps.google.com/?q=44.805437,20.4743268",
      "source": "osm"
    },
    {
      "nom": "Kezman City Apartments",
      "categorie": "Appartement",
      "priceRange": "€€",
      "mapsUrl": "https://maps.google.com/?q=44.8111437,20.4616529",
      "lat": 44.8111437,
      "lng": 20.4616529,
      "halalFriendly": false,
      "bookingUrl": "https://maps.google.com/?q=44.8111437,20.4616529",
      "source": "osm"
    },
    {
      "nom": "Bongo",
      "categorie": "Hôtel",
      "priceRange": "€€",
      "mapsUrl": "https://maps.google.com/?q=44.8113472,20.4609462",
      "lat": 44.8113472,
      "lng": 20.4609462,
      "halalFriendly": false,
      "bookingUrl": "https://maps.google.com/?q=44.8113472,20.4609462",
      "source": "osm"
    },
    {
      "nom": "Hostel Inn Downtown",
      "categorie": "Auberge",
      "priceRange": "€€",
      "mapsUrl": "https://maps.google.com/?q=44.8127087,20.4546361",
      "lat": 44.8127087,
      "lng": 20.4546361,
      "halalFriendly": false,
      "bookingUrl": "https://hostelinn.rs/",
      "source": "osm"
    },
    {
      "nom": "Hostel no. 9",
      "categorie": "Auberge",
      "priceRange": "€€",
      "mapsUrl": "https://maps.google.com/?q=44.8129516,20.4546039",
      "lat": 44.8129516,
      "lng": 20.4546039,
      "halalFriendly": false,
      "bookingUrl": "https://maps.google.com/?q=44.8129516,20.4546039",
      "source": "osm"
    },
    {
      "nom": "Хотел М",
      "categorie": "Hôtel",
      "priceRange": "€€",
      "mapsUrl": "https://maps.google.com/?q=44.7680496,20.4761428",
      "lat": 44.7680496,
      "lng": 20.4761428,
      "halalFriendly": false,
      "bookingUrl": "https://maps.google.com/?q=44.7680496,20.4761428",
      "source": "osm"
    },
    {
      "nom": "Guesthouse Dedinje",
      "categorie": "Hôtel",
      "priceRange": "€€",
      "mapsUrl": "https://maps.google.com/?q=44.7598012,20.4526008",
      "lat": 44.7598012,
      "lng": 20.4526008,
      "halalFriendly": false,
      "bookingUrl": "https://maps.google.com/?q=44.7598012,20.4526008",
      "source": "osm"
    },
    {
      "nom": "Imperia Apartments",
      "categorie": "Appartement",
      "priceRange": "€€",
      "mapsUrl": "https://maps.google.com/?q=44.8133738,20.4533764",
      "lat": 44.8133738,
      "lng": 20.4533764,
      "halalFriendly": false,
      "bookingUrl": "https://maps.google.com/?q=44.8133738,20.4533764",
      "source": "osm"
    },
    {
      "nom": "Savamala bed&breakfast",
      "categorie": "Hôtel",
      "priceRange": "€€",
      "mapsUrl": "https://maps.google.com/?q=44.8134301,20.4535024",
      "lat": 44.8134301,
      "lng": 20.4535024,
      "halalFriendly": false,
      "bookingUrl": "https://maps.google.com/?q=44.8134301,20.4535024",
      "source": "osm"
    },
    {
      "nom": "Wake Up",
      "categorie": "Auberge",
      "priceRange": "€€",
      "mapsUrl": "https://maps.google.com/?q=44.813539,20.4530643",
      "lat": 44.813539,
      "lng": 20.4530643,
      "halalFriendly": false,
      "bookingUrl": "http://www.hotelwakeup.rs/",
      "source": "osm"
    },
    {
      "nom": "Villa K Apartments",
      "categorie": "Maison d'hôtes",
      "priceRange": "€€",
      "mapsUrl": "https://maps.google.com/?q=44.7681997,20.4772382",
      "lat": 44.7681997,
      "lng": 20.4772382,
      "halalFriendly": false,
      "bookingUrl": "http://www.villak.rs",
      "source": "osm"
    },
    {
      "nom": "Hedonist Lounge",
      "categorie": "Auberge",
      "priceRange": "€€",
      "mapsUrl": "https://maps.google.com/?q=44.8141652,20.4558771",
      "lat": 44.8141652,
      "lng": 20.4558771,
      "halalFriendly": false,
      "bookingUrl": "https://maps.google.com/?q=44.8141652,20.4558771",
      "source": "osm"
    },
    {
      "nom": "Амстердам",
      "categorie": "Hôtel",
      "priceRange": "€€",
      "mapsUrl": "https://maps.google.com/?q=44.8142334,20.4556287",
      "lat": 44.8142334,
      "lng": 20.4556287,
      "halalFriendly": false,
      "bookingUrl": "https://www.amsterdamhotel.rs/",
      "source": "osm"
    },
    {
      "nom": "Хотел Балкан",
      "categorie": "Hôtel",
      "priceRange": "€€€€",
      "score": 4,
      "mapsUrl": "https://maps.google.com/?q=44.8136216,20.4600357",
      "lat": 44.8136216,
      "lng": 20.4600357,
      "halalFriendly": false,
      "bookingUrl": "https://hotelbalkanbeograd.com/",
      "source": "osm"
    },
    {
      "nom": "Srbija Garden",
      "categorie": "Hôtel",
      "priceRange": "€€€€",
      "score": 4,
      "mapsUrl": "https://maps.google.com/?q=44.8145642,20.4554861",
      "lat": 44.8145642,
      "lng": 20.4554861,
      "halalFriendly": false,
      "bookingUrl": "https://maps.google.com/?q=44.8145642,20.4554861",
      "source": "osm"
    },
    {
      "nom": "Hyatt Regency Belgrade",
      "categorie": "Hôtel",
      "priceRange": "€€€€",
      "score": 5,
      "mapsUrl": "https://maps.google.com/?q=44.8130994,20.4345085",
      "lat": 44.8130994,
      "lng": 20.4345085,
      "halalFriendly": false,
      "bookingUrl": "https://www.hyatt.com/hyatt-regency/en-US/belgr-hyatt-regency-belgrade",
      "source": "osm"
    },
    {
      "nom": "City Joy",
      "categorie": "Hôtel",
      "priceRange": "€€",
      "mapsUrl": "https://maps.google.com/?q=44.8089808,20.4736454",
      "lat": 44.8089808,
      "lng": 20.4736454,
      "halalFriendly": false,
      "bookingUrl": "https://maps.google.com/?q=44.8089808,20.4736454",
      "source": "osm"
    },
    {
      "nom": "Zepter Hotel",
      "categorie": "Hôtel",
      "priceRange": "€€",
      "mapsUrl": "https://maps.google.com/?q=44.8140814,20.4601774",
      "lat": 44.8140814,
      "lng": 20.4601774,
      "halalFriendly": false,
      "bookingUrl": "https://www.hotelzepter.rs/",
      "source": "osm"
    },
    {
      "nom": "Stadium Apartments",
      "categorie": "Auberge",
      "priceRange": "€€",
      "mapsUrl": "https://maps.google.com/?q=44.7771571,20.4871479",
      "lat": 44.7771571,
      "lng": 20.4871479,
      "halalFriendly": false,
      "bookingUrl": "https://maps.google.com/?q=44.7771571,20.4871479",
      "source": "osm"
    },
    {
      "nom": "Apartments Fly",
      "categorie": "Maison d'hôtes",
      "priceRange": "€€",
      "mapsUrl": "https://maps.google.com/?q=44.8150359,20.4552858",
      "lat": 44.8150359,
      "lng": 20.4552858,
      "halalFriendly": false,
      "bookingUrl": "https://maps.google.com/?q=44.8150359,20.4552858",
      "source": "osm"
    },
    {
      "nom": "Eden Luxury Suites Terazije",
      "categorie": "Hôtel",
      "priceRange": "€€",
      "mapsUrl": "https://maps.google.com/?q=44.8141106,20.4609768",
      "lat": 44.8141106,
      "lng": 20.4609768,
      "halalFriendly": false,
      "bookingUrl": "https://www.edenhotel.rs/",
      "source": "osm"
    },
    {
      "nom": "Marshal",
      "categorie": "Hôtel",
      "priceRange": "€€",
      "mapsUrl": "https://maps.google.com/?q=44.8146309,20.4583061",
      "lat": 44.8146309,
      "lng": 20.4583061,
      "halalFriendly": false,
      "bookingUrl": "https://hotelmarshal.rs",
      "source": "osm"
    },
    {
      "nom": "Belgrade Center Luxury Apartments",
      "categorie": "Hôtel",
      "priceRange": "€€",
      "mapsUrl": "https://maps.google.com/?q=44.8145591,20.4588363",
      "lat": 44.8145591,
      "lng": 20.4588363,
      "halalFriendly": false,
      "bookingUrl": "https://maps.google.com/?q=44.8145591,20.4588363",
      "source": "osm"
    },
    {
      "nom": "Hotel Lumiere",
      "categorie": "Hôtel",
      "priceRange": "€€",
      "mapsUrl": "https://maps.google.com/?q=44.8144775,20.4599098",
      "lat": 44.8144775,
      "lng": 20.4599098,
      "halalFriendly": false,
      "bookingUrl": "https://maps.google.com/?q=44.8144775,20.4599098",
      "source": "osm"
    },
    {
      "nom": "Fine",
      "categorie": "Auberge",
      "priceRange": "€€",
      "mapsUrl": "https://maps.google.com/?q=44.8139391,20.4627524",
      "lat": 44.8139391,
      "lng": 20.4627524,
      "halalFriendly": false,
      "bookingUrl": "https://maps.google.com/?q=44.8139391,20.4627524",
      "source": "osm"
    },
    {
      "nom": "Calisi",
      "categorie": "Hôtel",
      "priceRange": "€€",
      "mapsUrl": "https://maps.google.com/?q=44.8158729,20.4507579",
      "lat": 44.8158729,
      "lng": 20.4507579,
      "halalFriendly": false,
      "bookingUrl": "https://maps.google.com/?q=44.8158729,20.4507579",
      "source": "osm"
    },
    {
      "nom": "Мажестик",
      "categorie": "Hôtel",
      "priceRange": "€€",
      "mapsUrl": "https://maps.google.com/?q=44.81509,20.4588635",
      "lat": 44.81509,
      "lng": 20.4588635,
      "halalFriendly": false,
      "bookingUrl": "https://maps.google.com/?q=44.81509,20.4588635",
      "source": "osm"
    },
    {
      "nom": "Balkan Soul",
      "categorie": "Auberge",
      "priceRange": "€€",
      "mapsUrl": "https://maps.google.com/?q=44.8159413,20.4517514",
      "lat": 44.8159413,
      "lng": 20.4517514,
      "halalFriendly": false,
      "bookingUrl": "https://maps.google.com/?q=44.8159413,20.4517514",
      "source": "osm"
    },
    {
      "nom": "Stella Di Notte",
      "categorie": "Auberge",
      "priceRange": "€€",
      "mapsUrl": "https://maps.google.com/?q=44.8143689,20.4630552",
      "lat": 44.8143689,
      "lng": 20.4630552,
      "halalFriendly": false,
      "bookingUrl": "https://maps.google.com/?q=44.8143689,20.4630552",
      "source": "osm"
    },
    {
      "nom": "Villa Forever",
      "categorie": "Hôtel",
      "priceRange": "€€",
      "mapsUrl": "https://maps.google.com/?q=44.8160416,20.4548197",
      "lat": 44.8160416,
      "lng": 20.4548197,
      "halalFriendly": false,
      "bookingUrl": "https://www.villa-forever.com/",
      "source": "osm"
    },
    {
      "nom": "Authentic Belgrade Centre",
      "categorie": "Auberge",
      "priceRange": "€€",
      "mapsUrl": "https://maps.google.com/?q=44.8152174,20.4606812",
      "lat": 44.8152174,
      "lng": 20.4606812,
      "halalFriendly": false,
      "bookingUrl": "https://maps.google.com/?q=44.8152174,20.4606812",
      "source": "osm"
    },
    {
      "nom": "Nota",
      "categorie": "Hôtel",
      "priceRange": "€€",
      "mapsUrl": "https://maps.google.com/?q=44.7949613,20.4894106",
      "lat": 44.7949613,
      "lng": 20.4894106,
      "halalFriendly": false,
      "bookingUrl": "https://maps.google.com/?q=44.7949613,20.4894106",
      "source": "osm"
    },
    {
      "nom": "Townhouse27",
      "categorie": "Hôtel",
      "priceRange": "€€",
      "mapsUrl": "https://maps.google.com/?q=44.8164243,20.4535787",
      "lat": 44.8164243,
      "lng": 20.4535787,
      "halalFriendly": false,
      "bookingUrl": "https://townhouse27.com/",
      "source": "osm"
    },
    {
      "nom": "Palace",
      "categorie": "Hôtel",
      "priceRange": "€€",
      "mapsUrl": "https://maps.google.com/?q=44.8164251,20.4539612",
      "lat": 44.8164251,
      "lng": 20.4539612,
      "halalFriendly": false,
      "bookingUrl": "https://www.palacehotel.co.rs/",
      "source": "osm"
    },
    {
      "nom": "Garni Hotel Centar No. 1",
      "categorie": "Hôtel",
      "priceRange": "€€€€",
      "score": 4,
      "mapsUrl": "https://maps.google.com/?q=44.8155259,20.4608616",
      "lat": 44.8155259,
      "lng": 20.4608616,
      "halalFriendly": false,
      "bookingUrl": "https://hotelcentar-no1.com/",
      "source": "osm"
    },
    {
      "nom": "Nobel Palace",
      "categorie": "Hôtel",
      "priceRange": "€€",
      "mapsUrl": "https://maps.google.com/?q=44.8072104,20.4802849",
      "lat": 44.8072104,
      "lng": 20.4802849,
      "halalFriendly": false,
      "bookingUrl": "https://maps.google.com/?q=44.8072104,20.4802849",
      "source": "osm"
    },
    {
      "nom": "360",
      "categorie": "Auberge",
      "priceRange": "€€",
      "mapsUrl": "https://maps.google.com/?q=44.8164603,20.4582076",
      "lat": 44.8164603,
      "lng": 20.4582076,
      "halalFriendly": false,
      "bookingUrl": "https://www.hostel360.com/",
      "source": "osm"
    },
    {
      "nom": "Constantine the Great",
      "categorie": "Hôtel",
      "priceRange": "€€",
      "mapsUrl": "https://maps.google.com/?q=44.8121898,20.4725325",
      "lat": 44.8121898,
      "lng": 20.4725325,
      "halalFriendly": false,
      "bookingUrl": "https://www.constantinethegreatbelgrade.com/hotel/en",
      "source": "osm"
    },
    {
      "nom": "Belgrade Center Lux",
      "categorie": "Hôtel",
      "priceRange": "€€",
      "mapsUrl": "https://maps.google.com/?q=44.7999331,20.4877337",
      "lat": 44.7999331,
      "lng": 20.4877337,
      "halalFriendly": false,
      "bookingUrl": "https://maps.google.com/?q=44.7999331,20.4877337",
      "source": "osm"
    },
    {
      "nom": "Belgrade Rugby League",
      "categorie": "Auberge",
      "priceRange": "€€",
      "mapsUrl": "https://maps.google.com/?q=44.8162382,20.4597402",
      "lat": 44.8162382,
      "lng": 20.4597402,
      "halalFriendly": false,
      "bookingUrl": "https://maps.google.com/?q=44.8162382,20.4597402",
      "source": "osm"
    },
    {
      "nom": "Prince Hall Palace",
      "categorie": "Hôtel",
      "priceRange": "€€",
      "mapsUrl": "https://maps.google.com/?q=44.8165551,20.4578573",
      "lat": 44.8165551,
      "lng": 20.4578573,
      "halalFriendly": false,
      "bookingUrl": "https://princehallpalace.com/",
      "source": "osm"
    },
    {
      "nom": "Iva Center Apartment",
      "categorie": "Hôtel",
      "priceRange": "€€",
      "mapsUrl": "https://maps.google.com/?q=44.816625,20.4579905",
      "lat": 44.816625,
      "lng": 20.4579905,
      "halalFriendly": false,
      "bookingUrl": "https://maps.google.com/?q=44.816625,20.4579905",
      "source": "osm"
    },
    {
      "nom": "Apartment Marija",
      "categorie": "Appartement",
      "priceRange": "€€",
      "mapsUrl": "https://maps.google.com/?q=44.8165127,20.4588035",
      "lat": 44.8165127,
      "lng": 20.4588035,
      "halalFriendly": false,
      "bookingUrl": "https://maps.google.com/?q=44.8165127,20.4588035",
      "source": "osm"
    }
  ],
  "mosqueesPrincipales": [
    {
      "id": "m392368105",
      "nom": "Бајракли џамија",
      "type": "Mosquée",
      "adresse": "Господар Јевремова, Београд",
      "description": "Lieu de prière (OpenStreetMap).",
      "mapsUrl": "https://maps.google.com/?q=44.8220672,20.4573346",
      "lat": 44.8220672,
      "lng": 20.4573346,
      "source": "osm"
    },
    {
      "id": "m683773586",
      "nom": "Месџид Ледине",
      "type": "Mosquée",
      "adresse": "Словачка",
      "description": "Lieu de prière (OpenStreetMap).",
      "mapsUrl": "https://maps.google.com/?q=44.8015929,20.3555948",
      "lat": 44.8015929,
      "lng": 20.3555948,
      "source": "osm"
    }
  ],
  "activites": [
    {
      "id": "a11214220519",
      "nom": "Пролеће",
      "categorie": "artwork",
      "description": "",
      "prix": "",
      "duree": "",
      "mapsUrl": "https://maps.google.com/?q=44.7866089,20.4512459",
      "lat": 44.7866089,
      "lng": 20.4512459,
      "source": "osm"
    },
    {
      "id": "a12724299443",
      "nom": "Преља",
      "categorie": "artwork",
      "description": "",
      "prix": "",
      "duree": "",
      "mapsUrl": "https://maps.google.com/?q=44.7867156,20.451313",
      "lat": 44.7867156,
      "lng": 20.451313,
      "source": "osm"
    },
    {
      "id": "a11214220502",
      "nom": "Курир",
      "categorie": "artwork",
      "description": "",
      "prix": "",
      "duree": "",
      "mapsUrl": "https://maps.google.com/?q=44.7861477,20.4512352",
      "lat": 44.7861477,
      "lng": 20.4512352,
      "source": "osm"
    },
    {
      "id": "a11214220522",
      "nom": "Рибари",
      "categorie": "artwork",
      "description": "",
      "prix": "",
      "duree": "",
      "mapsUrl": "https://maps.google.com/?q=44.7862417,20.4512865",
      "lat": 44.7862417,
      "lng": 20.4512865,
      "source": "osm"
    },
    {
      "id": "a11214220520",
      "nom": "Срна са ланетом",
      "categorie": "artwork",
      "description": "",
      "prix": "",
      "duree": "",
      "mapsUrl": "https://maps.google.com/?q=44.786395,20.4513482",
      "lat": 44.786395,
      "lng": 20.4513482,
      "source": "osm"
    },
    {
      "id": "a11214220521",
      "nom": "Ношење ратника",
      "categorie": "artwork",
      "description": "",
      "prix": "",
      "duree": "",
      "mapsUrl": "https://maps.google.com/?q=44.7863562,20.4514042",
      "lat": 44.7863562,
      "lng": 20.4514042,
      "source": "osm"
    },
    {
      "id": "a11214220507",
      "nom": "Персонификација железнице",
      "categorie": "artwork",
      "description": "",
      "prix": "",
      "duree": "",
      "mapsUrl": "https://maps.google.com/?q=44.786167,20.4513854",
      "lat": 44.786167,
      "lng": 20.4513854,
      "source": "osm"
    },
    {
      "id": "a13319087501",
      "nom": "Гробница Јосипа Броза Тита",
      "categorie": "monument",
      "description": "",
      "prix": "",
      "duree": "",
      "mapsUrl": "https://maps.google.com/?q=44.78685,20.4515783",
      "lat": 44.78685,
      "lng": 20.4515783,
      "source": "osm"
    },
    {
      "id": "a146656819",
      "nom": "Кућа цвећа",
      "categorie": "museum",
      "description": "",
      "prix": "",
      "duree": "",
      "mapsUrl": "https://maps.google.com/?q=44.7867557,20.4516266",
      "lat": 44.7867557,
      "lng": 20.4516266,
      "source": "osm"
    },
    {
      "id": "a12724299428",
      "nom": "Споменик Маршалу Титу",
      "categorie": "artwork",
      "description": "",
      "prix": "",
      "duree": "",
      "mapsUrl": "https://maps.google.com/?q=44.786323,20.4517215",
      "lat": 44.786323,
      "lng": 20.4517215,
      "source": "osm"
    },
    {
      "id": "a11214220504",
      "nom": "Збег",
      "categorie": "artwork",
      "description": "",
      "prix": "",
      "duree": "",
      "mapsUrl": "https://maps.google.com/?q=44.7864323,20.45177",
      "lat": 44.7864323,
      "lng": 20.45177,
      "source": "osm"
    },
    {
      "id": "a146656805",
      "nom": "Стари музеј",
      "categorie": "museum",
      "description": "",
      "prix": "",
      "duree": "",
      "mapsUrl": "https://maps.google.com/?q=44.7861816,20.4517798",
      "lat": 44.7861816,
      "lng": 20.4517798,
      "source": "osm"
    },
    {
      "id": "a11214220503",
      "nom": "Фрулаш",
      "categorie": "artwork",
      "description": "",
      "prix": "",
      "duree": "",
      "mapsUrl": "https://maps.google.com/?q=44.7865106,20.4518911",
      "lat": 44.7865106,
      "lng": 20.4518911,
      "source": "osm"
    },
    {
      "id": "a11214220517",
      "nom": "Фонтана",
      "categorie": "artwork",
      "description": "",
      "prix": "",
      "duree": "",
      "mapsUrl": "https://maps.google.com/?q=44.7867667,20.4519463",
      "lat": 44.7867667,
      "lng": 20.4519463,
      "source": "osm"
    },
    {
      "id": "a11214220518",
      "nom": "Рањени курир",
      "categorie": "artwork",
      "description": "",
      "prix": "",
      "duree": "",
      "mapsUrl": "https://maps.google.com/?q=44.7866986,20.4520664",
      "lat": 44.7866986,
      "lng": 20.4520664,
      "source": "osm"
    },
    {
      "id": "a399331461",
      "nom": "Легат Петра Лубарде",
      "categorie": "gallery",
      "description": "",
      "prix": "",
      "duree": "",
      "mapsUrl": "https://maps.google.com/?q=44.788852,20.4488761",
      "lat": 44.788852,
      "lng": 20.4488761,
      "source": "osm"
    },
    {
      "id": "a1599230207",
      "nom": "Споменик маршалу Титу",
      "categorie": "memorial",
      "description": "",
      "prix": "",
      "duree": "",
      "mapsUrl": "https://maps.google.com/?q=44.7869216,20.4521252",
      "lat": 44.7869216,
      "lng": 20.4521252,
      "source": "osm"
    },
    {
      "id": "a10059099576",
      "nom": "Биста Петра Лубарде",
      "categorie": "memorial",
      "description": "",
      "prix": "",
      "duree": "",
      "mapsUrl": "https://maps.google.com/?q=44.7889369,20.4488675",
      "lat": 44.7889369,
      "lng": 20.4488675,
      "source": "osm"
    },
    {
      "id": "a11214220506",
      "nom": "Буђење",
      "categorie": "artwork",
      "description": "",
      "prix": "",
      "duree": "",
      "mapsUrl": "https://maps.google.com/?q=44.7868366,20.4522508",
      "lat": 44.7868366,
      "lng": 20.4522508,
      "source": "osm"
    },
    {
      "id": "a11214220505",
      "nom": "Жена у македонској народној ношњи – Биљана",
      "categorie": "artwork",
      "description": "",
      "prix": "",
      "duree": "",
      "mapsUrl": "https://maps.google.com/?q=44.7869029,20.4523555",
      "lat": 44.7869029,
      "lng": 20.4523555,
      "source": "osm"
    },
    {
      "id": "a11214220509",
      "nom": "Птица",
      "categorie": "artwork",
      "description": "",
      "prix": "",
      "duree": "",
      "mapsUrl": "https://maps.google.com/?q=44.7874001,20.4522534",
      "lat": 44.7874001,
      "lng": 20.4522534,
      "source": "osm"
    },
    {
      "id": "a399380046",
      "nom": "Јавни акваријум и тропикаријум",
      "categorie": "aquarium",
      "description": "",
      "prix": "",
      "duree": "",
      "mapsUrl": "https://maps.google.com/?q=44.784244,20.4503787",
      "lat": 44.784244,
      "lng": 20.4503787,
      "source": "osm"
    },
    {
      "id": "a32809082",
      "nom": "Музеј 25. мај",
      "categorie": "museum",
      "description": "",
      "prix": "",
      "duree": "",
      "mapsUrl": "https://maps.google.com/?q=44.7879854,20.4520156",
      "lat": 44.7879854,
      "lng": 20.4520156,
      "source": "osm"
    },
    {
      "id": "a9991245654",
      "nom": "Спомен-обележје радника Железаре „Зеница”",
      "categorie": "memorial",
      "description": "",
      "prix": "",
      "duree": "",
      "mapsUrl": "https://maps.google.com/?q=44.7886375,20.4519296",
      "lat": 44.7886375,
      "lng": 20.4519296,
      "source": "osm"
    },
    {
      "id": "a603893007",
      "nom": "Музеј Југославије",
      "categorie": "museum",
      "description": "",
      "prix": "",
      "duree": "",
      "mapsUrl": "https://maps.google.com/?q=44.7880106,20.4527047",
      "lat": 44.7880106,
      "lng": 20.4527047,
      "source": "osm"
    },
    {
      "id": "a6278512210",
      "nom": "Позив на устанак",
      "categorie": "memorial",
      "description": "",
      "prix": "",
      "duree": "",
      "mapsUrl": "https://maps.google.com/?q=44.7877831,20.4542653",
      "lat": 44.7877831,
      "lng": 20.4542653,
      "source": "osm"
    },
    {
      "id": "a5792006661",
      "nom": "Топчидерска звезда",
      "categorie": "artwork",
      "description": "",
      "prix": "",
      "duree": "",
      "mapsUrl": "https://maps.google.com/?q=44.7890864,20.4441207",
      "lat": 44.7890864,
      "lng": 20.4441207,
      "source": "osm"
    },
    {
      "id": "a6844044180",
      "nom": "Биста краља Александра I Карађорђевића",
      "categorie": "memorial",
      "description": "",
      "prix": "",
      "duree": "",
      "mapsUrl": "https://maps.google.com/?q=44.7890861,20.4424721",
      "lat": 44.7890861,
      "lng": 20.4424721,
      "source": "osm"
    },
    {
      "id": "a5589272240",
      "nom": "Споменик Исидори Секулић",
      "categorie": "memorial",
      "description": "",
      "prix": "",
      "duree": "",
      "mapsUrl": "https://maps.google.com/?q=44.7883057,20.4417121",
      "lat": 44.7883057,
      "lng": 20.4417121,
      "source": "osm"
    },
    {
      "id": "a11214220530",
      "nom": "Мојсије (одливак)",
      "categorie": "artwork",
      "description": "",
      "prix": "",
      "duree": "",
      "mapsUrl": "https://maps.google.com/?q=44.7914828,20.4452006",
      "lat": 44.7914828,
      "lng": 20.4452006,
      "source": "osm"
    },
    {
      "id": "a6844044160",
      "nom": "Стјепан - Стеван Филиповић",
      "categorie": "memorial",
      "description": "",
      "prix": "",
      "duree": "",
      "mapsUrl": "https://maps.google.com/?q=44.7905022,20.4544762",
      "lat": 44.7905022,
      "lng": 20.4544762,
      "source": "osm"
    },
    {
      "id": "a6061194988",
      "nom": "Споменик Горану Раичевићу - Рајку",
      "categorie": "memorial",
      "description": "",
      "prix": "",
      "duree": "",
      "mapsUrl": "https://maps.google.com/?q=44.7884764,20.4562935",
      "lat": 44.7884764,
      "lng": 20.4562935,
      "source": "osm"
    },
    {
      "id": "a6172773006",
      "nom": "Биста др Милутина Ивковића Милутинца",
      "categorie": "memorial",
      "description": "",
      "prix": "",
      "duree": "",
      "mapsUrl": "https://maps.google.com/?q=44.7886672,20.4566395",
      "lat": 44.7886672,
      "lng": 20.4566395,
      "source": "osm"
    },
    {
      "id": "a6781091587",
      "nom": "Штафета",
      "categorie": "artwork",
      "description": "",
      "prix": "",
      "duree": "",
      "mapsUrl": "https://maps.google.com/?q=44.7879293,20.4572943",
      "lat": 44.7879293,
      "lng": 20.4572943,
      "source": "osm"
    },
    {
      "id": "a6844044159",
      "nom": "Бацач камена",
      "categorie": "artwork",
      "description": "",
      "prix": "",
      "duree": "",
      "mapsUrl": "https://maps.google.com/?q=44.7885742,20.4572516",
      "lat": 44.7885742,
      "lng": 20.4572516,
      "source": "osm"
    },
    {
      "id": "a5198063666",
      "nom": "Милошева чесма",
      "categorie": "memorial",
      "description": "",
      "prix": "",
      "duree": "",
      "mapsUrl": "https://maps.google.com/?q=44.7814347,20.4427842",
      "lat": 44.7814347,
      "lng": 20.4427842,
      "source": "osm"
    },
    {
      "id": "a6844044179",
      "nom": "Бацач копља",
      "categorie": "artwork",
      "description": "",
      "prix": "",
      "duree": "",
      "mapsUrl": "https://maps.google.com/?q=44.7898408,20.4579552",
      "lat": 44.7898408,
      "lng": 20.4579552,
      "source": "osm"
    },
    {
      "id": "a399386425",
      "nom": "Галерија-легат Милице Зорић и Родољуба Чолаковића",
      "categorie": "gallery",
      "description": "",
      "prix": "",
      "duree": "",
      "mapsUrl": "https://maps.google.com/?q=44.7801623,20.4536232",
      "lat": 44.7801623,
      "lng": 20.4536232,
      "source": "osm"
    },
    {
      "id": "a9962638360",
      "nom": "Крајпуташ Тодору Стаменићу",
      "categorie": "memorial",
      "description": "",
      "prix": "",
      "duree": "",
      "mapsUrl": "https://maps.google.com/?q=44.7807417,20.4424867",
      "lat": 44.7807417,
      "lng": 20.4424867,
      "source": "osm"
    },
    {
      "id": "a12919311559",
      "nom": "Музеј ФК Партизан",
      "categorie": "museum",
      "description": "",
      "prix": "",
      "duree": "",
      "mapsUrl": "https://maps.google.com/?q=44.7896582,20.4584656",
      "lat": 44.7896582,
      "lng": 20.4584656,
      "source": "osm"
    },
    {
      "id": "a6296859763",
      "nom": "Жетелица",
      "categorie": "artwork",
      "description": "",
      "prix": "",
      "duree": "",
      "mapsUrl": "https://maps.google.com/?q=44.7815336,20.4412051",
      "lat": 44.7815336,
      "lng": 20.4412051,
      "source": "osm"
    },
    {
      "id": "a287325157",
      "nom": "Кућа Краља Петра",
      "categorie": "museum",
      "description": "",
      "prix": "",
      "duree": "",
      "mapsUrl": "https://maps.google.com/?q=44.7902059,20.4396601",
      "lat": 44.7902059,
      "lng": 20.4396601,
      "source": "osm"
    },
    {
      "id": "a6296859761",
      "nom": "Споменик природе Платан код Милошевог конака",
      "categorie": "attraction",
      "description": "",
      "prix": "",
      "duree": "",
      "mapsUrl": "https://maps.google.com/?q=44.78074,20.4422404",
      "lat": 44.78074,
      "lng": 20.4422404,
      "source": "osm"
    },
    {
      "id": "a288912955",
      "nom": "Конак кнеза Милоша Обреновића",
      "categorie": "museum",
      "description": "",
      "prix": "",
      "duree": "",
      "mapsUrl": "https://maps.google.com/?q=44.7805326,20.442409",
      "lat": 44.7805326,
      "lng": 20.442409,
      "source": "osm"
    },
    {
      "id": "a400120133",
      "nom": "Музеј Томе Росандића",
      "categorie": "museum",
      "description": "",
      "prix": "",
      "duree": "",
      "mapsUrl": "https://maps.google.com/?q=44.7929036,20.442672",
      "lat": 44.7929036,
      "lng": 20.442672,
      "source": "osm"
    },
    {
      "id": "a5198063664",
      "nom": "Обелиск у Топчидерском парку",
      "categorie": "memorial",
      "description": "",
      "prix": "",
      "duree": "",
      "mapsUrl": "https://maps.google.com/?q=44.7812093,20.4409505",
      "lat": 44.7812093,
      "lng": 20.4409505,
      "source": "osm"
    },
    {
      "id": "a5589270776",
      "nom": "Споменик Арчибалду Рајсу",
      "categorie": "memorial",
      "description": "",
      "prix": "",
      "duree": "",
      "mapsUrl": "https://maps.google.com/?q=44.7814545,20.4394747",
      "lat": 44.7814545,
      "lng": 20.4394747,
      "source": "osm"
    },
    {
      "id": "a12710188817",
      "nom": "Милутин Шошкић",
      "categorie": "memorial",
      "description": "",
      "prix": "",
      "duree": "",
      "mapsUrl": "https://maps.google.com/?q=44.7887409,20.4604719",
      "lat": 44.7887409,
      "lng": 20.4604719,
      "source": "osm"
    },
    {
      "id": "a2904599152",
      "nom": "Биста војводе Радомира Путника",
      "categorie": "memorial",
      "description": "",
      "prix": "",
      "duree": "",
      "mapsUrl": "https://maps.google.com/?q=44.7951233,20.4489048",
      "lat": 44.7951233,
      "lng": 20.4489048,
      "source": "osm"
    },
    {
      "id": "a400115400",
      "nom": "Легат Гашпаровић",
      "categorie": "gallery",
      "description": "",
      "prix": "",
      "duree": "",
      "mapsUrl": "https://maps.google.com/?q=44.7917246,20.4386873",
      "lat": 44.7917246,
      "lng": 20.4386873,
      "source": "osm"
    },
    {
      "id": "a12726895352",
      "nom": "Живановић Јелица 5.9.1986 - 28.12.2004",
      "categorie": "memorial",
      "description": "",
      "prix": "",
      "duree": "",
      "mapsUrl": "https://maps.google.com/?q=44.7791681,20.4418179",
      "lat": 44.7791681,
      "lng": 20.4418179,
      "source": "osm"
    },
    {
      "id": "a10059099579",
      "nom": "Биста Станислава Биничког",
      "categorie": "memorial",
      "description": "",
      "prix": "",
      "duree": "",
      "mapsUrl": "https://maps.google.com/?q=44.7924825,20.4386383",
      "lat": 44.7924825,
      "lng": 20.4386383,
      "source": "osm"
    },
    {
      "id": "a7634364750",
      "nom": "Споменик херојима са Кошара",
      "categorie": "memorial",
      "description": "",
      "prix": "",
      "duree": "",
      "mapsUrl": "https://maps.google.com/?q=44.7798292,20.4585031",
      "lat": 44.7798292,
      "lng": 20.4585031,
      "source": "osm"
    },
    {
      "id": "a5197665959",
      "nom": "Споменик народном хероју мајору Милану Тепићу",
      "categorie": "memorial",
      "description": "",
      "prix": "",
      "duree": "",
      "mapsUrl": "https://maps.google.com/?q=44.7794178,20.4584631",
      "lat": 44.7794178,
      "lng": 20.4584631,
      "source": "osm"
    },
    {
      "id": "a401550537",
      "nom": "Музеј афричке уметности",
      "categorie": "museum",
      "description": "",
      "prix": "",
      "duree": "",
      "mapsUrl": "https://maps.google.com/?q=44.7891821,20.4350976",
      "lat": 44.7891821,
      "lng": 20.4350976,
      "source": "osm"
    },
    {
      "id": "a6429862974",
      "nom": "Бацач диска",
      "categorie": "artwork",
      "description": "",
      "prix": "",
      "duree": "",
      "mapsUrl": "https://maps.google.com/?q=44.7791821,20.4591628",
      "lat": 44.7791821,
      "lng": 20.4591628,
      "source": "osm"
    },
    {
      "id": "a644145803",
      "nom": "Музеј ФК Црвена звезда",
      "categorie": "museum",
      "description": "",
      "prix": "",
      "duree": "",
      "mapsUrl": "https://maps.google.com/?q=44.7846698,20.4634171",
      "lat": 44.7846698,
      "lng": 20.4634171,
      "source": "osm"
    },
    {
      "id": "a12724299452",
      "nom": "Драгослав Шекуларац 1937-2019",
      "categorie": "artwork",
      "description": "",
      "prix": "",
      "duree": "",
      "mapsUrl": "https://maps.google.com/?q=44.7836891,20.4632217",
      "lat": 44.7836891,
      "lng": 20.4632217,
      "source": "osm"
    },
    {
      "id": "a6296859717",
      "nom": "Споменик Рајку Митићу",
      "categorie": "memorial",
      "description": "",
      "prix": "",
      "duree": "",
      "mapsUrl": "https://maps.google.com/?q=44.7828043,20.4633842",
      "lat": 44.7828043,
      "lng": 20.4633842,
      "source": "osm"
    },
    {
      "id": "a11214220515",
      "nom": "Споменик погинулим војницима и пацијентима у НАТО бомбардовању",
      "categorie": "memorial",
      "description": "",
      "prix": "",
      "duree": "",
      "mapsUrl": "https://maps.google.com/?q=44.7770424,20.4568935",
      "lat": 44.7770424,
      "lng": 20.4568935,
      "source": "osm"
    },
    {
      "id": "a6923446719",
      "nom": "Веспа музеј Србија",
      "categorie": "museum",
      "description": "",
      "prix": "",
      "duree": "",
      "mapsUrl": "https://maps.google.com/?q=44.79186,20.4349016",
      "lat": 44.79186,
      "lng": 20.4349016,
      "source": "osm"
    },
    {
      "id": "a1906485378",
      "nom": "Биста војводе Живојина Мишића",
      "categorie": "memorial",
      "description": "",
      "prix": "",
      "duree": "",
      "mapsUrl": "https://maps.google.com/?q=44.7963346,20.4408637",
      "lat": 44.7963346,
      "lng": 20.4408637,
      "source": "osm"
    },
    {
      "id": "a466972605",
      "nom": "Дом Гарде",
      "categorie": "castle",
      "description": "",
      "prix": "",
      "duree": "",
      "mapsUrl": "https://maps.google.com/?q=44.7758053,20.4423026",
      "lat": 44.7758053,
      "lng": 20.4423026,
      "source": "osm"
    },
    {
      "id": "a10138504487",
      "nom": "Спомен-обележје поводом изградње Београдског сајма",
      "categorie": "memorial",
      "description": "",
      "prix": "",
      "duree": "",
      "mapsUrl": "https://maps.google.com/?q=44.7970462,20.4399103",
      "lat": 44.7970462,
      "lng": 20.4399103,
      "source": "osm"
    },
    {
      "id": "a6844070703",
      "nom": "Златна кошута",
      "categorie": "artwork",
      "description": "",
      "prix": "",
      "duree": "",
      "mapsUrl": "https://maps.google.com/?q=44.7968854,20.439488",
      "lat": 44.7968854,
      "lng": 20.439488,
      "source": "osm"
    },
    {
      "id": "a10059099580",
      "nom": "Биста др Војислава Суботића млађег",
      "categorie": "memorial",
      "description": "",
      "prix": "",
      "duree": "",
      "mapsUrl": "https://maps.google.com/?q=44.798639,20.4554076",
      "lat": 44.798639,
      "lng": 20.4554076,
      "source": "osm"
    },
    {
      "id": "a2129794564",
      "nom": "Спомен-чесма Јасмини Јовановић",
      "categorie": "memorial",
      "description": "",
      "prix": "",
      "duree": "",
      "mapsUrl": "https://maps.google.com/?q=44.7993961,20.4512873",
      "lat": 44.7993961,
      "lng": 20.4512873,
      "source": "osm"
    },
    {
      "id": "a7295510189",
      "nom": "Маска",
      "categorie": "artwork",
      "description": "",
      "prix": "",
      "duree": "",
      "mapsUrl": "https://maps.google.com/?q=44.7782783,20.4631929",
      "lat": 44.7782783,
      "lng": 20.4631929,
      "source": "osm"
    },
    {
      "id": "a7295510190",
      "nom": "Коцка",
      "categorie": "artwork",
      "description": "",
      "prix": "",
      "duree": "",
      "mapsUrl": "https://maps.google.com/?q=44.7781993,20.4639013",
      "lat": 44.7781993,
      "lng": 20.4639013,
      "source": "osm"
    },
    {
      "id": "a506440123",
      "nom": "Биста Франше д'Епереа",
      "categorie": "memorial",
      "description": "",
      "prix": "",
      "duree": "",
      "mapsUrl": "https://maps.google.com/?q=44.7931037,20.4657873",
      "lat": 44.7931037,
      "lng": 20.4657873,
      "source": "osm"
    },
    {
      "id": "a6844070705",
      "nom": "Биста др Војислава Ј. Суботића",
      "categorie": "memorial",
      "description": "",
      "prix": "",
      "duree": "",
      "mapsUrl": "https://maps.google.com/?q=44.7971776,20.4611246",
      "lat": 44.7971776,
      "lng": 20.4611246,
      "source": "osm"
    },
    {
      "id": "a6844070704",
      "nom": "Биста др Милана Јовановића Батута",
      "categorie": "memorial",
      "description": "",
      "prix": "",
      "duree": "",
      "mapsUrl": "https://maps.google.com/?q=44.7971794,20.4611398",
      "lat": 44.7971794,
      "lng": 20.4611398,
      "source": "osm"
    },
    {
      "id": "a4064348022",
      "nom": "Топовске шупе",
      "categorie": "memorial",
      "description": "",
      "prix": "",
      "duree": "",
      "mapsUrl": "https://maps.google.com/?q=44.7879057,20.4686198",
      "lat": 44.7879057,
      "lng": 20.4686198,
      "source": "osm"
    },
    {
      "id": "a13892710174",
      "nom": "Анатомски музеј",
      "categorie": "museum",
      "description": "",
      "prix": "",
      "duree": "",
      "mapsUrl": "https://maps.google.com/?q=44.7946569,20.4652111",
      "lat": 44.7946569,
      "lng": 20.4652111,
      "source": "osm"
    },
    {
      "id": "a399404954",
      "nom": "Палата уметности „Мадлена”",
      "categorie": "gallery",
      "description": "",
      "prix": "",
      "duree": "",
      "mapsUrl": "https://maps.google.com/?q=44.7728712,20.4553873",
      "lat": 44.7728712,
      "lng": 20.4553873,
      "source": "osm"
    },
    {
      "id": "a10027652417",
      "nom": "Биста др Косте Тодоровића",
      "categorie": "memorial",
      "description": "",
      "prix": "",
      "duree": "",
      "mapsUrl": "https://maps.google.com/?q=44.7957331,20.4648149",
      "lat": 44.7957331,
      "lng": 20.4648149,
      "source": "osm"
    },
    {
      "id": "a1801459430",
      "nom": "Споменик погинулим устаницима 1806. године",
      "categorie": "memorial",
      "description": "",
      "prix": "",
      "duree": "",
      "mapsUrl": "https://maps.google.com/?q=44.7946968,20.4664232",
      "lat": 44.7946968,
      "lng": 20.4664232,
      "source": "osm"
    },
    {
      "id": "a11289393176",
      "nom": "Биста генерала Божидара Боже Јанковића",
      "categorie": "memorial",
      "description": "",
      "prix": "",
      "duree": "",
      "mapsUrl": "https://maps.google.com/?q=44.7950138,20.4664257",
      "lat": 44.7950138,
      "lng": 20.4664257,
      "source": "osm"
    },
    {
      "id": "a9881398829",
      "nom": "Остаци стуба надвожњака некадашње пруге уског колосека Београд–Обреновац",
      "categorie": "ruins",
      "description": "",
      "prix": "",
      "duree": "",
      "mapsUrl": "https://maps.google.com/?q=44.7908565,20.4284643",
      "lat": 44.7908565,
      "lng": 20.4284643,
      "source": "osm"
    },
    {
      "id": "a10027627793",
      "nom": "Биста др Владана Ђорђевића",
      "categorie": "memorial",
      "description": "",
      "prix": "",
      "duree": "",
      "mapsUrl": "https://maps.google.com/?q=44.7998076,20.4592862",
      "lat": 44.7998076,
      "lng": 20.4592862,
      "source": "osm"
    },
    {
      "id": "a5118280878",
      "nom": "Биста Алфонса де Ламартина",
      "categorie": "memorial",
      "description": "",
      "prix": "",
      "duree": "",
      "mapsUrl": "https://maps.google.com/?q=44.7955191,20.4662779",
      "lat": 44.7955191,
      "lng": 20.4662779,
      "source": "osm"
    },
    {
      "id": "a1801457255",
      "nom": "Споменик Интернационалним бригадама",
      "categorie": "memorial",
      "description": "",
      "prix": "",
      "duree": "",
      "mapsUrl": "https://maps.google.com/?q=44.7954608,20.4665049",
      "lat": 44.7954608,
      "lng": 20.4665049,
      "source": "osm"
    },
    {
      "id": "a13243321964",
      "nom": "Улица народног хероја Огњена Прице",
      "categorie": "memorial",
      "description": "",
      "prix": "",
      "duree": "",
      "mapsUrl": "https://maps.google.com/?q=44.7923648,20.4689541",
      "lat": 44.7923648,
      "lng": 20.4689541,
      "source": "osm"
    },
    {
      "id": "a1801459431",
      "nom": "Споменик трећепозивцима",
      "categorie": "memorial",
      "description": "",
      "prix": "",
      "duree": "",
      "mapsUrl": "https://maps.google.com/?q=44.7966454,20.4658371",
      "lat": 44.7966454,
      "lng": 20.4658371,
      "source": "osm"
    },
    {
      "id": "a6381688081",
      "nom": "Расадник Србијашуме",
      "categorie": "garden",
      "description": "",
      "prix": "",
      "duree": "",
      "mapsUrl": "https://maps.google.com/?q=44.772584,20.4390429",
      "lat": 44.772584,
      "lng": 20.4390429,
      "source": "osm"
    },
    {
      "id": "a9991245656",
      "nom": "Спомен-обележје за 192 погинула Београђанина у шестоаприлском бомбардовању",
      "categorie": "memorial",
      "description": "",
      "prix": "",
      "duree": "",
      "mapsUrl": "https://maps.google.com/?q=44.7970524,20.4657716",
      "lat": 44.7970524,
      "lng": 20.4657716,
      "source": "osm"
    },
    {
      "id": "a12709623743",
      "nom": "Џиновска лупа",
      "categorie": "artwork",
      "description": "",
      "prix": "",
      "duree": "",
      "mapsUrl": "https://maps.google.com/?q=44.7982925,20.4650665",
      "lat": 44.7982925,
      "lng": 20.4650665,
      "source": "osm"
    },
    {
      "id": "a11742074589",
      "nom": "Rams Gallery",
      "categorie": "gallery",
      "description": "",
      "prix": "",
      "duree": "",
      "mapsUrl": "https://maps.google.com/?q=44.8026828,20.4540447",
      "lat": 44.8026828,
      "lng": 20.4540447,
      "source": "osm"
    },
    {
      "id": "a4937353531",
      "nom": "Споменик Милутину Миланковићу",
      "categorie": "memorial",
      "description": "",
      "prix": "",
      "duree": "",
      "mapsUrl": "https://maps.google.com/?q=44.7987591,20.4649767",
      "lat": 44.7987591,
      "lng": 20.4649767,
      "source": "osm"
    },
    {
      "id": "a13883461984",
      "nom": "Биста Корнелија Станковића",
      "categorie": "memorial",
      "description": "",
      "prix": "",
      "duree": "",
      "mapsUrl": "https://maps.google.com/?q=44.7929018,20.4708854",
      "lat": 44.7929018,
      "lng": 20.4708854,
      "source": "osm"
    },
    {
      "id": "a6793621291",
      "nom": "Мајка са дететом",
      "categorie": "artwork",
      "description": "",
      "prix": "",
      "duree": "",
      "mapsUrl": "https://maps.google.com/?q=44.7995777,20.4642279",
      "lat": 44.7995777,
      "lng": 20.4642279,
      "source": "osm"
    },
    {
      "id": "a1801457232",
      "nom": "Споменик Карађорђу",
      "categorie": "memorial",
      "description": "",
      "prix": "",
      "duree": "",
      "mapsUrl": "https://maps.google.com/?q=44.7983569,20.4665115",
      "lat": 44.7983569,
      "lng": 20.4665115,
      "source": "osm"
    },
    {
      "id": "a7897392590",
      "nom": "Споменик Николи Тесли",
      "categorie": "memorial",
      "description": "",
      "prix": "",
      "duree": "",
      "mapsUrl": "https://maps.google.com/?q=44.7976641,20.4678766",
      "lat": 44.7976641,
      "lng": 20.4678766,
      "source": "osm"
    },
    {
      "id": "a6364951407",
      "nom": "Споменик Васи Пелагићу",
      "categorie": "memorial",
      "description": "",
      "prix": "",
      "duree": "",
      "mapsUrl": "https://maps.google.com/?q=44.8000067,20.4651172",
      "lat": 44.8000067,
      "lng": 20.4651172,
      "source": "osm"
    },
    {
      "id": "a1151245384",
      "nom": "Museum of Selfie & Illusions",
      "categorie": "museum",
      "description": "",
      "prix": "",
      "duree": "",
      "mapsUrl": "https://maps.google.com/?q=44.804276,20.4467355",
      "lat": 44.804276,
      "lng": 20.4467355,
      "source": "osm"
    },
    {
      "id": "a9997969401",
      "nom": "Биста Владислава Рибникара",
      "categorie": "memorial",
      "description": "",
      "prix": "",
      "duree": "",
      "mapsUrl": "https://maps.google.com/?q=44.7856734,20.4237791",
      "lat": 44.7856734,
      "lng": 20.4237791,
      "source": "osm"
    },
    {
      "id": "a12309517139",
      "nom": "Михаило Валтровић",
      "categorie": "memorial",
      "description": "",
      "prix": "",
      "duree": "",
      "mapsUrl": "https://maps.google.com/?q=44.7959294,20.4704961",
      "lat": 44.7959294,
      "lng": 20.4704961,
      "source": "osm"
    },
    {
      "id": "a13892713729",
      "nom": "Спомен-плоча Џорџу Ф. Кенану",
      "categorie": "memorial",
      "description": "",
      "prix": "",
      "duree": "",
      "mapsUrl": "https://maps.google.com/?q=44.8037196,20.4574715",
      "lat": 44.8037196,
      "lng": 20.4574715,
      "source": "osm"
    },
    {
      "id": "a6297757140",
      "nom": "Споменик Светом Сави",
      "categorie": "memorial",
      "description": "",
      "prix": "",
      "duree": "",
      "mapsUrl": "https://maps.google.com/?q=44.7988334,20.4687035",
      "lat": 44.7988334,
      "lng": 20.4687035,
      "source": "osm"
    }
  ],
  "villeNonMusulmane": true,
  "osmEnriched": true,
  "osmEnrichedAt": "2026-06-30"
}