{
 "nom": "Beyrouth",
 "pays": "Liban",
 "slug": "beyrouth",
 "image": "https://images.unsplash.com/photo-1594746007983-6b8dc74f7826?w=1600&q=80",
 "image_hero": "https://images.unsplash.com/photo-1594746007983-6b8dc74f7826?w=1600&q=80",
 "description": "Beyrouth, capitale résiliente du Liban, offre l'une des meilleures cuisines du monde. Entre mosquée Al-Amine et corniche méditerranéenne, la ville séduit les gourmets musulmans.",
 "descriptionLongue": "Phénix renaissant de ses cendres, Beyrouth conjugue histoire millénaire et énergie débordante. La majestueuse mosquée Mohammed Al-Amine domine le centre-ville reconstruit. La cuisine libanaise — mezze, manousheh, grillades — y atteint des sommets. Hamra, Gemmayzeh et la corniche battent au rythme d'une ville cosmopolite. Si l'alcool est présent, les innombrables tables halal et la culture de l'accueil en font une destination gourmande de premier ordre.",
 "halalScore": 7.5,
 "score_halal": 3.8,
 "mosquees": 150,
 "population": "2,4 millions",
 "langue": "Arabe (français/anglais courants)",
 "monnaie": "Livre libanaise (LBP)",
 "fuseau": "UTC+2",
 "meilleureEpoque": "Avril à Juin, Sept à Nov",
 "prixMoyenNuit": "80€",
 "continent": "Asie",
 "codeISO": "LB",
 "pays_slug": "liban",
 "region": "Levant",
 "meta_title": "Voyage Halal à Beyrouth — Guide Complet 2026",
 "meta_description": "Restaurants halal signalés, mosquées et guide pratique pour Beyrouth — Halal Trust Score 7.5/10.",
 "metaDescription": "Restaurants halal signalés, mosquées et guide pratique pour Beyrouth — Halal Trust Score 7.5/10.",
 "coordonnees": {
  "lat": 33.8938,
  "lng": 35.5018
 },
 "image_alt": "Vue de Beyrouth, Liban",
 "statistiques": {
  "mosquees": 6,
  "restaurants_halal": 54,
  "habitants_musulmans_pct": 60,
  "hotels": 117
 },
 "infos_pratiques": {
  "langue": "Arabe (français/anglais courants)",
  "monnaie": "Livre libanaise (LBP)",
  "meilleure_periode": "Avril à Juin, Sept à Nov",
  "appel_priere": "5 fois par jour",
  "nourriture_halal": "Largement disponible",
  "alcool": "Disponible",
  "securite": "Précautions habituelles"
 },
 "infoPratique": {
  "visa": "Visa gratuit à l'arrivée pour les Français (1 mois)",
  "vaccins": "Aucun obligatoire",
  "transport": "Taxis-service, Uber/Bolt, voiture",
  "priseElectrique": "Type C/D/G — 220V",
  "decalageHoraire": "+1h par rapport à Paris"
 },
 "restaurants": [
  {
   "nom": "Seray",
   "lat": 33.8988683,
   "lng": 35.5006813,
   "type": "lebanese",
   "halalConfidence": "likely",
   "mapsUrl": "https://maps.google.com/?q=33.8988683,35.5006813",
   "source": "osm"
  },
  {
   "nom": "فلافل صهيون",
   "lat": 33.8904075,
   "lng": 35.5066454,
   "type": "lebanese",
   "halalConfidence": "likely",
   "mapsUrl": "https://maps.google.com/?q=33.8904075,35.5066454",
   "source": "osm"
  },
  {
   "nom": "Libanais",
   "lat": 33.9001566,
   "lng": 35.5040513,
   "type": "lebanese",
   "halalConfidence": "likely",
   "mapsUrl": "https://maps.google.com/?q=33.9001566,35.5040513",
   "source": "osm"
  },
  {
   "nom": "هوا تشكن",
   "lat": 33.892485,
   "lng": 35.510392,
   "type": "lebanese",
   "halalConfidence": "likely",
   "mapsUrl": "https://maps.google.com/?q=33.892485,35.510392",
   "source": "osm"
  },
  {
   "nom": "زعتر و زيت",
   "lat": 33.886705,
   "lng": 35.510943,
   "type": "lebanese",
   "halalConfidence": "likely",
   "mapsUrl": "https://maps.google.com/?q=33.886705,35.510943",
   "source": "osm"
  },
  {
   "nom": "Al Hindi",
   "lat": 33.9025109,
   "lng": 35.4930126,
   "type": "indian",
   "halalConfidence": "likely",
   "mapsUrl": "https://maps.google.com/?q=33.9025109,35.4930126",
   "source": "osm"
  },
  {
   "nom": "فلافل أبو الزيز",
   "lat": 33.8954051,
   "lng": 35.4877192,
   "type": "regional, lebanese",
   "halalConfidence": "likely",
   "mapsUrl": "https://maps.google.com/?q=33.8954051,35.4877192",
   "source": "osm"
  },
  {
   "nom": "آغا",
   "lat": 33.8813089,
   "lng": 35.5069124,
   "type": "lebanese",
   "halalConfidence": "likely",
   "mapsUrl": "https://maps.google.com/?q=33.8813089,35.5069124",
   "source": "osm"
  },
  {
   "nom": "Persian Cup",
   "lat": 33.9001267,
   "lng": 35.4863726,
   "type": "persian",
   "halalConfidence": "likely",
   "mapsUrl": "https://maps.google.com/?q=33.9001267,35.4863726",
   "source": "osm"
  },
  {
   "nom": "Jean-Claude",
   "lat": 33.8922174,
   "lng": 35.5194833,
   "type": "coffee shop, lebanese",
   "halalConfidence": "likely",
   "mapsUrl": "https://maps.google.com/?q=33.8922174,35.5194833",
   "source": "osm"
  },
  {
   "nom": "رصيف بيروت",
   "lat": 33.8974423,
   "lng": 35.4844673,
   "type": "regional, traditional Lebanese, pub, cafe",
   "halalConfidence": "likely",
   "mapsUrl": "https://maps.google.com/?q=33.8974423,35.4844673",
   "source": "osm"
  },
  {
   "nom": "مطعم أبو نعيم",
   "lat": 33.8952358,
   "lng": 35.4834994,
   "type": "lebanese",
   "halalConfidence": "likely",
   "mapsUrl": "https://maps.google.com/?q=33.8952358,35.4834994",
   "source": "osm"
  },
  {
   "nom": "مطعم خان بغداد",
   "lat": 33.8939005,
   "lng": 35.4832957,
   "type": "arab, barbecue, chicken, coffee shop, diner, fish, kebab, lebanese",
   "halalConfidence": "likely",
   "mapsUrl": "https://maps.google.com/?q=33.8939005,35.4832957",
   "source": "osm"
  },
  {
   "nom": "زعتر وزيت",
   "lat": 33.8990398,
   "lng": 35.4843036,
   "type": "lebanese",
   "halalConfidence": "likely",
   "mapsUrl": "https://maps.google.com/?q=33.8990398,35.4843036",
   "source": "osm"
  },
  {
   "nom": "ركت",
   "lat": 33.895751,
   "lng": 35.5209788,
   "type": "lebanese",
   "halalConfidence": "likely",
   "mapsUrl": "https://maps.google.com/?q=33.895751,35.5209788",
   "source": "osm"
  },
  {
   "nom": "Maestro",
   "lat": 33.8777612,
   "lng": 35.5033383,
   "type": "lebanese, local",
   "halalConfidence": "likely",
   "mapsUrl": "https://maps.google.com/?q=33.8777612,35.5033383",
   "source": "osm"
  },
  {
   "nom": "ديوان بيروت",
   "lat": 33.8922672,
   "lng": 35.5210997,
   "type": "lebanese",
   "halalConfidence": "likely",
   "mapsUrl": "https://maps.google.com/?q=33.8922672,35.5210997",
   "source": "osm"
  },
  {
   "nom": "إسطنبولي",
   "lat": 33.8948827,
   "lng": 35.4815086,
   "type": "turkish",
   "halalConfidence": "likely",
   "mapsUrl": "https://maps.google.com/?q=33.8948827,35.4815086",
   "source": "osm"
  },
  {
   "nom": "Najj Nasr",
   "lat": 33.8870067,
   "lng": 35.5213257,
   "type": "arab, lebanese",
   "halalConfidence": "likely",
   "mapsUrl": "https://maps.google.com/?q=33.8870067,35.5213257",
   "source": "osm"
  },
  {
   "nom": "Caravan Serail",
   "lat": 33.8951501,
   "lng": 35.4806784,
   "type": "oriental, international, french, lebanese, chicken, arab, indian, curry, mexican, barbecue",
   "halalConfidence": "likely",
   "mapsUrl": "https://maps.google.com/?q=33.8951501,35.4806784",
   "source": "osm"
  },
  {
   "nom": "ملك البطاطا",
   "lat": 33.8959941,
   "lng": 35.4803661,
   "type": "regional,lebanese",
   "halalConfidence": "likely",
   "mapsUrl": "https://maps.google.com/?q=33.8959941,35.4803661",
   "source": "osm"
  },
  {
   "nom": "فلافل كريم صهيون",
   "lat": 33.897993,
   "lng": 35.4801379,
   "type": "regional, lebanese",
   "halalConfidence": "likely",
   "mapsUrl": "https://maps.google.com/?q=33.897993,35.4801379",
   "source": "osm"
  },
  {
   "nom": "اسناك المتحف",
   "lat": 33.8791907,
   "lng": 35.515474,
   "type": "burger, lebanese, chicken, tea, kebab, italian pizza",
   "halalConfidence": "likely",
   "mapsUrl": "https://maps.google.com/?q=33.8791907,35.515474",
   "source": "osm"
  },
  {
   "nom": "Kababji",
   "lat": 33.8856508,
   "lng": 35.5222815,
   "type": "lebanese",
   "halalConfidence": "likely",
   "mapsUrl": "https://maps.google.com/?q=33.8856508,35.5222815",
   "source": "osm"
  },
  {
   "nom": "Sirena",
   "lat": 33.8971963,
   "lng": 35.5243538,
   "type": "indian",
   "halalConfidence": "likely",
   "mapsUrl": "https://maps.google.com/?q=33.8971963,35.5243538",
   "source": "osm"
  },
  {
   "nom": "Mum & I",
   "lat": 33.8783448,
   "lng": 35.5159861,
   "type": "lebanese",
   "halalConfidence": "likely",
   "mapsUrl": "https://maps.google.com/?q=33.8783448,35.5159861",
   "source": "osm"
  },
  {
   "nom": "Kaza Maza",
   "lat": 33.8982357,
   "lng": 35.4789174,
   "type": "syrian, lebanese",
   "halalConfidence": "likely",
   "mapsUrl": "https://maps.google.com/?q=33.8982357,35.4789174",
   "source": "osm"
  },
  {
   "nom": "Keif",
   "lat": 33.8876995,
   "lng": 35.5243764,
   "type": "burger, sandwich, pasta, lebanese, international, chicken, coffee shop",
   "halalConfidence": "likely",
   "mapsUrl": "https://maps.google.com/?q=33.8876995,35.5243764",
   "source": "osm"
  },
  {
   "nom": "Mado",
   "lat": 33.8961844,
   "lng": 35.4775855,
   "type": "turkish, ice cream",
   "halalConfidence": "likely",
   "mapsUrl": "https://maps.google.com/?q=33.8961844,35.4775855",
   "source": "osm"
  },
  {
   "nom": "sadat bakery",
   "lat": 33.8952756,
   "lng": 35.4773753,
   "type": "pizza",
   "halalConfidence": "high",
   "mapsUrl": "https://maps.google.com/?q=33.8952756,35.4773753",
   "source": "osm"
  },
  {
   "nom": "Tawlet Mar Mikhael",
   "lat": 33.8972032,
   "lng": 35.525949,
   "type": "lebanese",
   "halalConfidence": "likely",
   "mapsUrl": "https://maps.google.com/?q=33.8972032,35.525949",
   "source": "osm"
  },
  {
   "nom": "Crave Bites",
   "lat": 33.8935627,
   "lng": 35.4771654,
   "type": "turkish, dessert",
   "halalConfidence": "likely",
   "mapsUrl": "https://maps.google.com/?q=33.8935627,35.4771654",
   "source": "osm"
  },
  {
   "nom": "يونيون",
   "lat": 33.8875532,
   "lng": 35.5255663,
   "type": "lebanese, arab",
   "halalConfidence": "likely",
   "mapsUrl": "https://maps.google.com/?q=33.8875532,35.5255663",
   "source": "osm"
  },
  {
   "nom": "Attic",
   "lat": 33.8738266,
   "lng": 35.5161113,
   "type": "kebab, pizza",
   "halalConfidence": "likely",
   "mapsUrl": "https://maps.google.com/?q=33.8738266,35.5161113",
   "source": "osm"
  },
  {
   "nom": "مندي حضرموت",
   "lat": 33.8883238,
   "lng": 35.4737799,
   "type": "lebanese, Iraqi, Gulf food",
   "halalConfidence": "likely",
   "mapsUrl": "https://maps.google.com/?q=33.8883238,35.4737799",
   "source": "osm"
  },
  {
   "nom": "Al Baba Sweets",
   "lat": 33.8717062,
   "lng": 35.5131536,
   "type": "arab delights",
   "halalConfidence": "likely",
   "mapsUrl": "https://maps.google.com/?q=33.8717062,35.5131536",
   "source": "osm"
  },
  {
   "nom": "cafe badaro",
   "lat": 33.8727076,
   "lng": 35.5157174,
   "type": "lebanese",
   "halalConfidence": "likely",
   "mapsUrl": "https://maps.google.com/?q=33.8727076,35.5157174",
   "source": "osm"
  },
  {
   "nom": "فلوكة",
   "lat": 33.8932868,
   "lng": 35.4681272,
   "type": "seafood, lebanese, mediterranean, wine bar",
   "halalConfidence": "likely",
   "mapsUrl": "https://maps.google.com/?q=33.8932868,35.4681272",
   "source": "osm"
  },
  {
   "nom": "Socrate Restaurant",
   "lat": 33.8660247,
   "lng": 35.487544,
   "type": "lebanese, mediterranean, international, indian, chinese",
   "halalConfidence": "likely",
   "mapsUrl": "https://maps.google.com/?q=33.8660247,35.487544",
   "source": "osm"
  },
  {
   "nom": "Restaurant El Hana",
   "lat": 33.8924368,
   "lng": 35.5426397,
   "type": "lebanese breakfast, foul, hummus",
   "halalConfidence": "likely",
   "mapsUrl": "https://maps.google.com/?q=33.8924368,35.5426397",
   "source": "osm"
  },
  {
   "nom": "شاورما الزهراء",
   "lat": 33.8601414,
   "lng": 35.5116712,
   "type": "arab",
   "halalConfidence": "likely",
   "mapsUrl": "https://maps.google.com/?q=33.8601414,35.5116712",
   "source": "osm"
  },
  {
   "nom": "كافيتريا الساحل",
   "lat": 33.8582486,
   "lng": 35.5034511,
   "type": "arab",
   "halalConfidence": "likely",
   "mapsUrl": "https://maps.google.com/?q=33.8582486,35.5034511",
   "source": "osm"
  },
  {
   "nom": "Shawarma station",
   "lat": 33.8561682,
   "lng": 35.5148604,
   "type": "kebab",
   "halalConfidence": "likely",
   "mapsUrl": "https://maps.google.com/?q=33.8561682,35.5148604",
   "source": "osm"
  },
  {
   "nom": "ياسين مشوي",
   "lat": 33.854432,
   "lng": 35.5013549,
   "type": "sandwich, chicken",
   "halalConfidence": "high",
   "mapsUrl": "https://maps.google.com/?q=33.854432,35.5013549",
   "source": "osm"
  },
  {
   "nom": "هوت بايت",
   "lat": 33.8545301,
   "lng": 35.5126448,
   "type": "american, arab",
   "halalConfidence": "likely",
   "mapsUrl": "https://maps.google.com/?q=33.8545301,35.5126448",
   "source": "osm"
  },
  {
   "nom": "New Indo Lanka Restaurant",
   "lat": 33.8931357,
   "lng": 35.5514223,
   "type": "indian",
   "halalConfidence": "likely",
   "mapsUrl": "https://maps.google.com/?q=33.8931357,35.5514223",
   "source": "osm"
  },
  {
   "nom": "Falafel Al Rayes",
   "lat": 33.8632836,
   "lng": 35.5401935,
   "type": "arab",
   "halalConfidence": "likely",
   "mapsUrl": "https://maps.google.com/?q=33.8632836,35.5401935",
   "source": "osm"
  },
  {
   "nom": "مطعم الساحة",
   "lat": 33.8440307,
   "lng": 35.4975475,
   "type": "arab",
   "halalConfidence": "likely",
   "mapsUrl": "https://maps.google.com/?q=33.8440307,35.4975475",
   "source": "osm"
  },
  {
   "nom": "بارادكس",
   "lat": 33.8964187,
   "lng": 35.5718309,
   "type": "lebanese, french",
   "halalConfidence": "likely",
   "mapsUrl": "https://maps.google.com/?q=33.8964187,35.5718309",
   "source": "osm"
  },
  {
   "nom": "Forn Mar Charbel",
   "lat": 33.8811325,
   "lng": 35.5736263,
   "type": "lebanese, pizza",
   "halalConfidence": "likely",
   "mapsUrl": "https://maps.google.com/?q=33.8811325,35.5736263",
   "source": "osm"
  },
  {
   "nom": "مطعم هاشم",
   "lat": 33.827096,
   "lng": 35.5140372,
   "type": "american, arab",
   "halalConfidence": "likely",
   "mapsUrl": "https://maps.google.com/?q=33.827096,35.5140372",
   "source": "osm"
  },
  {
   "nom": "برج الحمام",
   "lat": 33.9206979,
   "lng": 35.5859964,
   "type": "lebanese",
   "halalConfidence": "likely",
   "mapsUrl": "https://maps.google.com/?q=33.9206979,35.5859964",
   "source": "osm"
  },
  {
   "nom": "Uptown Beirut",
   "lat": 33.9236291,
   "lng": 35.5886659,
   "type": "lebanese",
   "halalConfidence": "likely",
   "mapsUrl": "https://maps.google.com/?q=33.9236291,35.5886659",
   "source": "osm"
  },
  {
   "nom": "أبلبيز",
   "lat": 33.9332673,
   "lng": 35.5898734,
   "type": "american, japanese, lebanese",
   "halalConfidence": "likely",
   "mapsUrl": "https://maps.google.com/?q=33.9332673,35.5898734",
   "source": "osm"
  }
 ],
 "hotels": [
  {
   "nom": "Hôtel Markazia Monroe",
   "categorie": "Hôtel",
   "priceRange": "€€",
   "mapsUrl": "https://maps.google.com/?q=33.8934871,35.5048648",
   "lat": 33.8934871,
   "lng": 35.5048648,
   "halalFriendly": false,
   "bookingUrl": "https://maps.google.com/?q=33.8934871,35.5048648",
   "source": "osm"
  },
  {
   "nom": "O Monot Boutique Hotel",
   "categorie": "Hôtel",
   "priceRange": "€€",
   "mapsUrl": "https://maps.google.com/?q=33.8919341,35.5074092",
   "lat": 33.8919341,
   "lng": 35.5074092,
   "halalFriendly": false,
   "bookingUrl": "http://www.omonot.com",
   "source": "osm"
  },
  {
   "nom": "فندق مونت",
   "categorie": "Hôtel",
   "priceRange": "€€",
   "mapsUrl": "https://maps.google.com/?q=33.8919043,35.5076511",
   "lat": 33.8919043,
   "lng": 35.5076511,
   "halalFriendly": false,
   "bookingUrl": "https://maps.google.com/?q=33.8919043,35.5076511",
   "source": "osm"
  },
  {
   "nom": "Hôtel Le Gray",
   "categorie": "Hôtel",
   "priceRange": "€€",
   "mapsUrl": "https://maps.google.com/?q=33.8972233,35.5066176",
   "lat": 33.8972233,
   "lng": 35.5066176,
   "halalFriendly": false,
   "bookingUrl": "https://maps.google.com/?q=33.8972233,35.5066176",
   "source": "osm"
  },
  {
   "nom": "هيلتون بيروت وسط المدينة",
   "categorie": "Hôtel",
   "priceRange": "€€€€",
   "score": 5,
   "mapsUrl": "https://maps.google.com/?q=33.9012172,35.5029789",
   "lat": 33.9012172,
   "lng": 35.5029789,
   "halalFriendly": false,
   "bookingUrl": "https://maps.google.com/?q=33.9012172,35.5029789",
   "source": "osm"
  },
  {
   "nom": "فتدق ديو روي",
   "categorie": "Hôtel",
   "priceRange": "€€",
   "mapsUrl": "https://maps.google.com/?q=33.8915246,35.5105761",
   "lat": 33.8915246,
   "lng": 35.5105761,
   "halalFriendly": false,
   "bookingUrl": "https://maps.google.com/?q=33.8915246,35.5105761",
   "source": "osm"
  },
  {
   "nom": "كاسا",
   "categorie": "Hôtel",
   "priceRange": "€€",
   "mapsUrl": "https://maps.google.com/?q=33.8891055,35.5092441",
   "lat": 33.8891055,
   "lng": 35.5092441,
   "halalFriendly": false,
   "bookingUrl": "https://maps.google.com/?q=33.8891055,35.5092441",
   "source": "osm"
  },
  {
   "nom": "فندق فور سيزنس",
   "categorie": "Hôtel",
   "priceRange": "€€",
   "mapsUrl": "https://maps.google.com/?q=33.9019029,35.4991876",
   "lat": 33.9019029,
   "lng": 35.4991876,
   "halalFriendly": false,
   "bookingUrl": "https://maps.google.com/?q=33.9019029,35.4991876",
   "source": "osm"
  },
  {
   "nom": "Kantari Suita",
   "categorie": "Hôtel",
   "priceRange": "€€",
   "mapsUrl": "https://maps.google.com/?q=33.8951567,35.491535",
   "lat": 33.8951567,
   "lng": 35.491535,
   "halalFriendly": false,
   "bookingUrl": "https://maps.google.com/?q=33.8951567,35.491535",
   "source": "osm"
  },
  {
   "nom": "Garden Tower",
   "categorie": "Hôtel",
   "priceRange": "€€",
   "mapsUrl": "https://maps.google.com/?q=33.893831,35.4913622",
   "lat": 33.893831,
   "lng": 35.4913622,
   "halalFriendly": false,
   "bookingUrl": "https://maps.google.com/?q=33.893831,35.4913622",
   "source": "osm"
  },
  {
   "nom": "أنتركونتيننتال فينيسيا",
   "categorie": "Hôtel",
   "priceRange": "€€",
   "mapsUrl": "https://maps.google.com/?q=33.9005699,35.4948948",
   "lat": 33.9005699,
   "lng": 35.4948948,
   "halalFriendly": false,
   "bookingUrl": "https://maps.google.com/?q=33.9005699,35.4948948",
   "source": "osm"
  },
  {
   "nom": "خالد الطبل خال بيروت",
   "categorie": "Hôtel",
   "priceRange": "€€",
   "mapsUrl": "https://maps.google.com/?q=33.9003923,35.4943301",
   "lat": 33.9003923,
   "lng": 35.4943301,
   "halalFriendly": false,
   "bookingUrl": "https://maps.google.com/?q=33.9003923,35.4943301",
   "source": "osm"
  },
  {
   "nom": "Place Pasteur",
   "categorie": "Appartement",
   "priceRange": "€€",
   "mapsUrl": "https://maps.google.com/?q=33.8952204,35.513597",
   "lat": 33.8952204,
   "lng": 35.513597,
   "halalFriendly": false,
   "bookingUrl": "https://maps.google.com/?q=33.8952204,35.513597",
   "source": "osm"
  },
  {
   "nom": "Radisson Blu Martinez",
   "categorie": "Hôtel",
   "priceRange": "€€",
   "mapsUrl": "https://maps.google.com/?q=33.9001191,35.4925856",
   "lat": 33.9001191,
   "lng": 35.4925856,
   "halalFriendly": false,
   "bookingUrl": "https://www.radissonblu.com/en/hotel-beirut",
   "source": "osm"
  },
  {
   "nom": "The Parisian Hotel",
   "categorie": "Hôtel",
   "priceRange": "€€",
   "mapsUrl": "https://maps.google.com/?q=33.9000978,35.4919177",
   "lat": 33.9000978,
   "lng": 35.4919177,
   "halalFriendly": false,
   "bookingUrl": "https://maps.google.com/?q=33.9000978,35.4919177",
   "source": "osm"
  },
  {
   "nom": "Abdul Ghani Arayssi",
   "categorie": "Maison d'hôtes",
   "priceRange": "€€",
   "mapsUrl": "https://maps.google.com/?q=33.8835449,35.4996703",
   "lat": 33.8835449,
   "lng": 35.4996703,
   "halalFriendly": false,
   "bookingUrl": "https://maps.google.com/?q=33.8835449,35.4996703",
   "source": "osm"
  },
  {
   "nom": "فندق لابريت",
   "categorie": "Hôtel",
   "priceRange": "€€",
   "mapsUrl": "https://maps.google.com/?q=33.9012766,35.493054",
   "lat": 33.9012766,
   "lng": 35.493054,
   "halalFriendly": false,
   "bookingUrl": "https://maps.google.com/?q=33.9012766,35.493054",
   "source": "osm"
  },
  {
   "nom": "فندق سان جورج",
   "categorie": "Hôtel",
   "priceRange": "€€",
   "mapsUrl": "https://maps.google.com/?q=33.9024311,35.4945685",
   "lat": 33.9024311,
   "lng": 35.4945685,
   "halalFriendly": false,
   "bookingUrl": "https://maps.google.com/?q=33.9024311,35.4945685",
   "source": "osm"
  },
  {
   "nom": "Le Yacht Club Beyrouth",
   "categorie": "Hôtel",
   "priceRange": "€€",
   "mapsUrl": "https://maps.google.com/?q=33.9045288,35.4986355",
   "lat": 33.9045288,
   "lng": 35.4986355,
   "halalFriendly": false,
   "bookingUrl": "https://maps.google.com/?q=33.9045288,35.4986355",
   "source": "osm"
  },
  {
   "nom": "فندق بالاس",
   "categorie": "Hôtel",
   "priceRange": "€€€€",
   "score": 4,
   "mapsUrl": "https://maps.google.com/?q=33.9023365,35.4929306",
   "lat": 33.9023365,
   "lng": 35.4929306,
   "halalFriendly": false,
   "bookingUrl": "https://maps.google.com/?q=33.9023365,35.4929306",
   "source": "osm"
  },
  {
   "nom": "The Living by Beirut Homes",
   "categorie": "Hôtel",
   "priceRange": "€€",
   "mapsUrl": "https://maps.google.com/?q=33.8846376,35.5097777",
   "lat": 33.8846376,
   "lng": 35.5097777,
   "halalFriendly": false,
   "bookingUrl": "https://maps.google.com/?q=33.8846376,35.5097777",
   "source": "osm"
  },
  {
   "nom": "فندق ريجيس",
   "categorie": "Hôtel",
   "priceRange": "€€",
   "score": 2,
   "mapsUrl": "https://maps.google.com/?q=33.9019701,35.4922403",
   "lat": 33.9019701,
   "lng": 35.4922403,
   "halalFriendly": false,
   "bookingUrl": "https://maps.google.com/?q=33.9019701,35.4922403",
   "source": "osm"
  },
  {
   "nom": "The Grand Meshmosh Hotel",
   "categorie": "Auberge",
   "priceRange": "€€",
   "mapsUrl": "https://maps.google.com/?q=33.8945089,35.5155331",
   "lat": 33.8945089,
   "lng": 35.5155331,
   "halalFriendly": false,
   "bookingUrl": "https://www.thegrandmeshmosh.com",
   "source": "osm"
  },
  {
   "nom": "Q-Hotel",
   "categorie": "Hôtel",
   "priceRange": "€€",
   "mapsUrl": "https://maps.google.com/?q=33.8957723,35.4878964",
   "lat": 33.8957723,
   "lng": 35.4878964,
   "halalFriendly": false,
   "bookingUrl": "https://maps.google.com/?q=33.8957723,35.4878964",
   "source": "osm"
  },
  {
   "nom": "أوتيل بيفيو",
   "categorie": "Hôtel",
   "priceRange": "€€",
   "mapsUrl": "https://maps.google.com/?q=33.9015855,35.4910599",
   "lat": 33.9015855,
   "lng": 35.4910599,
   "halalFriendly": false,
   "bookingUrl": "https://maps.google.com/?q=33.9015855,35.4910599",
   "source": "osm"
  },
  {
   "nom": "مدام ملك",
   "categorie": "Auberge",
   "priceRange": "€€",
   "mapsUrl": "https://maps.google.com/?q=33.8897978,35.4883475",
   "lat": 33.8897978,
   "lng": 35.4883475,
   "halalFriendly": false,
   "bookingUrl": "https://maps.google.com/?q=33.8897978,35.4883475",
   "source": "osm"
  },
  {
   "nom": "جفينور روتانا",
   "categorie": "Hôtel",
   "priceRange": "€€",
   "mapsUrl": "https://maps.google.com/?q=33.8980962,35.4879423",
   "lat": 33.8980962,
   "lng": 35.4879423,
   "halalFriendly": false,
   "bookingUrl": "https://maps.google.com/?q=33.8980962,35.4879423",
   "source": "osm"
  },
  {
   "nom": "Hotel Cavalier",
   "categorie": "Hôtel",
   "priceRange": "€€",
   "mapsUrl": "https://maps.google.com/?q=33.8956447,35.486542",
   "lat": 33.8956447,
   "lng": 35.486542,
   "halalFriendly": false,
   "bookingUrl": "https://maps.google.com/?q=33.8956447,35.486542",
   "source": "osm"
  },
  {
   "nom": "Abou Jalal",
   "categorie": "Appartement",
   "priceRange": "€€",
   "mapsUrl": "https://maps.google.com/?q=33.8811837,35.5044997",
   "lat": 33.8811837,
   "lng": 35.5044997,
   "halalFriendly": false,
   "bookingUrl": "https://maps.google.com/?q=33.8811837,35.5044997",
   "source": "osm"
  },
  {
   "nom": "Hamra Urban Gardens",
   "categorie": "Hôtel",
   "priceRange": "€€",
   "mapsUrl": "https://maps.google.com/?q=33.8957249,35.4863539",
   "lat": 33.8957249,
   "lng": 35.4863539,
   "halalFriendly": false,
   "bookingUrl": "https://maps.google.com/?q=33.8957249,35.4863539",
   "source": "osm"
  },
  {
   "nom": "بارك تاور سويت",
   "categorie": "Hôtel",
   "priceRange": "€€",
   "mapsUrl": "https://maps.google.com/?q=33.8862148,35.5145275",
   "lat": 33.8862148,
   "lng": 35.5145275,
   "halalFriendly": false,
   "bookingUrl": "https://maps.google.com/?q=33.8862148,35.5145275",
   "source": "osm"
  },
  {
   "nom": "Park Lane Furnished Apartments",
   "categorie": "Hôtel",
   "priceRange": "€€",
   "mapsUrl": "https://maps.google.com/?q=33.9005636,35.4881897",
   "lat": 33.9005636,
   "lng": 35.4881897,
   "halalFriendly": false,
   "bookingUrl": "https://maps.google.com/?q=33.9005636,35.4881897",
   "source": "osm"
  },
  {
   "nom": "Hôtel Le Marli",
   "categorie": "Hôtel",
   "priceRange": "€€",
   "mapsUrl": "https://maps.google.com/?q=33.8951811,35.4859294",
   "lat": 33.8951811,
   "lng": 35.4859294,
   "halalFriendly": false,
   "bookingUrl": "https://maps.google.com/?q=33.8951811,35.4859294",
   "source": "osm"
  },
  {
   "nom": "جلال أبو شقرا",
   "categorie": "Appartement",
   "priceRange": "€€",
   "mapsUrl": "https://maps.google.com/?q=33.8807478,35.4990639",
   "lat": 33.8807478,
   "lng": 35.4990639,
   "halalFriendly": false,
   "bookingUrl": "https://maps.google.com/?q=33.8807478,35.4990639",
   "source": "osm"
  },
  {
   "nom": "وايت هوس سويتس",
   "categorie": "Hôtel",
   "priceRange": "€€",
   "mapsUrl": "https://maps.google.com/?q=33.8958685,35.4859477",
   "lat": 33.8958685,
   "lng": 35.4859477,
   "halalFriendly": false,
   "bookingUrl": "https://maps.google.com/?q=33.8958685,35.4859477",
   "source": "osm"
  },
  {
   "nom": "Michalle",
   "categorie": "Appartement",
   "priceRange": "€€",
   "mapsUrl": "https://maps.google.com/?q=33.8856769,35.4889068",
   "lat": 33.8856769,
   "lng": 35.4889068,
   "halalFriendly": false,
   "bookingUrl": "https://maps.google.com/?q=33.8856769,35.4889068",
   "source": "osm"
  },
  {
   "nom": "فندق ويكند",
   "categorie": "Hôtel",
   "priceRange": "€€",
   "mapsUrl": "https://maps.google.com/?q=33.8962877,35.4857336",
   "lat": 33.8962877,
   "lng": 35.4857336,
   "halalFriendly": false,
   "bookingUrl": "https://maps.google.com/?q=33.8962877,35.4857336",
   "source": "osm"
  },
  {
   "nom": "فندق أورينت برينس",
   "categorie": "Hôtel",
   "priceRange": "€€",
   "mapsUrl": "https://maps.google.com/?q=33.8933692,35.4853969",
   "lat": 33.8933692,
   "lng": 35.4853969,
   "halalFriendly": false,
   "bookingUrl": "https://maps.google.com/?q=33.8933692,35.4853969",
   "source": "osm"
  },
  {
   "nom": "منزل",
   "categorie": "Appartement",
   "priceRange": "€€",
   "mapsUrl": "https://maps.google.com/?q=33.8800914,35.4982681",
   "lat": 33.8800914,
   "lng": 35.4982681,
   "halalFriendly": false,
   "bookingUrl": "https://maps.google.com/?q=33.8800914,35.4982681",
   "source": "osm"
  },
  {
   "nom": "Rooms 35",
   "categorie": "Hôtel",
   "priceRange": "€€",
   "mapsUrl": "https://maps.google.com/?q=33.8945801,35.4844286",
   "lat": 33.8945801,
   "lng": 35.4844286,
   "halalFriendly": false,
   "bookingUrl": "https://maps.google.com/?q=33.8945801,35.4844286",
   "source": "osm"
  },
  {
   "nom": "Elissa",
   "categorie": "Hôtel",
   "priceRange": "€€",
   "mapsUrl": "https://maps.google.com/?q=33.8957483,35.4844917",
   "lat": 33.8957483,
   "lng": 35.4844917,
   "halalFriendly": false,
   "bookingUrl": "https://maps.google.com/?q=33.8957483,35.4844917",
   "source": "osm"
  },
  {
   "nom": "Beit Toureef",
   "categorie": "Hôtel",
   "priceRange": "€€",
   "mapsUrl": "https://maps.google.com/?q=33.8953507,35.5191991",
   "lat": 33.8953507,
   "lng": 35.5191991,
   "halalFriendly": false,
   "bookingUrl": "https://beittoureef.com/",
   "source": "osm"
  },
  {
   "nom": "Caesar's Park Hotel",
   "categorie": "Hôtel",
   "priceRange": "€€",
   "mapsUrl": "https://maps.google.com/?q=33.8925519,35.484219",
   "lat": 33.8925519,
   "lng": 35.484219,
   "halalFriendly": false,
   "bookingUrl": "https://maps.google.com/?q=33.8925519,35.484219",
   "source": "osm"
  },
  {
   "nom": "بريستول",
   "categorie": "Hôtel",
   "priceRange": "€€",
   "mapsUrl": "https://maps.google.com/?q=33.8916641,35.4840489",
   "lat": 33.8916641,
   "lng": 35.4840489,
   "halalFriendly": false,
   "bookingUrl": "https://maps.google.com/?q=33.8916641,35.4840489",
   "source": "osm"
  },
  {
   "nom": "هوتيل دو فيل",
   "categorie": "Hôtel",
   "priceRange": "€€",
   "mapsUrl": "https://maps.google.com/?q=33.8810152,35.511019",
   "lat": 33.8810152,
   "lng": 35.511019,
   "halalFriendly": false,
   "bookingUrl": "https://maps.google.com/?q=33.8810152,35.511019",
   "source": "osm"
  },
  {
   "nom": "Golden Tulip",
   "categorie": "Hôtel",
   "priceRange": "€€",
   "mapsUrl": "https://maps.google.com/?q=33.8962531,35.4839547",
   "lat": 33.8962531,
   "lng": 35.4839547,
   "halalFriendly": false,
   "bookingUrl": "https://maps.google.com/?q=33.8962531,35.4839547",
   "source": "osm"
  },
  {
   "nom": "Cedarland Hotel",
   "categorie": "Hôtel",
   "priceRange": "€€",
   "mapsUrl": "https://maps.google.com/?q=33.8973084,35.4839301",
   "lat": 33.8973084,
   "lng": 35.4839301,
   "halalFriendly": false,
   "bookingUrl": "https://maps.google.com/?q=33.8973084,35.4839301",
   "source": "osm"
  },
  {
   "nom": "Royal Garden",
   "categorie": "Hôtel",
   "priceRange": "€€",
   "mapsUrl": "https://maps.google.com/?q=33.8936633,35.4831885",
   "lat": 33.8936633,
   "lng": 35.4831885,
   "halalFriendly": false,
   "bookingUrl": "https://maps.google.com/?q=33.8936633,35.4831885",
   "source": "osm"
  },
  {
   "nom": "غولدن توليب",
   "categorie": "Hôtel",
   "priceRange": "€€",
   "mapsUrl": "https://maps.google.com/?q=33.8972759,35.483553",
   "lat": 33.8972759,
   "lng": 35.483553,
   "halalFriendly": false,
   "bookingUrl": "https://maps.google.com/?q=33.8972759,35.483553",
   "source": "osm"
  },
  {
   "nom": "The Standard II",
   "categorie": "Hôtel",
   "priceRange": "€€",
   "mapsUrl": "https://maps.google.com/?q=33.8976837,35.483667",
   "lat": 33.8976837,
   "lng": 35.483667,
   "halalFriendly": false,
   "bookingUrl": "https://maps.google.com/?q=33.8976837,35.483667",
   "source": "osm"
  },
  {
   "nom": "MidTown Hotel & Suites",
   "categorie": "Hôtel",
   "priceRange": "€€",
   "mapsUrl": "https://maps.google.com/?q=33.8971008,35.4834235",
   "lat": 33.8971008,
   "lng": 35.4834235,
   "halalFriendly": false,
   "bookingUrl": "https://maps.google.com/?q=33.8971008,35.4834235",
   "source": "osm"
  },
  {
   "nom": "منتو سويت",
   "categorie": "Hôtel",
   "priceRange": "€€",
   "mapsUrl": "https://maps.google.com/?q=33.8956881,35.4826362",
   "lat": 33.8956881,
   "lng": 35.4826362,
   "halalFriendly": false,
   "bookingUrl": "https://maps.google.com/?q=33.8956881,35.4826362",
   "source": "osm"
  },
  {
   "nom": "فندق مون لايت",
   "categorie": "Hôtel",
   "priceRange": "€€",
   "mapsUrl": "https://maps.google.com/?q=33.8958839,35.4825696",
   "lat": 33.8958839,
   "lng": 35.4825696,
   "halalFriendly": false,
   "bookingUrl": "https://maps.google.com/?q=33.8958839,35.4825696",
   "source": "osm"
  },
  {
   "nom": "فندق سلطان بالاس",
   "categorie": "Hôtel",
   "priceRange": "€€",
   "mapsUrl": "https://maps.google.com/?q=33.8951159,35.4821315",
   "lat": 33.8951159,
   "lng": 35.4821315,
   "halalFriendly": false,
   "bookingUrl": "https://maps.google.com/?q=33.8951159,35.4821315",
   "source": "osm"
  },
  {
   "nom": "بيت بيروت",
   "categorie": "Appartement",
   "priceRange": "€€",
   "mapsUrl": "https://maps.google.com/?q=33.8944189,35.4817661",
   "lat": 33.8944189,
   "lng": 35.4817661,
   "halalFriendly": false,
   "bookingUrl": "https://maps.google.com/?q=33.8944189,35.4817661",
   "source": "osm"
  },
  {
   "nom": "WH Hotel",
   "categorie": "Hôtel",
   "priceRange": "€€",
   "mapsUrl": "https://maps.google.com/?q=33.8935439,35.4813118",
   "lat": 33.8935439,
   "lng": 35.4813118,
   "halalFriendly": false,
   "bookingUrl": "https://maps.google.com/?q=33.8935439,35.4813118",
   "source": "osm"
  },
  {
   "nom": "ميفلور",
   "categorie": "Hôtel",
   "priceRange": "€€",
   "mapsUrl": "https://maps.google.com/?q=33.8948723,35.4812838",
   "lat": 33.8948723,
   "lng": 35.4812838,
   "halalFriendly": false,
   "bookingUrl": "https://maps.google.com/?q=33.8948723,35.4812838",
   "source": "osm"
  },
  {
   "nom": "أمباسي هوتيل",
   "categorie": "Hôtel",
   "priceRange": "€€",
   "mapsUrl": "https://maps.google.com/?q=33.8965982,35.4814967",
   "lat": 33.8965982,
   "lng": 35.4814967,
   "halalFriendly": false,
   "bookingUrl": "https://maps.google.com/?q=33.8965982,35.4814967",
   "source": "osm"
  },
  {
   "nom": "The J Hotel & Spa",
   "categorie": "Hôtel",
   "priceRange": "€€",
   "mapsUrl": "https://maps.google.com/?q=33.8955401,35.4812196",
   "lat": 33.8955401,
   "lng": 35.4812196,
   "halalFriendly": false,
   "bookingUrl": "https://maps.google.com/?q=33.8955401,35.4812196",
   "source": "osm"
  },
  {
   "nom": "كازا دور",
   "categorie": "Hôtel",
   "priceRange": "€€",
   "mapsUrl": "https://maps.google.com/?q=33.8961704,35.481266",
   "lat": 33.8961704,
   "lng": 35.481266,
   "halalFriendly": false,
   "bookingUrl": "https://maps.google.com/?q=33.8961704,35.481266",
   "source": "osm"
  },
  {
   "nom": "ضمان الكولا",
   "categorie": "Appartement",
   "priceRange": "€€",
   "mapsUrl": "https://maps.google.com/?q=33.8779389,35.4936119",
   "lat": 33.8779389,
   "lng": 35.4936119,
   "halalFriendly": false,
   "bookingUrl": "https://maps.google.com/?q=33.8779389,35.4936119",
   "source": "osm"
  },
  {
   "nom": "My Home Foyer",
   "categorie": "Maison d'hôtes",
   "priceRange": "€€",
   "mapsUrl": "https://maps.google.com/?q=33.8917554,35.5225669",
   "lat": 33.8917554,
   "lng": 35.5225669,
   "halalFriendly": false,
   "bookingUrl": "https://maps.google.com/?q=33.8917554,35.5225669",
   "source": "osm"
  },
  {
   "nom": "إير بي إن بي",
   "categorie": "Appartement",
   "priceRange": "€€",
   "mapsUrl": "https://maps.google.com/?q=33.8985226,35.4815413",
   "lat": 33.8985226,
   "lng": 35.4815413,
   "halalFriendly": false,
   "bookingUrl": "https://maps.google.com/?q=33.8985226,35.4815413",
   "source": "osm"
  },
  {
   "nom": "ثري أو ناين",
   "categorie": "Hôtel",
   "priceRange": "€€",
   "mapsUrl": "https://maps.google.com/?q=33.8990133,35.4813641",
   "lat": 33.8990133,
   "lng": 35.4813641,
   "halalFriendly": false,
   "bookingUrl": "https://maps.google.com/?q=33.8990133,35.4813641",
   "source": "osm"
  },
  {
   "nom": "Four Points by Sheraton Le Verdun",
   "categorie": "Hôtel",
   "priceRange": "€€",
   "mapsUrl": "https://maps.google.com/?q=33.8822079,35.4854477",
   "lat": 33.8822079,
   "lng": 35.4854477,
   "halalFriendly": false,
   "bookingUrl": "https://maps.google.com/?q=33.8822079,35.4854477",
   "source": "osm"
  },
  {
   "nom": "Хаммуд дом",
   "categorie": "Maison d'hôtes",
   "priceRange": "€€",
   "mapsUrl": "https://maps.google.com/?q=33.8969938,35.5231647",
   "lat": 33.8969938,
   "lng": 35.5231647,
   "halalFriendly": false,
   "bookingUrl": "https://maps.google.com/?q=33.8969938,35.5231647",
   "source": "osm"
  },
  {
   "nom": "أوتيل ماربل تاور",
   "categorie": "Hôtel",
   "priceRange": "€€€",
   "score": 3,
   "mapsUrl": "https://maps.google.com/?q=33.8966863,35.4802065",
   "lat": 33.8966863,
   "lng": 35.4802065,
   "halalFriendly": false,
   "bookingUrl": "https://maps.google.com/?q=33.8966863,35.4802065",
   "source": "osm"
  },
  {
   "nom": "Nina",
   "categorie": "Maison d'hôtes",
   "priceRange": "€€",
   "mapsUrl": "https://maps.google.com/?q=33.895323,35.5236189",
   "lat": 33.895323,
   "lng": 35.5236189,
   "halalFriendly": false,
   "bookingUrl": "https://maps.google.com/?q=33.895323,35.5236189",
   "source": "osm"
  },
  {
   "nom": "رزيدانس بالاس",
   "categorie": "Hôtel",
   "priceRange": "€€",
   "mapsUrl": "https://maps.google.com/?q=33.8945652,35.4798249",
   "lat": 33.8945652,
   "lng": 35.4798249,
   "halalFriendly": false,
   "bookingUrl": "https://maps.google.com/?q=33.8945652,35.4798249",
   "source": "osm"
  },
  {
   "nom": "Hotel Mayflower",
   "categorie": "Hôtel",
   "priceRange": "€€",
   "mapsUrl": "https://maps.google.com/?q=33.8971534,35.4801724",
   "lat": 33.8971534,
   "lng": 35.4801724,
   "halalFriendly": false,
   "bookingUrl": "https://maps.google.com/?q=33.8971534,35.4801724",
   "source": "osm"
  },
  {
   "nom": "فندق نابليون",
   "categorie": "Hôtel",
   "priceRange": "€€",
   "mapsUrl": "https://maps.google.com/?q=33.8971357,35.4800474",
   "lat": 33.8971357,
   "lng": 35.4800474,
   "halalFriendly": false,
   "bookingUrl": "https://www.napoleonbeirut.com/",
   "source": "osm"
  },
  {
   "nom": "LIV Apartments",
   "categorie": "Appartement",
   "priceRange": "€€",
   "mapsUrl": "https://maps.google.com/?q=33.8974409,35.5234835",
   "lat": 33.8974409,
   "lng": 35.5234835,
   "halalFriendly": false,
   "bookingUrl": "https://maps.google.com/?q=33.8974409,35.5234835",
   "source": "osm"
  },
  {
   "nom": "كورال سويتس الحمرا",
   "categorie": "Hôtel",
   "priceRange": "€€",
   "mapsUrl": "https://maps.google.com/?q=33.8950779,35.4796908",
   "lat": 33.8950779,
   "lng": 35.4796908,
   "halalFriendly": false,
   "bookingUrl": "https://maps.google.com/?q=33.8950779,35.4796908",
   "source": "osm"
  },
  {
   "nom": "Foyer Saint-Vincent de Paul",
   "categorie": "Auberge",
   "priceRange": "€€",
   "mapsUrl": "https://maps.google.com/?q=33.8894142,35.5235741",
   "lat": 33.8894142,
   "lng": 35.5235741,
   "halalFriendly": false,
   "bookingUrl": "https://maps.google.com/?q=33.8894142,35.5235741",
   "source": "osm"
  },
  {
   "nom": "Bait al Hamra Guest House, Tawaleet Al Hamra restaurant",
   "categorie": "Maison d'hôtes",
   "priceRange": "€€",
   "mapsUrl": "https://maps.google.com/?q=33.8949035,35.4793113",
   "lat": 33.8949035,
   "lng": 35.4793113,
   "halalFriendly": false,
   "bookingUrl": "https://maps.google.com/?q=33.8949035,35.4793113",
   "source": "osm"
  },
  {
   "nom": "كراون بلازا",
   "categorie": "Hôtel",
   "priceRange": "€€",
   "mapsUrl": "https://maps.google.com/?q=33.8957173,35.4790701",
   "lat": 33.8957173,
   "lng": 35.4790701,
   "halalFriendly": false,
   "bookingUrl": "https://maps.google.com/?q=33.8957173,35.4790701",
   "source": "osm"
  },
  {
   "nom": "فندق الأسطورة",
   "categorie": "Hôtel",
   "priceRange": "€€",
   "mapsUrl": "https://maps.google.com/?q=33.8854065,35.4808719",
   "lat": 33.8854065,
   "lng": 35.4808719,
   "halalFriendly": false,
   "bookingUrl": "https://maps.google.com/?q=33.8854065,35.4808719",
   "source": "osm"
  },
  {
   "nom": "Gems",
   "categorie": "Hôtel",
   "priceRange": "€€",
   "mapsUrl": "https://maps.google.com/?q=33.8972139,35.4788193",
   "lat": 33.8972139,
   "lng": 35.4788193,
   "halalFriendly": false,
   "bookingUrl": "https://maps.google.com/?q=33.8972139,35.4788193",
   "source": "osm"
  },
  {
   "nom": "Auntie Lulu",
   "categorie": "Appartement",
   "priceRange": "€€",
   "mapsUrl": "https://maps.google.com/?q=33.8973358,35.4786654",
   "lat": 33.8973358,
   "lng": 35.4786654,
   "halalFriendly": false,
   "bookingUrl": "https://maps.google.com/?q=33.8973358,35.4786654",
   "source": "osm"
  },
  {
   "nom": "بلازا",
   "categorie": "Hôtel",
   "priceRange": "€€",
   "mapsUrl": "https://maps.google.com/?q=33.896483,35.4783806",
   "lat": 33.896483,
   "lng": 35.4783806,
   "halalFriendly": false,
   "bookingUrl": "https://maps.google.com/?q=33.896483,35.4783806",
   "source": "osm"
  },
  {
   "nom": "فندق رويال توليب",
   "categorie": "Hôtel",
   "priceRange": "€€",
   "mapsUrl": "https://maps.google.com/?q=33.8854229,35.5233357",
   "lat": 33.8854229,
   "lng": 35.5233357,
   "halalFriendly": false,
   "bookingUrl": "https://maps.google.com/?q=33.8854229,35.5233357",
   "source": "osm"
  },
  {
   "nom": "فندق بليس",
   "categorie": "Hôtel",
   "priceRange": "€€",
   "mapsUrl": "https://maps.google.com/?q=33.898008,35.4782279",
   "lat": 33.898008,
   "lng": 35.4782279,
   "halalFriendly": false,
   "bookingUrl": "https://maps.google.com/?q=33.898008,35.4782279",
   "source": "osm"
  },
  {
   "nom": "سمالفيل",
   "categorie": "Hôtel",
   "priceRange": "€€",
   "mapsUrl": "https://maps.google.com/?q=33.8771908,35.5167654",
   "lat": 33.8771908,
   "lng": 35.5167654,
   "halalFriendly": false,
   "bookingUrl": "https://maps.google.com/?q=33.8771908,35.5167654",
   "source": "osm"
  },
  {
   "nom": "فندق بليس",
   "categorie": "Hôtel",
   "priceRange": "€€",
   "mapsUrl": "https://maps.google.com/?q=33.8981755,35.4771957",
   "lat": 33.8981755,
   "lng": 35.4771957,
   "halalFriendly": false,
   "bookingUrl": "https://maps.google.com/?q=33.8981755,35.4771957",
   "source": "osm"
  },
  {
   "nom": "الشقة",
   "categorie": "Appartement",
   "priceRange": "€€",
   "mapsUrl": "https://maps.google.com/?q=33.8869291,35.4779142",
   "lat": 33.8869291,
   "lng": 35.4779142,
   "halalFriendly": false,
   "bookingUrl": "https://maps.google.com/?q=33.8869291,35.4779142",
   "source": "osm"
  },
  {
   "nom": "Auberge de jeunesse",
   "categorie": "Appartement",
   "priceRange": "€€",
   "mapsUrl": "https://maps.google.com/?q=33.900926,35.5257971",
   "lat": 33.900926,
   "lng": 35.5257971,
   "halalFriendly": false,
   "bookingUrl": "https://maps.google.com/?q=33.900926,35.5257971",
   "source": "osm"
  },
  {
   "nom": "Bella Rosa",
   "categorie": "Hôtel",
   "priceRange": "€€",
   "mapsUrl": "https://maps.google.com/?q=33.8965048,35.4761998",
   "lat": 33.8965048,
   "lng": 35.4761998,
   "halalFriendly": false,
   "bookingUrl": "https://maps.google.com/?q=33.8965048,35.4761998",
   "source": "osm"
  },
  {
   "nom": "وايت هوس أبارتمنتس",
   "categorie": "Hôtel",
   "priceRange": "€€",
   "mapsUrl": "https://maps.google.com/?q=33.8954016,35.4758987",
   "lat": 33.8954016,
   "lng": 35.4758987,
   "halalFriendly": false,
   "bookingUrl": "https://maps.google.com/?q=33.8954016,35.4758987",
   "source": "osm"
  },
  {
   "nom": "وايت هوس أبارتمنتس",
   "categorie": "Hôtel",
   "priceRange": "€€",
   "mapsUrl": "https://maps.google.com/?q=33.8954058,35.4757633",
   "lat": 33.8954058,
   "lng": 35.4757633,
   "halalFriendly": false,
   "bookingUrl": "https://maps.google.com/?q=33.8954058,35.4757633",
   "source": "osm"
  },
  {
   "nom": "هستل بيروت",
   "categorie": "Auberge",
   "priceRange": "€€",
   "mapsUrl": "https://maps.google.com/?q=33.8947929,35.5280982",
   "lat": 33.8947929,
   "lng": 35.5280982,
   "halalFriendly": false,
   "bookingUrl": "https://maps.google.com/?q=33.8947929,35.5280982",
   "source": "osm"
  },
  {
   "nom": "امبريال",
   "categorie": "Hôtel",
   "priceRange": "€€",
   "mapsUrl": "https://maps.google.com/?q=33.8873513,35.4762846",
   "lat": 33.8873513,
   "lng": 35.4762846,
   "halalFriendly": false,
   "bookingUrl": "https://maps.google.com/?q=33.8873513,35.4762846",
   "source": "osm"
  },
  {
   "nom": "Luna's Village",
   "categorie": "Appartement",
   "priceRange": "€€",
   "mapsUrl": "https://maps.google.com/?q=33.8962741,35.4751269",
   "lat": 33.8962741,
   "lng": 35.4751269,
   "halalFriendly": false,
   "bookingUrl": "https://maps.google.com/?q=33.8962741,35.4751269",
   "source": "osm"
  },
  {
   "nom": "Rawsheh 51",
   "categorie": "Hôtel",
   "priceRange": "€€",
   "mapsUrl": "https://maps.google.com/?q=33.8873739,35.4759794",
   "lat": 33.8873739,
   "lng": 35.4759794,
   "halalFriendly": false,
   "bookingUrl": "https://maps.google.com/?q=33.8873739,35.4759794",
   "source": "osm"
  },
  {
   "nom": "دريم سويت",
   "categorie": "Hôtel",
   "priceRange": "€€",
   "mapsUrl": "https://maps.google.com/?q=33.8949015,35.4748158",
   "lat": 33.8949015,
   "lng": 35.4748158,
   "halalFriendly": false,
   "bookingUrl": "https://maps.google.com/?q=33.8949015,35.4748158",
   "source": "osm"
  },
  {
   "nom": "كونكورد",
   "categorie": "Hôtel",
   "priceRange": "€€",
   "mapsUrl": "https://maps.google.com/?q=33.8981042,35.4750407",
   "lat": 33.8981042,
   "lng": 35.4750407,
   "halalFriendly": false,
   "bookingUrl": "https://maps.google.com/?q=33.8981042,35.4750407",
   "source": "osm"
  },
  {
   "nom": "جراند أوتيل",
   "categorie": "Hôtel",
   "priceRange": "€€",
   "mapsUrl": "https://maps.google.com/?q=33.9004298,35.4753419",
   "lat": 33.9004298,
   "lng": 35.4753419,
   "halalFriendly": false,
   "bookingUrl": "https://maps.google.com/?q=33.9004298,35.4753419",
   "source": "osm"
  },
  {
   "nom": "أبو جلال",
   "categorie": "Appartement",
   "priceRange": "€€",
   "mapsUrl": "https://maps.google.com/?q=33.8726692,35.5133359",
   "lat": 33.8726692,
   "lng": 35.5133359,
   "halalFriendly": false,
   "bookingUrl": "https://maps.google.com/?q=33.8726692,35.5133359",
   "source": "osm"
  },
  {
   "nom": "أيليت",
   "categorie": "Hôtel",
   "priceRange": "€€",
   "mapsUrl": "https://maps.google.com/?q=33.8877285,35.474817",
   "lat": 33.8877285,
   "lng": 35.474817,
   "halalFriendly": false,
   "bookingUrl": "https://maps.google.com/?q=33.8877285,35.474817",
   "source": "osm"
  },
  {
   "nom": "Sunset Gardens",
   "categorie": "Hôtel",
   "priceRange": "€€",
   "mapsUrl": "https://maps.google.com/?q=33.8773024,35.4818946",
   "lat": 33.8773024,
   "lng": 35.4818946,
   "halalFriendly": false,
   "bookingUrl": "https://maps.google.com/?q=33.8773024,35.4818946",
   "source": "osm"
  },
  {
   "nom": "فندقنا",
   "categorie": "Hôtel",
   "priceRange": "€€",
   "mapsUrl": "https://maps.google.com/?q=33.8915566,35.4732938",
   "lat": 33.8915566,
   "lng": 35.4732938,
   "halalFriendly": false,
   "bookingUrl": "https://maps.google.com/?q=33.8915566,35.4732938",
   "source": "osm"
  },
  {
   "nom": "فيلا كلارا",
   "categorie": "Hôtel",
   "priceRange": "€€",
   "mapsUrl": "https://maps.google.com/?q=33.8959295,35.5305441",
   "lat": 33.8959295,
   "lng": 35.5305441,
   "halalFriendly": false,
   "bookingUrl": "https://maps.google.com/?q=33.8959295,35.5305441",
   "source": "osm"
  },
  {
   "nom": "يونيفيرسال الروشة",
   "categorie": "Hôtel",
   "priceRange": "€€",
   "mapsUrl": "https://maps.google.com/?q=33.8923005,35.4729929",
   "lat": 33.8923005,
   "lng": 35.4729929,
   "halalFriendly": false,
   "bookingUrl": "https://maps.google.com/?q=33.8923005,35.4729929",
   "source": "osm"
  },
  {
   "nom": "The Diplomat",
   "categorie": "Hôtel",
   "priceRange": "€€",
   "mapsUrl": "https://maps.google.com/?q=33.8905103,35.4731249",
   "lat": 33.8905103,
   "lng": 35.4731249,
   "halalFriendly": false,
   "bookingUrl": "https://maps.google.com/?q=33.8905103,35.4731249",
   "source": "osm"
  },
  {
   "nom": "The Colony Beirut Hostel",
   "categorie": "Auberge",
   "priceRange": "€€",
   "mapsUrl": "https://maps.google.com/?q=33.901173,35.529762",
   "lat": 33.901173,
   "lng": 35.529762,
   "halalFriendly": false,
   "bookingUrl": "https://maps.google.com/?q=33.901173,35.529762",
   "source": "osm"
  },
  {
   "nom": "فندق موفنبيك",
   "categorie": "Hôtel",
   "priceRange": "€€",
   "mapsUrl": "https://maps.google.com/?q=33.885487,35.4741533",
   "lat": 33.885487,
   "lng": 35.4741533,
   "halalFriendly": false,
   "bookingUrl": "https://maps.google.com/?q=33.885487,35.4741533",
   "source": "osm"
  },
  {
   "nom": "فندق ريفييرا",
   "categorie": "Hôtel",
   "priceRange": "€€€€",
   "score": 5,
   "mapsUrl": "https://maps.google.com/?q=33.9004646,35.4733535",
   "lat": 33.9004646,
   "lng": 35.4733535,
   "halalFriendly": false,
   "bookingUrl": "https://maps.google.com/?q=33.9004646,35.4733535",
   "source": "osm"
  },
  {
   "nom": "City Suite Hotel",
   "categorie": "Hôtel",
   "priceRange": "€€",
   "mapsUrl": "https://maps.google.com/?q=33.8925377,35.472109",
   "lat": 33.8925377,
   "lng": 35.472109,
   "halalFriendly": false,
   "bookingUrl": "https://maps.google.com/?q=33.8925377,35.472109",
   "source": "osm"
  },
  {
   "nom": "سي روك",
   "categorie": "Hôtel",
   "priceRange": "€€",
   "mapsUrl": "https://maps.google.com/?q=33.892877,35.4720516",
   "lat": 33.892877,
   "lng": 35.4720516,
   "halalFriendly": false,
   "bookingUrl": "https://maps.google.com/?q=33.892877,35.4720516",
   "source": "osm"
  },
  {
   "nom": "La Vida Suite",
   "categorie": "Hôtel",
   "priceRange": "€€",
   "mapsUrl": "https://maps.google.com/?q=33.8919413,35.4718518",
   "lat": 33.8919413,
   "lng": 35.4718518,
   "halalFriendly": false,
   "bookingUrl": "https://maps.google.com/?q=33.8919413,35.4718518",
   "source": "osm"
  },
  {
   "nom": "روشة أرجان",
   "categorie": "Hôtel",
   "priceRange": "€€",
   "mapsUrl": "https://maps.google.com/?q=33.8921718,35.4714725",
   "lat": 33.8921718,
   "lng": 35.4714725,
   "halalFriendly": false,
   "bookingUrl": "https://maps.google.com/?q=33.8921718,35.4714725",
   "source": "osm"
  },
  {
   "nom": "مرتضى",
   "categorie": "Hôtel",
   "priceRange": "€€",
   "mapsUrl": "https://maps.google.com/?q=33.8898597,35.4717077",
   "lat": 33.8898597,
   "lng": 35.4717077,
   "halalFriendly": false,
   "bookingUrl": "https://maps.google.com/?q=33.8898597,35.4717077",
   "source": "osm"
  },
  {
   "nom": "فندقنا",
   "categorie": "Hôtel",
   "priceRange": "€€",
   "mapsUrl": "https://maps.google.com/?q=33.8954738,35.4704754",
   "lat": 33.8954738,
   "lng": 35.4704754,
   "halalFriendly": false,
   "bookingUrl": "https://maps.google.com/?q=33.8954738,35.4704754",
   "source": "osm"
  },
  {
   "nom": "Rana Hdeib",
   "categorie": "Appartement",
   "priceRange": "€€",
   "mapsUrl": "https://maps.google.com/?q=33.8687155,35.5132677",
   "lat": 33.8687155,
   "lng": 35.5132677,
   "halalFriendly": false,
   "bookingUrl": "https://maps.google.com/?q=33.8687155,35.5132677",
   "source": "osm"
  },
  {
   "nom": "Saintd Lourdes Residences",
   "categorie": "Hôtel",
   "priceRange": "€€",
   "mapsUrl": "https://maps.google.com/?q=33.8698487,35.517005",
   "lat": 33.8698487,
   "lng": 35.517005,
   "halalFriendly": false,
   "bookingUrl": "https://maps.google.com/?q=33.8698487,35.517005",
   "source": "osm"
  },
  {
   "nom": "لانكستر إيدن بي",
   "categorie": "Hôtel",
   "priceRange": "€€",
   "mapsUrl": "https://maps.google.com/?q=33.8712625,35.4816968",
   "lat": 33.8712625,
   "lng": 35.4816968,
   "halalFriendly": false,
   "bookingUrl": "https://maps.google.com/?q=33.8712625,35.4816968",
   "source": "osm"
  },
  {
   "nom": "فندق ومنتجع كمبينسكي سمرلاند بيروت",
   "categorie": "Hôtel",
   "priceRange": "€€",
   "mapsUrl": "https://maps.google.com/?q=33.8670448,35.4815866",
   "lat": 33.8670448,
   "lng": 35.4815866,
   "halalFriendly": false,
   "bookingUrl": "https://maps.google.com/?q=33.8670448,35.4815866",
   "source": "osm"
  },
  {
   "nom": "غرف منامة للفتيات",
   "categorie": "Auberge",
   "priceRange": "€€",
   "mapsUrl": "https://maps.google.com/?q=33.8667673,35.5222496",
   "lat": 33.8667673,
   "lng": 35.5222496,
   "halalFriendly": false,
   "bookingUrl": "https://maps.google.com/?q=33.8667673,35.5222496",
   "source": "osm"
  }
 ],
 "activites": [
  {
   "nom": "رفيق الحريري",
   "lat": 33.8952402,
   "lng": 35.501074,
   "coordonnees": {
    "lat": 33.8952402,
    "lng": 35.501074
   },
   "categorie": "À voir",
   "mapsUrl": "https://maps.google.com/?q=33.8952402,35.501074",
   "source": "osm"
  },
  {
   "nom": "عمر الأنسي",
   "lat": 33.8958095,
   "lng": 35.5020792,
   "coordonnees": {
    "lat": 33.8958095,
    "lng": 35.5020792
   },
   "categorie": "Histoire",
   "mapsUrl": "https://maps.google.com/?q=33.8958095,35.5020792",
   "source": "osm"
  },
  {
   "nom": "Cardo Decumanus Crossing",
   "lat": 33.8950399,
   "lng": 35.5048184,
   "coordonnees": {
    "lat": 33.8950399,
    "lng": 35.5048184
   },
   "categorie": "Histoire",
   "mapsUrl": "https://maps.google.com/?q=33.8950399,35.5048184",
   "source": "osm"
  },
  {
   "nom": "Cisterns of the Roman Baths",
   "lat": 33.8967302,
   "lng": 35.5025342,
   "coordonnees": {
    "lat": 33.8967302,
    "lng": 35.5025342
   },
   "categorie": "Histoire",
   "mapsUrl": "https://maps.google.com/?q=33.8967302,35.5025342",
   "source": "osm"
  },
  {
   "nom": "مضمار سباق الخيل الروماني",
   "lat": 33.8972054,
   "lng": 35.4999211,
   "coordonnees": {
    "lat": 33.8972054,
    "lng": 35.4999211
   },
   "categorie": "Histoire",
   "mapsUrl": "https://maps.google.com/?q=33.8972054,35.4999211",
   "source": "osm"
  },
  {
   "nom": "أسد سان ماركو",
   "lat": 33.8967927,
   "lng": 35.504926,
   "coordonnees": {
    "lat": 33.8967927,
    "lng": 35.504926
   },
   "categorie": "Histoire",
   "mapsUrl": "https://maps.google.com/?q=33.8967927,35.504926",
   "source": "osm"
  },
  {
   "nom": "منظر الآثار الرومانية",
   "lat": 33.8960443,
   "lng": 35.5061353,
   "coordonnees": {
    "lat": 33.8960443,
    "lng": 35.5061353
   },
   "categorie": "Panorama",
   "mapsUrl": "https://maps.google.com/?q=33.8960443,35.5061353",
   "source": "osm"
  },
  {
   "nom": "قبضة الثورة",
   "lat": 33.8954093,
   "lng": 35.5068933,
   "coordonnees": {
    "lat": 33.8954093,
    "lng": 35.5068933
   },
   "categorie": "À voir",
   "mapsUrl": "https://maps.google.com/?q=33.8954093,35.5068933",
   "source": "osm"
  },
  {
   "nom": "مزاييك بيزانطيين",
   "lat": 33.8986324,
   "lng": 35.503157,
   "coordonnees": {
    "lat": 33.8986324,
    "lng": 35.503157
   },
   "categorie": "Histoire",
   "mapsUrl": "https://maps.google.com/?q=33.8986324,35.503157",
   "source": "osm"
  },
  {
   "nom": "تمثال الشهداء",
   "lat": 33.8963807,
   "lng": 35.5071533,
   "coordonnees": {
    "lat": 33.8963807,
    "lng": 35.5071533
   },
   "categorie": "À voir",
   "mapsUrl": "https://maps.google.com/?q=33.8963807,35.5071533",
   "source": "osm"
  },
  {
   "nom": "Groupe Aman",
   "lat": 33.899209,
   "lng": 35.5018872,
   "coordonnees": {
    "lat": 33.899209,
    "lng": 35.5018872
   },
   "categorie": "À voir",
   "mapsUrl": "https://maps.google.com/?q=33.899209,35.5018872",
   "source": "osm"
  },
  {
   "nom": "Samir Kassir Statue",
   "lat": 33.8977954,
   "lng": 35.5066937,
   "coordonnees": {
    "lat": 33.8977954,
    "lng": 35.5066937
   },
   "categorie": "Histoire",
   "mapsUrl": "https://maps.google.com/?q=33.8977954,35.5066937",
   "source": "osm"
  },
  {
   "nom": "Museum of Lebanese Prehistory",
   "lat": 33.8915926,
   "lng": 35.5081645,
   "coordonnees": {
    "lat": 33.8915926,
    "lng": 35.5081645
   },
   "categorie": "Culture",
   "mapsUrl": "https://maps.google.com/?q=33.8915926,35.5081645",
   "source": "osm"
  },
  {
   "nom": "Rue Damas (ligne verte)",
   "lat": 33.8892327,
   "lng": 35.5067089,
   "coordonnees": {
    "lat": 33.8892327,
    "lng": 35.5067089
   },
   "categorie": "Histoire",
   "mapsUrl": "https://maps.google.com/?q=33.8892327,35.5067089",
   "source": "osm"
  },
  {
   "nom": "نصب بيروت التذكاري للانفجار",
   "lat": 33.896106,
   "lng": 35.5090496,
   "coordonnees": {
    "lat": 33.896106,
    "lng": 35.5090496
   },
   "categorie": "À voir",
   "mapsUrl": "https://maps.google.com/?q=33.896106,35.5090496",
   "source": "osm"
  },
  {
   "nom": "Quartier Scout",
   "lat": 33.8978471,
   "lng": 35.5079721,
   "coordonnees": {
    "lat": 33.8978471,
    "lng": 35.5079721
   },
   "categorie": "À voir",
   "mapsUrl": "https://maps.google.com/?q=33.8978471,35.5079721",
   "source": "osm"
  },
  {
   "nom": "بناية البنك الدولي بيروت",
   "lat": 33.8994744,
   "lng": 35.5057969,
   "coordonnees": {
    "lat": 33.8994744,
    "lng": 35.5057969
   },
   "categorie": "Histoire",
   "mapsUrl": "https://maps.google.com/?q=33.8994744,35.5057969",
   "source": "osm"
  },
  {
   "nom": "Bains Romains",
   "lat": 33.8938778,
   "lng": 35.5100465,
   "coordonnees": {
    "lat": 33.8938778,
    "lng": 35.5100465
   },
   "categorie": "Histoire",
   "mapsUrl": "https://maps.google.com/?q=33.8938778,35.5100465",
   "source": "osm"
  },
  {
   "nom": "No/mad utopia art gallery",
   "lat": 33.8951689,
   "lng": 35.5101039,
   "coordonnees": {
    "lat": 33.8951689,
    "lng": 35.5101039
   },
   "categorie": "Culture",
   "mapsUrl": "https://maps.google.com/?q=33.8951689,35.5101039",
   "source": "osm"
  },
  {
   "nom": "بولا",
   "lat": 33.8989286,
   "lng": 35.4959891,
   "coordonnees": {
    "lat": 33.8989286,
    "lng": 35.4959891
   },
   "categorie": "À voir",
   "mapsUrl": "https://maps.google.com/?q=33.8989286,35.4959891",
   "source": "osm"
  },
  {
   "nom": "ساحة القصر",
   "lat": 33.8996032,
   "lng": 35.5068623,
   "coordonnees": {
    "lat": 33.8996032,
    "lng": 35.5068623
   },
   "categorie": "Histoire",
   "mapsUrl": "https://maps.google.com/?q=33.8996032,35.5068623",
   "source": "osm"
  },
  {
   "nom": "Restoration",
   "lat": 33.9010154,
   "lng": 35.5036419,
   "coordonnees": {
    "lat": 33.9010154,
    "lng": 35.5036419
   },
   "categorie": "Histoire",
   "mapsUrl": "https://maps.google.com/?q=33.9010154,35.5036419",
   "source": "osm"
  },
  {
   "nom": "تل قديم: بوابة الكنعانيين",
   "lat": 33.8986295,
   "lng": 35.5090312,
   "coordonnees": {
    "lat": 33.8986295,
    "lng": 35.5090312
   },
   "categorie": "Histoire",
   "mapsUrl": "https://maps.google.com/?q=33.8986295,35.5090312",
   "source": "osm"
  },
  {
   "nom": "تمثال بشارة الخوري",
   "lat": 33.8865659,
   "lng": 35.5064411,
   "coordonnees": {
    "lat": 33.8865659,
    "lng": 35.5064411
   },
   "categorie": "Histoire",
   "mapsUrl": "https://maps.google.com/?q=33.8865659,35.5064411",
   "source": "osm"
  },
  {
   "nom": "آرت سين استوديو",
   "lat": 33.8949173,
   "lng": 35.5117853,
   "coordonnees": {
    "lat": 33.8949173,
    "lng": 35.5117853
   },
   "categorie": "Culture",
   "mapsUrl": "https://maps.google.com/?q=33.8949173,35.5117853",
   "source": "osm"
  },
  {
   "nom": "Paul Warde Gemmayzé",
   "lat": 33.8939571,
   "lng": 35.5122693,
   "coordonnees": {
    "lat": 33.8939571,
    "lng": 35.5122693
   },
   "categorie": "À voir",
   "mapsUrl": "https://maps.google.com/?q=33.8939571,35.5122693",
   "source": "osm"
  },
  {
   "nom": "Immeuble WARDE",
   "lat": 33.8900053,
   "lng": 35.5112285,
   "coordonnees": {
    "lat": 33.8900053,
    "lng": 35.5112285
   },
   "categorie": "À voir",
   "mapsUrl": "https://maps.google.com/?q=33.8900053,35.5112285",
   "source": "osm"
  },
  {
   "nom": "دار النمر",
   "lat": 33.8968311,
   "lng": 35.4913107,
   "coordonnees": {
    "lat": 33.8968311,
    "lng": 35.4913107
   },
   "categorie": "Culture",
   "mapsUrl": "https://maps.google.com/?q=33.8968311,35.4913107",
   "source": "osm"
  },
  {
   "nom": "اغتيال رفيق الحريري",
   "lat": 33.9015029,
   "lng": 35.4945897,
   "coordonnees": {
    "lat": 33.9015029,
    "lng": 35.4945897
   },
   "categorie": "Histoire",
   "mapsUrl": "https://maps.google.com/?q=33.9015029,35.4945897",
   "source": "osm"
  },
  {
   "nom": "بيت أمير",
   "lat": 33.8968196,
   "lng": 35.4902041,
   "coordonnees": {
    "lat": 33.8968196,
    "lng": 35.4902041
   },
   "categorie": "Culture",
   "mapsUrl": "https://maps.google.com/?q=33.8968196,35.4902041",
   "source": "osm"
  },
  {
   "nom": "DecoRay",
   "lat": 33.890361,
   "lng": 35.5134534,
   "coordonnees": {
    "lat": 33.890361,
    "lng": 35.5134534
   },
   "categorie": "À voir",
   "mapsUrl": "https://maps.google.com/?q=33.890361,35.5134534",
   "source": "osm"
  },
  {
   "nom": "مسجد جميل",
   "lat": 33.8943395,
   "lng": 35.4891729,
   "coordonnees": {
    "lat": 33.8943395,
    "lng": 35.4891729
   },
   "categorie": "Culture",
   "mapsUrl": "https://maps.google.com/?q=33.8943395,35.4891729",
   "source": "osm"
  },
  {
   "nom": "Ardeco Gallery",
   "lat": 33.889434,
   "lng": 35.5134897,
   "coordonnees": {
    "lat": 33.889434,
    "lng": 35.5134897
   },
   "categorie": "Culture",
   "mapsUrl": "https://maps.google.com/?q=33.889434,35.5134897",
   "source": "osm"
  },
  {
   "nom": "تمثال جمال عبد الناصر",
   "lat": 33.9010251,
   "lng": 35.4908759,
   "coordonnees": {
    "lat": 33.9010251,
    "lng": 35.4908759
   },
   "categorie": "Histoire",
   "mapsUrl": "https://maps.google.com/?q=33.9010251,35.4908759",
   "source": "osm"
  },
  {
   "nom": "M Square gallery",
   "lat": 33.8932749,
   "lng": 35.4878312,
   "coordonnees": {
    "lat": 33.8932749,
    "lng": 35.4878312
   },
   "categorie": "Culture",
   "mapsUrl": "https://maps.google.com/?q=33.8932749,35.4878312",
   "source": "osm"
  },
  {
   "nom": "Art on 56th",
   "lat": 33.8953525,
   "lng": 35.5163522,
   "coordonnees": {
    "lat": 33.8953525,
    "lng": 35.5163522
   },
   "categorie": "Culture",
   "mapsUrl": "https://maps.google.com/?q=33.8953525,35.5163522",
   "source": "osm"
  },
  {
   "nom": "Maison Mortalis",
   "lat": 33.8990664,
   "lng": 35.4883075,
   "coordonnees": {
    "lat": 33.8990664,
    "lng": 35.4883075
   },
   "categorie": "À voir",
   "mapsUrl": "https://maps.google.com/?q=33.8990664,35.4883075",
   "source": "osm"
  },
  {
   "nom": "Vision",
   "lat": 33.892419,
   "lng": 35.5168512,
   "coordonnees": {
    "lat": 33.892419,
    "lng": 35.5168512
   },
   "categorie": "À voir",
   "mapsUrl": "https://maps.google.com/?q=33.892419,35.5168512",
   "source": "osm"
  },
  {
   "nom": "No-Saffé-Land",
   "lat": 33.8809595,
   "lng": 35.5015426,
   "coordonnees": {
    "lat": 33.8809595,
    "lng": 35.5015426
   },
   "categorie": "Histoire",
   "mapsUrl": "https://maps.google.com/?q=33.8809595,35.5015426",
   "source": "osm"
  },
  {
   "nom": "Fairouz",
   "lat": 33.8949569,
   "lng": 35.517444,
   "coordonnees": {
    "lat": 33.8949569,
    "lng": 35.517444
   },
   "categorie": "À voir",
   "mapsUrl": "https://maps.google.com/?q=33.8949569,35.517444",
   "source": "osm"
  }
 ],
 "mosqueesPrincipales": [
  {
   "nom": "مسجد سليم سلام",
   "lat": 33.8861725,
   "lng": 35.4981095,
   "coordonnees": {
    "lat": 33.8861725,
    "lng": 35.4981095
   },
   "adresse": "بيروت",
   "mapsUrl": "https://maps.google.com/?q=33.8861725,35.4981095",
   "source": "osm"
  },
  {
   "nom": "مسجد برج أبي حيدر",
   "lat": 33.8850708,
   "lng": 35.499807,
   "coordonnees": {
    "lat": 33.8850708,
    "lng": 35.499807
   },
   "adresse": "بيروت",
   "mapsUrl": "https://maps.google.com/?q=33.8850708,35.499807",
   "source": "osm"
  },
  {
   "nom": "جامع الإمام علي",
   "lat": 33.8715906,
   "lng": 35.5003943,
   "coordonnees": {
    "lat": 33.8715906,
    "lng": 35.5003943
   },
   "mapsUrl": "https://maps.google.com/?q=33.8715906,35.5003943",
   "source": "osm"
  },
  {
   "nom": "عزاء عاشوراء بالضاحيه الجنوبيه",
   "lat": 33.8556525,
   "lng": 35.5153316,
   "coordonnees": {
    "lat": 33.8556525,
    "lng": 35.5153316
   },
   "mapsUrl": "https://maps.google.com/?q=33.8556525,35.5153316",
   "source": "osm"
  },
  {
   "nom": "مسجد الخميني",
   "lat": 33.8313419,
   "lng": 35.5086174,
   "coordonnees": {
    "lat": 33.8313419,
    "lng": 35.5086174
   },
   "mapsUrl": "https://maps.google.com/?q=33.8313419,35.5086174",
   "source": "osm"
  },
  {
   "nom": "Mosala",
   "lat": 33.7444713,
   "lng": 35.4555194,
   "coordonnees": {
    "lat": 33.7444713,
    "lng": 35.4555194
   },
   "mapsUrl": "https://maps.google.com/?q=33.7444713,35.4555194",
   "source": "osm"
  }
 ],
 "tags": [
  "gastronomie",
  "levant",
  "mediterranee",
  "culture",
  "cosmopolite",
  "mezze"
 ],
 "description_en": "Beyrouth, in Lebanon, is a halal-friendly destination with a Halal Trust Score of 3.8/5. Muslim travelers will find 94 halal restaurants listed, 150 mosques, real-time prayer times and the Qibla direction — a complete guide to travel with peace of mind.",
 "metaDescription_en": "Halal guide to Beyrouth: 94 halal restaurants listed, 150 mosques, prayer times and tips for Muslim travelers. Halal Trust Score 3.8/5.",
 "nom_en": "Beyrouth",
 "boucheries": [],
 "infos_pratiques_en": {
  "monnaie": "Livre libanaise (LBP)",
  "meilleure_periode": "April to June, Sept to Nov",
  "appel_priere": "5 times a day",
  "nourriture_halal": "Largement disponible",
  "alcool": "Available"
 },
 "dataPurgedAt": "2026-07-15"
}