{
  "slug": "bichkek",
  "nom": "Bichkek",
  "pays": "Kirghizistan",
  "pays_slug": "kirghizistan",
  "continent": "Asie",
  "region": "Kirghizistan",
  "coordonnees": {
    "lat": 42.8746,
    "lng": 74.5698
  },
  "codeISO": "KG",
  "score_halal": 4.2,
  "halalScore": 8.4,
  "description": "Bichkek, Kirghizistan. Forte présence musulmane : nombreuses adresses halal et mosquées.",
  "metaDescription": "Bichkek, Kirghizistan. Forte présence musulmane : nombreuses adresses halal et mosquées.",
  "image": "https://upload.wikimedia.org/wikipedia/commons/thumb/2/22/Bishkek.jpg/1920px-Bishkek.jpg",
  "image_hero": "https://upload.wikimedia.org/wikipedia/commons/thumb/2/22/Bishkek.jpg/1920px-Bishkek.jpg",
  "imageCredit": "Wikimedia Commons",
  "scoreIndicatif": true,
  "statistiques": {
    "restaurants_halal": 30,
    "mosquees": 17,
    "hotels": 120
  },
  "infoPratique": {
    "transport": "Accessible par avion et transports locaux.",
    "meilleureEpoque": "Selon la saison.",
    "conseilHalal": "Repérez restaurants halal et mosquées via l'application."
  },
  "tags": [
    "halal",
    "asie"
  ],
  "restaurants": [
    {
      "nom": "Dodo Pizza",
      "type": "pizza",
      "priceRange": "€€",
      "mapsUrl": "https://maps.google.com/?q=42.875353,74.5824353",
      "lat": 42.875353,
      "lng": 74.5824353,
      "halalConfidence": "yes",
      "source": "osm"
    },
    {
      "nom": "Lanzhou",
      "type": "chinese",
      "priceRange": "€€",
      "mapsUrl": "https://maps.google.com/?q=42.8747552,74.5902586",
      "lat": 42.8747552,
      "lng": 74.5902586,
      "halalConfidence": "yes",
      "source": "osm"
    },
    {
      "nom": "Navat",
      "type": "regional",
      "priceRange": "€€",
      "mapsUrl": "https://maps.google.com/?q=42.8554998,74.5854541",
      "lat": 42.8554998,
      "lng": 74.5854541,
      "halalConfidence": "yes",
      "source": "osm"
    },
    {
      "nom": "兰州牛肉拉面",
      "type": "chinese",
      "priceRange": "€€",
      "mapsUrl": "https://maps.google.com/?q=42.8753572,74.6280359",
      "lat": 42.8753572,
      "lng": 74.6280359,
      "halalConfidence": "yes",
      "source": "osm"
    },
    {
      "nom": "Махмут Кашгари",
      "type": "local",
      "priceRange": "€€",
      "mapsUrl": "https://maps.google.com/?q=42.8755788,74.6323644",
      "lat": 42.8755788,
      "lng": 74.6323644,
      "halalConfidence": "yes",
      "source": "osm"
    },
    {
      "nom": "Дасторкон",
      "type": "burger, coffee shop, hotdog, international, kebab",
      "priceRange": "€€",
      "mapsUrl": "https://maps.google.com/?q=42.8748458,74.6364593",
      "lat": 42.8748458,
      "lng": 74.6364593,
      "halalConfidence": "yes",
      "source": "osm"
    },
    {
      "nom": "Nuri Usta",
      "type": "turkish",
      "priceRange": "€€",
      "mapsUrl": "https://maps.google.com/?q=42.8713648,74.5811802",
      "lat": 42.8713648,
      "lng": 74.5811802,
      "halalConfidence": "likely",
      "source": "osm"
    },
    {
      "nom": "Карделен",
      "type": "turkish",
      "priceRange": "€€",
      "mapsUrl": "https://maps.google.com/?q=42.8760007,74.5952996",
      "lat": 42.8760007,
      "lng": 74.5952996,
      "halalConfidence": "likely",
      "source": "osm"
    },
    {
      "nom": "Омар Хайям",
      "type": "turkish",
      "priceRange": "€€",
      "mapsUrl": "https://maps.google.com/?q=42.8729368,74.6027655",
      "lat": 42.8729368,
      "lng": 74.6027655,
      "halalConfidence": "likely",
      "source": "osm"
    },
    {
      "nom": "Халил Ибрахим Дасторхону",
      "type": "turkish",
      "priceRange": "€€",
      "mapsUrl": "https://maps.google.com/?q=42.8570813,74.5983878",
      "lat": 42.8570813,
      "lng": 74.5983878,
      "halalConfidence": "likely",
      "source": "osm"
    },
    {
      "nom": "Очак кебаб",
      "type": "kebab, regional",
      "priceRange": "€€",
      "mapsUrl": "https://maps.google.com/?q=42.8705675,74.6068788",
      "lat": 42.8705675,
      "lng": 74.6068788,
      "halalConfidence": "likely",
      "source": "osm"
    },
    {
      "nom": "Yaren",
      "type": "turkish",
      "priceRange": "€€",
      "mapsUrl": "https://maps.google.com/?q=42.8689879,74.6090869",
      "lat": 42.8689879,
      "lng": 74.6090869,
      "halalConfidence": "likely",
      "source": "osm"
    },
    {
      "nom": "Эки Дос",
      "type": "kebab",
      "priceRange": "€€",
      "mapsUrl": "https://maps.google.com/?q=42.8740633,74.6113253",
      "lat": 42.8740633,
      "lng": 74.6113253,
      "halalConfidence": "likely",
      "source": "osm"
    },
    {
      "nom": "Cafe Aria",
      "type": "fish, burger, breakfast, tea, cake, persian, coffee shop, pasta, pizza, diner, chicken",
      "priceRange": "€€",
      "mapsUrl": "https://maps.google.com/?q=42.8597185,74.6109018",
      "lat": 42.8597185,
      "lng": 74.6109018,
      "halalConfidence": "likely",
      "source": "osm"
    },
    {
      "nom": "Нават",
      "type": "fish, grill, kebab, local, oriental, regional",
      "priceRange": "€€",
      "mapsUrl": "https://maps.google.com/?q=42.8573629,74.6105686",
      "lat": 42.8573629,
      "lng": 74.6105686,
      "halalConfidence": "likely",
      "source": "osm"
    },
    {
      "nom": "L'Azzurro",
      "type": "turkish",
      "priceRange": "€€",
      "mapsUrl": "https://maps.google.com/?q=42.8800444,74.6179265",
      "lat": 42.8800444,
      "lng": 74.6179265,
      "halalConfidence": "likely",
      "source": "osm"
    },
    {
      "nom": "Arabian Nights",
      "type": "arab",
      "priceRange": "€€",
      "mapsUrl": "https://maps.google.com/?q=42.8535552,74.6104088",
      "lat": 42.8535552,
      "lng": 74.6104088,
      "halalConfidence": "likely",
      "source": "osm"
    },
    {
      "nom": "Besh Lavash",
      "type": "kebab",
      "priceRange": "€€",
      "mapsUrl": "https://maps.google.com/?q=42.8760781,74.623615",
      "lat": 42.8760781,
      "lng": 74.623615,
      "halalConfidence": "likely",
      "source": "osm"
    },
    {
      "nom": "Lotus Cafe & Restaurant",
      "type": "turkish",
      "priceRange": "€€",
      "mapsUrl": "https://maps.google.com/?q=42.835087,74.5657223",
      "lat": 42.835087,
      "lng": 74.5657223,
      "halalConfidence": "likely",
      "source": "osm"
    },
    {
      "nom": "Kazan",
      "type": "kebab",
      "priceRange": "€€",
      "mapsUrl": "https://maps.google.com/?q=42.8745945,74.6264533",
      "lat": 42.8745945,
      "lng": 74.6264533,
      "halalConfidence": "likely",
      "source": "osm"
    },
    {
      "nom": "Saffran",
      "type": "burger, pizza, kebab",
      "priceRange": "€€",
      "mapsUrl": "https://maps.google.com/?q=42.8435848,74.6084048",
      "lat": 42.8435848,
      "lng": 74.6084048,
      "halalConfidence": "likely",
      "source": "osm"
    },
    {
      "nom": "Daamduu",
      "type": "burger, kebab, pancake, fried food",
      "priceRange": "€€",
      "mapsUrl": "https://maps.google.com/?q=42.8753165,74.6336753",
      "lat": 42.8753165,
      "lng": 74.6336753,
      "halalConfidence": "likely",
      "source": "osm"
    },
    {
      "nom": "Lev",
      "type": "shawarma",
      "priceRange": "€€",
      "mapsUrl": "https://maps.google.com/?q=42.9252355,74.592068",
      "lat": 42.9252355,
      "lng": 74.592068,
      "halalConfidence": "likely",
      "source": "osm"
    },
    {
      "nom": "Fen",
      "type": "kebab, burger",
      "priceRange": "€€",
      "mapsUrl": "https://maps.google.com/?q=42.8354557,74.6217553",
      "lat": 42.8354557,
      "lng": 74.6217553,
      "halalConfidence": "likely",
      "source": "osm"
    },
    {
      "nom": "Mermer",
      "type": "kebab",
      "priceRange": "€€",
      "mapsUrl": "https://maps.google.com/?q=42.830552,74.6217304",
      "lat": 42.830552,
      "lng": 74.6217304,
      "halalConfidence": "likely",
      "source": "osm"
    }
  ],
  "hotels": [
    {
      "nom": "Koisha Hostel",
      "categorie": "Auberge",
      "priceRange": "€€",
      "mapsUrl": "https://maps.google.com/?q=42.8763608,74.5729757",
      "lat": 42.8763608,
      "lng": 74.5729757,
      "halalFriendly": false,
      "bookingUrl": "https://maps.google.com/?q=42.8763608,74.5729757",
      "source": "osm"
    },
    {
      "nom": "Eva at home",
      "categorie": "Auberge",
      "priceRange": "€€",
      "mapsUrl": "https://maps.google.com/?q=42.8715757,74.5692163",
      "lat": 42.8715757,
      "lng": 74.5692163,
      "halalFriendly": false,
      "bookingUrl": "https://maps.google.com/?q=42.8715757,74.5692163",
      "source": "osm"
    },
    {
      "nom": "Cozy House Hotel",
      "categorie": "Hôtel",
      "priceRange": "€€",
      "mapsUrl": "https://maps.google.com/?q=42.8718267,74.5716354",
      "lat": 42.8718267,
      "lng": 74.5716354,
      "halalFriendly": false,
      "bookingUrl": "https://maps.google.com/?q=42.8718267,74.5716354",
      "source": "osm"
    },
    {
      "nom": "Viva Guesthouse Bishkek",
      "categorie": "Maison d'hôtes",
      "priceRange": "€€",
      "mapsUrl": "https://maps.google.com/?q=42.878899,74.5710918",
      "lat": 42.878899,
      "lng": 74.5710918,
      "halalFriendly": false,
      "bookingUrl": "https://maps.google.com/?q=42.878899,74.5710918",
      "source": "osm"
    },
    {
      "nom": "Hostel 23 - 56B appt. no.",
      "categorie": "Auberge",
      "priceRange": "€€",
      "mapsUrl": "https://maps.google.com/?q=42.8742004,74.5791063",
      "lat": 42.8742004,
      "lng": 74.5791063,
      "halalFriendly": false,
      "bookingUrl": "https://maps.google.com/?q=42.8742004,74.5791063",
      "source": "osm"
    },
    {
      "nom": "Hostel 23c",
      "categorie": "Auberge",
      "priceRange": "€€",
      "mapsUrl": "https://maps.google.com/?q=42.8736887,74.5790731",
      "lat": 42.8736887,
      "lng": 74.5790731,
      "halalFriendly": false,
      "bookingUrl": "https://maps.google.com/?q=42.8736887,74.5790731",
      "source": "osm"
    },
    {
      "nom": "ololo Freelander Hostel & Coworking",
      "categorie": "Auberge",
      "priceRange": "€€",
      "mapsUrl": "https://maps.google.com/?q=42.8677675,74.5724441",
      "lat": 42.8677675,
      "lng": 74.5724441,
      "halalFriendly": false,
      "bookingUrl": "https://ololo.city/",
      "source": "osm"
    },
    {
      "nom": "Concord Hotel Bishkek",
      "categorie": "Hôtel",
      "priceRange": "€€",
      "mapsUrl": "https://maps.google.com/?q=42.8676415,74.5720958",
      "lat": 42.8676415,
      "lng": 74.5720958,
      "halalFriendly": false,
      "bookingUrl": "https://maps.google.com/?q=42.8676415,74.5720958",
      "source": "osm"
    },
    {
      "nom": "Тимирязева",
      "categorie": "Appartement",
      "priceRange": "€€",
      "mapsUrl": "https://maps.google.com/?q=42.8720298,74.5789768",
      "lat": 42.8720298,
      "lng": 74.5789768,
      "halalFriendly": false,
      "bookingUrl": "https://maps.google.com/?q=42.8720298,74.5789768",
      "source": "osm"
    },
    {
      "nom": "Madison Ave Hotel Bishkek",
      "categorie": "Hôtel",
      "priceRange": "€€",
      "mapsUrl": "https://maps.google.com/?q=42.8755253,74.5799486",
      "lat": 42.8755253,
      "lng": 74.5799486,
      "halalFriendly": false,
      "bookingUrl": "https://maps.google.com/?q=42.8755253,74.5799486",
      "source": "osm"
    },
    {
      "nom": "Bridges Hotel",
      "categorie": "Hôtel",
      "priceRange": "€€",
      "mapsUrl": "https://maps.google.com/?q=42.867737,74.576564",
      "lat": 42.867737,
      "lng": 74.576564,
      "halalFriendly": false,
      "bookingUrl": "http://bridges.kg/",
      "source": "osm"
    },
    {
      "nom": "Soluxe Hotel",
      "categorie": "Hôtel",
      "priceRange": "€€",
      "mapsUrl": "https://maps.google.com/?q=42.8803235,74.5784472",
      "lat": 42.8803235,
      "lng": 74.5784472,
      "halalFriendly": false,
      "bookingUrl": "https://maps.google.com/?q=42.8803235,74.5784472",
      "source": "osm"
    },
    {
      "nom": "Bugu Hotel",
      "categorie": "Hôtel",
      "priceRange": "€€",
      "mapsUrl": "https://maps.google.com/?q=42.8786705,74.5813569",
      "lat": 42.8786705,
      "lng": 74.5813569,
      "halalFriendly": false,
      "bookingUrl": "https://maps.google.com/?q=42.8786705,74.5813569",
      "source": "osm"
    },
    {
      "nom": "Lotos Guesthouse",
      "categorie": "Maison d'hôtes",
      "priceRange": "€€",
      "mapsUrl": "https://maps.google.com/?q=42.8819211,74.5786648",
      "lat": 42.8819211,
      "lng": 74.5786648,
      "halalFriendly": false,
      "bookingUrl": "https://maps.google.com/?q=42.8819211,74.5786648",
      "source": "osm"
    },
    {
      "nom": "SilkRoad Guesthouse",
      "categorie": "Maison d'hôtes",
      "priceRange": "€€",
      "mapsUrl": "https://maps.google.com/?q=42.8843081,74.5667446",
      "lat": 42.8843081,
      "lng": 74.5667446,
      "halalFriendly": false,
      "bookingUrl": "https://maps.google.com/?q=42.8843081,74.5667446",
      "source": "osm"
    },
    {
      "nom": "Hostel 23",
      "categorie": "Auberge",
      "priceRange": "€€",
      "mapsUrl": "https://maps.google.com/?q=42.8745193,74.5836086",
      "lat": 42.8745193,
      "lng": 74.5836086,
      "halalFriendly": false,
      "bookingUrl": "https://maps.google.com/?q=42.8745193,74.5836086",
      "source": "osm"
    },
    {
      "nom": "Rich Hotel",
      "categorie": "Hôtel",
      "priceRange": "€€€",
      "score": 3,
      "mapsUrl": "https://maps.google.com/?q=42.8814866,74.5803649",
      "lat": 42.8814866,
      "lng": 74.5803649,
      "halalFriendly": false,
      "bookingUrl": "https://maps.google.com/?q=42.8814866,74.5803649",
      "source": "osm"
    },
    {
      "nom": "Бишкек",
      "categorie": "Hôtel",
      "priceRange": "€€",
      "mapsUrl": "https://maps.google.com/?q=42.8824542,74.5602983",
      "lat": 42.8824542,
      "lng": 74.5602983,
      "halalFriendly": false,
      "bookingUrl": "https://maps.google.com/?q=42.8824542,74.5602983",
      "source": "osm"
    },
    {
      "nom": "Bishkek Homestel",
      "categorie": "Auberge",
      "priceRange": "€€",
      "mapsUrl": "https://maps.google.com/?q=42.8824581,74.5800371",
      "lat": 42.8824581,
      "lng": 74.5800371,
      "halalFriendly": false,
      "bookingUrl": "http://bishkekhomestel.com",
      "source": "osm"
    },
    {
      "nom": "West Inn Akjola Hotel",
      "categorie": "Hôtel",
      "priceRange": "€€",
      "mapsUrl": "https://maps.google.com/?q=42.8854851,74.5696893",
      "lat": 42.8854851,
      "lng": 74.5696893,
      "halalFriendly": false,
      "bookingUrl": "https://maps.google.com/?q=42.8854851,74.5696893",
      "source": "osm"
    },
    {
      "nom": "ISM Indian Boys Hostel",
      "categorie": "Auberge",
      "priceRange": "€€",
      "mapsUrl": "https://maps.google.com/?q=42.8777917,74.5840145",
      "lat": 42.8777917,
      "lng": 74.5840145,
      "halalFriendly": false,
      "bookingUrl": "https://maps.google.com/?q=42.8777917,74.5840145",
      "source": "osm"
    },
    {
      "nom": "Ala-Too Hostel",
      "categorie": "Auberge",
      "priceRange": "€€",
      "mapsUrl": "https://maps.google.com/?q=42.883198,74.5606032",
      "lat": 42.883198,
      "lng": 74.5606032,
      "halalFriendly": false,
      "bookingUrl": "https://maps.google.com/?q=42.883198,74.5606032",
      "source": "osm"
    },
    {
      "nom": "People guesthouse",
      "categorie": "Maison d'hôtes",
      "priceRange": "€€",
      "mapsUrl": "https://maps.google.com/?q=42.8785284,74.5837274",
      "lat": 42.8785284,
      "lng": 74.5837274,
      "halalFriendly": false,
      "bookingUrl": "https://maps.google.com/?q=42.8785284,74.5837274",
      "source": "osm"
    },
    {
      "nom": "Apple Hostel",
      "categorie": "Auberge",
      "priceRange": "€€",
      "mapsUrl": "https://maps.google.com/?q=42.8859944,74.565128",
      "lat": 42.8859944,
      "lng": 74.565128,
      "halalFriendly": false,
      "bookingUrl": "https://www.applehostel.kg/",
      "source": "osm"
    },
    {
      "nom": "Girlfriend’s house",
      "categorie": "Maison d'hôtes",
      "priceRange": "€€",
      "mapsUrl": "https://maps.google.com/?q=42.8689047,74.5840961",
      "lat": 42.8689047,
      "lng": 74.5840961,
      "halalFriendly": false,
      "bookingUrl": "https://maps.google.com/?q=42.8689047,74.5840961",
      "source": "osm"
    },
    {
      "nom": "Grand Hotel",
      "categorie": "Hôtel",
      "priceRange": "€€€€",
      "score": 4,
      "mapsUrl": "https://maps.google.com/?q=42.881819,74.5833549",
      "lat": 42.881819,
      "lng": 74.5833549,
      "halalFriendly": false,
      "bookingUrl": "http://www.grandhotel.kg",
      "source": "osm"
    },
    {
      "nom": "Инь-Ян",
      "categorie": "Maison d'hôtes",
      "priceRange": "€€",
      "mapsUrl": "https://maps.google.com/?q=42.8675995,74.5837575",
      "lat": 42.8675995,
      "lng": 74.5837575,
      "halalFriendly": false,
      "bookingUrl": "https://maps.google.com/?q=42.8675995,74.5837575",
      "source": "osm"
    },
    {
      "nom": "Гостиница Кыргыз Алтын",
      "categorie": "Hôtel",
      "priceRange": "€€",
      "mapsUrl": "https://maps.google.com/?q=42.8734854,74.5875808",
      "lat": 42.8734854,
      "lng": 74.5875808,
      "halalFriendly": false,
      "bookingUrl": "https://maps.google.com/?q=42.8734854,74.5875808",
      "source": "osm"
    },
    {
      "nom": "Golden",
      "categorie": "Hôtel",
      "priceRange": "€€",
      "mapsUrl": "https://maps.google.com/?q=42.8820823,74.5849957",
      "lat": 42.8820823,
      "lng": 74.5849957,
      "halalFriendly": false,
      "bookingUrl": "https://maps.google.com/?q=42.8820823,74.5849957",
      "source": "osm"
    },
    {
      "nom": "Найман",
      "categorie": "Hôtel",
      "priceRange": "€€",
      "mapsUrl": "https://maps.google.com/?q=42.8831938,74.5557413",
      "lat": 42.8831938,
      "lng": 74.5557413,
      "halalFriendly": false,
      "bookingUrl": "https://maps.google.com/?q=42.8831938,74.5557413",
      "source": "osm"
    },
    {
      "nom": "Каганат хостел",
      "categorie": "Auberge",
      "priceRange": "€€",
      "mapsUrl": "https://maps.google.com/?q=42.8724192,74.5882549",
      "lat": 42.8724192,
      "lng": 74.5882549,
      "halalFriendly": false,
      "bookingUrl": "https://maps.google.com/?q=42.8724192,74.5882549",
      "source": "osm"
    },
    {
      "nom": "Novotel Bishkek City Center",
      "categorie": "Hôtel",
      "priceRange": "€€",
      "mapsUrl": "https://maps.google.com/?q=42.8694969,74.587166",
      "lat": 42.8694969,
      "lng": 74.587166,
      "halalFriendly": false,
      "bookingUrl": "https://maps.google.com/?q=42.8694969,74.587166",
      "source": "osm"
    },
    {
      "nom": "Inter",
      "categorie": "Auberge",
      "priceRange": "€€",
      "mapsUrl": "https://maps.google.com/?q=42.8830059,74.5852656",
      "lat": 42.8830059,
      "lng": 74.5852656,
      "halalFriendly": false,
      "bookingUrl": "https://maps.google.com/?q=42.8830059,74.5852656",
      "source": "osm"
    },
    {
      "nom": "Fortuna",
      "categorie": "Hôtel",
      "priceRange": "€€",
      "mapsUrl": "https://maps.google.com/?q=42.8609,74.5752878",
      "lat": 42.8609,
      "lng": 74.5752878,
      "halalFriendly": false,
      "bookingUrl": "https://maps.google.com/?q=42.8609,74.5752878",
      "source": "osm"
    },
    {
      "nom": "Boorsok",
      "categorie": "Auberge",
      "priceRange": "€€",
      "mapsUrl": "https://maps.google.com/?q=42.8877401,74.5780649",
      "lat": 42.8877401,
      "lng": 74.5780649,
      "halalFriendly": false,
      "bookingUrl": "https://maps.google.com/?q=42.8877401,74.5780649",
      "source": "osm"
    },
    {
      "nom": "Interhouse City Center - Hostel",
      "categorie": "Auberge",
      "priceRange": "€€",
      "mapsUrl": "https://maps.google.com/?q=42.8726355,74.5897956",
      "lat": 42.8726355,
      "lng": 74.5897956,
      "halalFriendly": false,
      "bookingUrl": "www.interhouse.kg",
      "source": "osm"
    },
    {
      "nom": "Interhouse Bishkek hotel & hostel",
      "categorie": "Auberge",
      "priceRange": "€€",
      "mapsUrl": "https://maps.google.com/?q=42.871975,74.5898234",
      "lat": 42.871975,
      "lng": 74.5898234,
      "halalFriendly": false,
      "bookingUrl": "interhouse.kg",
      "source": "osm"
    },
    {
      "nom": "Interhouse Bishkek",
      "categorie": "Auberge",
      "priceRange": "€€",
      "mapsUrl": "https://maps.google.com/?q=42.8802753,74.5889234",
      "lat": 42.8802753,
      "lng": 74.5889234,
      "halalFriendly": false,
      "bookingUrl": "www.interhouse.kg",
      "source": "osm"
    },
    {
      "nom": "Sheraton",
      "categorie": "Hôtel",
      "priceRange": "€€",
      "mapsUrl": "https://maps.google.com/?q=42.8747381,74.590606",
      "lat": 42.8747381,
      "lng": 74.590606,
      "halalFriendly": false,
      "bookingUrl": "https://maps.google.com/?q=42.8747381,74.590606",
      "source": "osm"
    },
    {
      "nom": "DA! Complex",
      "categorie": "Hôtel",
      "priceRange": "€€€",
      "score": 3,
      "mapsUrl": "https://maps.google.com/?q=42.8658944,74.5525358",
      "lat": 42.8658944,
      "lng": 74.5525358,
      "halalFriendly": false,
      "bookingUrl": "https://maps.google.com/?q=42.8658944,74.5525358",
      "source": "osm"
    },
    {
      "nom": "Шах",
      "categorie": "Hôtel",
      "priceRange": "€€",
      "mapsUrl": "https://maps.google.com/?q=42.8589845,74.5689349",
      "lat": 42.8589845,
      "lng": 74.5689349,
      "halalFriendly": false,
      "bookingUrl": "https://maps.google.com/?q=42.8589845,74.5689349",
      "source": "osm"
    },
    {
      "nom": "Astoria Garden",
      "categorie": "Maison d'hôtes",
      "priceRange": "€€",
      "mapsUrl": "https://maps.google.com/?q=42.885715,74.5854972",
      "lat": 42.885715,
      "lng": 74.5854972,
      "halalFriendly": false,
      "bookingUrl": "https://astoria-garden.business.site/",
      "source": "osm"
    },
    {
      "nom": "Izzi",
      "categorie": "Auberge",
      "priceRange": "€€",
      "mapsUrl": "https://maps.google.com/?q=42.873129,74.5916531",
      "lat": 42.873129,
      "lng": 74.5916531,
      "halalFriendly": false,
      "bookingUrl": "https://maps.google.com/?q=42.873129,74.5916531",
      "source": "osm"
    },
    {
      "nom": "Ramada Hotel Bishkek",
      "categorie": "Hôtel",
      "priceRange": "€€",
      "mapsUrl": "https://maps.google.com/?q=42.8710863,74.5914533",
      "lat": 42.8710863,
      "lng": 74.5914533,
      "halalFriendly": false,
      "bookingUrl": "https://maps.google.com/?q=42.8710863,74.5914533",
      "source": "osm"
    },
    {
      "nom": "Qlife Hostel",
      "categorie": "Maison d'hôtes",
      "priceRange": "€€",
      "mapsUrl": "https://maps.google.com/?q=42.8805107,74.591292",
      "lat": 42.8805107,
      "lng": 74.591292,
      "halalFriendly": false,
      "bookingUrl": "https://maps.google.com/?q=42.8805107,74.591292",
      "source": "osm"
    },
    {
      "nom": "Мин бир тун",
      "categorie": "Hôtel",
      "priceRange": "€€",
      "mapsUrl": "https://maps.google.com/?q=42.8578844,74.5670093",
      "lat": 42.8578844,
      "lng": 74.5670093,
      "halalFriendly": false,
      "bookingUrl": "https://maps.google.com/?q=42.8578844,74.5670093",
      "source": "osm"
    },
    {
      "nom": "Central Hostel",
      "categorie": "Auberge",
      "priceRange": "€€",
      "mapsUrl": "https://maps.google.com/?q=42.8767382,74.5928771",
      "lat": 42.8767382,
      "lng": 74.5928771,
      "halalFriendly": false,
      "bookingUrl": "https://maps.google.com/?q=42.8767382,74.5928771",
      "source": "osm"
    },
    {
      "nom": "Bodo Hostel",
      "categorie": "Auberge",
      "priceRange": "€€",
      "mapsUrl": "https://maps.google.com/?q=42.871621,74.5930103",
      "lat": 42.871621,
      "lng": 74.5930103,
      "halalFriendly": false,
      "bookingUrl": "https://maps.google.com/?q=42.871621,74.5930103",
      "source": "osm"
    },
    {
      "nom": "Алтын-Сарай",
      "categorie": "Hôtel",
      "priceRange": "€€",
      "mapsUrl": "https://maps.google.com/?q=42.8841699,74.5899335",
      "lat": 42.8841699,
      "lng": 74.5899335,
      "halalFriendly": false,
      "bookingUrl": "https://maps.google.com/?q=42.8841699,74.5899335",
      "source": "osm"
    },
    {
      "nom": "Wake Up Bishkek",
      "categorie": "Auberge",
      "priceRange": "€€",
      "mapsUrl": "https://maps.google.com/?q=42.8737381,74.5938742",
      "lat": 42.8737381,
      "lng": 74.5938742,
      "halalFriendly": false,
      "bookingUrl": "https://maps.google.com/?q=42.8737381,74.5938742",
      "source": "osm"
    },
    {
      "nom": "Touristan hotel",
      "categorie": "Hôtel",
      "priceRange": "€€",
      "mapsUrl": "https://maps.google.com/?q=42.8671996,74.5922372",
      "lat": 42.8671996,
      "lng": 74.5922372,
      "halalFriendly": false,
      "bookingUrl": "https://maps.google.com/?q=42.8671996,74.5922372",
      "source": "osm"
    },
    {
      "nom": "Adilet",
      "categorie": "Maison d'hôtes",
      "priceRange": "€€",
      "mapsUrl": "https://maps.google.com/?q=42.8751936,74.5451036",
      "lat": 42.8751936,
      "lng": 74.5451036,
      "halalFriendly": false,
      "bookingUrl": "https://maps.google.com/?q=42.8751936,74.5451036",
      "source": "osm"
    },
    {
      "nom": "Shah Palace",
      "categorie": "Hôtel",
      "priceRange": "€€",
      "mapsUrl": "https://maps.google.com/?q=42.8805991,74.5933043",
      "lat": 42.8805991,
      "lng": 74.5933043,
      "halalFriendly": false,
      "bookingUrl": "https://maps.google.com/?q=42.8805991,74.5933043",
      "source": "osm"
    },
    {
      "nom": "Azia",
      "categorie": "Maison d'hôtes",
      "priceRange": "€€",
      "mapsUrl": "https://maps.google.com/?q=42.8861601,74.5894436",
      "lat": 42.8861601,
      "lng": 74.5894436,
      "halalFriendly": false,
      "bookingUrl": "https://maps.google.com/?q=42.8861601,74.5894436",
      "source": "osm"
    },
    {
      "nom": "Five Hotel",
      "categorie": "Hôtel",
      "priceRange": "€€",
      "mapsUrl": "https://maps.google.com/?q=42.8799444,74.5941774",
      "lat": 42.8799444,
      "lng": 74.5941774,
      "halalFriendly": false,
      "bookingUrl": "https://maps.google.com/?q=42.8799444,74.5941774",
      "source": "osm"
    },
    {
      "nom": "Silk Road",
      "categorie": "Hôtel",
      "priceRange": "€€",
      "mapsUrl": "https://maps.google.com/?q=42.8804242,74.5940462",
      "lat": 42.8804242,
      "lng": 74.5940462,
      "halalFriendly": false,
      "bookingUrl": "https://maps.google.com/?q=42.8804242,74.5940462",
      "source": "osm"
    },
    {
      "nom": "Silk Road Lodge",
      "categorie": "Hôtel",
      "priceRange": "€€",
      "mapsUrl": "https://maps.google.com/?q=42.8806121,74.5940082",
      "lat": 42.8806121,
      "lng": 74.5940082,
      "halalFriendly": false,
      "bookingUrl": "https://maps.google.com/?q=42.8806121,74.5940082",
      "source": "osm"
    },
    {
      "nom": "Хаус",
      "categorie": "Auberge",
      "priceRange": "€€",
      "mapsUrl": "https://maps.google.com/?q=42.8860619,74.5905662",
      "lat": 42.8860619,
      "lng": 74.5905662,
      "halalFriendly": false,
      "bookingUrl": "https://wa.me/996558778558",
      "source": "osm"
    },
    {
      "nom": "Haus",
      "categorie": "Auberge",
      "priceRange": "€€",
      "mapsUrl": "https://maps.google.com/?q=42.886066,74.5905715",
      "lat": 42.886066,
      "lng": 74.5905715,
      "halalFriendly": false,
      "bookingUrl": "https://maps.google.com/?q=42.886066,74.5905715",
      "source": "osm"
    },
    {
      "nom": "Freedom hotel",
      "categorie": "Hôtel",
      "priceRange": "€€",
      "mapsUrl": "https://maps.google.com/?q=42.8848917,74.5922649",
      "lat": 42.8848917,
      "lng": 74.5922649,
      "halalFriendly": false,
      "bookingUrl": "https://freedomhotel.kg/",
      "source": "osm"
    },
    {
      "nom": "Plaza Hotel Bishkek",
      "categorie": "Hôtel",
      "priceRange": "€€",
      "mapsUrl": "https://maps.google.com/?q=42.8798314,74.5957916",
      "lat": 42.8798314,
      "lng": 74.5957916,
      "halalFriendly": false,
      "bookingUrl": "https://maps.google.com/?q=42.8798314,74.5957916",
      "source": "osm"
    },
    {
      "nom": "Green City",
      "categorie": "Hôtel",
      "priceRange": "€€",
      "mapsUrl": "https://maps.google.com/?q=42.8593547,74.5873121",
      "lat": 42.8593547,
      "lng": 74.5873121,
      "halalFriendly": false,
      "bookingUrl": "https://maps.google.com/?q=42.8593547,74.5873121",
      "source": "osm"
    },
    {
      "nom": "B&B Dolonsky 78 - Guglielmo Furlan",
      "categorie": "Maison d'hôtes",
      "priceRange": "€€",
      "mapsUrl": "https://maps.google.com/?q=42.890171,74.5875501",
      "lat": 42.890171,
      "lng": 74.5875501,
      "halalFriendly": false,
      "bookingUrl": "https://maps.google.com/?q=42.890171,74.5875501",
      "source": "osm"
    },
    {
      "nom": "Семетей",
      "categorie": "Hôtel",
      "priceRange": "€€",
      "mapsUrl": "https://maps.google.com/?q=42.8727555,74.5985375",
      "lat": 42.8727555,
      "lng": 74.5985375,
      "halalFriendly": false,
      "bookingUrl": "https://maps.google.com/?q=42.8727555,74.5985375",
      "source": "osm"
    },
    {
      "nom": "Onyx Hotel",
      "categorie": "Hôtel",
      "priceRange": "€€",
      "mapsUrl": "https://maps.google.com/?q=42.8577695,74.5877345",
      "lat": 42.8577695,
      "lng": 74.5877345,
      "halalFriendly": false,
      "bookingUrl": "https://maps.google.com/?q=42.8577695,74.5877345",
      "source": "osm"
    },
    {
      "nom": "Versal Hotel",
      "categorie": "Hôtel",
      "priceRange": "€€",
      "mapsUrl": "https://maps.google.com/?q=42.8851655,74.5953624",
      "lat": 42.8851655,
      "lng": 74.5953624,
      "halalFriendly": false,
      "bookingUrl": "https://maps.google.com/?q=42.8851655,74.5953624",
      "source": "osm"
    },
    {
      "nom": "Spirit Hostel",
      "categorie": "Auberge",
      "priceRange": "€€",
      "mapsUrl": "https://maps.google.com/?q=42.888135,74.5935879",
      "lat": 42.888135,
      "lng": 74.5935879,
      "halalFriendly": false,
      "bookingUrl": "https://maps.google.com/?q=42.888135,74.5935879",
      "source": "osm"
    },
    {
      "nom": "Жибек-Жолу Gesthouse",
      "categorie": "Maison d'hôtes",
      "priceRange": "€€",
      "mapsUrl": "https://maps.google.com/?q=42.8887524,74.5932121",
      "lat": 42.8887524,
      "lng": 74.5932121,
      "halalFriendly": false,
      "bookingUrl": "https://maps.google.com/?q=42.8887524,74.5932121",
      "source": "osm"
    },
    {
      "nom": "Причал 24",
      "categorie": "Maison d'hôtes",
      "priceRange": "€€",
      "mapsUrl": "https://maps.google.com/?q=42.8554813,74.5871639",
      "lat": 42.8554813,
      "lng": 74.5871639,
      "halalFriendly": false,
      "bookingUrl": "https://maps.google.com/?q=42.8554813,74.5871639",
      "source": "osm"
    },
    {
      "nom": "Nomad",
      "categorie": "Hôtel",
      "priceRange": "€€",
      "mapsUrl": "https://maps.google.com/?q=42.8515229,74.5777528",
      "lat": 42.8515229,
      "lng": 74.5777528,
      "halalFriendly": false,
      "bookingUrl": "https://maps.google.com/?q=42.8515229,74.5777528",
      "source": "osm"
    },
    {
      "nom": "DeLuxe",
      "categorie": "Hôtel",
      "priceRange": "€€",
      "mapsUrl": "https://maps.google.com/?q=42.8575962,74.5931553",
      "lat": 42.8575962,
      "lng": 74.5931553,
      "halalFriendly": false,
      "bookingUrl": "http://deluxehotel.kg/",
      "source": "osm"
    },
    {
      "nom": "Амбассадор отель",
      "categorie": "Hôtel",
      "priceRange": "€€",
      "mapsUrl": "https://maps.google.com/?q=42.8689525,74.6019118",
      "lat": 42.8689525,
      "lng": 74.6019118,
      "halalFriendly": false,
      "bookingUrl": "http://happytour.kg/",
      "source": "osm"
    },
    {
      "nom": "Camelot Hotel",
      "categorie": "Hôtel",
      "priceRange": "€€",
      "mapsUrl": "https://maps.google.com/?q=42.8942492,74.589212",
      "lat": 42.8942492,
      "lng": 74.589212,
      "halalFriendly": false,
      "bookingUrl": "https://maps.google.com/?q=42.8942492,74.589212",
      "source": "osm"
    },
    {
      "nom": "АГУПКР",
      "categorie": "Hôtel",
      "priceRange": "€€",
      "mapsUrl": "https://maps.google.com/?q=42.8812544,74.6021045",
      "lat": 42.8812544,
      "lng": 74.6021045,
      "halalFriendly": false,
      "bookingUrl": "https://maps.google.com/?q=42.8812544,74.6021045",
      "source": "osm"
    },
    {
      "nom": "Хостел Шумкар Асиа",
      "categorie": "Auberge",
      "priceRange": "€€",
      "mapsUrl": "https://maps.google.com/?q=42.8931175,74.5920378",
      "lat": 42.8931175,
      "lng": 74.5920378,
      "halalFriendly": false,
      "bookingUrl": "https://maps.google.com/?q=42.8931175,74.5920378",
      "source": "osm"
    },
    {
      "nom": "Discovery",
      "categorie": "Hôtel",
      "priceRange": "€€",
      "mapsUrl": "https://maps.google.com/?q=42.8571394,74.593845",
      "lat": 42.8571394,
      "lng": 74.593845,
      "halalFriendly": false,
      "bookingUrl": "https://maps.google.com/?q=42.8571394,74.593845",
      "source": "osm"
    },
    {
      "nom": "Solutel",
      "categorie": "Hôtel",
      "priceRange": "€€",
      "mapsUrl": "https://maps.google.com/?q=42.8680186,74.6026299",
      "lat": 42.8680186,
      "lng": 74.6026299,
      "halalFriendly": false,
      "bookingUrl": "https://maps.google.com/?q=42.8680186,74.6026299",
      "source": "osm"
    },
    {
      "nom": "International Guest House",
      "categorie": "Auberge",
      "priceRange": "€€",
      "mapsUrl": "https://maps.google.com/?q=42.8569955,74.5943846",
      "lat": 42.8569955,
      "lng": 74.5943846,
      "halalFriendly": false,
      "bookingUrl": "https://maps.google.com/?q=42.8569955,74.5943846",
      "source": "osm"
    },
    {
      "nom": "Эсалу",
      "categorie": "Hôtel",
      "priceRange": "€€",
      "mapsUrl": "https://maps.google.com/?q=42.8520789,74.554155",
      "lat": 42.8520789,
      "lng": 74.554155,
      "halalFriendly": false,
      "bookingUrl": "https://maps.google.com/?q=42.8520789,74.554155",
      "source": "osm"
    },
    {
      "nom": "SK Hotel",
      "categorie": "Hôtel",
      "priceRange": "€€",
      "mapsUrl": "https://maps.google.com/?q=42.866883,74.6029338",
      "lat": 42.866883,
      "lng": 74.6029338,
      "halalFriendly": false,
      "bookingUrl": "https://maps.google.com/?q=42.866883,74.6029338",
      "source": "osm"
    },
    {
      "nom": "Park Hotel",
      "categorie": "Hôtel",
      "priceRange": "€€",
      "mapsUrl": "https://maps.google.com/?q=42.8814771,74.6035838",
      "lat": 42.8814771,
      "lng": 74.6035838,
      "halalFriendly": false,
      "bookingUrl": "https://www.parkhotel.kg/",
      "source": "osm"
    },
    {
      "nom": "Ultimate Adventure Guest House",
      "categorie": "Maison d'hôtes",
      "priceRange": "€€",
      "mapsUrl": "https://maps.google.com/?q=42.888991,74.5991893",
      "lat": 42.888991,
      "lng": 74.5991893,
      "halalFriendly": false,
      "bookingUrl": "https://maps.google.com/?q=42.888991,74.5991893",
      "source": "osm"
    },
    {
      "nom": "Sabyrbek B&B",
      "categorie": "Maison d'hôtes",
      "priceRange": "€€",
      "mapsUrl": "https://maps.google.com/?q=42.8688197,74.6042858",
      "lat": 42.8688197,
      "lng": 74.6042858,
      "halalFriendly": false,
      "bookingUrl": "https://maps.google.com/?q=42.8688197,74.6042858",
      "source": "osm"
    },
    {
      "nom": "Зал Ballroom",
      "categorie": "Hôtel",
      "priceRange": "€€",
      "mapsUrl": "https://maps.google.com/?q=42.881502,74.6039063",
      "lat": 42.881502,
      "lng": 74.6039063,
      "halalFriendly": false,
      "bookingUrl": "https://www.parkhotel.kg/",
      "source": "osm"
    },
    {
      "nom": "Guesthouse Traveler",
      "categorie": "Maison d'hôtes",
      "priceRange": "€€",
      "mapsUrl": "https://maps.google.com/?q=42.884603,74.6026107",
      "lat": 42.884603,
      "lng": 74.6026107,
      "halalFriendly": false,
      "bookingUrl": "https://maps.google.com/?q=42.884603,74.6026107",
      "source": "osm"
    },
    {
      "nom": "CapsuleHotel",
      "categorie": "Auberge",
      "priceRange": "€€",
      "mapsUrl": "https://maps.google.com/?q=42.8647237,74.6028304",
      "lat": 42.8647237,
      "lng": 74.6028304,
      "halalFriendly": false,
      "bookingUrl": "https://maps.google.com/?q=42.8647237,74.6028304",
      "source": "osm"
    },
    {
      "nom": "Riviera",
      "categorie": "Hôtel",
      "priceRange": "€€",
      "mapsUrl": "https://maps.google.com/?q=42.8675844,74.6046725",
      "lat": 42.8675844,
      "lng": 74.6046725,
      "halalFriendly": false,
      "bookingUrl": "https://maps.google.com/?q=42.8675844,74.6046725",
      "source": "osm"
    },
    {
      "nom": "Alpinist",
      "categorie": "Hôtel",
      "priceRange": "€€",
      "mapsUrl": "https://maps.google.com/?q=42.8598185,74.600181",
      "lat": 42.8598185,
      "lng": 74.600181,
      "halalFriendly": false,
      "bookingUrl": "https://maps.google.com/?q=42.8598185,74.600181",
      "source": "osm"
    },
    {
      "nom": "Friends Hostel",
      "categorie": "Auberge",
      "priceRange": "€€",
      "mapsUrl": "https://maps.google.com/?q=42.8557194,74.5964422",
      "lat": 42.8557194,
      "lng": 74.5964422,
      "halalFriendly": false,
      "bookingUrl": "https://maps.google.com/?q=42.8557194,74.5964422",
      "source": "osm"
    },
    {
      "nom": "April home",
      "categorie": "Auberge",
      "priceRange": "€€",
      "mapsUrl": "https://maps.google.com/?q=42.8868892,74.6030627",
      "lat": 42.8868892,
      "lng": 74.6030627,
      "halalFriendly": false,
      "bookingUrl": "https://maps.google.com/?q=42.8868892,74.6030627",
      "source": "osm"
    },
    {
      "nom": "Текнокейв",
      "categorie": "Auberge",
      "priceRange": "€€",
      "mapsUrl": "https://maps.google.com/?q=42.8920933,74.5999447",
      "lat": 42.8920933,
      "lng": 74.5999447,
      "halalFriendly": false,
      "bookingUrl": "https://maps.google.com/?q=42.8920933,74.5999447",
      "source": "osm"
    },
    {
      "nom": "Холидей Хостел",
      "categorie": "Auberge",
      "priceRange": "€€",
      "mapsUrl": "https://maps.google.com/?q=42.8723787,74.6084091",
      "lat": 42.8723787,
      "lng": 74.6084091,
      "halalFriendly": false,
      "bookingUrl": "https://maps.google.com/?q=42.8723787,74.6084091",
      "source": "osm"
    },
    {
      "nom": "Central Park Resident",
      "categorie": "Hôtel",
      "priceRange": "€€€€",
      "score": 4,
      "mapsUrl": "https://maps.google.com/?q=42.868449,74.6078289",
      "lat": 42.868449,
      "lng": 74.6078289,
      "halalFriendly": false,
      "bookingUrl": "https://maps.google.com/?q=42.868449,74.6078289",
      "source": "osm"
    },
    {
      "nom": "Kausar Hotel",
      "categorie": "Hôtel",
      "priceRange": "€€",
      "mapsUrl": "https://maps.google.com/?q=42.8943351,74.5985938",
      "lat": 42.8943351,
      "lng": 74.5985938,
      "halalFriendly": false,
      "bookingUrl": "https://kausarhotelbishkek.com",
      "source": "osm"
    },
    {
      "nom": "Горы Азии 2",
      "categorie": "Hôtel",
      "priceRange": "€€",
      "mapsUrl": "https://maps.google.com/?q=42.856789,74.6013957",
      "lat": 42.856789,
      "lng": 74.6013957,
      "halalFriendly": false,
      "bookingUrl": "https://maps.google.com/?q=42.856789,74.6013957",
      "source": "osm"
    },
    {
      "nom": "Astor Hotel",
      "categorie": "Hôtel",
      "priceRange": "€€",
      "mapsUrl": "https://maps.google.com/?q=42.8890233,74.6048332",
      "lat": 42.8890233,
      "lng": 74.6048332,
      "halalFriendly": false,
      "bookingUrl": "https://maps.google.com/?q=42.8890233,74.6048332",
      "source": "osm"
    },
    {
      "nom": "Small Hotel",
      "categorie": "Hôtel",
      "priceRange": "€€",
      "mapsUrl": "https://maps.google.com/?q=42.8564806,74.6016787",
      "lat": 42.8564806,
      "lng": 74.6016787,
      "halalFriendly": false,
      "bookingUrl": "https://maps.google.com/?q=42.8564806,74.6016787",
      "source": "osm"
    },
    {
      "nom": "Umai Hotel",
      "categorie": "Hôtel",
      "priceRange": "€€",
      "mapsUrl": "https://maps.google.com/?q=42.8944544,74.6009317",
      "lat": 42.8944544,
      "lng": 74.6009317,
      "halalFriendly": false,
      "bookingUrl": "https://maps.google.com/?q=42.8944544,74.6009317",
      "source": "osm"
    },
    {
      "nom": "KGB",
      "categorie": "Auberge",
      "priceRange": "€€",
      "mapsUrl": "https://maps.google.com/?q=42.8885304,74.6067044",
      "lat": 42.8885304,
      "lng": 74.6067044,
      "halalFriendly": false,
      "bookingUrl": "https://maps.google.com/?q=42.8885304,74.6067044",
      "source": "osm"
    },
    {
      "nom": "Dos Guesthouse",
      "categorie": "Maison d'hôtes",
      "priceRange": "€€",
      "mapsUrl": "https://maps.google.com/?q=42.8860237,74.6083313",
      "lat": 42.8860237,
      "lng": 74.6083313,
      "halalFriendly": false,
      "bookingUrl": "http://dosgh.jp",
      "source": "osm"
    },
    {
      "nom": "Отель Клуб СтрелецЪ",
      "categorie": "Hôtel",
      "priceRange": "€€",
      "mapsUrl": "https://maps.google.com/?q=42.8921596,74.6038309",
      "lat": 42.8921596,
      "lng": 74.6038309,
      "halalFriendly": false,
      "bookingUrl": "https://www.facebook.com/clubstrelets",
      "source": "osm"
    },
    {
      "nom": "Саякат",
      "categorie": "Hôtel",
      "priceRange": "€€",
      "mapsUrl": "https://maps.google.com/?q=42.8496585,74.5938802",
      "lat": 42.8496585,
      "lng": 74.5938802,
      "halalFriendly": false,
      "bookingUrl": "https://maps.google.com/?q=42.8496585,74.5938802",
      "source": "osm"
    },
    {
      "nom": "Нават Отель",
      "categorie": "Hôtel",
      "priceRange": "€€",
      "mapsUrl": "https://maps.google.com/?q=42.8771926,74.6113745",
      "lat": 42.8771926,
      "lng": 74.6113745,
      "halalFriendly": false,
      "bookingUrl": "http://navathotel.kg/",
      "source": "osm"
    },
    {
      "nom": "Smart Hotel",
      "categorie": "Hôtel",
      "priceRange": "€€",
      "mapsUrl": "https://maps.google.com/?q=42.8797469,74.6113666",
      "lat": 42.8797469,
      "lng": 74.6113666,
      "halalFriendly": false,
      "bookingUrl": "https://maps.google.com/?q=42.8797469,74.6113666",
      "source": "osm"
    },
    {
      "nom": "Silk Way Hostel",
      "categorie": "Auberge",
      "priceRange": "€€",
      "mapsUrl": "https://maps.google.com/?q=42.8882152,74.6076773",
      "lat": 42.8882152,
      "lng": 74.6076773,
      "halalFriendly": false,
      "bookingUrl": "https://maps.google.com/?q=42.8882152,74.6076773",
      "source": "osm"
    },
    {
      "nom": "sky hostel",
      "categorie": "Auberge",
      "priceRange": "€€",
      "mapsUrl": "https://maps.google.com/?q=42.8745131,74.6131978",
      "lat": 42.8745131,
      "lng": 74.6131978,
      "halalFriendly": false,
      "bookingUrl": "https://maps.google.com/?q=42.8745131,74.6131978",
      "source": "osm"
    },
    {
      "nom": "Hyatt Regency Bishkek",
      "categorie": "Hôtel",
      "priceRange": "€€€€",
      "score": 5,
      "mapsUrl": "https://maps.google.com/?q=42.8795855,74.6127112",
      "lat": 42.8795855,
      "lng": 74.6127112,
      "halalFriendly": false,
      "bookingUrl": "https://www.hyatt.com/hyatt-regency/en-US/bishk-hyatt-regency-bishkek",
      "source": "osm"
    },
    {
      "nom": "Tumar Guesthouse",
      "categorie": "Hôtel",
      "priceRange": "€€",
      "mapsUrl": "https://maps.google.com/?q=42.8728072,74.613203",
      "lat": 42.8728072,
      "lng": 74.613203,
      "halalFriendly": false,
      "bookingUrl": "https://maps.google.com/?q=42.8728072,74.613203",
      "source": "osm"
    },
    {
      "nom": "Абу Бакр",
      "categorie": "Hôtel",
      "priceRange": "€€",
      "mapsUrl": "https://maps.google.com/?q=42.84278,74.5648659",
      "lat": 42.84278,
      "lng": 74.5648659,
      "halalFriendly": false,
      "bookingUrl": "https://maps.google.com/?q=42.84278,74.5648659",
      "source": "osm"
    },
    {
      "nom": "Богиня",
      "categorie": "Maison d'hôtes",
      "priceRange": "€€",
      "mapsUrl": "https://maps.google.com/?q=42.8425304,74.5747904",
      "lat": 42.8425304,
      "lng": 74.5747904,
      "halalFriendly": false,
      "bookingUrl": "https://maps.google.com/?q=42.8425304,74.5747904",
      "source": "osm"
    },
    {
      "nom": "Southside",
      "categorie": "Maison d'hôtes",
      "priceRange": "€€",
      "mapsUrl": "https://maps.google.com/?q=42.8461627,74.5911723",
      "lat": 42.8461627,
      "lng": 74.5911723,
      "halalFriendly": false,
      "bookingUrl": "https://maps.google.com/?q=42.8461627,74.5911723",
      "source": "osm"
    },
    {
      "nom": "La Vie",
      "categorie": "Hôtel",
      "priceRange": "€€",
      "mapsUrl": "https://maps.google.com/?q=42.8527708,74.6027042",
      "lat": 42.8527708,
      "lng": 74.6027042,
      "halalFriendly": false,
      "bookingUrl": "https://maps.google.com/?q=42.8527708,74.6027042",
      "source": "osm"
    },
    {
      "nom": "Mukarama-Apay",
      "categorie": "Maison d'hôtes",
      "priceRange": "€€",
      "mapsUrl": "https://maps.google.com/?q=42.8513421,74.6012374",
      "lat": 42.8513421,
      "lng": 74.6012374,
      "halalFriendly": false,
      "bookingUrl": "https://maps.google.com/?q=42.8513421,74.6012374",
      "source": "osm"
    }
  ],
  "mosqueesPrincipales": [
    {
      "id": "m174940695",
      "nom": "Даруль Аркам, мечеть",
      "type": "Mosquée",
      "adresse": "Абая улица, Бишкек",
      "description": "Lieu de prière (OpenStreetMap).",
      "mapsUrl": "https://maps.google.com/?q=42.8550278,74.6021225",
      "lat": 42.8550278,
      "lng": 74.6021225,
      "source": "osm"
    },
    {
      "id": "m50434030",
      "nom": "Муртаза Али",
      "type": "Mosquée",
      "adresse": "Усенбаева Алымкула улица",
      "description": "Lieu de prière (OpenStreetMap).",
      "mapsUrl": "https://maps.google.com/?q=42.8857242,74.6154468",
      "lat": 42.8857242,
      "lng": 74.6154468,
      "source": "osm"
    },
    {
      "id": "m7394226648",
      "nom": "Абдулкерим Сатук Багра Хан мечити",
      "type": "Mosquée",
      "adresse": "Тыналиева улица, Бишкек",
      "description": "Lieu de prière (OpenStreetMap).",
      "mapsUrl": "https://maps.google.com/?q=42.8378439,74.5700188",
      "lat": 42.8378439,
      "lng": 74.5700188,
      "source": "osm"
    },
    {
      "id": "m189034556",
      "nom": "Центральная мечеть",
      "type": "Mosquée",
      "adresse": "Московская улица, Бишкек",
      "description": "Lieu de prière (OpenStreetMap).",
      "mapsUrl": "https://maps.google.com/?q=42.8693797,74.6211549",
      "lat": 42.8693797,
      "lng": 74.6211549,
      "source": "osm"
    },
    {
      "id": "m182149585",
      "nom": "Нуурулхарамайн",
      "type": "Mosquée",
      "adresse": "Мухтарбека Омуракунова улица",
      "description": "Lieu de prière (OpenStreetMap).",
      "mapsUrl": "https://maps.google.com/?q=42.8518266,74.5280305",
      "lat": 42.8518266,
      "lng": 74.5280305,
      "source": "osm"
    },
    {
      "id": "m4716001769",
      "nom": "Медресе",
      "type": "Mosquée",
      "adresse": "",
      "description": "Lieu de prière (OpenStreetMap).",
      "mapsUrl": "https://maps.google.com/?q=42.8758592,74.6246874",
      "lat": 42.8758592,
      "lng": 74.6246874,
      "source": "osm"
    },
    {
      "id": "m51276992",
      "nom": "Мечеть имени Махмуда Кашгари",
      "type": "Mosquée",
      "adresse": "Осмонкула улица",
      "description": "Lieu de prière (OpenStreetMap).",
      "mapsUrl": "https://maps.google.com/?q=42.879903,74.6252242",
      "lat": 42.879903,
      "lng": 74.6252242,
      "source": "osm"
    },
    {
      "id": "m2160660766",
      "nom": "Ак-Сана",
      "type": "Mosquée",
      "adresse": "",
      "description": "Lieu de prière (OpenStreetMap).",
      "mapsUrl": "https://maps.google.com/?q=42.8378816,74.5424306",
      "lat": 42.8378816,
      "lng": 74.5424306,
      "source": "osm"
    },
    {
      "id": "m754637435",
      "nom": "Firdaus",
      "type": "Mosquée",
      "adresse": "Садырбаева Дооронбека улица",
      "description": "Lieu de prière (OpenStreetMap).",
      "mapsUrl": "https://maps.google.com/?q=42.8300628,74.5639187",
      "lat": 42.8300628,
      "lng": 74.5639187,
      "source": "osm"
    },
    {
      "id": "m183102149",
      "nom": "Аль Хиджра",
      "type": "Mosquée",
      "adresse": "Барпы Алыкулова улица, Бишкек",
      "description": "Lieu de prière (OpenStreetMap).",
      "mapsUrl": "https://maps.google.com/?q=42.873691,74.5083001",
      "lat": 42.873691,
      "lng": 74.5083001,
      "source": "osm"
    },
    {
      "id": "m4728147877",
      "nom": "Намазкана",
      "type": "Mosquée",
      "adresse": "",
      "description": "Lieu de prière (OpenStreetMap).",
      "mapsUrl": "https://maps.google.com/?q=42.8876863,74.6386246",
      "lat": 42.8876863,
      "lng": 74.6386246,
      "source": "osm"
    },
    {
      "id": "m866806260",
      "nom": "Хулифа аль-Рашиддин",
      "type": "Mosquée",
      "adresse": "Ак Нур улица, Ак-Ордо жилмассив",
      "description": "Lieu de prière (OpenStreetMap).",
      "mapsUrl": "https://maps.google.com/?q=42.8444413,74.508162",
      "lat": 42.8444413,
      "lng": 74.508162,
      "source": "osm"
    },
    {
      "id": "m1800489329",
      "nom": "Мечеть села Ынтымак",
      "type": "Mosquée",
      "adresse": "",
      "description": "Lieu de prière (OpenStreetMap).",
      "mapsUrl": "https://maps.google.com/?q=42.8149059,74.5679375",
      "lat": 42.8149059,
      "lng": 74.5679375,
      "source": "osm"
    },
    {
      "id": "m631388725",
      "nom": "Мечеть памяти жертв 7 апреля",
      "type": "Mosquée",
      "adresse": "Юнусалиева Болота проспект",
      "description": "Lieu de prière (OpenStreetMap).",
      "mapsUrl": "https://maps.google.com/?q=42.8269183,74.6215273",
      "lat": 42.8269183,
      "lng": 74.6215273,
      "source": "osm"
    },
    {
      "id": "m2037980405",
      "nom": "мечеть",
      "type": "Mosquée",
      "adresse": "",
      "description": "Lieu de prière (OpenStreetMap).",
      "mapsUrl": "https://maps.google.com/?q=42.8063526,74.6122626",
      "lat": 42.8063526,
      "lng": 74.6122626,
      "source": "osm"
    },
    {
      "id": "m103747204",
      "nom": "Мечеть Айша",
      "type": "Mosquée",
      "adresse": "",
      "description": "Lieu de prière (OpenStreetMap).",
      "mapsUrl": "https://maps.google.com/?q=42.8114477,74.6369196",
      "lat": 42.8114477,
      "lng": 74.6369196,
      "source": "osm"
    }
  ],
  "activites": [
    {
      "id": "a3226771362",
      "nom": "Ленин с нами",
      "categorie": "artwork",
      "description": "",
      "prix": "",
      "duree": "",
      "mapsUrl": "https://maps.google.com/?q=42.8736545,74.5745013",
      "lat": 42.8736545,
      "lng": 74.5745013,
      "source": "osm"
    },
    {
      "id": "a1919786764",
      "nom": "Памятник Героям Комсомольцам",
      "categorie": "memorial",
      "description": "",
      "prix": "",
      "duree": "",
      "mapsUrl": "https://maps.google.com/?q=42.8775107,74.5757269",
      "lat": 42.8775107,
      "lng": 74.5757269,
      "source": "osm"
    },
    {
      "id": "a3226771366",
      "nom": "Радио и современность",
      "categorie": "artwork",
      "description": "",
      "prix": "",
      "duree": "",
      "mapsUrl": "https://maps.google.com/?q=42.8789744,74.5764774",
      "lat": 42.8789744,
      "lng": 74.5764774,
      "source": "osm"
    },
    {
      "id": "a6616325335",
      "nom": "Калык Акиевдин эстелиги",
      "categorie": "artwork",
      "description": "",
      "prix": "",
      "duree": "",
      "mapsUrl": "https://maps.google.com/?q=42.8773761,74.578105",
      "lat": 42.8773761,
      "lng": 74.578105,
      "source": "osm"
    },
    {
      "id": "a12901395451",
      "nom": "Шлагбаум",
      "categorie": "artwork",
      "description": "",
      "prix": "",
      "duree": "",
      "mapsUrl": "https://maps.google.com/?q=42.878127,74.5617786",
      "lat": 42.878127,
      "lng": 74.5617786,
      "source": "osm"
    },
    {
      "id": "a4791225989",
      "nom": "Атом",
      "categorie": "artwork",
      "description": "",
      "prix": "",
      "duree": "",
      "mapsUrl": "https://maps.google.com/?q=42.8770163,74.579686",
      "lat": 42.8770163,
      "lng": 74.579686,
      "source": "osm"
    },
    {
      "id": "a10539857137",
      "nom": "К.К. Каракееву",
      "categorie": "memorial",
      "description": "",
      "prix": "",
      "duree": "",
      "mapsUrl": "https://maps.google.com/?q=42.8776108,74.5795083",
      "lat": 42.8776108,
      "lng": 74.5795083,
      "source": "osm"
    },
    {
      "id": "a10539857138",
      "nom": "К.И. Скрябину",
      "categorie": "memorial",
      "description": "",
      "prix": "",
      "duree": "",
      "mapsUrl": "https://maps.google.com/?q=42.8776432,74.57957",
      "lat": 42.8776432,
      "lng": 74.57957,
      "source": "osm"
    },
    {
      "id": "a10539857139",
      "nom": "И.К. Ахунбаеву",
      "categorie": "memorial",
      "description": "",
      "prix": "",
      "duree": "",
      "mapsUrl": "https://maps.google.com/?q=42.877626,74.5798154",
      "lat": 42.877626,
      "lng": 74.5798154,
      "source": "osm"
    },
    {
      "id": "a10539857140",
      "nom": "М.М. Адышеву",
      "categorie": "memorial",
      "description": "",
      "prix": "",
      "duree": "",
      "mapsUrl": "https://maps.google.com/?q=42.8775793,74.5798811",
      "lat": 42.8775793,
      "lng": 74.5798811,
      "source": "osm"
    },
    {
      "id": "a4085389965",
      "nom": "Зоологический музей",
      "categorie": "museum",
      "description": "",
      "prix": "",
      "duree": "",
      "mapsUrl": "https://maps.google.com/?q=42.8774817,74.5803469",
      "lat": 42.8774817,
      "lng": 74.5803469,
      "source": "osm"
    },
    {
      "id": "a12382177601",
      "nom": "Мозаика",
      "categorie": "artwork",
      "description": "",
      "prix": "",
      "duree": "",
      "mapsUrl": "https://maps.google.com/?q=42.8684495,74.579127",
      "lat": 42.8684495,
      "lng": 74.579127,
      "source": "osm"
    },
    {
      "id": "a4409553890",
      "nom": "Дом-музей Алыкула Осмонова",
      "categorie": "museum",
      "description": "",
      "prix": "",
      "duree": "",
      "mapsUrl": "https://maps.google.com/?q=42.8676365,74.5782653",
      "lat": 42.8676365,
      "lng": 74.5782653,
      "source": "osm"
    },
    {
      "id": "a119933472",
      "nom": "Воинский квадрат",
      "categorie": "memorial",
      "description": "",
      "prix": "",
      "duree": "",
      "mapsUrl": "https://maps.google.com/?q=42.8791044,74.5563854",
      "lat": 42.8791044,
      "lng": 74.5563854,
      "source": "osm"
    },
    {
      "id": "a3226771365",
      "nom": "Путь просвещения",
      "categorie": "artwork",
      "description": "",
      "prix": "",
      "duree": "",
      "mapsUrl": "https://maps.google.com/?q=42.8797935,74.5831435",
      "lat": 42.8797935,
      "lng": 74.5831435,
      "source": "osm"
    },
    {
      "id": "a1130929446",
      "nom": "Шахматы",
      "categorie": "artwork",
      "description": "",
      "prix": "",
      "duree": "",
      "mapsUrl": "https://maps.google.com/?q=42.8856444,74.5749519",
      "lat": 42.8856444,
      "lng": 74.5749519,
      "source": "osm"
    },
    {
      "id": "a4191858915",
      "nom": "памятник Махатма Ганди",
      "categorie": "memorial",
      "description": "",
      "prix": "",
      "duree": "",
      "mapsUrl": "https://maps.google.com/?q=42.8859689,74.5758765",
      "lat": 42.8859689,
      "lng": 74.5758765,
      "source": "osm"
    },
    {
      "id": "a3268750198",
      "nom": "Эл куту",
      "categorie": "artwork",
      "description": "",
      "prix": "",
      "duree": "",
      "mapsUrl": "https://maps.google.com/?q=42.8794209,74.5858938",
      "lat": 42.8794209,
      "lng": 74.5858938,
      "source": "osm"
    },
    {
      "id": "a792604797",
      "nom": "Музей минералогии",
      "categorie": "museum",
      "description": "",
      "prix": "",
      "duree": "",
      "mapsUrl": "https://maps.google.com/?q=42.8762079,74.5872091",
      "lat": 42.8762079,
      "lng": 74.5872091,
      "source": "osm"
    },
    {
      "id": "a11865797560",
      "nom": "Найманбай манасчы",
      "categorie": "memorial",
      "description": "",
      "prix": "",
      "duree": "",
      "mapsUrl": "https://maps.google.com/?q=42.877198,74.5870426",
      "lat": 42.877198,
      "lng": 74.5870426,
      "source": "osm"
    },
    {
      "id": "a11865797559",
      "nom": "Тыныбек манасчи",
      "categorie": "memorial",
      "description": "",
      "prix": "",
      "duree": "",
      "mapsUrl": "https://maps.google.com/?q=42.8773086,74.5870581",
      "lat": 42.8773086,
      "lng": 74.5870581,
      "source": "osm"
    },
    {
      "id": "a428038196",
      "nom": "Скульптурный комплекс \"Манас\"",
      "categorie": "artwork",
      "description": "",
      "prix": "",
      "duree": "",
      "mapsUrl": "https://maps.google.com/?q=42.8775782,74.5875429",
      "lat": 42.8775782,
      "lng": 74.5875429,
      "source": "osm"
    },
    {
      "id": "a11865797557",
      "nom": "Саякбай Каралаев",
      "categorie": "memorial",
      "description": "",
      "prix": "",
      "duree": "",
      "mapsUrl": "https://maps.google.com/?q=42.8771483,74.5879502",
      "lat": 42.8771483,
      "lng": 74.5879502,
      "source": "osm"
    },
    {
      "id": "a11865797558",
      "nom": "Жусуп Мамай",
      "categorie": "memorial",
      "description": "",
      "prix": "",
      "duree": "",
      "mapsUrl": "https://maps.google.com/?q=42.8772079,74.5879568",
      "lat": 42.8772079,
      "lng": 74.5879568,
      "source": "osm"
    },
    {
      "id": "a3559206513",
      "nom": "Шабдан Баатыр",
      "categorie": "memorial",
      "description": "",
      "prix": "",
      "duree": "",
      "mapsUrl": "https://maps.google.com/?q=42.8798754,74.5868613",
      "lat": 42.8798754,
      "lng": 74.5868613,
      "source": "osm"
    },
    {
      "id": "a11865797556",
      "nom": "Сагымбай Орозбаков",
      "categorie": "memorial",
      "description": "",
      "prix": "",
      "duree": "",
      "mapsUrl": "https://maps.google.com/?q=42.8772676,74.5879633",
      "lat": 42.8772676,
      "lng": 74.5879633,
      "source": "osm"
    },
    {
      "id": "a11865726609",
      "nom": "Түгөлбай Сыдыкбеков",
      "categorie": "artwork",
      "description": "",
      "prix": "",
      "duree": "",
      "mapsUrl": "https://maps.google.com/?q=42.8746521,74.5884166",
      "lat": 42.8746521,
      "lng": 74.5884166,
      "source": "osm"
    },
    {
      "id": "a3559214198",
      "nom": "К. Тыныстанову",
      "categorie": "memorial",
      "description": "",
      "prix": "",
      "duree": "",
      "mapsUrl": "https://maps.google.com/?q=42.88123,74.5864673",
      "lat": 42.88123,
      "lng": 74.5864673,
      "source": "osm"
    },
    {
      "id": "a3559211018",
      "nom": "К. К. Юдахину",
      "categorie": "memorial",
      "description": "",
      "prix": "",
      "duree": "",
      "mapsUrl": "https://maps.google.com/?q=42.8811752,74.5875191",
      "lat": 42.8811752,
      "lng": 74.5875191,
      "source": "osm"
    },
    {
      "id": "a4262164005",
      "nom": "Жусуп Баласагын",
      "categorie": "memorial",
      "description": "",
      "prix": "",
      "duree": "",
      "mapsUrl": "https://maps.google.com/?q=42.8819752,74.5870541",
      "lat": 42.8819752,
      "lng": 74.5870541,
      "source": "osm"
    },
    {
      "id": "a1433366292",
      "nom": "Юрта",
      "categorie": "artwork",
      "description": "",
      "prix": "",
      "duree": "",
      "mapsUrl": "https://maps.google.com/?q=42.8831375,74.5871715",
      "lat": 42.8831375,
      "lng": 74.5871715,
      "source": "osm"
    },
    {
      "id": "a3226771361",
      "nom": "Женщины",
      "categorie": "artwork",
      "description": "",
      "prix": "",
      "duree": "",
      "mapsUrl": "https://maps.google.com/?q=42.8760574,74.5909103",
      "lat": 42.8760574,
      "lng": 74.5909103,
      "source": "osm"
    },
    {
      "id": "a3226771368",
      "nom": "советская мозаика на стене",
      "categorie": "artwork",
      "description": "",
      "prix": "",
      "duree": "",
      "mapsUrl": "https://maps.google.com/?q=42.8768482,74.5914752",
      "lat": 42.8768482,
      "lng": 74.5914752,
      "source": "osm"
    },
    {
      "id": "a1925213135",
      "nom": "Памятник железнодорожникам, павшим в ВОВ",
      "categorie": "memorial",
      "description": "",
      "prix": "",
      "duree": "",
      "mapsUrl": "https://maps.google.com/?q=42.8655193,74.5517185",
      "lat": 42.8655193,
      "lng": 74.5517185,
      "source": "osm"
    },
    {
      "id": "a1756866668",
      "nom": "А. М. Горькому",
      "categorie": "memorial",
      "description": "",
      "prix": "",
      "duree": "",
      "mapsUrl": "https://maps.google.com/?q=42.8783493,74.5928958",
      "lat": 42.8783493,
      "lng": 74.5928958,
      "source": "osm"
    },
    {
      "id": "a3629356390",
      "nom": "Тоголок Молдо",
      "categorie": "memorial",
      "description": "",
      "prix": "",
      "duree": "",
      "mapsUrl": "https://maps.google.com/?q=42.8687135,74.5940089",
      "lat": 42.8687135,
      "lng": 74.5940089,
      "source": "osm"
    },
    {
      "id": "a3629356389",
      "nom": "Осмонкул Бөлөбаев",
      "categorie": "memorial",
      "description": "",
      "prix": "",
      "duree": "",
      "mapsUrl": "https://maps.google.com/?q=42.8675531,74.5939061",
      "lat": 42.8675531,
      "lng": 74.5939061,
      "source": "osm"
    },
    {
      "id": "a9917111465",
      "nom": "Gallery Artemis",
      "categorie": "gallery",
      "description": "",
      "prix": "",
      "duree": "",
      "mapsUrl": "https://maps.google.com/?q=42.8704802,74.5953328",
      "lat": 42.8704802,
      "lng": 74.5953328,
      "source": "osm"
    },
    {
      "id": "a3559190705",
      "nom": "Кожомкулу",
      "categorie": "memorial",
      "description": "",
      "prix": "",
      "duree": "",
      "mapsUrl": "https://maps.google.com/?q=42.878403,74.5958985",
      "lat": 42.878403,
      "lng": 74.5958985,
      "source": "osm"
    },
    {
      "id": "a4085457640",
      "nom": "музей Т.Садыкова",
      "categorie": "museum",
      "description": "",
      "prix": "",
      "duree": "",
      "mapsUrl": "https://maps.google.com/?q=42.8793946,74.5958205",
      "lat": 42.8793946,
      "lng": 74.5958205,
      "source": "osm"
    },
    {
      "id": "a3226771367",
      "nom": "Тебе, родина, наш труд!",
      "categorie": "artwork",
      "description": "",
      "prix": "",
      "duree": "",
      "mapsUrl": "https://maps.google.com/?q=42.8831792,74.5947932",
      "lat": 42.8831792,
      "lng": 74.5947932,
      "source": "osm"
    },
    {
      "id": "a11865835383",
      "nom": "Телефонная будка",
      "categorie": "artwork",
      "description": "",
      "prix": "",
      "duree": "",
      "mapsUrl": "https://maps.google.com/?q=42.8759164,74.5977513",
      "lat": 42.8759164,
      "lng": 74.5977513,
      "source": "osm"
    },
    {
      "id": "a10603249972",
      "nom": "Сгорая сам, свети другим всегда",
      "categorie": "artwork",
      "description": "",
      "prix": "",
      "duree": "",
      "mapsUrl": "https://maps.google.com/?q=42.8657907,74.5959808",
      "lat": 42.8657907,
      "lng": 74.5959808,
      "source": "osm"
    },
    {
      "id": "a283552650",
      "nom": "Воинам - баткенцам",
      "categorie": "memorial",
      "description": "",
      "prix": "",
      "duree": "",
      "mapsUrl": "https://maps.google.com/?q=42.874615,74.5989049",
      "lat": 42.874615,
      "lng": 74.5989049,
      "source": "osm"
    },
    {
      "id": "a12109965612",
      "nom": "Барельефы",
      "categorie": "artwork",
      "description": "",
      "prix": "",
      "duree": "",
      "mapsUrl": "https://maps.google.com/?q=42.881428,74.5978453",
      "lat": 42.881428,
      "lng": 74.5978453,
      "source": "osm"
    },
    {
      "id": "a10603235623",
      "nom": "Бурулай",
      "categorie": "artwork",
      "description": "",
      "prix": "",
      "duree": "",
      "mapsUrl": "https://maps.google.com/?q=42.8669907,74.5980331",
      "lat": 42.8669907,
      "lng": 74.5980331,
      "source": "osm"
    },
    {
      "id": "a25487201",
      "nom": "Панфилов атындагы сейилбак",
      "categorie": "theme park",
      "description": "",
      "prix": "",
      "duree": "",
      "mapsUrl": "https://maps.google.com/?q=42.8791454,74.5995567",
      "lat": 42.8791454,
      "lng": 74.5995567,
      "source": "osm"
    },
    {
      "id": "a8164544775",
      "nom": "М. Куренкеев",
      "categorie": "memorial",
      "description": "",
      "prix": "",
      "duree": "",
      "mapsUrl": "https://maps.google.com/?q=42.869896,74.5997778",
      "lat": 42.869896,
      "lng": 74.5997778,
      "source": "osm"
    },
    {
      "id": "a10090076409",
      "nom": "Таттыбюбю Турсунбаева и Суйменкул Чокморов",
      "categorie": "artwork",
      "description": "",
      "prix": "",
      "duree": "",
      "mapsUrl": "https://maps.google.com/?q=42.8757789,74.6008206",
      "lat": 42.8757789,
      "lng": 74.6008206,
      "source": "osm"
    },
    {
      "id": "a10090109927",
      "nom": "Ограда дома правительства",
      "categorie": "memorial",
      "description": "",
      "prix": "",
      "duree": "",
      "mapsUrl": "https://maps.google.com/?q=42.8762896,74.6009566",
      "lat": 42.8762896,
      "lng": 74.6009566,
      "source": "osm"
    },
    {
      "id": "a2090595747",
      "nom": "Героям 7-го апреля",
      "categorie": "memorial",
      "description": "",
      "prix": "",
      "duree": "",
      "mapsUrl": "https://maps.google.com/?q=42.8763077,74.6013868",
      "lat": 42.8763077,
      "lng": 74.6013868,
      "source": "osm"
    },
    {
      "id": "a3559189846",
      "nom": "Памятник генералу Панфилову",
      "categorie": "memorial",
      "description": "",
      "prix": "",
      "duree": "",
      "mapsUrl": "https://maps.google.com/?q=42.8784077,74.601188",
      "lat": 42.8784077,
      "lng": 74.601188,
      "source": "osm"
    },
    {
      "id": "a4041305228",
      "nom": "Музей искусства и литературы им. Тогтогула",
      "categorie": "museum",
      "description": "",
      "prix": "",
      "duree": "",
      "mapsUrl": "https://maps.google.com/?q=42.8724571,74.6018129",
      "lat": 42.8724571,
      "lng": 74.6018129,
      "source": "osm"
    },
    {
      "id": "a430809554",
      "nom": "Кыргызско-Российских отношений",
      "categorie": "artwork",
      "description": "",
      "prix": "",
      "duree": "",
      "mapsUrl": "https://maps.google.com/?q=42.8767784,74.6020221",
      "lat": 42.8767784,
      "lng": 74.6020221,
      "source": "osm"
    },
    {
      "id": "a5141873535",
      "nom": "Таттыбүбү Турсунбаеванын",
      "categorie": "memorial",
      "description": "",
      "prix": "",
      "duree": "",
      "mapsUrl": "https://maps.google.com/?q=42.8800628,74.6024205",
      "lat": 42.8800628,
      "lng": 74.6024205,
      "source": "osm"
    },
    {
      "id": "a1482524576",
      "nom": "Ч. Т. Айтматову",
      "categorie": "memorial",
      "description": "",
      "prix": "",
      "duree": "",
      "mapsUrl": "https://maps.google.com/?q=42.8743953,74.6035433",
      "lat": 42.8743953,
      "lng": 74.6035433,
      "source": "osm"
    },
    {
      "id": "a283552642",
      "nom": "Манас Великодушный",
      "categorie": "artwork",
      "description": "",
      "prix": "",
      "duree": "",
      "mapsUrl": "https://maps.google.com/?q=42.8766912,74.6037444",
      "lat": 42.8766912,
      "lng": 74.6037444,
      "source": "osm"
    },
    {
      "id": "a10574222920",
      "nom": "Улуу Ата Мекендик согуштун баатырларына эстелик",
      "categorie": "memorial",
      "description": "",
      "prix": "",
      "duree": "",
      "mapsUrl": "https://maps.google.com/?q=42.8788525,74.603449",
      "lat": 42.8788525,
      "lng": 74.603449,
      "source": "osm"
    },
    {
      "id": "a36823758",
      "nom": "Национальный Исторический Музей",
      "categorie": "museum",
      "description": "",
      "prix": "",
      "duree": "",
      "mapsUrl": "https://maps.google.com/?q=42.8777228,74.6038282",
      "lat": 42.8777228,
      "lng": 74.6038282,
      "source": "osm"
    },
    {
      "id": "a10121789874",
      "nom": "Гапар Айтиев",
      "categorie": "memorial",
      "description": "",
      "prix": "",
      "duree": "",
      "mapsUrl": "https://maps.google.com/?q=42.866935,74.6028579",
      "lat": 42.866935,
      "lng": 74.6028579,
      "source": "osm"
    },
    {
      "id": "a10121789987",
      "nom": "Абды Суеркулов",
      "categorie": "memorial",
      "description": "",
      "prix": "",
      "duree": "",
      "mapsUrl": "https://maps.google.com/?q=42.8690773,74.6037396",
      "lat": 42.8690773,
      "lng": 74.6037396,
      "source": "osm"
    },
    {
      "id": "a10121789949",
      "nom": "Сопубек Бегалиев",
      "categorie": "memorial",
      "description": "",
      "prix": "",
      "duree": "",
      "mapsUrl": "https://maps.google.com/?q=42.8704377,74.6042497",
      "lat": 42.8704377,
      "lng": 74.6042497,
      "source": "osm"
    },
    {
      "id": "a10121789795",
      "nom": "Султан Ибраимов",
      "categorie": "memorial",
      "description": "",
      "prix": "",
      "duree": "",
      "mapsUrl": "https://maps.google.com/?q=42.8702734,74.6042377",
      "lat": 42.8702734,
      "lng": 74.6042377,
      "source": "osm"
    },
    {
      "id": "a10574222921",
      "nom": "Достуктун жана Эмгек Даңкынын эстелиги",
      "categorie": "memorial",
      "description": "",
      "prix": "",
      "duree": "",
      "mapsUrl": "https://maps.google.com/?q=42.8788215,74.6044602",
      "lat": 42.8788215,
      "lng": 74.6044602,
      "source": "osm"
    },
    {
      "id": "a13619391989",
      "nom": "Кулатов Торобай",
      "categorie": "memorial",
      "description": "",
      "prix": "",
      "duree": "",
      "mapsUrl": "https://maps.google.com/?q=42.8772728,74.6049304",
      "lat": 42.8772728,
      "lng": 74.6049304,
      "source": "osm"
    },
    {
      "id": "a13619391988",
      "nom": "Исакеев Баялы",
      "categorie": "memorial",
      "description": "",
      "prix": "",
      "duree": "",
      "mapsUrl": "https://maps.google.com/?q=42.8772708,74.6050286",
      "lat": 42.8772708,
      "lng": 74.6050286,
      "source": "osm"
    },
    {
      "id": "a13619391987",
      "nom": "Исхак Раззаков",
      "categorie": "memorial",
      "description": "",
      "prix": "",
      "duree": "",
      "mapsUrl": "https://maps.google.com/?q=42.8772694,74.6051383",
      "lat": 42.8772694,
      "lng": 74.6051383,
      "source": "osm"
    },
    {
      "id": "a3226771363",
      "nom": "Песня",
      "categorie": "artwork",
      "description": "",
      "prix": "",
      "duree": "",
      "mapsUrl": "https://maps.google.com/?q=42.8698006,74.6047406",
      "lat": 42.8698006,
      "lng": 74.6047406,
      "source": "osm"
    },
    {
      "id": "a13619391991",
      "nom": "Ахматбек Суюмбаев",
      "categorie": "memorial",
      "description": "",
      "prix": "",
      "duree": "",
      "mapsUrl": "https://maps.google.com/?q=42.8773624,74.6052752",
      "lat": 42.8773624,
      "lng": 74.6052752,
      "source": "osm"
    },
    {
      "id": "a13619392035",
      "nom": "Арстанбек Дуйшеев",
      "categorie": "memorial",
      "description": "",
      "prix": "",
      "duree": "",
      "mapsUrl": "https://maps.google.com/?q=42.8777142,74.6053237",
      "lat": 42.8777142,
      "lng": 74.6053237,
      "source": "osm"
    },
    {
      "id": "a13619392034",
      "nom": "Турдакун Усубалиев",
      "categorie": "memorial",
      "description": "",
      "prix": "",
      "duree": "",
      "mapsUrl": "https://maps.google.com/?q=42.8778612,74.6053407",
      "lat": 42.8778612,
      "lng": 74.6053407,
      "source": "osm"
    },
    {
      "id": "a13619391992",
      "nom": "Абсамат Масалиев",
      "categorie": "memorial",
      "description": "",
      "prix": "",
      "duree": "",
      "mapsUrl": "https://maps.google.com/?q=42.8773581,74.6054856",
      "lat": 42.8773581,
      "lng": 74.6054856,
      "source": "osm"
    },
    {
      "id": "a13619391986",
      "nom": "Юсуп Абдырахманов",
      "categorie": "memorial",
      "description": "",
      "prix": "",
      "duree": "",
      "mapsUrl": "https://maps.google.com/?q=42.8772594,74.6055189",
      "lat": 42.8772594,
      "lng": 74.6055189,
      "source": "osm"
    },
    {
      "id": "a1815530912",
      "nom": "Зууракан Кайназарова",
      "categorie": "memorial",
      "description": "",
      "prix": "",
      "duree": "",
      "mapsUrl": "https://maps.google.com/?q=42.8708435,74.6053781",
      "lat": 42.8708435,
      "lng": 74.6053781,
      "source": "osm"
    },
    {
      "id": "a13619392038",
      "nom": "Болот Мамбетов",
      "categorie": "memorial",
      "description": "",
      "prix": "",
      "duree": "",
      "mapsUrl": "https://maps.google.com/?q=42.877643,74.6055249",
      "lat": 42.877643,
      "lng": 74.6055249,
      "source": "osm"
    },
    {
      "id": "a13619391985",
      "nom": "Орозбеков Абдыкадыр",
      "categorie": "memorial",
      "description": "",
      "prix": "",
      "duree": "",
      "mapsUrl": "https://maps.google.com/?q=42.8772585,74.6056133",
      "lat": 42.8772585,
      "lng": 74.6056133,
      "source": "osm"
    },
    {
      "id": "a13619392037",
      "nom": "Дикамбаев Каз",
      "categorie": "memorial",
      "description": "",
      "prix": "",
      "duree": "",
      "mapsUrl": "https://maps.google.com/?q=42.8777818,74.6055431",
      "lat": 42.8777818,
      "lng": 74.6055431,
      "source": "osm"
    },
    {
      "id": "a10121789996",
      "nom": "Иса Ахунбаев",
      "categorie": "memorial",
      "description": "",
      "prix": "",
      "duree": "",
      "mapsUrl": "https://maps.google.com/?q=42.8744915,74.605894",
      "lat": 42.8744915,
      "lng": 74.605894,
      "source": "osm"
    },
    {
      "id": "a5393155833",
      "nom": "Сыдыков Абдыкерим",
      "categorie": "memorial",
      "description": "",
      "prix": "",
      "duree": "",
      "mapsUrl": "https://maps.google.com/?q=42.8772538,74.605718",
      "lat": 42.8772538,
      "lng": 74.605718,
      "source": "osm"
    },
    {
      "id": "a645190057",
      "nom": "Маркс жана Энгельс",
      "categorie": "memorial",
      "description": "",
      "prix": "",
      "duree": "",
      "mapsUrl": "https://maps.google.com/?q=42.8789637,74.6055452",
      "lat": 42.8789637,
      "lng": 74.6055452,
      "source": "osm"
    },
    {
      "id": "a10103282098",
      "nom": "Бишкек Баатыр",
      "categorie": "memorial",
      "description": "",
      "prix": "",
      "duree": "",
      "mapsUrl": "https://maps.google.com/?q=42.876423,74.606008",
      "lat": 42.876423,
      "lng": 74.606008,
      "source": "osm"
    },
    {
      "id": "a13619392116",
      "nom": "Кучакташуу",
      "categorie": "artwork",
      "description": "",
      "prix": "",
      "duree": "",
      "mapsUrl": "https://maps.google.com/?q=42.8774699,74.6058944",
      "lat": 42.8774699,
      "lng": 74.6058944,
      "source": "osm"
    },
    {
      "id": "a10090110095",
      "nom": "Достук",
      "categorie": "artwork",
      "description": "",
      "prix": "",
      "duree": "",
      "mapsUrl": "https://maps.google.com/?q=42.8775217,74.6059102",
      "lat": 42.8775217,
      "lng": 74.6059102,
      "source": "osm"
    },
    {
      "id": "a10090110038",
      "nom": "Коркунучтагы периште",
      "categorie": "artwork",
      "description": "",
      "prix": "",
      "duree": "",
      "mapsUrl": "https://maps.google.com/?q=42.8777705,74.6059134",
      "lat": 42.8777705,
      "lng": 74.6059134,
      "source": "osm"
    },
    {
      "id": "a10090110010",
      "nom": "Жубайлар",
      "categorie": "artwork",
      "description": "",
      "prix": "",
      "duree": "",
      "mapsUrl": "https://maps.google.com/?q=42.8778472,74.605927",
      "lat": 42.8778472,
      "lng": 74.605927,
      "source": "osm"
    },
    {
      "id": "a10090076413",
      "nom": "Алтын кылым",
      "categorie": "artwork",
      "description": "",
      "prix": "",
      "duree": "",
      "mapsUrl": "https://maps.google.com/?q=42.878072,74.6058963",
      "lat": 42.878072,
      "lng": 74.6058963,
      "source": "osm"
    },
    {
      "id": "a10090076412",
      "nom": "Түрк кызы",
      "categorie": "artwork",
      "description": "",
      "prix": "",
      "duree": "",
      "mapsUrl": "https://maps.google.com/?q=42.878245,74.6059078",
      "lat": 42.878245,
      "lng": 74.6059078,
      "source": "osm"
    },
    {
      "id": "a1201305524",
      "nom": "И.В. Панфилов",
      "categorie": "memorial",
      "description": "",
      "prix": "",
      "duree": "",
      "mapsUrl": "https://maps.google.com/?q=42.8686512,74.6053713",
      "lat": 42.8686512,
      "lng": 74.6053713,
      "source": "osm"
    },
    {
      "id": "a10090076415",
      "nom": "Малыш",
      "categorie": "artwork",
      "description": "",
      "prix": "",
      "duree": "",
      "mapsUrl": "https://maps.google.com/?q=42.8785526,74.6058895",
      "lat": 42.8785526,
      "lng": 74.6058895,
      "source": "osm"
    },
    {
      "id": "a49130695",
      "nom": "Мемориальный дом-музей М.В.Фрунзе",
      "categorie": "museum",
      "description": "",
      "prix": "",
      "duree": "",
      "mapsUrl": "https://maps.google.com/?q=42.8804588,74.6054202",
      "lat": 42.8804588,
      "lng": 74.6054202,
      "source": "osm"
    },
    {
      "id": "a10090076401",
      "nom": "Ажырашуу",
      "categorie": "artwork",
      "description": "",
      "prix": "",
      "duree": "",
      "mapsUrl": "https://maps.google.com/?q=42.878694,74.6058919",
      "lat": 42.878694,
      "lng": 74.6058919,
      "source": "osm"
    },
    {
      "id": "a88234560",
      "nom": "Дом-музей А.Токомбаева",
      "categorie": "museum",
      "description": "",
      "prix": "",
      "duree": "",
      "mapsUrl": "https://maps.google.com/?q=42.866216,74.6044873",
      "lat": 42.866216,
      "lng": 74.6044873,
      "source": "osm"
    },
    {
      "id": "a5980670196",
      "nom": "Темиркул",
      "categorie": "memorial",
      "description": "",
      "prix": "",
      "duree": "",
      "mapsUrl": "https://maps.google.com/?q=42.8733892,74.6064029",
      "lat": 42.8733892,
      "lng": 74.6064029,
      "source": "osm"
    },
    {
      "id": "a10090110029",
      "nom": "Акт",
      "categorie": "artwork",
      "description": "",
      "prix": "",
      "duree": "",
      "mapsUrl": "https://maps.google.com/?q=42.878054,74.6062772",
      "lat": 42.878054,
      "lng": 74.6062772,
      "source": "osm"
    },
    {
      "id": "a671600719",
      "nom": "Арт галерея",
      "categorie": "gallery",
      "description": "",
      "prix": "",
      "duree": "",
      "mapsUrl": "https://maps.google.com/?q=42.8766147,74.6066209",
      "lat": 42.8766147,
      "lng": 74.6066209,
      "source": "osm"
    },
    {
      "id": "a52459683",
      "nom": "Дом-музей И.Раззакова",
      "categorie": "museum",
      "description": "",
      "prix": "",
      "duree": "",
      "mapsUrl": "https://maps.google.com/?q=42.865407,74.6045677",
      "lat": 42.865407,
      "lng": 74.6045677,
      "source": "osm"
    }
  ],
  "osmEnriched": true,
  "osmEnrichedAt": "2026-06-30"
}