{
 "slug": "brisbane",
 "nom": "Brisbane",
 "pays": "Australie",
 "pays_slug": "australie",
 "continent": "Océanie",
 "region": "Australie",
 "coordonnees": {
  "lat": -27.4698,
  "lng": 153.0251
 },
 "codeISO": "AU",
 "score_halal": 3.5,
 "halalScore": 7,
 "villeNonMusulmane": true,
 "description": "Métropole ensoleillée du Queensland. Communauté musulmane et adresses halal à Holland Park et au centre.",
 "metaDescription": "Métropole ensoleillée du Queensland. Communauté musulmane et adresses halal à Holland Park et au centre.",
 "image": "https://upload.wikimedia.org/wikipedia/commons/thumb/1/19/Australie%2C_Queensland%2C_Brisbane%2C_night_view%2C_from_the_Victoria_Bridge.jpg/1920px-Australie%2C_Queensland%2C_Brisbane%2C_night_view%2C_from_the_Victoria_Bridge.jpg",
 "image_hero": "https://upload.wikimedia.org/wikipedia/commons/thumb/1/19/Australie%2C_Queensland%2C_Brisbane%2C_night_view%2C_from_the_Victoria_Bridge.jpg/1920px-Australie%2C_Queensland%2C_Brisbane%2C_night_view%2C_from_the_Victoria_Bridge.jpg",
 "imageCredit": "Wikimedia Commons",
 "statistiques": {
  "restaurants_halal": 39,
  "mosquees": 3,
  "hotels": 30
 },
 "infoPratique": {
  "transport": "Accessible par avion et transports en commun locaux.",
  "meilleureEpoque": "Printemps et automne (climat tempéré).",
  "conseilHalal": "Ville non-musulmane : repérez les restaurants halal certifiés et les mosquées via l'application avant votre visite."
 },
 "tags": [
  "halal",
  "ville non-musulmane",
  "océanie"
 ],
 "restaurants": [
  {
   "nom": "Grill'd",
   "type": "burger",
   "priceRange": "€€",
   "mapsUrl": "https://maps.google.com/?q=-27.4691356,153.0263513",
   "lat": -27.4691356,
   "lng": 153.0263513,
   "halalConfidence": "yes",
   "source": "osm"
  },
  {
   "nom": "School Cafeteria / X Block",
   "type": "Restaurant halal",
   "priceRange": "€€",
   "mapsUrl": "https://maps.google.com/?q=-27.5001135,152.9855419",
   "lat": -27.5001135,
   "lng": 152.9855419,
   "halalConfidence": "yes",
   "source": "osm"
  },
  {
   "nom": "Fab Kebabs",
   "type": "kebab",
   "priceRange": "€€",
   "mapsUrl": "https://maps.google.com/?q=-27.4709711,153.0263466",
   "lat": -27.4709711,
   "lng": 153.0263466,
   "halalConfidence": "likely",
   "source": "osm"
  },
  {
   "nom": "Turquoise",
   "type": "kebab",
   "priceRange": "€€",
   "mapsUrl": "https://maps.google.com/?q=-27.4719317,153.0276835",
   "lat": -27.4719317,
   "lng": 153.0276835,
   "halalConfidence": "likely",
   "source": "osm"
  },
  {
   "nom": "Kebapp",
   "type": "kebab",
   "priceRange": "€€",
   "mapsUrl": "https://maps.google.com/?q=-27.4648152,153.0300509",
   "lat": -27.4648152,
   "lng": 153.0300509,
   "halalConfidence": "likely",
   "source": "osm"
  },
  {
   "nom": "Farah Restaurant",
   "type": "persian",
   "priceRange": "€€",
   "mapsUrl": "https://maps.google.com/?q=-27.46319,153.0210992",
   "lat": -27.46319,
   "lng": 153.0210992,
   "halalConfidence": "likely",
   "source": "osm"
  },
  {
   "nom": "Ahmet's",
   "type": "turkish",
   "priceRange": "€€",
   "mapsUrl": "https://maps.google.com/?q=-27.4781963,153.0215234",
   "lat": -27.4781963,
   "lng": 153.0215234,
   "halalConfidence": "likely",
   "source": "osm"
  },
  {
   "nom": "Origin Kebabs",
   "type": "kebab",
   "priceRange": "€€",
   "mapsUrl": "https://maps.google.com/?q=-27.4782407,153.0294286",
   "lat": -27.4782407,
   "lng": 153.0294286,
   "halalConfidence": "likely",
   "source": "osm"
  },
  {
   "nom": "Baba Ganouj",
   "type": "lebanese",
   "priceRange": "€€",
   "mapsUrl": "https://maps.google.com/?q=-27.4799076,153.0228849",
   "lat": -27.4799076,
   "lng": 153.0228849,
   "halalConfidence": "likely",
   "source": "osm"
  },
  {
   "nom": "Mado",
   "type": "turkish",
   "priceRange": "€€",
   "mapsUrl": "https://maps.google.com/?q=-27.4806473,153.0237774",
   "lat": -27.4806473,
   "lng": 153.0237774,
   "halalConfidence": "likely",
   "source": "osm"
  },
  {
   "nom": "Baba Ganouj",
   "type": "turkish",
   "priceRange": "€€",
   "mapsUrl": "https://maps.google.com/?q=-27.4806182,153.0232726",
   "lat": -27.4806182,
   "lng": 153.0232726,
   "halalConfidence": "likely",
   "source": "osm"
  },
  {
   "nom": "Abbra Kebabra",
   "type": "kebab",
   "priceRange": "€€",
   "mapsUrl": "https://maps.google.com/?q=-27.4645909,153.0126832",
   "lat": -27.4645909,
   "lng": 153.0126832,
   "halalConfidence": "likely",
   "source": "osm"
  },
  {
   "nom": "The Kebab Shop",
   "type": "kebab",
   "priceRange": "€€",
   "mapsUrl": "https://maps.google.com/?q=-27.4784134,153.0126388",
   "lat": -27.4784134,
   "lng": 153.0126388,
   "halalConfidence": "likely",
   "source": "osm"
  },
  {
   "nom": "Kebab Corner",
   "type": "kebab",
   "priceRange": "€€",
   "mapsUrl": "https://maps.google.com/?q=-27.4600543,153.0367776",
   "lat": -27.4600543,
   "lng": 153.0367776,
   "halalConfidence": "likely",
   "source": "osm"
  },
  {
   "nom": "Shah Cafe",
   "type": "kebab, pizza",
   "priceRange": "€€",
   "mapsUrl": "https://maps.google.com/?q=-27.4578186,153.0340258",
   "lat": -27.4578186,
   "lng": 153.0340258,
   "halalConfidence": "likely",
   "source": "osm"
  },
  {
   "nom": "Amaya Restaurant & Lounge",
   "type": "lebanese",
   "priceRange": "€€",
   "mapsUrl": "https://maps.google.com/?q=-27.4791929,153.0125715",
   "lat": -27.4791929,
   "lng": 153.0125715,
   "halalConfidence": "likely",
   "source": "osm"
  },
  {
   "nom": "Antep Chargrill and Kebab",
   "type": "turkish, kebab",
   "priceRange": "€€",
   "mapsUrl": "https://maps.google.com/?q=-27.4797316,153.0124404",
   "lat": -27.4797316,
   "lng": 153.0124404,
   "halalConfidence": "likely",
   "source": "osm"
  },
  {
   "nom": "Barbekü",
   "type": "kebab",
   "priceRange": "€€",
   "mapsUrl": "https://maps.google.com/?q=-27.4632864,153.0414718",
   "lat": -27.4632864,
   "lng": 153.0414718,
   "halalConfidence": "likely",
   "source": "osm"
  },
  {
   "nom": "Boundary Kebab",
   "type": "kebab",
   "priceRange": "€€",
   "mapsUrl": "https://maps.google.com/?q=-27.4812617,153.0121316",
   "lat": -27.4812617,
   "lng": 153.0121316,
   "halalConfidence": "likely",
   "source": "osm"
  },
  {
   "nom": "Gabba Kebab",
   "type": "turkish",
   "priceRange": "€€",
   "mapsUrl": "https://maps.google.com/?q=-27.4871046,153.0294825",
   "lat": -27.4871046,
   "lng": 153.0294825,
   "halalConfidence": "likely",
   "source": "osm"
  },
  {
   "nom": "Kamiil's Kebabs",
   "type": "kebab",
   "priceRange": "€€",
   "mapsUrl": "https://maps.google.com/?q=-27.454092,153.0137973",
   "lat": -27.454092,
   "lng": 153.0137973,
   "halalConfidence": "likely",
   "source": "osm"
  },
  {
   "nom": "Caravanserai",
   "type": "turkish",
   "priceRange": "€€",
   "mapsUrl": "https://maps.google.com/?q=-27.4869626,153.0062804",
   "lat": -27.4869626,
   "lng": 153.0062804,
   "halalConfidence": "likely",
   "source": "osm"
  },
  {
   "nom": "Kebab & Charcoal Place",
   "type": "kebab",
   "priceRange": "€€",
   "mapsUrl": "https://maps.google.com/?q=-27.4479955,153.0387106",
   "lat": -27.4479955,
   "lng": 153.0387106,
   "halalConfidence": "likely",
   "source": "osm"
  },
  {
   "nom": "Downtown Istanbul",
   "type": "turkish",
   "priceRange": "€€",
   "mapsUrl": "https://maps.google.com/?q=-27.4621175,153.0602187",
   "lat": -27.4621175,
   "lng": 153.0602187,
   "halalConfidence": "likely",
   "source": "osm"
  },
  {
   "nom": "Origin Kebab",
   "type": "kebab",
   "priceRange": "€€",
   "mapsUrl": "https://maps.google.com/?q=-27.5007186,153.036666",
   "lat": -27.5007186,
   "lng": 153.036666,
   "halalConfidence": "likely",
   "source": "osm"
  },
  {
   "nom": "Ispa Kebabs",
   "type": "kebab",
   "priceRange": "€€",
   "mapsUrl": "https://maps.google.com/?q=-27.4852372,152.9924506",
   "lat": -27.4852372,
   "lng": 152.9924506,
   "halalConfidence": "likely",
   "source": "osm"
  },
  {
   "nom": "Taste of Saffron Restaurant",
   "type": "persian, mediterranean",
   "priceRange": "€€",
   "mapsUrl": "https://maps.google.com/?q=-27.4988169,153.0458405",
   "lat": -27.4988169,
   "lng": 153.0458405,
   "halalConfidence": "likely",
   "source": "osm"
  },
  {
   "nom": "Atlas Yeros",
   "type": "kebab",
   "priceRange": "€€",
   "mapsUrl": "https://maps.google.com/?q=-27.4992759,153.0451149",
   "lat": -27.4992759,
   "lng": 153.0451149,
   "halalConfidence": "likely",
   "source": "osm"
  },
  {
   "nom": "Melody's",
   "type": "kebab",
   "priceRange": "€€",
   "mapsUrl": "https://maps.google.com/?q=-27.4513725,153.0586071",
   "lat": -27.4513725,
   "lng": 153.0586071,
   "halalConfidence": "likely",
   "source": "osm"
  },
  {
   "nom": "Authentic Chargrill & Kebab",
   "type": "turkish",
   "priceRange": "€€",
   "mapsUrl": "https://maps.google.com/?q=-27.4583111,152.9873457",
   "lat": -27.4583111,
   "lng": 152.9873457,
   "halalConfidence": "likely",
   "source": "osm"
  },
  {
   "nom": "Bamiyan",
   "type": "afghan",
   "priceRange": "€€",
   "mapsUrl": "https://maps.google.com/?q=-27.4880939,153.0637584",
   "lat": -27.4880939,
   "lng": 153.0637584,
   "halalConfidence": "likely",
   "source": "osm"
  },
  {
   "nom": "The Yiros Shop",
   "type": "kebab",
   "priceRange": "€€",
   "mapsUrl": "https://maps.google.com/?q=-27.4316728,153.0435077",
   "lat": -27.4316728,
   "lng": 153.0435077,
   "halalConfidence": "likely",
   "source": "osm"
  },
  {
   "nom": "Olive Thyme Turkish Cuisine",
   "type": "turkish",
   "priceRange": "€€",
   "mapsUrl": "https://maps.google.com/?q=-27.4300895,153.0419337",
   "lat": -27.4300895,
   "lng": 153.0419337,
   "halalConfidence": "likely",
   "source": "osm"
  },
  {
   "nom": "Turquoise Coast",
   "type": "kebab",
   "priceRange": "€€",
   "mapsUrl": "https://maps.google.com/?q=-27.5160899,153.0173188",
   "lat": -27.5160899,
   "lng": 153.0173188,
   "halalConfidence": "likely",
   "source": "osm"
  },
  {
   "nom": "Pani Kebabs",
   "type": "kebab",
   "priceRange": "€€",
   "mapsUrl": "https://maps.google.com/?q=-27.4928749,152.9784522",
   "lat": -27.4928749,
   "lng": 152.9784522,
   "halalConfidence": "likely",
   "source": "osm"
  },
  {
   "nom": "Oh! Kebabs",
   "type": "kebab",
   "priceRange": "€€",
   "mapsUrl": "https://maps.google.com/?q=-27.4223573,153.0345958",
   "lat": -27.4223573,
   "lng": 153.0345958,
   "halalConfidence": "likely",
   "source": "osm"
  },
  {
   "nom": "Kingston Kebab Enoggera",
   "type": "kebab",
   "priceRange": "€€",
   "mapsUrl": "https://maps.google.com/?q=-27.4236076,152.9900704",
   "lat": -27.4236076,
   "lng": 152.9900704,
   "halalConfidence": "likely",
   "source": "osm"
  },
  {
   "nom": "Origin Kebab's",
   "type": "kebab",
   "priceRange": "€€",
   "mapsUrl": "https://maps.google.com/?q=-27.5013555,152.9726231",
   "lat": -27.5013555,
   "lng": 152.9726231,
   "halalConfidence": "likely",
   "source": "osm"
  },
  {
   "nom": "Istanbul Kebabs",
   "type": "kebab",
   "priceRange": "€€",
   "mapsUrl": "https://maps.google.com/?q=-27.5332629,153.0248515",
   "lat": -27.5332629,
   "lng": 153.0248515,
   "halalConfidence": "likely",
   "source": "osm"
  }
 ],
 "hotels": [
  {
   "nom": "Hyatt Regency",
   "categorie": "Hôtel",
   "priceRange": "€€",
   "mapsUrl": "https://maps.google.com/?q=-27.4702864,153.0239264",
   "lat": -27.4702864,
   "lng": 153.0239264,
   "halalFriendly": false,
   "bookingUrl": "https://maps.google.com/?q=-27.4702864,153.0239264",
   "source": "osm"
  },
  {
   "nom": "Royal Albert Hotel",
   "categorie": "Hôtel",
   "priceRange": "€€",
   "mapsUrl": "https://maps.google.com/?q=-27.4703884,153.0263648",
   "lat": -27.4703884,
   "lng": 153.0263648,
   "halalFriendly": false,
   "bookingUrl": "https://maps.google.com/?q=-27.4703884,153.0263648",
   "source": "osm"
  },
  {
   "nom": "Ibis Styles Hotel",
   "categorie": "Hôtel",
   "priceRange": "€€",
   "mapsUrl": "https://maps.google.com/?q=-27.471249,153.0244164",
   "lat": -27.471249,
   "lng": 153.0244164,
   "halalFriendly": false,
   "bookingUrl": "https://maps.google.com/?q=-27.471249,153.0244164",
   "source": "osm"
  },
  {
   "nom": "InterContinental",
   "categorie": "Hôtel",
   "priceRange": "€€",
   "mapsUrl": "https://maps.google.com/?q=-27.4691601,153.0268023",
   "lat": -27.4691601,
   "lng": 153.0268023,
   "halalFriendly": false,
   "bookingUrl": "https://www.ihg.com/intercontinental/hotels/us/en/brisbane/bnehb/hoteldetail",
   "source": "osm"
  },
  {
   "nom": "Hilton",
   "categorie": "Hôtel",
   "priceRange": "€€",
   "mapsUrl": "https://maps.google.com/?q=-27.4693669,153.0270737",
   "lat": -27.4693669,
   "lng": 153.0270737,
   "halalFriendly": false,
   "bookingUrl": "https://maps.google.com/?q=-27.4693669,153.0270737",
   "source": "osm"
  },
  {
   "nom": "Oaks Brisbane Festival Suits",
   "categorie": "Hôtel",
   "priceRange": "€€",
   "mapsUrl": "https://maps.google.com/?q=-27.4715418,153.0266765",
   "lat": -27.4715418,
   "lng": 153.0266765,
   "halalFriendly": false,
   "bookingUrl": "https://www.oakshotels.com/en/oaks-festival-towers",
   "source": "osm"
  },
  {
   "nom": "Mercure Brisbane King George Square",
   "categorie": "Hôtel",
   "priceRange": "€€",
   "mapsUrl": "https://maps.google.com/?q=-27.4683836,153.0230044",
   "lat": -27.4683836,
   "lng": 153.0230044,
   "halalFriendly": false,
   "bookingUrl": "https://all.accor.com/hotel/8780/index.en.shtml",
   "source": "osm"
  },
  {
   "nom": "W Brisbane",
   "categorie": "Hôtel",
   "priceRange": "€€€€",
   "score": 5,
   "mapsUrl": "https://maps.google.com/?q=-27.4704163,153.0218418",
   "lat": -27.4704163,
   "lng": 153.0218418,
   "halalFriendly": false,
   "bookingUrl": "https://www.marriott.com/en-us/hotels/bnewh-w-brisbane/overview/",
   "source": "osm"
  },
  {
   "nom": "The Great Southern Hotel",
   "categorie": "Hôtel",
   "priceRange": "€€",
   "mapsUrl": "https://maps.google.com/?q=-27.4728071,153.0256581",
   "lat": -27.4728071,
   "lng": 153.0256581,
   "halalFriendly": false,
   "bookingUrl": "https://maps.google.com/?q=-27.4728071,153.0256581",
   "source": "osm"
  },
  {
   "nom": "Hotel Adina",
   "categorie": "Hôtel",
   "priceRange": "€€",
   "mapsUrl": "https://maps.google.com/?q=-27.4667614,153.0259726",
   "lat": -27.4667614,
   "lng": 153.0259726,
   "halalFriendly": false,
   "bookingUrl": "https://maps.google.com/?q=-27.4667614,153.0259726",
   "source": "osm"
  },
  {
   "nom": "Capri By Frasier",
   "categorie": "Hôtel",
   "priceRange": "€€",
   "mapsUrl": "https://maps.google.com/?q=-27.4722251,153.0275592",
   "lat": -27.4722251,
   "lng": 153.0275592,
   "halalFriendly": false,
   "bookingUrl": "https://maps.google.com/?q=-27.4722251,153.0275592",
   "source": "osm"
  },
  {
   "nom": "Iglu Brisbane City",
   "categorie": "Appartement",
   "priceRange": "€€",
   "mapsUrl": "https://maps.google.com/?q=-27.4725242,153.0272401",
   "lat": -27.4725242,
   "lng": 153.0272401,
   "halalFriendly": false,
   "bookingUrl": "https://maps.google.com/?q=-27.4725242,153.0272401",
   "source": "osm"
  },
  {
   "nom": "Iglu Brisbane City",
   "categorie": "Appartement",
   "priceRange": "€€",
   "mapsUrl": "https://maps.google.com/?q=-27.4725695,153.0272417",
   "lat": -27.4725695,
   "lng": 153.0272417,
   "halalFriendly": false,
   "bookingUrl": "https://maps.google.com/?q=-27.4725695,153.0272417",
   "source": "osm"
  },
  {
   "nom": "Four Points by Sheraton",
   "categorie": "Hôtel",
   "priceRange": "€€",
   "mapsUrl": "https://maps.google.com/?q=-27.4717958,153.0281481",
   "lat": -27.4717958,
   "lng": 153.0281481,
   "halalFriendly": false,
   "bookingUrl": "https://maps.google.com/?q=-27.4717958,153.0281481",
   "source": "osm"
  },
  {
   "nom": "The Westin Brisbane",
   "categorie": "Hôtel",
   "priceRange": "€€€€",
   "score": 5,
   "mapsUrl": "https://maps.google.com/?q=-27.4715489,153.0284489",
   "lat": -27.4715489,
   "lng": 153.0284489,
   "halalFriendly": false,
   "bookingUrl": "https://www.marriott.com/en-us/hotels/bnewi-the-westin-brisbane/overview/",
   "source": "osm"
  },
  {
   "nom": "voco Brisbane City Centre, an IHG Hotel",
   "categorie": "Hôtel",
   "priceRange": "€€€€",
   "score": 4,
   "mapsUrl": "https://maps.google.com/?q=-27.4696475,153.0212022",
   "lat": -27.4696475,
   "lng": 153.0212022,
   "halalFriendly": false,
   "bookingUrl": "https://maps.google.com/?q=-27.4696475,153.0212022",
   "source": "osm"
  },
  {
   "nom": "The Manor Apartment Hotel",
   "categorie": "Hôtel",
   "priceRange": "€€",
   "mapsUrl": "https://maps.google.com/?q=-27.4676892,153.0282647",
   "lat": -27.4676892,
   "lng": 153.0282647,
   "halalFriendly": false,
   "bookingUrl": "https://maps.google.com/?q=-27.4676892,153.0282647",
   "source": "osm"
  },
  {
   "nom": "Hotel Indigo Brisbane City Centre",
   "categorie": "Hôtel",
   "priceRange": "€€€€",
   "score": 4,
   "mapsUrl": "https://maps.google.com/?q=-27.4691949,153.0210697",
   "lat": -27.4691949,
   "lng": 153.0210697,
   "halalFriendly": false,
   "bookingUrl": "https://www.ihg.com/hotelindigo/hotels/us/en/brisbane/bnecc/hoteldetail",
   "source": "osm"
  },
  {
   "nom": "Oaks on Margaret",
   "categorie": "Hôtel",
   "priceRange": "€€",
   "mapsUrl": "https://maps.google.com/?q=-27.4721039,153.0284499",
   "lat": -27.4721039,
   "lng": 153.0284499,
   "halalFriendly": false,
   "bookingUrl": "https://maps.google.com/?q=-27.4721039,153.0284499",
   "source": "osm"
  },
  {
   "nom": "Sofitel Brisbane Central",
   "categorie": "Hôtel",
   "priceRange": "€€",
   "mapsUrl": "https://maps.google.com/?q=-27.4655681,153.025842",
   "lat": -27.4655681,
   "lng": 153.025842,
   "halalFriendly": false,
   "bookingUrl": "https://www.sofitelbrisbane.com.au/",
   "source": "osm"
  },
  {
   "nom": "CLLIX Brisbane Central Apartments",
   "categorie": "Hôtel",
   "priceRange": "€€",
   "mapsUrl": "https://maps.google.com/?q=-27.4653482,153.0245139",
   "lat": -27.4653482,
   "lng": 153.0245139,
   "halalFriendly": false,
   "bookingUrl": "https://cllix.com/brisbane",
   "source": "osm"
  },
  {
   "nom": "Quay West",
   "categorie": "Hôtel",
   "priceRange": "€€",
   "mapsUrl": "https://maps.google.com/?q=-27.4738062,153.0280376",
   "lat": -27.4738062,
   "lng": 153.0280376,
   "halalFriendly": false,
   "bookingUrl": "https://maps.google.com/?q=-27.4738062,153.0280376",
   "source": "osm"
  },
  {
   "nom": "Tequila Sunrise",
   "categorie": "Auberge",
   "priceRange": "€€",
   "mapsUrl": "https://maps.google.com/?q=-27.4677784,153.0201073",
   "lat": -27.4677784,
   "lng": 153.0201073,
   "halalFriendly": false,
   "bookingUrl": "https://www.tequilasunrisehostels.com/brisbane-hostel-stay",
   "source": "osm"
  },
  {
   "nom": "Rothbury on Ann",
   "categorie": "Hôtel",
   "priceRange": "€€",
   "mapsUrl": "https://maps.google.com/?q=-27.4652877,153.027899",
   "lat": -27.4652877,
   "lng": 153.027899,
   "halalFriendly": false,
   "bookingUrl": "https://maps.google.com/?q=-27.4652877,153.027899",
   "source": "osm"
  },
  {
   "nom": "Astor Metropole",
   "categorie": "Hôtel",
   "priceRange": "€€",
   "mapsUrl": "https://maps.google.com/?q=-27.4647365,153.0240283",
   "lat": -27.4647365,
   "lng": 153.0240283,
   "halalFriendly": false,
   "bookingUrl": "https://maps.google.com/?q=-27.4647365,153.0240283",
   "source": "osm"
  },
  {
   "nom": "Annie's Shandon Inn",
   "categorie": "Maison d'hôtes",
   "priceRange": "€€",
   "mapsUrl": "https://maps.google.com/?q=-27.4642477,153.0250103",
   "lat": -27.4642477,
   "lng": 153.0250103,
   "halalFriendly": false,
   "bookingUrl": "https://maps.google.com/?q=-27.4642477,153.0250103",
   "source": "osm"
  },
  {
   "nom": "Brisbane Quarters",
   "categorie": "Auberge",
   "priceRange": "€€",
   "mapsUrl": "https://maps.google.com/?q=-27.4641016,153.0249852",
   "lat": -27.4641016,
   "lng": 153.0249852,
   "halalFriendly": false,
   "bookingUrl": "https://brisbanequarters.com.au/",
   "source": "osm"
  },
  {
   "nom": "The Inchcolm",
   "categorie": "Hôtel",
   "priceRange": "€€",
   "mapsUrl": "https://maps.google.com/?q=-27.4642608,153.0268974",
   "lat": -27.4642608,
   "lng": 153.0268974,
   "halalFriendly": false,
   "bookingUrl": "https://maps.google.com/?q=-27.4642608,153.0268974",
   "source": "osm"
  },
  {
   "nom": "Astor Apartments",
   "categorie": "Hôtel",
   "priceRange": "€€",
   "mapsUrl": "https://maps.google.com/?q=-27.4638401,153.0257333",
   "lat": -27.4638401,
   "lng": 153.0257333,
   "halalFriendly": false,
   "bookingUrl": "https://maps.google.com/?q=-27.4638401,153.0257333",
   "source": "osm"
  },
  {
   "nom": "Quest Spring Hill",
   "categorie": "Hôtel",
   "priceRange": "€€",
   "mapsUrl": "https://maps.google.com/?q=-27.463791,153.0242222",
   "lat": -27.463791,
   "lng": 153.0242222,
   "halalFriendly": false,
   "bookingUrl": "http://www.questspringhill.com.au",
   "source": "osm"
  }
 ],
 "mosqueesPrincipales": [
  {
   "id": "m251882571",
   "nom": "Islamic Centre, West End Mosque",
   "type": "Mosquée",
   "adresse": "Princhester Street",
   "description": "Lieu de prière (OpenStreetMap).",
   "mapsUrl": "https://maps.google.com/?q=-27.4812877,153.0107256",
   "lat": -27.4812877,
   "lng": 153.0107256,
   "source": "osm"
  },
  {
   "id": "m422746572",
   "nom": "Mubarak Mosque",
   "type": "Mosquée",
   "adresse": "Old Cleveland Road",
   "description": "Lieu de prière (OpenStreetMap).",
   "mapsUrl": "https://maps.google.com/?q=-27.4915579,153.0667211",
   "lat": -27.4915579,
   "lng": 153.0667211,
   "source": "osm"
  },
  {
   "id": "m626563838",
   "nom": "Masjid As-Sunnah",
   "type": "Mosquée",
   "adresse": "Fuller Street, Brisbane",
   "description": "Lieu de prière (OpenStreetMap).",
   "mapsUrl": "https://maps.google.com/?q=-27.4251088,153.0306488",
   "lat": -27.4251088,
   "lng": 153.0306488,
   "source": "osm"
  }
 ],
 "activites": [
  {
   "id": "a243893440",
   "nom": "Brisbane City Hall Clock Tower",
   "categorie": "attraction",
   "description": "",
   "prix": "",
   "duree": "",
   "mapsUrl": "https://maps.google.com/?q=-27.4687807,153.0237552",
   "lat": -27.4687807,
   "lng": 153.0237552,
   "source": "osm"
  },
  {
   "id": "a2512519061",
   "nom": "Museum of Brisbane",
   "categorie": "museum",
   "description": "",
   "prix": "",
   "duree": "",
   "mapsUrl": "https://maps.google.com/?q=-27.4687147,153.0234187",
   "lat": -27.4687147,
   "lng": 153.0234187,
   "source": "osm"
  },
  {
   "id": "a3264698965",
   "nom": "MacArthur Museum",
   "categorie": "museum",
   "description": "",
   "prix": "",
   "duree": "",
   "mapsUrl": "https://maps.google.com/?q=-27.4685608,153.0273974",
   "lat": -27.4685608,
   "lng": 153.0273974,
   "source": "osm"
  },
  {
   "id": "a5636344139",
   "nom": "Cannon",
   "categorie": "monument",
   "description": "",
   "prix": "",
   "duree": "",
   "mapsUrl": "https://maps.google.com/?q=-27.4723462,153.0246091",
   "lat": -27.4723462,
   "lng": 153.0246091,
   "source": "osm"
  },
  {
   "id": "a108180190",
   "nom": "Queensland Holocaust Museum",
   "categorie": "museum",
   "description": "",
   "prix": "",
   "duree": "",
   "mapsUrl": "https://maps.google.com/?q=-27.4694056,153.0287157",
   "lat": -27.4694056,
   "lng": 153.0287157,
   "source": "osm"
  },
  {
   "id": "a4201468289",
   "nom": "South West Pacific Memorial",
   "categorie": "memorial",
   "description": "",
   "prix": "",
   "duree": "",
   "mapsUrl": "https://maps.google.com/?q=-27.4667228,153.0265753",
   "lat": -27.4667228,
   "lng": 153.0265753,
   "source": "osm"
  },
  {
   "id": "a4201467258",
   "nom": "Vietnam Memorial",
   "categorie": "memorial",
   "description": "",
   "prix": "",
   "duree": "",
   "mapsUrl": "https://maps.google.com/?q=-27.466638,153.0265322",
   "lat": -27.466638,
   "lng": 153.0265322,
   "source": "osm"
  },
  {
   "id": "a4201467287",
   "nom": "South African War Memorial Sculpture",
   "categorie": "memorial",
   "description": "",
   "prix": "",
   "duree": "",
   "mapsUrl": "https://maps.google.com/?q=-27.4667594,153.0268749",
   "lat": -27.4667594,
   "lng": 153.0268749,
   "source": "osm"
  },
  {
   "id": "a1546691277",
   "nom": "Mani Tribe's Gallery",
   "categorie": "gallery",
   "description": "",
   "prix": "",
   "duree": "",
   "mapsUrl": "https://maps.google.com/?q=-27.4689218,153.0212822",
   "lat": -27.4689218,
   "lng": 153.0212822,
   "source": "osm"
  },
  {
   "id": "a23579447",
   "nom": "Commissariat Store",
   "categorie": "museum",
   "description": "",
   "prix": "",
   "duree": "",
   "mapsUrl": "https://maps.google.com/?q=-27.4732537,153.0242409",
   "lat": -27.4732537,
   "lng": 153.0242409,
   "source": "osm"
  },
  {
   "id": "a4201467263",
   "nom": "World War II Memorial Sculpture",
   "categorie": "memorial",
   "description": "",
   "prix": "",
   "duree": "",
   "mapsUrl": "https://maps.google.com/?q=-27.4664841,153.0268776",
   "lat": -27.4664841,
   "lng": 153.0268776,
   "source": "osm"
  },
  {
   "id": "a1548316448",
   "nom": "Shrine of Remembrance",
   "categorie": "memorial",
   "description": "",
   "prix": "",
   "duree": "",
   "mapsUrl": "https://maps.google.com/?q=-27.4663338,153.0264735",
   "lat": -27.4663338,
   "lng": 153.0264735,
   "source": "osm"
  },
  {
   "id": "a4201467217",
   "nom": "Korea Malaya Borneo Memorial Sculpture",
   "categorie": "memorial",
   "description": "",
   "prix": "",
   "duree": "",
   "mapsUrl": "https://maps.google.com/?q=-27.466439,153.0267943",
   "lat": -27.466439,
   "lng": 153.0267943,
   "source": "osm"
  },
  {
   "id": "a11643860448",
   "nom": "The Aboriginal and Torres Strait Islander Dedicated Memorial Queensland",
   "categorie": "memorial",
   "description": "",
   "prix": "",
   "duree": "",
   "mapsUrl": "https://maps.google.com/?q=-27.4662453,153.0266899",
   "lat": -27.4662453,
   "lng": 153.0266899,
   "source": "osm"
  },
  {
   "id": "a8481456849",
   "nom": "Museum of Lands, Mapping and Surveying",
   "categorie": "museum",
   "description": "",
   "prix": "",
   "duree": "",
   "mapsUrl": "https://maps.google.com/?q=-27.4654316,153.0250599",
   "lat": -27.4654316,
   "lng": 153.0250599,
   "source": "osm"
  },
  {
   "id": "a10767390705",
   "nom": "Victoria Bridge",
   "categorie": "attraction",
   "description": "",
   "prix": "",
   "duree": "",
   "mapsUrl": "https://maps.google.com/?q=-27.4727566,153.0205759",
   "lat": -27.4727566,
   "lng": 153.0205759,
   "source": "osm"
  },
  {
   "id": "a415720606",
   "nom": "Victoria Bridge Abutment",
   "categorie": "attraction",
   "description": "",
   "prix": "",
   "duree": "",
   "mapsUrl": "https://maps.google.com/?q=-27.4732936,153.0199321",
   "lat": -27.4732936,
   "lng": 153.0199321,
   "source": "osm"
  },
  {
   "id": "a1456813071",
   "nom": "Brisbane Sign",
   "categorie": "attraction",
   "description": "",
   "prix": "",
   "duree": "",
   "mapsUrl": "https://maps.google.com/?q=-27.4738881,153.0203174",
   "lat": -27.4738881,
   "lng": 153.0203174,
   "source": "osm"
  },
  {
   "id": "a382977047",
   "nom": "James Mooney Memorial",
   "categorie": "memorial",
   "description": "",
   "prix": "",
   "duree": "",
   "mapsUrl": "https://maps.google.com/?q=-27.4659647,153.0301939",
   "lat": -27.4659647,
   "lng": 153.0301939,
   "source": "osm"
  },
  {
   "id": "a9697187851",
   "nom": "Queensland first artillery 24-pound Carron cannons",
   "categorie": "monument",
   "description": "",
   "prix": "",
   "duree": "",
   "mapsUrl": "https://maps.google.com/?q=-27.4731108,153.0309405",
   "lat": -27.4731108,
   "lng": 153.0309405,
   "source": "osm"
  },
  {
   "id": "a4753134083",
   "nom": "Formal Flower Garden",
   "categorie": "viewpoint",
   "description": "",
   "prix": "",
   "duree": "",
   "mapsUrl": "https://maps.google.com/?q=-27.4744837,153.029974",
   "lat": -27.4744837,
   "lng": 153.029974,
   "source": "osm"
  },
  {
   "id": "a2512789117",
   "nom": "The Wheel of Brisbane",
   "categorie": "attraction",
   "description": "",
   "prix": "",
   "duree": "",
   "mapsUrl": "https://maps.google.com/?q=-27.4753229,153.0208953",
   "lat": -27.4753229,
   "lng": 153.0208953,
   "source": "osm"
  },
  {
   "id": "a11749361569",
   "nom": "Australia-Japan Friendship Stone",
   "categorie": "memorial",
   "description": "",
   "prix": "",
   "duree": "",
   "mapsUrl": "https://maps.google.com/?q=-27.4758701,153.0219092",
   "lat": -27.4758701,
   "lng": 153.0219092,
   "source": "osm"
  },
  {
   "id": "a537114538",
   "nom": "Whale Mall",
   "categorie": "attraction",
   "description": "",
   "prix": "",
   "duree": "",
   "mapsUrl": "https://maps.google.com/?q=-27.4728379,153.0182552",
   "lat": -27.4728379,
   "lng": 153.0182552,
   "source": "osm"
  },
  {
   "id": "a482272245",
   "nom": "Roma Street Heritage Station Building",
   "categorie": "attraction",
   "description": "",
   "prix": "",
   "duree": "",
   "mapsUrl": "https://maps.google.com/?q=-27.4655805,153.0190579",
   "lat": -27.4655805,
   "lng": 153.0190579,
   "source": "osm"
  },
  {
   "id": "a5201866224",
   "nom": "Sciencentre",
   "categorie": "museum",
   "description": "",
   "prix": "",
   "duree": "",
   "mapsUrl": "https://maps.google.com/?q=-27.473298,153.0184223",
   "lat": -27.473298,
   "lng": 153.0184223,
   "source": "osm"
  },
  {
   "id": "a6288301920",
   "nom": "Pogo Tri-Lure Confluence",
   "categorie": "attraction",
   "description": "",
   "prix": "",
   "duree": "",
   "mapsUrl": "https://maps.google.com/?q=-27.476172,153.0221351",
   "lat": -27.476172,
   "lng": 153.0221351,
   "source": "osm"
  },
  {
   "id": "a10089579055",
   "nom": "John Oxley Memorial Stone, Unknown Pioneers Monument & Riverside Expressway Opening Plaque",
   "categorie": "memorial",
   "description": "",
   "prix": "",
   "duree": "",
   "mapsUrl": "https://maps.google.com/?q=-27.4676673,153.0176412",
   "lat": -27.4676673,
   "lng": 153.0176412,
   "source": "osm"
  },
  {
   "id": "a24228971",
   "nom": "Gallery of Modern Art",
   "categorie": "gallery",
   "description": "",
   "prix": "",
   "duree": "",
   "mapsUrl": "https://maps.google.com/?q=-27.4705444,153.01711",
   "lat": -27.4705444,
   "lng": 153.01711,
   "source": "osm"
  },
  {
   "id": "a4282955",
   "nom": "Brisbane City Botanic Gardens",
   "categorie": "attraction",
   "description": "",
   "prix": "",
   "duree": "",
   "mapsUrl": "https://maps.google.com/?q=-27.475938,153.0296383",
   "lat": -27.475938,
   "lng": 153.0296383,
   "source": "osm"
  }
 ],
 "scoreIndicatif": true,
 "osmEnriched": true,
 "osmEnrichedAt": "2026-06-30"
}
