{
  "slug": "brisbane",
  "nom": "Brisbane",
  "pays": "Australie",
  "pays_slug": "australie",
  "continent": "Océanie",
  "region": "Australie",
  "coordonnees": {
    "lat": -27.4698,
    "lng": 153.0251
  },
  "codeISO": "AU",
  "score_halal": 3.5,
  "halalScore": 7,
  "villeNonMusulmane": true,
  "description": "Métropole ensoleillée du Queensland. Communauté musulmane et adresses halal à Holland Park et au centre.",
  "metaDescription": "Métropole ensoleillée du Queensland. Communauté musulmane et adresses halal à Holland Park et au centre.",
  "image": "https://upload.wikimedia.org/wikipedia/commons/thumb/1/19/Australie%2C_Queensland%2C_Brisbane%2C_night_view%2C_from_the_Victoria_Bridge.jpg/1920px-Australie%2C_Queensland%2C_Brisbane%2C_night_view%2C_from_the_Victoria_Bridge.jpg",
  "image_hero": "https://upload.wikimedia.org/wikipedia/commons/thumb/1/19/Australie%2C_Queensland%2C_Brisbane%2C_night_view%2C_from_the_Victoria_Bridge.jpg/1920px-Australie%2C_Queensland%2C_Brisbane%2C_night_view%2C_from_the_Victoria_Bridge.jpg",
  "imageCredit": "Wikimedia Commons",
  "statistiques": {
    "restaurants_halal": 46,
    "mosquees": 5,
    "hotels": 120
  },
  "infoPratique": {
    "transport": "Accessible par avion et transports en commun locaux.",
    "meilleureEpoque": "Printemps et automne (climat tempéré).",
    "conseilHalal": "Ville non-musulmane : repérez les restaurants halal certifiés et les mosquées via l'application avant votre visite."
  },
  "tags": [
    "halal",
    "ville non-musulmane",
    "océanie"
  ],
  "restaurants": [
    {
      "nom": "Grill'd",
      "type": "burger",
      "priceRange": "€€",
      "mapsUrl": "https://maps.google.com/?q=-27.4691356,153.0263513",
      "lat": -27.4691356,
      "lng": 153.0263513,
      "halalConfidence": "yes",
      "source": "osm"
    },
    {
      "nom": "School Cafeteria / X Block",
      "type": "Restaurant halal",
      "priceRange": "€€",
      "mapsUrl": "https://maps.google.com/?q=-27.5001135,152.9855419",
      "lat": -27.5001135,
      "lng": 152.9855419,
      "halalConfidence": "yes",
      "source": "osm"
    },
    {
      "nom": "Fab Kebabs",
      "type": "kebab",
      "priceRange": "€€",
      "mapsUrl": "https://maps.google.com/?q=-27.4709711,153.0263466",
      "lat": -27.4709711,
      "lng": 153.0263466,
      "halalConfidence": "likely",
      "source": "osm"
    },
    {
      "nom": "Turquoise",
      "type": "kebab",
      "priceRange": "€€",
      "mapsUrl": "https://maps.google.com/?q=-27.4719317,153.0276835",
      "lat": -27.4719317,
      "lng": 153.0276835,
      "halalConfidence": "likely",
      "source": "osm"
    },
    {
      "nom": "Kebapp",
      "type": "kebab",
      "priceRange": "€€",
      "mapsUrl": "https://maps.google.com/?q=-27.4648152,153.0300509",
      "lat": -27.4648152,
      "lng": 153.0300509,
      "halalConfidence": "likely",
      "source": "osm"
    },
    {
      "nom": "Farah Restaurant",
      "type": "persian",
      "priceRange": "€€",
      "mapsUrl": "https://maps.google.com/?q=-27.46319,153.0210992",
      "lat": -27.46319,
      "lng": 153.0210992,
      "halalConfidence": "likely",
      "source": "osm"
    },
    {
      "nom": "Ahmet's",
      "type": "turkish",
      "priceRange": "€€",
      "mapsUrl": "https://maps.google.com/?q=-27.4781963,153.0215234",
      "lat": -27.4781963,
      "lng": 153.0215234,
      "halalConfidence": "likely",
      "source": "osm"
    },
    {
      "nom": "Origin Kebabs",
      "type": "kebab",
      "priceRange": "€€",
      "mapsUrl": "https://maps.google.com/?q=-27.4782407,153.0294286",
      "lat": -27.4782407,
      "lng": 153.0294286,
      "halalConfidence": "likely",
      "source": "osm"
    },
    {
      "nom": "Baba Ganouj",
      "type": "lebanese",
      "priceRange": "€€",
      "mapsUrl": "https://maps.google.com/?q=-27.4799076,153.0228849",
      "lat": -27.4799076,
      "lng": 153.0228849,
      "halalConfidence": "likely",
      "source": "osm"
    },
    {
      "nom": "Mado",
      "type": "turkish",
      "priceRange": "€€",
      "mapsUrl": "https://maps.google.com/?q=-27.4806473,153.0237774",
      "lat": -27.4806473,
      "lng": 153.0237774,
      "halalConfidence": "likely",
      "source": "osm"
    },
    {
      "nom": "Abbra Kebabra",
      "type": "kebab",
      "priceRange": "€€",
      "mapsUrl": "https://maps.google.com/?q=-27.4645909,153.0126832",
      "lat": -27.4645909,
      "lng": 153.0126832,
      "halalConfidence": "likely",
      "source": "osm"
    },
    {
      "nom": "The Kebab Shop",
      "type": "kebab",
      "priceRange": "€€",
      "mapsUrl": "https://maps.google.com/?q=-27.4784134,153.0126388",
      "lat": -27.4784134,
      "lng": 153.0126388,
      "halalConfidence": "likely",
      "source": "osm"
    },
    {
      "nom": "Kebab Corner",
      "type": "kebab",
      "priceRange": "€€",
      "mapsUrl": "https://maps.google.com/?q=-27.4600543,153.0367776",
      "lat": -27.4600543,
      "lng": 153.0367776,
      "halalConfidence": "likely",
      "source": "osm"
    },
    {
      "nom": "Shah Cafe",
      "type": "kebab, pizza",
      "priceRange": "€€",
      "mapsUrl": "https://maps.google.com/?q=-27.4578186,153.0340258",
      "lat": -27.4578186,
      "lng": 153.0340258,
      "halalConfidence": "likely",
      "source": "osm"
    },
    {
      "nom": "Amaya Restaurant & Lounge",
      "type": "lebanese",
      "priceRange": "€€",
      "mapsUrl": "https://maps.google.com/?q=-27.4791929,153.0125715",
      "lat": -27.4791929,
      "lng": 153.0125715,
      "halalConfidence": "likely",
      "source": "osm"
    },
    {
      "nom": "Antep Chargrill and Kebab",
      "type": "turkish, kebab",
      "priceRange": "€€",
      "mapsUrl": "https://maps.google.com/?q=-27.4797316,153.0124404",
      "lat": -27.4797316,
      "lng": 153.0124404,
      "halalConfidence": "likely",
      "source": "osm"
    },
    {
      "nom": "Barbekü",
      "type": "kebab",
      "priceRange": "€€",
      "mapsUrl": "https://maps.google.com/?q=-27.4632864,153.0414718",
      "lat": -27.4632864,
      "lng": 153.0414718,
      "halalConfidence": "likely",
      "source": "osm"
    },
    {
      "nom": "Boundary Kebab",
      "type": "kebab",
      "priceRange": "€€",
      "mapsUrl": "https://maps.google.com/?q=-27.4812617,153.0121316",
      "lat": -27.4812617,
      "lng": 153.0121316,
      "halalConfidence": "likely",
      "source": "osm"
    },
    {
      "nom": "Gabba Kebab",
      "type": "turkish",
      "priceRange": "€€",
      "mapsUrl": "https://maps.google.com/?q=-27.4871046,153.0294825",
      "lat": -27.4871046,
      "lng": 153.0294825,
      "halalConfidence": "likely",
      "source": "osm"
    },
    {
      "nom": "Kamiil's Kebabs",
      "type": "kebab",
      "priceRange": "€€",
      "mapsUrl": "https://maps.google.com/?q=-27.454092,153.0137973",
      "lat": -27.454092,
      "lng": 153.0137973,
      "halalConfidence": "likely",
      "source": "osm"
    },
    {
      "nom": "Caravanserai",
      "type": "turkish",
      "priceRange": "€€",
      "mapsUrl": "https://maps.google.com/?q=-27.4869626,153.0062804",
      "lat": -27.4869626,
      "lng": 153.0062804,
      "halalConfidence": "likely",
      "source": "osm"
    },
    {
      "nom": "Kebab & Charcoal Place",
      "type": "kebab",
      "priceRange": "€€",
      "mapsUrl": "https://maps.google.com/?q=-27.4479955,153.0387106",
      "lat": -27.4479955,
      "lng": 153.0387106,
      "halalConfidence": "likely",
      "source": "osm"
    },
    {
      "nom": "Downtown Istanbul",
      "type": "turkish",
      "priceRange": "€€",
      "mapsUrl": "https://maps.google.com/?q=-27.4621175,153.0602187",
      "lat": -27.4621175,
      "lng": 153.0602187,
      "halalConfidence": "likely",
      "source": "osm"
    },
    {
      "nom": "Origin Kebab",
      "type": "kebab",
      "priceRange": "€€",
      "mapsUrl": "https://maps.google.com/?q=-27.5007186,153.036666",
      "lat": -27.5007186,
      "lng": 153.036666,
      "halalConfidence": "likely",
      "source": "osm"
    },
    {
      "nom": "Ispa Kebabs",
      "type": "kebab",
      "priceRange": "€€",
      "mapsUrl": "https://maps.google.com/?q=-27.4852372,152.9924506",
      "lat": -27.4852372,
      "lng": 152.9924506,
      "halalConfidence": "likely",
      "source": "osm"
    },
    {
      "nom": "Taste of Saffron Restaurant",
      "type": "persian, mediterranean",
      "priceRange": "€€",
      "mapsUrl": "https://maps.google.com/?q=-27.4988169,153.0458405",
      "lat": -27.4988169,
      "lng": 153.0458405,
      "halalConfidence": "likely",
      "source": "osm"
    },
    {
      "nom": "Atlas Yeros",
      "type": "kebab",
      "priceRange": "€€",
      "mapsUrl": "https://maps.google.com/?q=-27.4992759,153.0451149",
      "lat": -27.4992759,
      "lng": 153.0451149,
      "halalConfidence": "likely",
      "source": "osm"
    },
    {
      "nom": "Melody's",
      "type": "kebab",
      "priceRange": "€€",
      "mapsUrl": "https://maps.google.com/?q=-27.4513725,153.0586071",
      "lat": -27.4513725,
      "lng": 153.0586071,
      "halalConfidence": "likely",
      "source": "osm"
    },
    {
      "nom": "Authentic Chargrill & Kebab",
      "type": "turkish",
      "priceRange": "€€",
      "mapsUrl": "https://maps.google.com/?q=-27.4583111,152.9873457",
      "lat": -27.4583111,
      "lng": 152.9873457,
      "halalConfidence": "likely",
      "source": "osm"
    },
    {
      "nom": "Bamiyan",
      "type": "afghan",
      "priceRange": "€€",
      "mapsUrl": "https://maps.google.com/?q=-27.4880939,153.0637584",
      "lat": -27.4880939,
      "lng": 153.0637584,
      "halalConfidence": "likely",
      "source": "osm"
    },
    {
      "nom": "The Yiros Shop",
      "type": "kebab",
      "priceRange": "€€",
      "mapsUrl": "https://maps.google.com/?q=-27.4316728,153.0435077",
      "lat": -27.4316728,
      "lng": 153.0435077,
      "halalConfidence": "likely",
      "source": "osm"
    },
    {
      "nom": "Olive Thyme Turkish Cuisine",
      "type": "turkish",
      "priceRange": "€€",
      "mapsUrl": "https://maps.google.com/?q=-27.4300895,153.0419337",
      "lat": -27.4300895,
      "lng": 153.0419337,
      "halalConfidence": "likely",
      "source": "osm"
    },
    {
      "nom": "Turquoise Coast",
      "type": "kebab",
      "priceRange": "€€",
      "mapsUrl": "https://maps.google.com/?q=-27.5160899,153.0173188",
      "lat": -27.5160899,
      "lng": 153.0173188,
      "halalConfidence": "likely",
      "source": "osm"
    },
    {
      "nom": "Pani Kebabs",
      "type": "kebab",
      "priceRange": "€€",
      "mapsUrl": "https://maps.google.com/?q=-27.4928749,152.9784522",
      "lat": -27.4928749,
      "lng": 152.9784522,
      "halalConfidence": "likely",
      "source": "osm"
    },
    {
      "nom": "Oh! Kebabs",
      "type": "kebab",
      "priceRange": "€€",
      "mapsUrl": "https://maps.google.com/?q=-27.4223573,153.0345958",
      "lat": -27.4223573,
      "lng": 153.0345958,
      "halalConfidence": "likely",
      "source": "osm"
    },
    {
      "nom": "Kingston Kebab Enoggera",
      "type": "kebab",
      "priceRange": "€€",
      "mapsUrl": "https://maps.google.com/?q=-27.4236076,152.9900704",
      "lat": -27.4236076,
      "lng": 152.9900704,
      "halalConfidence": "likely",
      "source": "osm"
    },
    {
      "nom": "Origin Kebab's",
      "type": "kebab",
      "priceRange": "€€",
      "mapsUrl": "https://maps.google.com/?q=-27.5013555,152.9726231",
      "lat": -27.5013555,
      "lng": 152.9726231,
      "halalConfidence": "likely",
      "source": "osm"
    },
    {
      "nom": "Istanbul Kebabs",
      "type": "kebab",
      "priceRange": "€€",
      "mapsUrl": "https://maps.google.com/?q=-27.5332629,153.0248515",
      "lat": -27.5332629,
      "lng": 153.0248515,
      "halalConfidence": "likely",
      "source": "osm"
    },
    {
      "nom": "Eat Fresh Takeaway",
      "type": "kebab",
      "priceRange": "€€",
      "mapsUrl": "https://maps.google.com/?q=-27.5510627,153.0368091",
      "lat": -27.5510627,
      "lng": 153.0368091,
      "halalConfidence": "likely",
      "source": "osm"
    },
    {
      "nom": "Kebab Masters",
      "type": "kebab",
      "priceRange": "€€",
      "mapsUrl": "https://maps.google.com/?q=-27.4160668,152.9490088",
      "lat": -27.4160668,
      "lng": 152.9490088,
      "halalConfidence": "likely",
      "source": "osm"
    },
    {
      "nom": "Empire Kebab House",
      "type": "kebab",
      "priceRange": "€€",
      "mapsUrl": "https://maps.google.com/?q=-27.4748385,153.130349",
      "lat": -27.4748385,
      "lng": 153.130349,
      "halalConfidence": "likely",
      "source": "osm"
    },
    {
      "nom": "BNE Kebabs & Acai",
      "type": "kebab",
      "priceRange": "€€",
      "mapsUrl": "https://maps.google.com/?q=-27.3960312,153.1072575",
      "lat": -27.3960312,
      "lng": 153.1072575,
      "halalConfidence": "likely",
      "source": "osm"
    },
    {
      "nom": "Kebab Palace",
      "type": "turkish",
      "priceRange": "€€",
      "mapsUrl": "https://maps.google.com/?q=-27.5605438,153.0836651",
      "lat": -27.5605438,
      "lng": 153.0836651,
      "halalConfidence": "likely",
      "source": "osm"
    },
    {
      "nom": "Bombay Dhabha",
      "type": "asian, indian, kebab",
      "priceRange": "€€",
      "mapsUrl": "https://maps.google.com/?q=-27.5611861,153.0836886",
      "lat": -27.5611861,
      "lng": 153.0836886,
      "halalConfidence": "likely",
      "source": "osm"
    },
    {
      "nom": "Ginger and Garlic",
      "lat": -27.4676998,
      "lng": 153.0257644,
      "type": "indian",
      "halalConfidence": "likely",
      "mapsUrl": "https://maps.google.com/?q=-27.4676998,153.0257644",
      "source": "osm"
    },
    {
      "nom": "Bagicha",
      "lat": -27.4766462,
      "lng": 153.0131103,
      "type": "indian",
      "halalConfidence": "likely",
      "mapsUrl": "https://maps.google.com/?q=-27.4766462,153.0131103",
      "source": "osm"
    },
    {
      "nom": "Karma",
      "lat": -27.4640763,
      "lng": 153.0423749,
      "type": "indian",
      "halalConfidence": "likely",
      "mapsUrl": "https://maps.google.com/?q=-27.4640763,153.0423749",
      "source": "osm"
    },
    {
      "nom": "Bengal Kitchen Indian Restaurant",
      "lat": -27.4858544,
      "lng": 153.0302689,
      "type": "indian",
      "halalConfidence": "likely",
      "mapsUrl": "https://maps.google.com/?q=-27.4858544,153.0302689",
      "source": "osm"
    },
    {
      "nom": "Dude's Desi Dhaba",
      "lat": -27.4905366,
      "lng": 153.0275462,
      "type": "indian",
      "halalConfidence": "likely",
      "mapsUrl": "https://maps.google.com/?q=-27.4905366,153.0275462",
      "source": "osm"
    },
    {
      "nom": "Taj Mahal",
      "lat": -27.4641141,
      "lng": 153.0489891,
      "type": "indian",
      "halalConfidence": "likely",
      "mapsUrl": "https://maps.google.com/?q=-27.4641141,153.0489891",
      "source": "osm"
    },
    {
      "nom": "Mirchh Masala Chaat Court",
      "lat": -27.4901783,
      "lng": 153.0399368,
      "type": "indian",
      "halalConfidence": "likely",
      "mapsUrl": "https://maps.google.com/?q=-27.4901783,153.0399368",
      "source": "osm"
    },
    {
      "nom": "The Klay Oven",
      "lat": -27.4560509,
      "lng": 153.0494713,
      "type": "indian",
      "halalConfidence": "likely",
      "mapsUrl": "https://maps.google.com/?q=-27.4560509,153.0494713",
      "source": "osm"
    },
    {
      "nom": "Paddington Curry House",
      "lat": -27.458079,
      "lng": 152.9953,
      "type": "indian",
      "halalConfidence": "likely",
      "mapsUrl": "https://maps.google.com/?q=-27.458079,152.9953",
      "source": "osm"
    },
    {
      "nom": "Soo Delhi",
      "lat": -27.5003676,
      "lng": 153.0453758,
      "type": "indian, mexican",
      "halalConfidence": "likely",
      "mapsUrl": "https://maps.google.com/?q=-27.5003676,153.0453758",
      "source": "osm"
    },
    {
      "nom": "Burger Cave;Kurry Kingdom",
      "lat": -27.5023277,
      "lng": 153.0064119,
      "type": "burger, indian",
      "halalConfidence": "likely",
      "mapsUrl": "https://maps.google.com/?q=-27.5023277,153.0064119",
      "source": "osm"
    },
    {
      "nom": "It's Mirchi Healthy Indian",
      "lat": -27.4518499,
      "lng": 153.0616627,
      "type": "indian",
      "halalConfidence": "likely",
      "mapsUrl": "https://maps.google.com/?q=-27.4518499,153.0616627",
      "source": "osm"
    },
    {
      "nom": "50 Spices",
      "lat": -27.4450767,
      "lng": 152.9929501,
      "type": "indian",
      "halalConfidence": "likely",
      "mapsUrl": "https://maps.google.com/?q=-27.4450767,152.9929501",
      "source": "osm"
    },
    {
      "nom": "Indian Brothers",
      "lat": -27.4972819,
      "lng": 152.9903146,
      "type": "indian",
      "halalConfidence": "likely",
      "mapsUrl": "https://maps.google.com/?q=-27.4972819,152.9903146",
      "source": "osm"
    },
    {
      "nom": "Taj Bengal",
      "lat": -27.4464558,
      "lng": 152.9865709,
      "type": "indian",
      "halalConfidence": "likely",
      "mapsUrl": "https://maps.google.com/?q=-27.4464558,152.9865709",
      "source": "osm"
    },
    {
      "nom": "Curryville",
      "lat": -27.4679419,
      "lng": 153.0727861,
      "type": "indian",
      "halalConfidence": "likely",
      "mapsUrl": "https://maps.google.com/?q=-27.4679419,153.0727861",
      "source": "osm"
    },
    {
      "nom": "Sankalp",
      "lat": -27.5122932,
      "lng": 153.0312931,
      "type": "indian",
      "halalConfidence": "likely",
      "mapsUrl": "https://maps.google.com/?q=-27.5122932,153.0312931",
      "source": "osm"
    },
    {
      "nom": "Miss India",
      "lat": -27.5074701,
      "lng": 153.0503304,
      "type": "indian",
      "halalConfidence": "likely",
      "mapsUrl": "https://maps.google.com/?q=-27.5074701,153.0503304",
      "source": "osm"
    },
    {
      "nom": "Desi Fuels",
      "lat": -27.5053253,
      "lng": 153.0582383,
      "type": "indian",
      "halalConfidence": "likely",
      "mapsUrl": "https://maps.google.com/?q=-27.5053253,153.0582383",
      "source": "osm"
    },
    {
      "nom": "Naan Sense Gourmet Indian",
      "lat": -27.4494705,
      "lng": 152.9779402,
      "type": "indian",
      "halalConfidence": "likely",
      "mapsUrl": "https://maps.google.com/?q=-27.4494705,152.9779402",
      "source": "osm"
    },
    {
      "nom": "Mirchi Indian Restaurant",
      "lat": -27.4249928,
      "lng": 153.000671,
      "type": "indian",
      "halalConfidence": "likely",
      "mapsUrl": "https://maps.google.com/?q=-27.4249928,153.000671",
      "source": "osm"
    },
    {
      "nom": "Sultans Kitchen",
      "lat": -27.5064538,
      "lng": 153.0632976,
      "type": "indian",
      "halalConfidence": "likely",
      "mapsUrl": "https://maps.google.com/?q=-27.5064538,153.0632976",
      "source": "osm"
    },
    {
      "nom": "Sitar Express Indian Takeaway",
      "lat": -27.4483349,
      "lng": 152.9742274,
      "type": "indian",
      "halalConfidence": "likely",
      "mapsUrl": "https://maps.google.com/?q=-27.4483349,152.9742274",
      "source": "osm"
    },
    {
      "nom": "Sunshine Moonshine Indian and Nepalese Restaurant",
      "lat": -27.5190746,
      "lng": 153.0154067,
      "type": "indian",
      "halalConfidence": "likely",
      "mapsUrl": "https://maps.google.com/?q=-27.5190746,153.0154067",
      "source": "osm"
    },
    {
      "nom": "The Kari",
      "lat": -27.5007024,
      "lng": 153.0765622,
      "type": "indian",
      "halalConfidence": "likely",
      "mapsUrl": "https://maps.google.com/?q=-27.5007024,153.0765622",
      "source": "osm"
    },
    {
      "nom": "Roti Place",
      "lat": -27.5021366,
      "lng": 152.9741411,
      "type": "indian",
      "halalConfidence": "likely",
      "mapsUrl": "https://maps.google.com/?q=-27.5021366,152.9741411",
      "source": "osm"
    },
    {
      "nom": "Poppin Papadums",
      "lat": -27.4936488,
      "lng": 153.0853061,
      "type": "indian",
      "halalConfidence": "likely",
      "mapsUrl": "https://maps.google.com/?q=-27.4936488,153.0853061",
      "source": "osm"
    },
    {
      "nom": "Dosa Hut Indian Multi Cuisine",
      "lat": -27.4113266,
      "lng": 153.020207,
      "type": "indian",
      "halalConfidence": "likely",
      "mapsUrl": "https://maps.google.com/?q=-27.4113266,153.020207",
      "source": "osm"
    },
    {
      "nom": "Rebeccas Indian Restaurant",
      "lat": -27.4108773,
      "lng": 153.0209997,
      "type": "indian",
      "halalConfidence": "likely",
      "mapsUrl": "https://maps.google.com/?q=-27.4108773,153.0209997",
      "source": "osm"
    },
    {
      "nom": "Punjabi Curry House",
      "lat": -27.4151287,
      "lng": 153.0506511,
      "type": "indian",
      "halalConfidence": "likely",
      "mapsUrl": "https://maps.google.com/?q=-27.4151287,153.0506511",
      "source": "osm"
    },
    {
      "nom": "Spice of India",
      "lat": -27.4031339,
      "lng": 153.0321085,
      "type": "indian",
      "halalConfidence": "likely",
      "mapsUrl": "https://maps.google.com/?q=-27.4031339,153.0321085",
      "source": "osm"
    },
    {
      "nom": "Ceylon Inn",
      "lat": -27.5250269,
      "lng": 152.9807617,
      "type": "indian",
      "halalConfidence": "likely",
      "mapsUrl": "https://maps.google.com/?q=-27.5250269,152.9807617",
      "source": "osm"
    },
    {
      "nom": "Scherhazade Indian Restaurant",
      "lat": -27.5083566,
      "lng": 152.9472124,
      "type": "indian",
      "halalConfidence": "likely",
      "mapsUrl": "https://maps.google.com/?q=-27.5083566,152.9472124",
      "source": "osm"
    },
    {
      "nom": "Beejay's Home Kitchen",
      "lat": -27.5540145,
      "lng": 153.0318176,
      "type": "indian",
      "halalConfidence": "likely",
      "mapsUrl": "https://maps.google.com/?q=-27.5540145,153.0318176",
      "source": "osm"
    },
    {
      "nom": "Indian Brothers Restaurant",
      "lat": -27.55296,
      "lng": 153.0532332,
      "type": "indian",
      "halalConfidence": "likely",
      "mapsUrl": "https://maps.google.com/?q=-27.55296,153.0532332",
      "source": "osm"
    },
    {
      "nom": "Sistar Indian Restaurant",
      "lat": -27.509391,
      "lng": 152.937941,
      "type": "indian",
      "halalConfidence": "likely",
      "mapsUrl": "https://maps.google.com/?q=-27.509391,152.937941",
      "source": "osm"
    }
  ],
  "hotels": [
    {
      "nom": "Hyatt Regency",
      "categorie": "Hôtel",
      "priceRange": "€€",
      "mapsUrl": "https://maps.google.com/?q=-27.4702864,153.0239264",
      "lat": -27.4702864,
      "lng": 153.0239264,
      "halalFriendly": false,
      "bookingUrl": "https://maps.google.com/?q=-27.4702864,153.0239264",
      "source": "osm"
    },
    {
      "nom": "Royal Albert Hotel",
      "categorie": "Hôtel",
      "priceRange": "€€",
      "mapsUrl": "https://maps.google.com/?q=-27.4703884,153.0263648",
      "lat": -27.4703884,
      "lng": 153.0263648,
      "halalFriendly": false,
      "bookingUrl": "https://maps.google.com/?q=-27.4703884,153.0263648",
      "source": "osm"
    },
    {
      "nom": "Ibis Styles Hotel",
      "categorie": "Hôtel",
      "priceRange": "€€",
      "mapsUrl": "https://maps.google.com/?q=-27.471249,153.0244164",
      "lat": -27.471249,
      "lng": 153.0244164,
      "halalFriendly": false,
      "bookingUrl": "https://maps.google.com/?q=-27.471249,153.0244164",
      "source": "osm"
    },
    {
      "nom": "InterContinental",
      "categorie": "Hôtel",
      "priceRange": "€€",
      "mapsUrl": "https://maps.google.com/?q=-27.4691601,153.0268023",
      "lat": -27.4691601,
      "lng": 153.0268023,
      "halalFriendly": false,
      "bookingUrl": "https://www.ihg.com/intercontinental/hotels/us/en/brisbane/bnehb/hoteldetail",
      "source": "osm"
    },
    {
      "nom": "Hilton",
      "categorie": "Hôtel",
      "priceRange": "€€",
      "mapsUrl": "https://maps.google.com/?q=-27.4693669,153.0270737",
      "lat": -27.4693669,
      "lng": 153.0270737,
      "halalFriendly": false,
      "bookingUrl": "https://maps.google.com/?q=-27.4693669,153.0270737",
      "source": "osm"
    },
    {
      "nom": "Oaks Brisbane Festival Suits",
      "categorie": "Hôtel",
      "priceRange": "€€",
      "mapsUrl": "https://maps.google.com/?q=-27.4715418,153.0266765",
      "lat": -27.4715418,
      "lng": 153.0266765,
      "halalFriendly": false,
      "bookingUrl": "https://www.oakshotels.com/en/oaks-festival-towers",
      "source": "osm"
    },
    {
      "nom": "Mercure Brisbane King George Square",
      "categorie": "Hôtel",
      "priceRange": "€€",
      "mapsUrl": "https://maps.google.com/?q=-27.4683836,153.0230044",
      "lat": -27.4683836,
      "lng": 153.0230044,
      "halalFriendly": false,
      "bookingUrl": "https://all.accor.com/hotel/8780/index.en.shtml",
      "source": "osm"
    },
    {
      "nom": "W Brisbane",
      "categorie": "Hôtel",
      "priceRange": "€€€€",
      "score": 5,
      "mapsUrl": "https://maps.google.com/?q=-27.4704163,153.0218418",
      "lat": -27.4704163,
      "lng": 153.0218418,
      "halalFriendly": false,
      "bookingUrl": "https://www.marriott.com/en-us/hotels/bnewh-w-brisbane/overview/",
      "source": "osm"
    },
    {
      "nom": "The Great Southern Hotel",
      "categorie": "Hôtel",
      "priceRange": "€€",
      "mapsUrl": "https://maps.google.com/?q=-27.4728071,153.0256581",
      "lat": -27.4728071,
      "lng": 153.0256581,
      "halalFriendly": false,
      "bookingUrl": "https://maps.google.com/?q=-27.4728071,153.0256581",
      "source": "osm"
    },
    {
      "nom": "Hotel Adina",
      "categorie": "Hôtel",
      "priceRange": "€€",
      "mapsUrl": "https://maps.google.com/?q=-27.4667614,153.0259726",
      "lat": -27.4667614,
      "lng": 153.0259726,
      "halalFriendly": false,
      "bookingUrl": "https://maps.google.com/?q=-27.4667614,153.0259726",
      "source": "osm"
    },
    {
      "nom": "Capri By Frasier",
      "categorie": "Hôtel",
      "priceRange": "€€",
      "mapsUrl": "https://maps.google.com/?q=-27.4722251,153.0275592",
      "lat": -27.4722251,
      "lng": 153.0275592,
      "halalFriendly": false,
      "bookingUrl": "https://maps.google.com/?q=-27.4722251,153.0275592",
      "source": "osm"
    },
    {
      "nom": "Iglu Brisbane City",
      "categorie": "Appartement",
      "priceRange": "€€",
      "mapsUrl": "https://maps.google.com/?q=-27.4725242,153.0272401",
      "lat": -27.4725242,
      "lng": 153.0272401,
      "halalFriendly": false,
      "bookingUrl": "https://maps.google.com/?q=-27.4725242,153.0272401",
      "source": "osm"
    },
    {
      "nom": "Four Points by Sheraton",
      "categorie": "Hôtel",
      "priceRange": "€€",
      "mapsUrl": "https://maps.google.com/?q=-27.4717958,153.0281481",
      "lat": -27.4717958,
      "lng": 153.0281481,
      "halalFriendly": false,
      "bookingUrl": "https://maps.google.com/?q=-27.4717958,153.0281481",
      "source": "osm"
    },
    {
      "nom": "The Westin Brisbane",
      "categorie": "Hôtel",
      "priceRange": "€€€€",
      "score": 5,
      "mapsUrl": "https://maps.google.com/?q=-27.4715489,153.0284489",
      "lat": -27.4715489,
      "lng": 153.0284489,
      "halalFriendly": false,
      "bookingUrl": "https://www.marriott.com/en-us/hotels/bnewi-the-westin-brisbane/overview/",
      "source": "osm"
    },
    {
      "nom": "voco Brisbane City Centre, an IHG Hotel",
      "categorie": "Hôtel",
      "priceRange": "€€€€",
      "score": 4,
      "mapsUrl": "https://maps.google.com/?q=-27.4696475,153.0212022",
      "lat": -27.4696475,
      "lng": 153.0212022,
      "halalFriendly": false,
      "bookingUrl": "https://maps.google.com/?q=-27.4696475,153.0212022",
      "source": "osm"
    },
    {
      "nom": "The Manor Apartment Hotel",
      "categorie": "Hôtel",
      "priceRange": "€€",
      "mapsUrl": "https://maps.google.com/?q=-27.4676892,153.0282647",
      "lat": -27.4676892,
      "lng": 153.0282647,
      "halalFriendly": false,
      "bookingUrl": "https://maps.google.com/?q=-27.4676892,153.0282647",
      "source": "osm"
    },
    {
      "nom": "Hotel Indigo Brisbane City Centre",
      "categorie": "Hôtel",
      "priceRange": "€€€€",
      "score": 4,
      "mapsUrl": "https://maps.google.com/?q=-27.4691949,153.0210697",
      "lat": -27.4691949,
      "lng": 153.0210697,
      "halalFriendly": false,
      "bookingUrl": "https://www.ihg.com/hotelindigo/hotels/us/en/brisbane/bnecc/hoteldetail",
      "source": "osm"
    },
    {
      "nom": "Oaks on Margaret",
      "categorie": "Hôtel",
      "priceRange": "€€",
      "mapsUrl": "https://maps.google.com/?q=-27.4721039,153.0284499",
      "lat": -27.4721039,
      "lng": 153.0284499,
      "halalFriendly": false,
      "bookingUrl": "https://maps.google.com/?q=-27.4721039,153.0284499",
      "source": "osm"
    },
    {
      "nom": "Sofitel Brisbane Central",
      "categorie": "Hôtel",
      "priceRange": "€€",
      "mapsUrl": "https://maps.google.com/?q=-27.4655681,153.025842",
      "lat": -27.4655681,
      "lng": 153.025842,
      "halalFriendly": false,
      "bookingUrl": "https://www.sofitelbrisbane.com.au/",
      "source": "osm"
    },
    {
      "nom": "CLLIX Brisbane Central Apartments",
      "categorie": "Hôtel",
      "priceRange": "€€",
      "mapsUrl": "https://maps.google.com/?q=-27.4653482,153.0245139",
      "lat": -27.4653482,
      "lng": 153.0245139,
      "halalFriendly": false,
      "bookingUrl": "https://cllix.com/brisbane",
      "source": "osm"
    },
    {
      "nom": "Quay West",
      "categorie": "Hôtel",
      "priceRange": "€€",
      "mapsUrl": "https://maps.google.com/?q=-27.4738062,153.0280376",
      "lat": -27.4738062,
      "lng": 153.0280376,
      "halalFriendly": false,
      "bookingUrl": "https://maps.google.com/?q=-27.4738062,153.0280376",
      "source": "osm"
    },
    {
      "nom": "Tequila Sunrise",
      "categorie": "Auberge",
      "priceRange": "€€",
      "mapsUrl": "https://maps.google.com/?q=-27.4677784,153.0201073",
      "lat": -27.4677784,
      "lng": 153.0201073,
      "halalFriendly": false,
      "bookingUrl": "https://www.tequilasunrisehostels.com/brisbane-hostel-stay",
      "source": "osm"
    },
    {
      "nom": "Rothbury on Ann",
      "categorie": "Hôtel",
      "priceRange": "€€",
      "mapsUrl": "https://maps.google.com/?q=-27.4652877,153.027899",
      "lat": -27.4652877,
      "lng": 153.027899,
      "halalFriendly": false,
      "bookingUrl": "https://maps.google.com/?q=-27.4652877,153.027899",
      "source": "osm"
    },
    {
      "nom": "Astor Metropole",
      "categorie": "Hôtel",
      "priceRange": "€€",
      "mapsUrl": "https://maps.google.com/?q=-27.4647365,153.0240283",
      "lat": -27.4647365,
      "lng": 153.0240283,
      "halalFriendly": false,
      "bookingUrl": "https://maps.google.com/?q=-27.4647365,153.0240283",
      "source": "osm"
    },
    {
      "nom": "Annie's Shandon Inn",
      "categorie": "Maison d'hôtes",
      "priceRange": "€€",
      "mapsUrl": "https://maps.google.com/?q=-27.4642477,153.0250103",
      "lat": -27.4642477,
      "lng": 153.0250103,
      "halalFriendly": false,
      "bookingUrl": "https://maps.google.com/?q=-27.4642477,153.0250103",
      "source": "osm"
    },
    {
      "nom": "Brisbane Quarters",
      "categorie": "Auberge",
      "priceRange": "€€",
      "mapsUrl": "https://maps.google.com/?q=-27.4641016,153.0249852",
      "lat": -27.4641016,
      "lng": 153.0249852,
      "halalFriendly": false,
      "bookingUrl": "https://brisbanequarters.com.au/",
      "source": "osm"
    },
    {
      "nom": "The Inchcolm",
      "categorie": "Hôtel",
      "priceRange": "€€",
      "mapsUrl": "https://maps.google.com/?q=-27.4642608,153.0268974",
      "lat": -27.4642608,
      "lng": 153.0268974,
      "halalFriendly": false,
      "bookingUrl": "https://maps.google.com/?q=-27.4642608,153.0268974",
      "source": "osm"
    },
    {
      "nom": "Astor Apartments",
      "categorie": "Hôtel",
      "priceRange": "€€",
      "mapsUrl": "https://maps.google.com/?q=-27.4638401,153.0257333",
      "lat": -27.4638401,
      "lng": 153.0257333,
      "halalFriendly": false,
      "bookingUrl": "https://maps.google.com/?q=-27.4638401,153.0257333",
      "source": "osm"
    },
    {
      "nom": "Quest Spring Hill",
      "categorie": "Hôtel",
      "priceRange": "€€",
      "mapsUrl": "https://maps.google.com/?q=-27.463791,153.0242222",
      "lat": -27.463791,
      "lng": 153.0242222,
      "halalFriendly": false,
      "bookingUrl": "http://www.questspringhill.com.au",
      "source": "osm"
    },
    {
      "nom": "Student One",
      "categorie": "Appartement",
      "priceRange": "€€",
      "mapsUrl": "https://maps.google.com/?q=-27.4651793,153.0295831",
      "lat": -27.4651793,
      "lng": 153.0295831,
      "halalFriendly": false,
      "bookingUrl": "https://studentone.com/",
      "source": "osm"
    },
    {
      "nom": "Amora Hotel Brisbane",
      "categorie": "Hôtel",
      "priceRange": "€€€€",
      "score": 4.5,
      "mapsUrl": "https://maps.google.com/?q=-27.4635653,153.0270961",
      "lat": -27.4635653,
      "lng": 153.0270961,
      "halalFriendly": false,
      "bookingUrl": "https://www.amorahotels.com/brisbane",
      "source": "osm"
    },
    {
      "nom": "Pacific Hotel",
      "categorie": "Hôtel",
      "priceRange": "€€",
      "mapsUrl": "https://maps.google.com/?q=-27.4642295,153.0212937",
      "lat": -27.4642295,
      "lng": 153.0212937,
      "halalFriendly": false,
      "bookingUrl": "https://maps.google.com/?q=-27.4642295,153.0212937",
      "source": "osm"
    },
    {
      "nom": "Mantra Terrace Hotel",
      "categorie": "Hôtel",
      "priceRange": "€€",
      "mapsUrl": "https://maps.google.com/?q=-27.4632444,153.0258215",
      "lat": -27.4632444,
      "lng": 153.0258215,
      "halalFriendly": false,
      "bookingUrl": "https://maps.google.com/?q=-27.4632444,153.0258215",
      "source": "osm"
    },
    {
      "nom": "The Dorchester Inn",
      "categorie": "Hôtel",
      "priceRange": "€€",
      "mapsUrl": "https://maps.google.com/?q=-27.4632043,153.0241563",
      "lat": -27.4632043,
      "lng": 153.0241563,
      "halalFriendly": false,
      "bookingUrl": "https://maps.google.com/?q=-27.4632043,153.0241563",
      "source": "osm"
    },
    {
      "nom": "The Ridge",
      "categorie": "Hôtel",
      "priceRange": "€€",
      "mapsUrl": "https://maps.google.com/?q=-27.4625846,153.0263617",
      "lat": -27.4625846,
      "lng": 153.0263617,
      "halalFriendly": false,
      "bookingUrl": "https://maps.google.com/?q=-27.4625846,153.0263617",
      "source": "osm"
    },
    {
      "nom": "Holiday Inn Express",
      "categorie": "Hôtel",
      "priceRange": "€€",
      "mapsUrl": "https://maps.google.com/?q=-27.4626805,153.0271075",
      "lat": -27.4626805,
      "lng": 153.0271075,
      "halalFriendly": false,
      "bookingUrl": "https://www.ihg.com/holidayinnexpress/hotels/us/en/brisbane/bneex/hoteldetail",
      "source": "osm"
    },
    {
      "nom": "Sportsman Hotel",
      "categorie": "Hôtel",
      "priceRange": "€€",
      "mapsUrl": "https://maps.google.com/?q=-27.4624308,153.0249326",
      "lat": -27.4624308,
      "lng": 153.0249326,
      "halalFriendly": false,
      "bookingUrl": "https://www.sportsmanhotel.com.au/",
      "source": "osm"
    },
    {
      "nom": "Grand Chancellor Brisbane",
      "categorie": "Hôtel",
      "priceRange": "€€",
      "mapsUrl": "https://maps.google.com/?q=-27.4624428,153.021637",
      "lat": -27.4624428,
      "lng": 153.021637,
      "halalFriendly": false,
      "bookingUrl": "https://maps.google.com/?q=-27.4624428,153.021637",
      "source": "osm"
    },
    {
      "nom": "Riverside Hotel Southbank",
      "categorie": "Hôtel",
      "priceRange": "€€€€",
      "score": 4,
      "mapsUrl": "https://maps.google.com/?q=-27.471216,153.016121",
      "lat": -27.471216,
      "lng": 153.016121,
      "halalFriendly": false,
      "bookingUrl": "https://riversidehotel.com.au/",
      "source": "osm"
    },
    {
      "nom": "Tribeca Apartments",
      "categorie": "Hôtel",
      "priceRange": "€€",
      "mapsUrl": "https://maps.google.com/?q=-27.461481,153.0268167",
      "lat": -27.461481,
      "lng": 153.0268167,
      "halalFriendly": false,
      "bookingUrl": "https://maps.google.com/?q=-27.461481,153.0268167",
      "source": "osm"
    },
    {
      "nom": "Rydges",
      "categorie": "Hôtel",
      "priceRange": "€€",
      "mapsUrl": "https://maps.google.com/?q=-27.4773481,153.0204352",
      "lat": -27.4773481,
      "lng": 153.0204352,
      "halalFriendly": false,
      "bookingUrl": "https://maps.google.com/?q=-27.4773481,153.0204352",
      "source": "osm"
    },
    {
      "nom": "Marriott",
      "categorie": "Hôtel",
      "priceRange": "€€",
      "mapsUrl": "https://maps.google.com/?q=-27.4635132,153.0317922",
      "lat": -27.4635132,
      "lng": 153.0317922,
      "halalFriendly": false,
      "bookingUrl": "https://maps.google.com/?q=-27.4635132,153.0317922",
      "source": "osm"
    },
    {
      "nom": "Mantra South Bank",
      "categorie": "Hôtel",
      "priceRange": "€€",
      "mapsUrl": "https://maps.google.com/?q=-27.4778145,153.0208112",
      "lat": -27.4778145,
      "lng": 153.0208112,
      "halalFriendly": false,
      "bookingUrl": "https://maps.google.com/?q=-27.4778145,153.0208112",
      "source": "osm"
    },
    {
      "nom": "Great Hall",
      "categorie": "Maison d'hôtes",
      "priceRange": "€€",
      "mapsUrl": "https://maps.google.com/?q=-27.4770298,153.0192499",
      "lat": -27.4770298,
      "lng": 153.0192499,
      "halalFriendly": false,
      "bookingUrl": "https://maps.google.com/?q=-27.4770298,153.0192499",
      "source": "osm"
    },
    {
      "nom": "Hotel Mantra",
      "categorie": "Hôtel",
      "priceRange": "€€",
      "mapsUrl": "https://maps.google.com/?q=-27.4622651,153.0308778",
      "lat": -27.4622651,
      "lng": 153.0308778,
      "halalFriendly": false,
      "bookingUrl": "https://maps.google.com/?q=-27.4622651,153.0308778",
      "source": "osm"
    },
    {
      "nom": "Kookaburra Inn",
      "categorie": "Maison d'hôtes",
      "priceRange": "€€",
      "mapsUrl": "https://maps.google.com/?q=-27.4606573,153.02853",
      "lat": -27.4606573,
      "lng": 153.02853,
      "halalFriendly": false,
      "bookingUrl": "http://kookaburra-inn.com.au",
      "source": "osm"
    },
    {
      "nom": "The Johnson",
      "categorie": "Hôtel",
      "priceRange": "€€€€",
      "score": 4,
      "mapsUrl": "https://maps.google.com/?q=-27.4601684,153.0231221",
      "lat": -27.4601684,
      "lng": 153.0231221,
      "halalFriendly": false,
      "bookingUrl": "https://maps.google.com/?q=-27.4601684,153.0231221",
      "source": "osm"
    },
    {
      "nom": "Meriton Suites Adelaide Street",
      "categorie": "Appartement",
      "priceRange": "€€",
      "mapsUrl": "https://maps.google.com/?q=-27.4623514,153.0324102",
      "lat": -27.4623514,
      "lng": 153.0324102,
      "halalFriendly": false,
      "bookingUrl": "https://www.meritonsuites.com.au/our-hotels/qld/brisbane/adelaide-street/",
      "source": "osm"
    },
    {
      "nom": "Ozcare Homeless Hostel",
      "categorie": "Auberge",
      "priceRange": "€€",
      "mapsUrl": "https://maps.google.com/?q=-27.4741019,153.0149286",
      "lat": -27.4741019,
      "lng": 153.0149286,
      "halalFriendly": false,
      "bookingUrl": "https://maps.google.com/?q=-27.4741019,153.0149286",
      "source": "osm"
    },
    {
      "nom": "Big Bird Backpacker Hostel",
      "categorie": "Auberge",
      "priceRange": "€€",
      "mapsUrl": "https://maps.google.com/?q=-27.4669072,153.01426",
      "lat": -27.4669072,
      "lng": 153.01426,
      "halalFriendly": false,
      "bookingUrl": "https://www.bigbirdbackpackers.com.au/",
      "source": "osm"
    },
    {
      "nom": "Quest on Story Bridge",
      "categorie": "Hôtel",
      "priceRange": "€€",
      "mapsUrl": "https://maps.google.com/?q=-27.4688662,153.036382",
      "lat": -27.4688662,
      "lng": 153.036382,
      "halalFriendly": false,
      "bookingUrl": "https://maps.google.com/?q=-27.4688662,153.036382",
      "source": "osm"
    },
    {
      "nom": "Il Mondo Boutique Hotel",
      "categorie": "Hôtel",
      "priceRange": "€€",
      "mapsUrl": "https://maps.google.com/?q=-27.4694263,153.0364459",
      "lat": -27.4694263,
      "lng": 153.0364459,
      "halalFriendly": false,
      "bookingUrl": "https://www.ilmondo.com.au/",
      "source": "osm"
    },
    {
      "nom": "Chill Backpackers",
      "categorie": "Auberge",
      "priceRange": "€€",
      "mapsUrl": "https://maps.google.com/?q=-27.4664984,153.0143621",
      "lat": -27.4664984,
      "lng": 153.0143621,
      "halalFriendly": false,
      "bookingUrl": "https://maps.google.com/?q=-27.4664984,153.0143621",
      "source": "osm"
    },
    {
      "nom": "Summer House Backpackers",
      "categorie": "Auberge",
      "priceRange": "€€",
      "mapsUrl": "https://maps.google.com/?q=-27.4666103,153.0138124",
      "lat": -27.4666103,
      "lng": 153.0138124,
      "halalFriendly": false,
      "bookingUrl": "https://maps.google.com/?q=-27.4666103,153.0138124",
      "source": "osm"
    },
    {
      "nom": "Novotel",
      "categorie": "Hôtel",
      "priceRange": "€€",
      "mapsUrl": "https://maps.google.com/?q=-27.4778564,153.0173743",
      "lat": -27.4778564,
      "lng": 153.0173743,
      "halalFriendly": false,
      "bookingUrl": "https://maps.google.com/?q=-27.4778564,153.0173743",
      "source": "osm"
    },
    {
      "nom": "Watermark",
      "categorie": "Hôtel",
      "priceRange": "€€",
      "mapsUrl": "https://maps.google.com/?q=-27.4607275,153.0189459",
      "lat": -27.4607275,
      "lng": 153.0189459,
      "halalFriendly": false,
      "bookingUrl": "https://maps.google.com/?q=-27.4607275,153.0189459",
      "source": "osm"
    },
    {
      "nom": "Brisbane City Backpackers",
      "categorie": "Auberge",
      "priceRange": "€€",
      "mapsUrl": "https://maps.google.com/?q=-27.4667956,153.0133484",
      "lat": -27.4667956,
      "lng": 153.0133484,
      "halalFriendly": false,
      "bookingUrl": "https://maps.google.com/?q=-27.4667956,153.0133484",
      "source": "osm"
    },
    {
      "nom": "The Point Brisbane",
      "categorie": "Hôtel",
      "priceRange": "€€",
      "mapsUrl": "https://maps.google.com/?q=-27.4740173,153.0364572",
      "lat": -27.4740173,
      "lng": 153.0364572,
      "halalFriendly": false,
      "bookingUrl": "https://maps.google.com/?q=-27.4740173,153.0364572",
      "source": "osm"
    },
    {
      "nom": "Woodduck Backpackers",
      "categorie": "Auberge",
      "priceRange": "€€",
      "mapsUrl": "https://maps.google.com/?q=-27.4667265,153.0130337",
      "lat": -27.4667265,
      "lng": 153.0130337,
      "halalFriendly": false,
      "bookingUrl": "https://maps.google.com/?q=-27.4667265,153.0130337",
      "source": "osm"
    },
    {
      "nom": "Yellow Submarine",
      "categorie": "Auberge",
      "priceRange": "€€",
      "mapsUrl": "https://maps.google.com/?q=-27.4674936,153.0127925",
      "lat": -27.4674936,
      "lng": 153.0127925,
      "halalFriendly": false,
      "bookingUrl": "https://maps.google.com/?q=-27.4674936,153.0127925",
      "source": "osm"
    },
    {
      "nom": "YHA Brisbane City",
      "categorie": "Auberge",
      "priceRange": "€€",
      "mapsUrl": "https://maps.google.com/?q=-27.4669099,153.0128251",
      "lat": -27.4669099,
      "lng": 153.0128251,
      "halalFriendly": false,
      "bookingUrl": "https://www.yha.com.au/hostels/qld/brisbane-surrounds/brisbane-backpackers-hostel",
      "source": "osm"
    },
    {
      "nom": "RFH on Gregory",
      "categorie": "Hôtel",
      "priceRange": "€€",
      "mapsUrl": "https://maps.google.com/?q=-27.4595058,153.0198903",
      "lat": -27.4595058,
      "lng": 153.0198903,
      "halalFriendly": false,
      "bookingUrl": "https://maps.google.com/?q=-27.4595058,153.0198903",
      "source": "osm"
    },
    {
      "nom": "Banana Bender Backpackers",
      "categorie": "Auberge",
      "priceRange": "€€",
      "mapsUrl": "https://maps.google.com/?q=-27.4638186,153.0142065",
      "lat": -27.4638186,
      "lng": 153.0142065,
      "halalFriendly": false,
      "bookingUrl": "https://bananabenders.com/",
      "source": "osm"
    },
    {
      "nom": "Casa Andres R",
      "categorie": "Maison d'hôtes",
      "priceRange": "€€",
      "mapsUrl": "https://maps.google.com/?q=-27.46793,153.0117722",
      "lat": -27.46793,
      "lng": 153.0117722,
      "halalFriendly": false,
      "bookingUrl": "https://maps.google.com/?q=-27.46793,153.0117722",
      "source": "osm"
    },
    {
      "nom": "Eton B&B",
      "categorie": "Maison d'hôtes",
      "priceRange": "€€",
      "mapsUrl": "https://maps.google.com/?q=-27.4669776,153.0118774",
      "lat": -27.4669776,
      "lng": 153.0118774,
      "halalFriendly": false,
      "bookingUrl": "https://maps.google.com/?q=-27.4669776,153.0118774",
      "source": "osm"
    },
    {
      "nom": "Crystalbrook Vincent",
      "categorie": "Hôtel",
      "priceRange": "€€€€",
      "score": 5,
      "mapsUrl": "https://maps.google.com/?q=-27.4620713,153.0355996",
      "lat": -27.4620713,
      "lng": 153.0355996,
      "halalFriendly": false,
      "bookingUrl": "https://www.crystalbrookcollection.com/vincent",
      "source": "osm"
    },
    {
      "nom": "Aussieway Backpackers",
      "categorie": "Auberge",
      "priceRange": "€€",
      "mapsUrl": "https://maps.google.com/?q=-27.4632048,153.0135665",
      "lat": -27.4632048,
      "lng": 153.0135665,
      "halalFriendly": false,
      "bookingUrl": "https://maps.google.com/?q=-27.4632048,153.0135665",
      "source": "osm"
    },
    {
      "nom": "House  Andrea",
      "categorie": "Maison d'hôtes",
      "priceRange": "€€",
      "mapsUrl": "https://maps.google.com/?q=-27.4679609,153.0115354",
      "lat": -27.4679609,
      "lng": 153.0115354,
      "halalFriendly": false,
      "bookingUrl": "https://maps.google.com/?q=-27.4679609,153.0115354",
      "source": "osm"
    },
    {
      "nom": "Gambaro Hotel",
      "categorie": "Hôtel",
      "priceRange": "€€",
      "mapsUrl": "https://maps.google.com/?q=-27.4641607,153.0127749",
      "lat": -27.4641607,
      "lng": 153.0127749,
      "halalFriendly": false,
      "bookingUrl": "https://maps.google.com/?q=-27.4641607,153.0127749",
      "source": "osm"
    },
    {
      "nom": "West End Central Apartments",
      "categorie": "Hôtel",
      "priceRange": "€€",
      "mapsUrl": "https://maps.google.com/?q=-27.4770418,153.0135673",
      "lat": -27.4770418,
      "lng": 153.0135673,
      "halalFriendly": false,
      "bookingUrl": "https://www.westendcentral.com.au/",
      "source": "osm"
    },
    {
      "nom": "River Plaza Apartments",
      "categorie": "Appartement",
      "priceRange": "€€",
      "mapsUrl": "https://maps.google.com/?q=-27.4825248,153.0274556",
      "lat": -27.4825248,
      "lng": 153.0274556,
      "halalFriendly": false,
      "bookingUrl": "https://www.riverplaza.com.au/",
      "source": "osm"
    },
    {
      "nom": "Bunk Brisbane",
      "categorie": "Auberge",
      "priceRange": "€€",
      "mapsUrl": "https://maps.google.com/?q=-27.4592932,153.0335895",
      "lat": -27.4592932,
      "lng": 153.0335895,
      "halalFriendly": false,
      "bookingUrl": "https://maps.google.com/?q=-27.4592932,153.0335895",
      "source": "osm"
    },
    {
      "nom": "The Marc",
      "categorie": "Appartement",
      "priceRange": "€€",
      "mapsUrl": "https://maps.google.com/?q=-27.4788293,153.0360112",
      "lat": -27.4788293,
      "lng": 153.0360112,
      "halalFriendly": false,
      "bookingUrl": "https://maps.google.com/?q=-27.4788293,153.0360112",
      "source": "osm"
    },
    {
      "nom": "Swiss-Belhotel",
      "categorie": "Hôtel",
      "priceRange": "€€",
      "mapsUrl": "https://maps.google.com/?q=-27.4831307,153.0273753",
      "lat": -27.4831307,
      "lng": 153.0273753,
      "halalFriendly": false,
      "bookingUrl": "https://maps.google.com/?q=-27.4831307,153.0273753",
      "source": "osm"
    },
    {
      "nom": "Mantra Richmont Hotel",
      "categorie": "Hôtel",
      "priceRange": "€€",
      "mapsUrl": "https://maps.google.com/?q=-27.4569013,153.0303328",
      "lat": -27.4569013,
      "lng": 153.0303328,
      "halalFriendly": false,
      "bookingUrl": "https://maps.google.com/?q=-27.4569013,153.0303328",
      "source": "osm"
    },
    {
      "nom": "Central Brunswick Apartment Hotel",
      "categorie": "Hôtel",
      "priceRange": "€€",
      "mapsUrl": "https://maps.google.com/?q=-27.460367,153.0370551",
      "lat": -27.460367,
      "lng": 153.0370551,
      "halalFriendly": false,
      "bookingUrl": "https://maps.google.com/?q=-27.460367,153.0370551",
      "source": "osm"
    },
    {
      "nom": "FV Brisbane by Peppers",
      "categorie": "Hôtel",
      "priceRange": "€€",
      "mapsUrl": "https://maps.google.com/?q=-27.4567193,153.0318909",
      "lat": -27.4567193,
      "lng": 153.0318909,
      "halalFriendly": false,
      "bookingUrl": "https://maps.google.com/?q=-27.4567193,153.0318909",
      "source": "osm"
    },
    {
      "nom": "Hotel X",
      "categorie": "Hôtel",
      "priceRange": "€€",
      "mapsUrl": "https://maps.google.com/?q=-27.4602384,153.0376863",
      "lat": -27.4602384,
      "lng": 153.0376863,
      "halalFriendly": false,
      "bookingUrl": "https://www.ihg.com/spnd/hotels/us/en/brisbane/bnefv/hoteldetail",
      "source": "osm"
    },
    {
      "nom": "Spicers Balfour Hotel",
      "categorie": "Hôtel",
      "priceRange": "€€",
      "mapsUrl": "https://maps.google.com/?q=-27.4638304,153.040394",
      "lat": -27.4638304,
      "lng": 153.040394,
      "halalFriendly": false,
      "bookingUrl": "https://maps.google.com/?q=-27.4638304,153.040394",
      "source": "osm"
    },
    {
      "nom": "FV4006 Apartments",
      "categorie": "Hôtel",
      "priceRange": "€€",
      "mapsUrl": "https://maps.google.com/?q=-27.4590776,153.0366486",
      "lat": -27.4590776,
      "lng": 153.0366486,
      "halalFriendly": false,
      "bookingUrl": "https://maps.google.com/?q=-27.4590776,153.0366486",
      "source": "osm"
    },
    {
      "nom": "Saint Nicholas Hostel",
      "categorie": "Auberge",
      "priceRange": "€€",
      "mapsUrl": "https://maps.google.com/?q=-27.4821388,153.0157398",
      "lat": -27.4821388,
      "lng": 153.0157398,
      "halalFriendly": false,
      "bookingUrl": "https://maps.google.com/?q=-27.4821388,153.0157398",
      "source": "osm"
    },
    {
      "nom": "Gonow Family",
      "categorie": "Auberge",
      "priceRange": "€€",
      "mapsUrl": "https://maps.google.com/?q=-27.4816315,153.0148524",
      "lat": -27.4816315,
      "lng": 153.0148524,
      "halalFriendly": false,
      "bookingUrl": "http://gonowfamily.com.au/",
      "source": "osm"
    },
    {
      "nom": "Kangaroo Point Central Hotel and Apartment's",
      "categorie": "Appartement",
      "priceRange": "€€",
      "mapsUrl": "https://maps.google.com/?q=-27.4816642,153.0354256",
      "lat": -27.4816642,
      "lng": 153.0354256,
      "halalFriendly": false,
      "bookingUrl": "https://maps.google.com/?q=-27.4816642,153.0354256",
      "source": "osm"
    },
    {
      "nom": "Eskdale B&B",
      "categorie": "Maison d'hôtes",
      "priceRange": "€€",
      "mapsUrl": "https://maps.google.com/?q=-27.4815714,153.0146223",
      "lat": -27.4815714,
      "lng": 153.0146223,
      "halalFriendly": false,
      "bookingUrl": "http://eskdale.com.au/",
      "source": "osm"
    },
    {
      "nom": "Balfour Suites",
      "categorie": "Hôtel",
      "priceRange": "€€",
      "mapsUrl": "https://maps.google.com/?q=-27.4635422,153.0407478",
      "lat": -27.4635422,
      "lng": 153.0407478,
      "halalFriendly": false,
      "bookingUrl": "https://maps.google.com/?q=-27.4635422,153.0407478",
      "source": "osm"
    },
    {
      "nom": "Cream Gables",
      "categorie": "Maison d'hôtes",
      "priceRange": "€€",
      "mapsUrl": "https://maps.google.com/?q=-27.4617669,153.0400388",
      "lat": -27.4617669,
      "lng": 153.0400388,
      "halalFriendly": false,
      "bookingUrl": "http://www.creamgables.com.au/",
      "source": "osm"
    },
    {
      "nom": "Amelia Hotel",
      "categorie": "Hôtel",
      "priceRange": "€€",
      "mapsUrl": "https://maps.google.com/?q=-27.4549237,153.0319697",
      "lat": -27.4549237,
      "lng": 153.0319697,
      "halalFriendly": false,
      "bookingUrl": "https://www.ameliahotel.com.au/",
      "source": "osm"
    },
    {
      "nom": "Kooii Apartments",
      "categorie": "Hôtel",
      "priceRange": "€€",
      "mapsUrl": "https://maps.google.com/?q=-27.4562181,153.0352406",
      "lat": -27.4562181,
      "lng": 153.0352406,
      "halalFriendly": false,
      "bookingUrl": "https://maps.google.com/?q=-27.4562181,153.0352406",
      "source": "osm"
    },
    {
      "nom": "The Constance Hotel",
      "categorie": "Hôtel",
      "priceRange": "€€",
      "mapsUrl": "https://maps.google.com/?q=-27.4562389,153.0364591",
      "lat": -27.4562389,
      "lng": 153.0364591,
      "halalFriendly": false,
      "bookingUrl": "https://www.theconstancehotelfortitudevalley.com.au/",
      "source": "osm"
    },
    {
      "nom": "Somewhere To Stay Backpackers",
      "categorie": "Auberge",
      "priceRange": "€€",
      "mapsUrl": "https://maps.google.com/?q=-27.4832245,153.0134729",
      "lat": -27.4832245,
      "lng": 153.0134729,
      "halalFriendly": false,
      "bookingUrl": "https://maps.google.com/?q=-27.4832245,153.0134729",
      "source": "osm"
    },
    {
      "nom": "The Wellington Apartment Hotel",
      "categorie": "Hôtel",
      "priceRange": "€€",
      "mapsUrl": "https://maps.google.com/?q=-27.4798369,153.040956",
      "lat": -27.4798369,
      "lng": 153.040956,
      "halalFriendly": false,
      "bookingUrl": "https://maps.google.com/?q=-27.4798369,153.040956",
      "source": "osm"
    },
    {
      "nom": "Adalong Student Guesthouse",
      "categorie": "Maison d'hôtes",
      "priceRange": "€€",
      "mapsUrl": "https://maps.google.com/?q=-27.4870799,153.0244753",
      "lat": -27.4870799,
      "lng": 153.0244753,
      "halalFriendly": false,
      "bookingUrl": "http://www.adalong.com.au/",
      "source": "osm"
    },
    {
      "nom": "Hotel Diana",
      "categorie": "Hôtel",
      "priceRange": "€€€€",
      "score": 4,
      "mapsUrl": "https://maps.google.com/?q=-27.486665,153.0295522",
      "lat": -27.486665,
      "lng": 153.0295522,
      "halalFriendly": false,
      "bookingUrl": "http://dianaplaza.com.au/",
      "source": "osm"
    },
    {
      "nom": "LyLo Brisbane",
      "categorie": "Hôtel",
      "priceRange": "€€",
      "mapsUrl": "https://maps.google.com/?q=-27.4543326,153.0339376",
      "lat": -27.4543326,
      "lng": 153.0339376,
      "halalFriendly": false,
      "bookingUrl": "https://maps.google.com/?q=-27.4543326,153.0339376",
      "source": "osm"
    },
    {
      "nom": "Quest Kelvin Grove",
      "categorie": "Hôtel",
      "priceRange": "€€€€",
      "score": 4,
      "mapsUrl": "https://maps.google.com/?q=-27.4551381,153.0145317",
      "lat": -27.4551381,
      "lng": 153.0145317,
      "halalFriendly": false,
      "bookingUrl": "https://www.questapartments.com.au/properties/qld/kelvin-grove/quest-kelvin-grove/overview",
      "source": "osm"
    },
    {
      "nom": "The Milton Brisbane",
      "categorie": "Hôtel",
      "priceRange": "€€",
      "mapsUrl": "https://maps.google.com/?q=-27.4694481,153.0049925",
      "lat": -27.4694481,
      "lng": 153.0049925,
      "halalFriendly": false,
      "bookingUrl": "https://maps.google.com/?q=-27.4694481,153.0049925",
      "source": "osm"
    },
    {
      "nom": "The Calile",
      "categorie": "Hôtel",
      "priceRange": "€€",
      "mapsUrl": "https://maps.google.com/?q=-27.4567668,153.0402873",
      "lat": -27.4567668,
      "lng": 153.0402873,
      "halalFriendly": false,
      "bookingUrl": "https://maps.google.com/?q=-27.4567668,153.0402873",
      "source": "osm"
    },
    {
      "nom": "Childhood Cancer Support",
      "categorie": "Auberge",
      "priceRange": "€€",
      "mapsUrl": "https://maps.google.com/?q=-27.490146,153.0268795",
      "lat": -27.490146,
      "lng": 153.0268795,
      "halalFriendly": false,
      "bookingUrl": "https://maps.google.com/?q=-27.490146,153.0268795",
      "source": "osm"
    },
    {
      "nom": "Ovolo The Valley",
      "categorie": "Hôtel",
      "priceRange": "€€",
      "mapsUrl": "https://maps.google.com/?q=-27.4523829,153.0392842",
      "lat": -27.4523829,
      "lng": 153.0392842,
      "halalFriendly": false,
      "bookingUrl": "https://maps.google.com/?q=-27.4523829,153.0392842",
      "source": "osm"
    },
    {
      "nom": "Hanworth House",
      "categorie": "Hôtel",
      "priceRange": "€€",
      "mapsUrl": "https://maps.google.com/?q=-27.4793713,153.0475075",
      "lat": -27.4793713,
      "lng": 153.0475075,
      "halalFriendly": false,
      "bookingUrl": "https://www.hanworthhouse.com.au/",
      "source": "osm"
    },
    {
      "nom": "Budget accommodation",
      "categorie": "Maison d'hôtes",
      "priceRange": "€€",
      "mapsUrl": "https://maps.google.com/?q=-27.4507246,153.0402176",
      "lat": -27.4507246,
      "lng": 153.0402176,
      "halalFriendly": false,
      "bookingUrl": "https://maps.google.com/?q=-27.4507246,153.0402176",
      "source": "osm"
    },
    {
      "nom": "Avondale Private Hotel",
      "categorie": "Hôtel",
      "priceRange": "€€",
      "mapsUrl": "https://maps.google.com/?q=-27.4533824,153.0062815",
      "lat": -27.4533824,
      "lng": 153.0062815,
      "halalFriendly": false,
      "bookingUrl": "https://maps.google.com/?q=-27.4533824,153.0062815",
      "source": "osm"
    },
    {
      "nom": "Chasely Apartment Hotel",
      "categorie": "Hôtel",
      "priceRange": "€€",
      "mapsUrl": "https://maps.google.com/?q=-27.4781742,152.9995325",
      "lat": -27.4781742,
      "lng": 152.9995325,
      "halalFriendly": false,
      "bookingUrl": "https://maps.google.com/?q=-27.4781742,152.9995325",
      "source": "osm"
    },
    {
      "nom": "Lang Parade Lodge",
      "categorie": "Appartement",
      "priceRange": "€€",
      "mapsUrl": "https://maps.google.com/?q=-27.4752638,152.9978577",
      "lat": -27.4752638,
      "lng": 152.9978577,
      "halalFriendly": false,
      "bookingUrl": "https://maps.google.com/?q=-27.4752638,152.9978577",
      "source": "osm"
    },
    {
      "nom": "Butterflies on Butterfield B&B",
      "categorie": "Maison d'hôtes",
      "priceRange": "€€",
      "mapsUrl": "https://maps.google.com/?q=-27.4449605,153.0253179",
      "lat": -27.4449605,
      "lng": 153.0253179,
      "halalFriendly": false,
      "bookingUrl": "https://maps.google.com/?q=-27.4449605,153.0253179",
      "source": "osm"
    },
    {
      "nom": "La Quinta",
      "categorie": "Appartement",
      "priceRange": "€€",
      "mapsUrl": "https://maps.google.com/?q=-27.4552932,153.0482951",
      "lat": -27.4552932,
      "lng": 153.0482951,
      "halalFriendly": false,
      "bookingUrl": "https://maps.google.com/?q=-27.4552932,153.0482951",
      "source": "osm"
    },
    {
      "nom": "Cumulus",
      "categorie": "Appartement",
      "priceRange": "€€",
      "mapsUrl": "https://maps.google.com/?q=-27.4475436,153.0409228",
      "lat": -27.4475436,
      "lng": 153.0409228,
      "halalFriendly": false,
      "bookingUrl": "https://maps.google.com/?q=-27.4475436,153.0409228",
      "source": "osm"
    },
    {
      "nom": "Yumba Hostel",
      "categorie": "Auberge",
      "priceRange": "€€",
      "mapsUrl": "https://maps.google.com/?q=-27.4882098,153.0033272",
      "lat": -27.4882098,
      "lng": 153.0033272,
      "halalFriendly": false,
      "bookingUrl": "https://maps.google.com/?q=-27.4882098,153.0033272",
      "source": "osm"
    },
    {
      "nom": "Auchenflower Gardens",
      "categorie": "Appartement",
      "priceRange": "€€",
      "mapsUrl": "https://maps.google.com/?q=-27.4763054,152.9930172",
      "lat": -27.4763054,
      "lng": 152.9930172,
      "halalFriendly": false,
      "bookingUrl": "https://maps.google.com/?q=-27.4763054,152.9930172",
      "source": "osm"
    },
    {
      "nom": "Hotel Chino",
      "categorie": "Hôtel",
      "priceRange": "€€",
      "mapsUrl": "https://maps.google.com/?q=-27.4975221,153.03667",
      "lat": -27.4975221,
      "lng": 153.03667,
      "halalFriendly": false,
      "bookingUrl": "https://maps.google.com/?q=-27.4975221,153.03667",
      "source": "osm"
    },
    {
      "nom": "the collingwood",
      "categorie": "Maison d'hôtes",
      "priceRange": "€€",
      "mapsUrl": "https://maps.google.com/?q=-27.4568831,152.9946057",
      "lat": -27.4568831,
      "lng": 152.9946057,
      "halalFriendly": false,
      "bookingUrl": "http://thecollingwood.com.au",
      "source": "osm"
    },
    {
      "nom": "Wilston on the Park",
      "categorie": "Maison d'hôtes",
      "priceRange": "€€",
      "mapsUrl": "https://maps.google.com/?q=-27.4398672,153.0192311",
      "lat": -27.4398672,
      "lng": 153.0192311,
      "halalFriendly": false,
      "bookingUrl": "https://www.airbnb.com.au/rooms/938075176767248074?source_impression_id=p3_1758406180_P3-mYhID9UDr--Wq",
      "source": "osm"
    },
    {
      "nom": "Imperial Motel Windsor",
      "categorie": "Hôtel",
      "priceRange": "€€",
      "mapsUrl": "https://maps.google.com/?q=-27.4396034,153.0312648",
      "lat": -27.4396034,
      "lng": 153.0312648,
      "halalFriendly": false,
      "bookingUrl": "https://maps.google.com/?q=-27.4396034,153.0312648",
      "source": "osm"
    },
    {
      "nom": "Ramada by Wydham on Windsor Brisbane",
      "categorie": "Hôtel",
      "priceRange": "€€",
      "mapsUrl": "https://maps.google.com/?q=-27.4386257,153.0314429",
      "lat": -27.4386257,
      "lng": 153.0314429,
      "halalFriendly": false,
      "bookingUrl": "https://maps.google.com/?q=-27.4386257,153.0314429",
      "source": "osm"
    },
    {
      "nom": "Jephson Hotel",
      "categorie": "Hôtel",
      "priceRange": "€€",
      "mapsUrl": "https://maps.google.com/?q=-27.4850593,152.9902554",
      "lat": -27.4850593,
      "lng": 152.9902554,
      "halalFriendly": false,
      "bookingUrl": "https://maps.google.com/?q=-27.4850593,152.9902554",
      "source": "osm"
    },
    {
      "nom": "Kingsford Riverside Inn",
      "categorie": "Hôtel",
      "priceRange": "€€",
      "mapsUrl": "https://maps.google.com/?q=-27.4398288,153.0489457",
      "lat": -27.4398288,
      "lng": 153.0489457,
      "halalFriendly": false,
      "bookingUrl": "https://maps.google.com/?q=-27.4398288,153.0489457",
      "source": "osm"
    }
  ],
  "mosqueesPrincipales": [
    {
      "id": "m251882571",
      "nom": "Islamic Centre, West End Mosque",
      "type": "Mosquée",
      "adresse": "Princhester Street",
      "description": "Lieu de prière (OpenStreetMap).",
      "mapsUrl": "https://maps.google.com/?q=-27.4812877,153.0107256",
      "lat": -27.4812877,
      "lng": 153.0107256,
      "source": "osm"
    },
    {
      "id": "m422746572",
      "nom": "Mubarak Mosque",
      "type": "Mosquée",
      "adresse": "Old Cleveland Road",
      "description": "Lieu de prière (OpenStreetMap).",
      "mapsUrl": "https://maps.google.com/?q=-27.4915579,153.0667211",
      "lat": -27.4915579,
      "lng": 153.0667211,
      "source": "osm"
    },
    {
      "id": "m626563838",
      "nom": "Masjid As-Sunnah",
      "type": "Mosquée",
      "adresse": "Fuller Street, Brisbane",
      "description": "Lieu de prière (OpenStreetMap).",
      "mapsUrl": "https://maps.google.com/?q=-27.4251088,153.0306488",
      "lat": -27.4251088,
      "lng": 153.0306488,
      "source": "osm"
    },
    {
      "id": "m953265229",
      "nom": "Moorooka Mosque",
      "type": "Mosquée",
      "adresse": "Mayfield Road, Brisbane",
      "description": "Lieu de prière (OpenStreetMap).",
      "mapsUrl": "https://maps.google.com/?q=-27.5335507,153.0275142",
      "lat": -27.5335507,
      "lng": 153.0275142,
      "source": "osm"
    },
    {
      "id": "m667941215",
      "nom": "Brisbane Mosque",
      "type": "Mosquée",
      "adresse": "",
      "description": "Lieu de prière (OpenStreetMap).",
      "mapsUrl": "https://maps.google.com/?q=-27.5272955,153.0756712",
      "lat": -27.5272955,
      "lng": 153.0756712,
      "source": "osm"
    }
  ],
  "activites": [
    {
      "id": "a9170916482",
      "nom": "Tiny Door",
      "categorie": "artwork",
      "description": "",
      "prix": "",
      "duree": "",
      "mapsUrl": "https://maps.google.com/?q=-27.4695381,153.0245615",
      "lat": -27.4695381,
      "lng": 153.0245615,
      "source": "osm"
    },
    {
      "id": "a243893440",
      "nom": "Brisbane City Hall Clock Tower",
      "categorie": "attraction",
      "description": "",
      "prix": "",
      "duree": "",
      "mapsUrl": "https://maps.google.com/?q=-27.4687807,153.0237552",
      "lat": -27.4687807,
      "lng": 153.0237552,
      "source": "osm"
    },
    {
      "id": "a12137657156",
      "nom": "Gestation",
      "categorie": "artwork",
      "description": "",
      "prix": "",
      "duree": "",
      "mapsUrl": "https://maps.google.com/?q=-27.4708676,153.0237356",
      "lat": -27.4708676,
      "lng": 153.0237356,
      "source": "osm"
    },
    {
      "id": "a2512519061",
      "nom": "Museum of Brisbane",
      "categorie": "museum",
      "description": "",
      "prix": "",
      "duree": "",
      "mapsUrl": "https://maps.google.com/?q=-27.4687147,153.0234187",
      "lat": -27.4687147,
      "lng": 153.0234187,
      "source": "osm"
    },
    {
      "id": "a5293447936",
      "nom": "King George V Memorial (1938)",
      "categorie": "artwork",
      "description": "",
      "prix": "",
      "duree": "",
      "mapsUrl": "https://maps.google.com/?q=-27.4684406,153.0236788",
      "lat": -27.4684406,
      "lng": 153.0236788,
      "source": "osm"
    },
    {
      "id": "a6700104194",
      "nom": "City Roos",
      "categorie": "artwork",
      "description": "",
      "prix": "",
      "duree": "",
      "mapsUrl": "https://maps.google.com/?q=-27.4704902,153.0231377",
      "lat": -27.4704902,
      "lng": 153.0231377,
      "source": "osm"
    },
    {
      "id": "a5293447935",
      "nom": "Petrie Tableau (1988)",
      "categorie": "artwork",
      "description": "",
      "prix": "",
      "duree": "",
      "mapsUrl": "https://maps.google.com/?q=-27.4682813,153.0238192",
      "lat": -27.4682813,
      "lng": 153.0238192,
      "source": "osm"
    },
    {
      "id": "a3264698965",
      "nom": "MacArthur Museum",
      "categorie": "museum",
      "description": "",
      "prix": "",
      "duree": "",
      "mapsUrl": "https://maps.google.com/?q=-27.4685608,153.0273974",
      "lat": -27.4685608,
      "lng": 153.0273974,
      "source": "osm"
    },
    {
      "id": "a5636344139",
      "nom": "Cannon",
      "categorie": "monument",
      "description": "",
      "prix": "",
      "duree": "",
      "mapsUrl": "https://maps.google.com/?q=-27.4723462,153.0246091",
      "lat": -27.4723462,
      "lng": 153.0246091,
      "source": "osm"
    },
    {
      "id": "a483669175",
      "nom": "Thomas Joseph Ryan",
      "categorie": "monument",
      "description": "",
      "prix": "",
      "duree": "",
      "mapsUrl": "https://maps.google.com/?q=-27.4722979,153.0238667",
      "lat": -27.4722979,
      "lng": 153.0238667,
      "source": "osm"
    },
    {
      "id": "a483669180",
      "nom": "Queen Victoria",
      "categorie": "monument",
      "description": "",
      "prix": "",
      "duree": "",
      "mapsUrl": "https://maps.google.com/?q=-27.4724709,153.0244075",
      "lat": -27.4724709,
      "lng": 153.0244075,
      "source": "osm"
    },
    {
      "id": "a12146361712",
      "nom": "Dialogue",
      "categorie": "artwork",
      "description": "",
      "prix": "",
      "duree": "",
      "mapsUrl": "https://maps.google.com/?q=-27.4679951,153.0275645",
      "lat": -27.4679951,
      "lng": 153.0275645,
      "source": "osm"
    },
    {
      "id": "a108180190",
      "nom": "Queensland Holocaust Museum",
      "categorie": "museum",
      "description": "",
      "prix": "",
      "duree": "",
      "mapsUrl": "https://maps.google.com/?q=-27.4694056,153.0287157",
      "lat": -27.4694056,
      "lng": 153.0287157,
      "source": "osm"
    },
    {
      "id": "a11651091921",
      "nom": "Sir William Glasgow Memorial",
      "categorie": "artwork",
      "description": "",
      "prix": "",
      "duree": "",
      "mapsUrl": "https://maps.google.com/?q=-27.4670782,153.027185",
      "lat": -27.4670782,
      "lng": 153.027185,
      "source": "osm"
    },
    {
      "id": "a4201468289",
      "nom": "South West Pacific Memorial",
      "categorie": "memorial",
      "description": "",
      "prix": "",
      "duree": "",
      "mapsUrl": "https://maps.google.com/?q=-27.4667228,153.0265753",
      "lat": -27.4667228,
      "lng": 153.0265753,
      "source": "osm"
    },
    {
      "id": "a4201467258",
      "nom": "Vietnam Memorial",
      "categorie": "memorial",
      "description": "",
      "prix": "",
      "duree": "",
      "mapsUrl": "https://maps.google.com/?q=-27.466638,153.0265322",
      "lat": -27.466638,
      "lng": 153.0265322,
      "source": "osm"
    },
    {
      "id": "a4201467287",
      "nom": "South African War Memorial Sculpture",
      "categorie": "memorial",
      "description": "",
      "prix": "",
      "duree": "",
      "mapsUrl": "https://maps.google.com/?q=-27.4667594,153.0268749",
      "lat": -27.4667594,
      "lng": 153.0268749,
      "source": "osm"
    },
    {
      "id": "a1546691277",
      "nom": "Mani Tribe's Gallery",
      "categorie": "gallery",
      "description": "",
      "prix": "",
      "duree": "",
      "mapsUrl": "https://maps.google.com/?q=-27.4689218,153.0212822",
      "lat": -27.4689218,
      "lng": 153.0212822,
      "source": "osm"
    },
    {
      "id": "a23579447",
      "nom": "Commissariat Store",
      "categorie": "museum",
      "description": "",
      "prix": "",
      "duree": "",
      "mapsUrl": "https://maps.google.com/?q=-27.4732537,153.0242409",
      "lat": -27.4732537,
      "lng": 153.0242409,
      "source": "osm"
    },
    {
      "id": "a4201467263",
      "nom": "World War II Memorial Sculpture",
      "categorie": "memorial",
      "description": "",
      "prix": "",
      "duree": "",
      "mapsUrl": "https://maps.google.com/?q=-27.4664841,153.0268776",
      "lat": -27.4664841,
      "lng": 153.0268776,
      "source": "osm"
    },
    {
      "id": "a1548316448",
      "nom": "Shrine of Remembrance",
      "categorie": "memorial",
      "description": "",
      "prix": "",
      "duree": "",
      "mapsUrl": "https://maps.google.com/?q=-27.4663338,153.0264735",
      "lat": -27.4663338,
      "lng": 153.0264735,
      "source": "osm"
    },
    {
      "id": "a4201467217",
      "nom": "Korea Malaya Borneo Memorial Sculpture",
      "categorie": "memorial",
      "description": "",
      "prix": "",
      "duree": "",
      "mapsUrl": "https://maps.google.com/?q=-27.466439,153.0267943",
      "lat": -27.466439,
      "lng": 153.0267943,
      "source": "osm"
    },
    {
      "id": "a11643860448",
      "nom": "The Aboriginal and Torres Strait Islander Dedicated Memorial Queensland",
      "categorie": "memorial",
      "description": "",
      "prix": "",
      "duree": "",
      "mapsUrl": "https://maps.google.com/?q=-27.4662453,153.0266899",
      "lat": -27.4662453,
      "lng": 153.0266899,
      "source": "osm"
    },
    {
      "id": "a11749405719",
      "nom": "River of Stone",
      "categorie": "artwork",
      "description": "",
      "prix": "",
      "duree": "",
      "mapsUrl": "https://maps.google.com/?q=-27.4688902,153.0294035",
      "lat": -27.4688902,
      "lng": 153.0294035,
      "source": "osm"
    },
    {
      "id": "a8481456849",
      "nom": "Museum of Lands, Mapping and Surveying",
      "categorie": "museum",
      "description": "",
      "prix": "",
      "duree": "",
      "mapsUrl": "https://maps.google.com/?q=-27.4654316,153.0250599",
      "lat": -27.4654316,
      "lng": 153.0250599,
      "source": "osm"
    },
    {
      "id": "a1384456307",
      "nom": "The Old Windmill",
      "categorie": "monument",
      "description": "",
      "prix": "",
      "duree": "",
      "mapsUrl": "https://maps.google.com/?q=-27.4657483,153.0230679",
      "lat": -27.4657483,
      "lng": 153.0230679,
      "source": "osm"
    },
    {
      "id": "a10767390705",
      "nom": "Victoria Bridge",
      "categorie": "attraction",
      "description": "",
      "prix": "",
      "duree": "",
      "mapsUrl": "https://maps.google.com/?q=-27.4727566,153.0205759",
      "lat": -27.4727566,
      "lng": 153.0205759,
      "source": "osm"
    },
    {
      "id": "a12818171088",
      "nom": "Morning Star II",
      "categorie": "artwork",
      "description": "",
      "prix": "",
      "duree": "",
      "mapsUrl": "https://maps.google.com/?q=-27.4744208,153.0280831",
      "lat": -27.4744208,
      "lng": 153.0280831,
      "source": "osm"
    },
    {
      "id": "a415720606",
      "nom": "Victoria Bridge Abutment",
      "categorie": "attraction",
      "description": "",
      "prix": "",
      "duree": "",
      "mapsUrl": "https://maps.google.com/?q=-27.4732936,153.0199321",
      "lat": -27.4732936,
      "lng": 153.0199321,
      "source": "osm"
    },
    {
      "id": "a5753414149",
      "nom": "Approaching Equilibrium",
      "categorie": "artwork",
      "description": "",
      "prix": "",
      "duree": "",
      "mapsUrl": "https://maps.google.com/?q=-27.4718717,153.0189659",
      "lat": -27.4718717,
      "lng": 153.0189659,
      "source": "osm"
    },
    {
      "id": "a12650746131",
      "nom": "Looking Up",
      "categorie": "artwork",
      "description": "",
      "prix": "",
      "duree": "",
      "mapsUrl": "https://maps.google.com/?q=-27.4756409,153.0248277",
      "lat": -27.4756409,
      "lng": 153.0248277,
      "source": "osm"
    },
    {
      "id": "a1456813071",
      "nom": "Brisbane Sign",
      "categorie": "attraction",
      "description": "",
      "prix": "",
      "duree": "",
      "mapsUrl": "https://maps.google.com/?q=-27.4738881,153.0203174",
      "lat": -27.4738881,
      "lng": 153.0203174,
      "source": "osm"
    },
    {
      "id": "a382977047",
      "nom": "James Mooney Memorial",
      "categorie": "memorial",
      "description": "",
      "prix": "",
      "duree": "",
      "mapsUrl": "https://maps.google.com/?q=-27.4659647,153.0301939",
      "lat": -27.4659647,
      "lng": 153.0301939,
      "source": "osm"
    },
    {
      "id": "a13288247668",
      "nom": "Queenland Police Memorial",
      "categorie": "artwork",
      "description": "",
      "prix": "",
      "duree": "",
      "mapsUrl": "https://maps.google.com/?q=-27.4749752,153.0283926",
      "lat": -27.4749752,
      "lng": 153.0283926,
      "source": "osm"
    },
    {
      "id": "a5753434366",
      "nom": "Offshoot",
      "categorie": "artwork",
      "description": "",
      "prix": "",
      "duree": "",
      "mapsUrl": "https://maps.google.com/?q=-27.4730676,153.0193813",
      "lat": -27.4730676,
      "lng": 153.0193813,
      "source": "osm"
    },
    {
      "id": "a9697187851",
      "nom": "Queensland first artillery 24-pound Carron cannons",
      "categorie": "monument",
      "description": "",
      "prix": "",
      "duree": "",
      "mapsUrl": "https://maps.google.com/?q=-27.4731108,153.0309405",
      "lat": -27.4731108,
      "lng": 153.0309405,
      "source": "osm"
    },
    {
      "id": "a3969864721",
      "nom": "Building Blocks of Life",
      "categorie": "artwork",
      "description": "",
      "prix": "",
      "duree": "",
      "mapsUrl": "https://maps.google.com/?q=-27.4746797,153.0295911",
      "lat": -27.4746797,
      "lng": 153.0295911,
      "source": "osm"
    },
    {
      "id": "a4753134083",
      "nom": "Formal Flower Garden",
      "categorie": "viewpoint",
      "description": "",
      "prix": "",
      "duree": "",
      "mapsUrl": "https://maps.google.com/?q=-27.4744837,153.029974",
      "lat": -27.4744837,
      "lng": 153.029974,
      "source": "osm"
    },
    {
      "id": "a12650746129",
      "nom": "Mangrove Poem",
      "categorie": "artwork",
      "description": "",
      "prix": "",
      "duree": "",
      "mapsUrl": "https://maps.google.com/?q=-27.4761936,153.0252889",
      "lat": -27.4761936,
      "lng": 153.0252889,
      "source": "osm"
    },
    {
      "id": "a5164354711",
      "nom": "Sisters",
      "categorie": "artwork",
      "description": "",
      "prix": "",
      "duree": "",
      "mapsUrl": "https://maps.google.com/?q=-27.4732227,153.0189983",
      "lat": -27.4732227,
      "lng": 153.0189983,
      "source": "osm"
    },
    {
      "id": "a3013751688",
      "nom": "The World Turns",
      "categorie": "artwork",
      "description": "",
      "prix": "",
      "duree": "",
      "mapsUrl": "https://maps.google.com/?q=-27.4703892,153.0178783",
      "lat": -27.4703892,
      "lng": 153.0178783,
      "source": "osm"
    },
    {
      "id": "a5164351825",
      "nom": "Leviathan Play",
      "categorie": "artwork",
      "description": "",
      "prix": "",
      "duree": "",
      "mapsUrl": "https://maps.google.com/?q=-27.4733582,153.0187894",
      "lat": -27.4733582,
      "lng": 153.0187894,
      "source": "osm"
    },
    {
      "id": "a2512789117",
      "nom": "The Wheel of Brisbane",
      "categorie": "attraction",
      "description": "",
      "prix": "",
      "duree": "",
      "mapsUrl": "https://maps.google.com/?q=-27.4753229,153.0208953",
      "lat": -27.4753229,
      "lng": 153.0208953,
      "source": "osm"
    },
    {
      "id": "a5753392855",
      "nom": "Paradigm Maquette",
      "categorie": "artwork",
      "description": "",
      "prix": "",
      "duree": "",
      "mapsUrl": "https://maps.google.com/?q=-27.4716001,153.0178399",
      "lat": -27.4716001,
      "lng": 153.0178399,
      "source": "osm"
    },
    {
      "id": "a11749361569",
      "nom": "Australia-Japan Friendship Stone",
      "categorie": "memorial",
      "description": "",
      "prix": "",
      "duree": "",
      "mapsUrl": "https://maps.google.com/?q=-27.4758701,153.0219092",
      "lat": -27.4758701,
      "lng": 153.0219092,
      "source": "osm"
    },
    {
      "id": "a537114538",
      "nom": "Whale Mall",
      "categorie": "attraction",
      "description": "",
      "prix": "",
      "duree": "",
      "mapsUrl": "https://maps.google.com/?q=-27.4728379,153.0182552",
      "lat": -27.4728379,
      "lng": 153.0182552,
      "source": "osm"
    },
    {
      "id": "a482272245",
      "nom": "Roma Street Heritage Station Building",
      "categorie": "attraction",
      "description": "",
      "prix": "",
      "duree": "",
      "mapsUrl": "https://maps.google.com/?q=-27.4655805,153.0190579",
      "lat": -27.4655805,
      "lng": 153.0190579,
      "source": "osm"
    },
    {
      "id": "a5201866224",
      "nom": "Sciencentre",
      "categorie": "museum",
      "description": "",
      "prix": "",
      "duree": "",
      "mapsUrl": "https://maps.google.com/?q=-27.473298,153.0184223",
      "lat": -27.473298,
      "lng": 153.0184223,
      "source": "osm"
    },
    {
      "id": "a6288301920",
      "nom": "Pogo Tri-Lure Confluence",
      "categorie": "attraction",
      "description": "",
      "prix": "",
      "duree": "",
      "mapsUrl": "https://maps.google.com/?q=-27.476172,153.0221351",
      "lat": -27.476172,
      "lng": 153.0221351,
      "source": "osm"
    },
    {
      "id": "a10089579055",
      "nom": "John Oxley Memorial Stone, Unknown Pioneers Monument & Riverside Expressway Opening Plaque",
      "categorie": "memorial",
      "description": "",
      "prix": "",
      "duree": "",
      "mapsUrl": "https://maps.google.com/?q=-27.4676673,153.0176412",
      "lat": -27.4676673,
      "lng": 153.0176412,
      "source": "osm"
    },
    {
      "id": "a5753363045",
      "nom": "tow row",
      "categorie": "artwork",
      "description": "",
      "prix": "",
      "duree": "",
      "mapsUrl": "https://maps.google.com/?q=-27.4709504,153.0172591",
      "lat": -27.4709504,
      "lng": 153.0172591,
      "source": "osm"
    },
    {
      "id": "a24228971",
      "nom": "Gallery of Modern Art",
      "categorie": "gallery",
      "description": "",
      "prix": "",
      "duree": "",
      "mapsUrl": "https://maps.google.com/?q=-27.4705444,153.01711",
      "lat": -27.4705444,
      "lng": 153.01711,
      "source": "osm"
    },
    {
      "id": "a4282955",
      "nom": "Brisbane City Botanic Gardens",
      "categorie": "attraction",
      "description": "",
      "prix": "",
      "duree": "",
      "mapsUrl": "https://maps.google.com/?q=-27.475938,153.0296383",
      "lat": -27.475938,
      "lng": 153.0296383,
      "source": "osm"
    },
    {
      "id": "a7918777538",
      "nom": "We are shipwrecked and landlocked",
      "categorie": "artwork",
      "description": "",
      "prix": "",
      "duree": "",
      "mapsUrl": "https://maps.google.com/?q=-27.4701619,153.0167438",
      "lat": -27.4701619,
      "lng": 153.0167438,
      "source": "osm"
    },
    {
      "id": "a13159395029",
      "nom": "The Design Bank",
      "categorie": "gallery",
      "description": "",
      "prix": "",
      "duree": "",
      "mapsUrl": "https://maps.google.com/?q=-27.4737276,153.0179727",
      "lat": -27.4737276,
      "lng": 153.0179727,
      "source": "osm"
    },
    {
      "id": "a11012169372",
      "nom": "Mahatma Gandhi",
      "categorie": "memorial",
      "description": "",
      "prix": "",
      "duree": "",
      "mapsUrl": "https://maps.google.com/?q=-27.4634536,153.0205584",
      "lat": -27.4634536,
      "lng": 153.0205584,
      "source": "osm"
    },
    {
      "id": "a6071971170",
      "nom": "QUT Art Museum",
      "categorie": "gallery",
      "description": "",
      "prix": "",
      "duree": "",
      "mapsUrl": "https://maps.google.com/?q=-27.4765707,153.0288645",
      "lat": -27.4765707,
      "lng": 153.0288645,
      "source": "osm"
    },
    {
      "id": "a313865905",
      "nom": "Camelia Lawn",
      "categorie": "garden",
      "description": "",
      "prix": "",
      "duree": "",
      "mapsUrl": "https://maps.google.com/?q=-27.4754994,153.0308826",
      "lat": -27.4754994,
      "lng": 153.0308826,
      "source": "osm"
    },
    {
      "id": "a311685500",
      "nom": "Walter Hill Fountain",
      "categorie": "memorial",
      "description": "",
      "prix": "",
      "duree": "",
      "mapsUrl": "https://maps.google.com/?q=-27.4758874,153.0304569",
      "lat": -27.4758874,
      "lng": 153.0304569,
      "source": "osm"
    },
    {
      "id": "a8282446076",
      "nom": "Fish Lane Timeline",
      "categorie": "artwork",
      "description": "",
      "prix": "",
      "duree": "",
      "mapsUrl": "https://maps.google.com/?q=-27.4741197,153.0177786",
      "lat": -27.4741197,
      "lng": 153.0177786,
      "source": "osm"
    },
    {
      "id": "a5003015869",
      "nom": "Queensland Greats",
      "categorie": "monument",
      "description": "",
      "prix": "",
      "duree": "",
      "mapsUrl": "https://maps.google.com/?q=-27.4638495,153.0193001",
      "lat": -27.4638495,
      "lng": 153.0193001,
      "source": "osm"
    },
    {
      "id": "a11754206569",
      "nom": "Story Bridge view",
      "categorie": "viewpoint",
      "description": "",
      "prix": "",
      "duree": "",
      "mapsUrl": "https://maps.google.com/?q=-27.4644852,153.0318489",
      "lat": -27.4644852,
      "lng": 153.0318489,
      "source": "osm"
    },
    {
      "id": "a12709047921",
      "nom": "Boat Pool",
      "categorie": "attraction",
      "description": "",
      "prix": "",
      "duree": "",
      "mapsUrl": "https://maps.google.com/?q=-27.4777073,153.0228562",
      "lat": -27.4777073,
      "lng": 153.0228562,
      "source": "osm"
    },
    {
      "id": "a12139421580",
      "nom": "Sundial - Hibiscus Garden",
      "categorie": "artwork",
      "description": "",
      "prix": "",
      "duree": "",
      "mapsUrl": "https://maps.google.com/?q=-27.4762254,153.0308445",
      "lat": -27.4762254,
      "lng": 153.0308445,
      "source": "osm"
    },
    {
      "id": "a13159379391",
      "nom": "The Big Jets of Steam",
      "categorie": "artwork",
      "description": "",
      "prix": "",
      "duree": "",
      "mapsUrl": "https://maps.google.com/?q=-27.4740347,153.0171693",
      "lat": -27.4740347,
      "lng": 153.0171693,
      "source": "osm"
    },
    {
      "id": "a6053957785",
      "nom": "Decorative Tree Guard",
      "categorie": "artwork",
      "description": "",
      "prix": "",
      "duree": "",
      "mapsUrl": "https://maps.google.com/?q=-27.4721011,153.0341911",
      "lat": -27.4721011,
      "lng": 153.0341911,
      "source": "osm"
    },
    {
      "id": "a1311267983",
      "nom": "Head in the Clouds",
      "categorie": "artwork",
      "description": "",
      "prix": "",
      "duree": "",
      "mapsUrl": "https://maps.google.com/?q=-27.4738949,153.0168128",
      "lat": -27.4738949,
      "lng": 153.0168128,
      "source": "osm"
    },
    {
      "id": "a5765252516",
      "nom": "Crossover Guardians",
      "categorie": "artwork",
      "description": "",
      "prix": "",
      "duree": "",
      "mapsUrl": "https://maps.google.com/?q=-27.4712236,153.0344957",
      "lat": -27.4712236,
      "lng": 153.0344957,
      "source": "osm"
    },
    {
      "id": "a5765252517",
      "nom": "Flickering Wind Generator",
      "categorie": "artwork",
      "description": "",
      "prix": "",
      "duree": "",
      "mapsUrl": "https://maps.google.com/?q=-27.4729627,153.0339469",
      "lat": -27.4729627,
      "lng": 153.0339469,
      "source": "osm"
    },
    {
      "id": "a6327912091",
      "nom": "Streets Beach",
      "categorie": "attraction",
      "description": "",
      "prix": "",
      "duree": "",
      "mapsUrl": "https://maps.google.com/?q=-27.4782601,153.0235995",
      "lat": -27.4782601,
      "lng": 153.0235995,
      "source": "osm"
    },
    {
      "id": "a5149237606",
      "nom": "Cork & Chroma Brisbane",
      "categorie": "gallery",
      "description": "",
      "prix": "",
      "duree": "",
      "mapsUrl": "https://maps.google.com/?q=-27.4709952,153.0155302",
      "lat": -27.4709952,
      "lng": 153.0155302,
      "source": "osm"
    },
    {
      "id": "a9160285341",
      "nom": "Jemmy Morrill & the Brolgas",
      "categorie": "artwork",
      "description": "",
      "prix": "",
      "duree": "",
      "mapsUrl": "https://maps.google.com/?q=-27.4765943,153.031123",
      "lat": -27.4765943,
      "lng": 153.031123,
      "source": "osm"
    },
    {
      "id": "a8195606677",
      "nom": "Cascading Streamers",
      "categorie": "artwork",
      "description": "",
      "prix": "",
      "duree": "",
      "mapsUrl": "https://maps.google.com/?q=-27.4629305,153.0185543",
      "lat": -27.4629305,
      "lng": 153.0185543,
      "source": "osm"
    },
    {
      "id": "a12146260662",
      "nom": "Spinning Top",
      "categorie": "artwork",
      "description": "",
      "prix": "",
      "duree": "",
      "mapsUrl": "https://maps.google.com/?q=-27.4616843,153.0310126",
      "lat": -27.4616843,
      "lng": 153.0310126,
      "source": "osm"
    },
    {
      "id": "a7051114841",
      "nom": "Reverie 1",
      "categorie": "artwork",
      "description": "",
      "prix": "",
      "duree": "",
      "mapsUrl": "https://maps.google.com/?q=-27.4787729,153.0291558",
      "lat": -27.4787729,
      "lng": 153.0291558,
      "source": "osm"
    },
    {
      "id": "a5765274596",
      "nom": "Fish Fossil",
      "categorie": "artwork",
      "description": "",
      "prix": "",
      "duree": "",
      "mapsUrl": "https://maps.google.com/?q=-27.4751753,153.0344771",
      "lat": -27.4751753,
      "lng": 153.0344771,
      "source": "osm"
    },
    {
      "id": "a10023038905",
      "nom": "The Rock (1988)",
      "categorie": "artwork",
      "description": "",
      "prix": "",
      "duree": "",
      "mapsUrl": "https://maps.google.com/?q=-27.4651661,153.0350251",
      "lat": -27.4651661,
      "lng": 153.0350251,
      "source": "osm"
    },
    {
      "id": "a6942289322",
      "nom": "The Parkland",
      "categorie": "artwork",
      "description": "",
      "prix": "",
      "duree": "",
      "mapsUrl": "https://maps.google.com/?q=-27.4621982,153.0178246",
      "lat": -27.4621982,
      "lng": 153.0178246,
      "source": "osm"
    },
    {
      "id": "a334511136",
      "nom": "The Lookout",
      "categorie": "viewpoint",
      "description": "",
      "prix": "",
      "duree": "",
      "mapsUrl": "https://maps.google.com/?q=-27.4621837,153.0177951",
      "lat": -27.4621837,
      "lng": 153.0177951,
      "source": "osm"
    },
    {
      "id": "a5862549025",
      "nom": "Jem",
      "categorie": "artwork",
      "description": "",
      "prix": "",
      "duree": "",
      "mapsUrl": "https://maps.google.com/?q=-27.4797466,153.0237048",
      "lat": -27.4797466,
      "lng": 153.0237048,
      "source": "osm"
    },
    {
      "id": "a4240687590",
      "nom": "Rock",
      "categorie": "artwork",
      "description": "",
      "prix": "",
      "duree": "",
      "mapsUrl": "https://maps.google.com/?q=-27.461524,153.0186533",
      "lat": -27.461524,
      "lng": 153.0186533,
      "source": "osm"
    },
    {
      "id": "a11767233211",
      "nom": "Netherlands & Netherlands East Indies Memorial",
      "categorie": "memorial",
      "description": "",
      "prix": "",
      "duree": "",
      "mapsUrl": "https://maps.google.com/?q=-27.4615098,153.0184604",
      "lat": -27.4615098,
      "lng": 153.0184604,
      "source": "osm"
    },
    {
      "id": "a11952740855",
      "nom": "The Red Man",
      "categorie": "artwork",
      "description": "",
      "prix": "",
      "duree": "",
      "mapsUrl": "https://maps.google.com/?q=-27.4756308,153.0345306",
      "lat": -27.4756308,
      "lng": 153.0345306,
      "source": "osm"
    },
    {
      "id": "a7917321047",
      "nom": "Cell",
      "categorie": "artwork",
      "description": "",
      "prix": "",
      "duree": "",
      "mapsUrl": "https://maps.google.com/?q=-27.4703077,153.0136135",
      "lat": -27.4703077,
      "lng": 153.0136135,
      "source": "osm"
    },
    {
      "id": "a4240687591",
      "nom": "Australian Vietnamese War Memorial",
      "categorie": "memorial",
      "description": "",
      "prix": "",
      "duree": "",
      "mapsUrl": "https://maps.google.com/?q=-27.4613899,153.0184588",
      "lat": -27.4613899,
      "lng": 153.0184588,
      "source": "osm"
    },
    {
      "id": "a4240687690",
      "nom": "Gallipoli Memorial WW1",
      "categorie": "memorial",
      "description": "",
      "prix": "",
      "duree": "",
      "mapsUrl": "https://maps.google.com/?q=-27.4614763,153.018297",
      "lat": -27.4614763,
      "lng": 153.018297,
      "source": "osm"
    },
    {
      "id": "a4240667692",
      "nom": "Tobruk Memorial WW2",
      "categorie": "memorial",
      "description": "",
      "prix": "",
      "duree": "",
      "mapsUrl": "https://maps.google.com/?q=-27.4613292,153.0183813",
      "lat": -27.4613292,
      "lng": 153.0183813,
      "source": "osm"
    },
    {
      "id": "a5234321676",
      "nom": "Confucius",
      "categorie": "artwork",
      "description": "",
      "prix": "",
      "duree": "",
      "mapsUrl": "https://maps.google.com/?q=-27.4801415,153.0243832",
      "lat": -27.4801415,
      "lng": 153.0243832,
      "source": "osm"
    },
    {
      "id": "a6942289341",
      "nom": "2004 Tsunami Memorial",
      "categorie": "memorial",
      "description": "",
      "prix": "",
      "duree": "",
      "mapsUrl": "https://maps.google.com/?q=-27.4623266,153.0170008",
      "lat": -27.4623266,
      "lng": 153.0170008,
      "source": "osm"
    },
    {
      "id": "a11767233212",
      "nom": "Pakistan Australia War Memorial",
      "categorie": "memorial",
      "description": "",
      "prix": "",
      "duree": "",
      "mapsUrl": "https://maps.google.com/?q=-27.4612361,153.0184578",
      "lat": -27.4612361,
      "lng": 153.0184578,
      "source": "osm"
    },
    {
      "id": "a415515005",
      "nom": "Robert Burns Memorial",
      "categorie": "artwork",
      "description": "",
      "prix": "",
      "duree": "",
      "mapsUrl": "https://maps.google.com/?q=-27.4612333,153.0317717",
      "lat": -27.4612333,
      "lng": 153.0317717,
      "source": "osm"
    },
    {
      "id": "a6942289325",
      "nom": "Millennium Fossil - Bug",
      "categorie": "artwork",
      "description": "",
      "prix": "",
      "duree": "",
      "mapsUrl": "https://maps.google.com/?q=-27.4622786,153.0169683",
      "lat": -27.4622786,
      "lng": 153.0169683,
      "source": "osm"
    },
    {
      "id": "a6942289339",
      "nom": "Techno Fossils",
      "categorie": "artwork",
      "description": "",
      "prix": "",
      "duree": "",
      "mapsUrl": "https://maps.google.com/?q=-27.4622701,153.0168643",
      "lat": -27.4622701,
      "lng": 153.0168643,
      "source": "osm"
    },
    {
      "id": "a4240667691",
      "nom": "Sleeper",
      "categorie": "artwork",
      "description": "",
      "prix": "",
      "duree": "",
      "mapsUrl": "https://maps.google.com/?q=-27.4622114,153.0168823",
      "lat": -27.4622114,
      "lng": 153.0168823,
      "source": "osm"
    },
    {
      "id": "a10763112006",
      "nom": "Live music on sundays",
      "categorie": "attraction",
      "description": "",
      "prix": "",
      "duree": "",
      "mapsUrl": "https://maps.google.com/?q=-27.4803342,153.0248218",
      "lat": -27.4803342,
      "lng": 153.0248218,
      "source": "osm"
    },
    {
      "id": "a6942289330",
      "nom": "Freshwater - Saltwater Story",
      "categorie": "artwork",
      "description": "",
      "prix": "",
      "duree": "",
      "mapsUrl": "https://maps.google.com/?q=-27.4619042,153.0169799",
      "lat": -27.4619042,
      "lng": 153.0169799,
      "source": "osm"
    },
    {
      "id": "a5234321675",
      "nom": "Mates",
      "categorie": "artwork",
      "description": "",
      "prix": "",
      "duree": "",
      "mapsUrl": "https://maps.google.com/?q=-27.4805047,153.02432",
      "lat": -27.4805047,
      "lng": 153.02432,
      "source": "osm"
    }
  ],
  "scoreIndicatif": true,
  "osmEnriched": true,
  "osmEnrichedAt": "2026-06-30",
  "description_en": "Brisbane may not be a Muslim-majority destination, but it welcomes Muslim travelers with real halal options. You'll find 46 halal restaurants and 5 mosques nearby, plus real-time prayer times and the Qibla direction — everything to explore Brisbane, Australia, with peace of mind.",
  "metaDescription_en": "Halal guide to Brisbane: 46+ halal restaurants, 5 mosques, prayer times and tips for Muslim travelers. Halal Trust Score 3.5/5.",
  "nom_en": "Brisbane",
  "boucheries": []
}