{
 "slug": "budapest",
 "nom": "Budapest",
 "pays": "Hongrie",
 "pays_slug": "hongrie",
 "continent": "Europe",
 "region": "Hongrie",
 "coordonnees": {
  "lat": 47.4979,
  "lng": 19.0402
 },
 "codeISO": "HU",
 "score_halal": 3,
 "halalScore": 6,
 "villeNonMusulmane": true,
 "description": "Perle du Danube et de ses thermes. Quelques restaurants halal et lieux de prière dans le centre.",
 "metaDescription": "Perle du Danube et de ses thermes. Quelques restaurants halal et lieux de prière dans le centre.",
 "image": "https://upload.wikimedia.org/wikipedia/commons/thumb/d/d8/Budapest_from_Gellert_Hill_MC.jpg/1920px-Budapest_from_Gellert_Hill_MC.jpg",
 "image_hero": "https://upload.wikimedia.org/wikipedia/commons/thumb/d/d8/Budapest_from_Gellert_Hill_MC.jpg/1920px-Budapest_from_Gellert_Hill_MC.jpg",
 "imageCredit": "Wikimedia Commons",
 "statistiques": {
  "restaurants_halal": 40,
  "mosquees": 19,
  "hotels": 0
 },
 "infoPratique": {
  "transport": "Accessible par avion et transports en commun locaux.",
  "meilleureEpoque": "Printemps et automne (climat tempéré).",
  "conseilHalal": "Ville non-musulmane : repérez les restaurants halal certifiés et les mosquées via l'application avant votre visite."
 },
 "tags": [
  "halal",
  "ville non-musulmane",
  "europe"
 ],
 "restaurants": [
  {
   "nom": "Leila's",
   "type": "lebanese, arab",
   "priceRange": "€€",
   "mapsUrl": "https://maps.google.com/?q=47.4911017,19.0545574",
   "lat": 47.4911017,
   "lng": 19.0545574,
   "halalConfidence": "yes",
   "source": "osm"
  },
  {
   "nom": "Best Burger",
   "type": "Restaurant halal",
   "priceRange": "€€",
   "mapsUrl": "https://maps.google.com/?q=47.5062317,19.0560723",
   "lat": 47.5062317,
   "lng": 19.0560723,
   "halalConfidence": "yes",
   "source": "osm"
  },
  {
   "nom": "Két Tigris Török Étterem",
   "type": "turkish",
   "priceRange": "€€",
   "mapsUrl": "https://maps.google.com/?q=47.4956467,19.0727026",
   "lat": 47.4956467,
   "lng": 19.0727026,
   "halalConfidence": "yes",
   "source": "osm"
  },
  {
   "nom": "Darbar Friends",
   "type": "indian, pakistani",
   "priceRange": "€€",
   "mapsUrl": "https://maps.google.com/?q=47.4748192,19.0420423",
   "lat": 47.4748192,
   "lng": 19.0420423,
   "halalConfidence": "yes",
   "source": "osm"
  },
  {
   "nom": "NOOR",
   "type": "lebanese",
   "priceRange": "€€",
   "mapsUrl": "https://maps.google.com/?q=47.4971166,19.0345258",
   "lat": 47.4971166,
   "lng": 19.0345258,
   "halalConfidence": "likely",
   "source": "osm"
  },
  {
   "nom": "Arz Lebanese Restaurant",
   "type": "arab",
   "priceRange": "€€",
   "mapsUrl": "https://maps.google.com/?q=47.4968486,19.0479013",
   "lat": 47.4968486,
   "lng": 19.0479013,
   "halalConfidence": "likely",
   "source": "osm"
  },
  {
   "nom": "Istanbul Kebab",
   "type": "turkish",
   "priceRange": "€€",
   "mapsUrl": "https://maps.google.com/?q=47.5019568,19.0505806",
   "lat": 47.5019568,
   "lng": 19.0505806,
   "halalConfidence": "likely",
   "source": "osm"
  },
  {
   "nom": "Rose Meze & Coctail Bar",
   "type": "brunch, turkish",
   "priceRange": "€€",
   "mapsUrl": "https://maps.google.com/?q=47.505135,19.0479969",
   "lat": 47.505135,
   "lng": 19.0479969,
   "halalConfidence": "likely",
   "source": "osm"
  },
  {
   "nom": "Türkiz Étterem",
   "type": "turkish",
   "priceRange": "€€",
   "mapsUrl": "https://maps.google.com/?q=47.5052059,19.0479782",
   "lat": 47.5052059,
   "lng": 19.0479782,
   "halalConfidence": "likely",
   "source": "osm"
  },
  {
   "nom": "Gülbaba Török Büfe",
   "type": "turkish",
   "priceRange": "€€",
   "mapsUrl": "https://maps.google.com/?q=47.5068198,19.037967",
   "lat": 47.5068198,
   "lng": 19.037967,
   "halalConfidence": "likely",
   "source": "osm"
  },
  {
   "nom": "Al-Amir",
   "type": "arab",
   "priceRange": "€€",
   "mapsUrl": "https://maps.google.com/?q=47.494819,19.0533088",
   "lat": 47.494819,
   "lng": 19.0533088,
   "halalConfidence": "likely",
   "source": "osm"
  },
  {
   "nom": "Mozata",
   "type": "lebanese, arab",
   "priceRange": "€€",
   "mapsUrl": "https://maps.google.com/?q=47.4939525,19.0536589",
   "lat": 47.4939525,
   "lng": 19.0536589,
   "halalConfidence": "likely",
   "source": "osm"
  },
  {
   "nom": "Chef Kebab",
   "type": "kebab",
   "priceRange": "€€",
   "mapsUrl": "https://maps.google.com/?q=47.4989221,19.0550691",
   "lat": 47.4989221,
   "lng": 19.0550691,
   "halalConfidence": "likely",
   "source": "osm"
  },
  {
   "nom": "Lansky Restaurant",
   "type": "arab",
   "priceRange": "€€",
   "mapsUrl": "https://maps.google.com/?q=47.5060699,19.0495131",
   "lat": 47.5060699,
   "lng": 19.0495131,
   "halalConfidence": "likely",
   "source": "osm"
  },
  {
   "nom": "Zakora Gyros",
   "type": "kebab",
   "priceRange": "€€",
   "mapsUrl": "https://maps.google.com/?q=47.4945861,19.0547726",
   "lat": 47.4945861,
   "lng": 19.0547726,
   "halalConfidence": "likely",
   "source": "osm"
  },
  {
   "nom": "Török Büfé",
   "type": "turkish",
   "priceRange": "€€",
   "mapsUrl": "https://maps.google.com/?q=47.5002289,19.0250361",
   "lat": 47.5002289,
   "lng": 19.0250361,
   "halalConfidence": "likely",
   "source": "osm"
  },
  {
   "nom": "MiR Étterem",
   "type": "kurdish, kebab",
   "priceRange": "€€",
   "mapsUrl": "https://maps.google.com/?q=47.4979032,19.0561254",
   "lat": 47.4979032,
   "lng": 19.0561254,
   "halalConfidence": "likely",
   "source": "osm"
  },
  {
   "nom": "Deák Kebab",
   "type": "turkish",
   "priceRange": "€€",
   "mapsUrl": "https://maps.google.com/?q=47.4973193,19.05631",
   "lat": 47.4973193,
   "lng": 19.05631,
   "halalConfidence": "likely",
   "source": "osm"
  },
  {
   "nom": "Dörner Kebab Expres",
   "type": "turkish",
   "priceRange": "€€",
   "mapsUrl": "https://maps.google.com/?q=47.5001214,19.0243578",
   "lat": 47.5001214,
   "lng": 19.0243578,
   "halalConfidence": "likely",
   "source": "osm"
  },
  {
   "nom": "Aberna Kebab",
   "type": "turkish, kebab",
   "priceRange": "€€",
   "mapsUrl": "https://maps.google.com/?q=47.4926834,19.0551835",
   "lat": 47.4926834,
   "lng": 19.0551835,
   "halalConfidence": "likely",
   "source": "osm"
  },
  {
   "nom": "Yayla Török Étterem",
   "type": "turkish, kebab, hungarian",
   "priceRange": "€€",
   "mapsUrl": "https://maps.google.com/?q=47.5035293,19.0551824",
   "lat": 47.5035293,
   "lng": 19.0551824,
   "halalConfidence": "likely",
   "source": "osm"
  },
  {
   "nom": "Majorelle",
   "type": "moroccan",
   "priceRange": "€€",
   "mapsUrl": "https://maps.google.com/?q=47.5062723,19.0523015",
   "lat": 47.5062723,
   "lng": 19.0523015,
   "halalConfidence": "likely",
   "source": "osm"
  },
  {
   "nom": "Károly Kebab",
   "type": "kebab, turkish",
   "priceRange": "€€",
   "mapsUrl": "https://maps.google.com/?q=47.4967276,19.0575676",
   "lat": 47.4967276,
   "lng": 19.0575676,
   "halalConfidence": "likely",
   "source": "osm"
  },
  {
   "nom": "Baalbek",
   "type": "lebanese, arab",
   "priceRange": "€€",
   "mapsUrl": "https://maps.google.com/?q=47.4898725,19.0529893",
   "lat": 47.4898725,
   "lng": 19.0529893,
   "halalConfidence": "likely",
   "source": "osm"
  },
  {
   "nom": "Petra Gyros",
   "type": "arab",
   "priceRange": "€€",
   "mapsUrl": "https://maps.google.com/?q=47.501356,19.02348",
   "lat": 47.501356,
   "lng": 19.02348,
   "halalConfidence": "likely",
   "source": "osm"
  },
  {
   "nom": "Urfa Kebab",
   "type": "kebab",
   "priceRange": "€€",
   "mapsUrl": "https://maps.google.com/?q=47.5020115,19.0233543",
   "lat": 47.5020115,
   "lng": 19.0233543,
   "halalConfidence": "likely",
   "source": "osm"
  },
  {
   "nom": "Black Hole",
   "type": "kebab",
   "priceRange": "€€",
   "mapsUrl": "https://maps.google.com/?q=47.4908029,19.0548105",
   "lat": 47.4908029,
   "lng": 19.0548105,
   "halalConfidence": "likely",
   "source": "osm"
  },
  {
   "nom": "Greenland",
   "type": "arab, hungarian",
   "priceRange": "€€",
   "mapsUrl": "https://maps.google.com/?q=47.4976142,19.0584173",
   "lat": 47.4976142,
   "lng": 19.0584173,
   "halalConfidence": "likely",
   "source": "osm"
  },
  {
   "nom": "Jouri",
   "type": "lebanese",
   "priceRange": "€€",
   "mapsUrl": "https://maps.google.com/?q=47.4946475,19.0580859",
   "lat": 47.4946475,
   "lng": 19.0580859,
   "halalConfidence": "likely",
   "source": "osm"
  },
  {
   "nom": "Titiz Turkish Restaurant",
   "type": "turkish",
   "priceRange": "€€",
   "mapsUrl": "https://maps.google.com/?q=47.506274,19.054706",
   "lat": 47.506274,
   "lng": 19.054706,
   "halalConfidence": "likely",
   "source": "osm"
  },
  {
   "nom": "Istanbul",
   "type": "kebab",
   "priceRange": "€€",
   "mapsUrl": "https://maps.google.com/?q=47.4959821,19.0592068",
   "lat": 47.4959821,
   "lng": 19.0592068,
   "halalConfidence": "likely",
   "source": "osm"
  },
  {
   "nom": "Byblos",
   "type": "lebanese",
   "priceRange": "€€",
   "mapsUrl": "https://maps.google.com/?q=47.494377,19.058774",
   "lat": 47.494377,
   "lng": 19.058774,
   "halalConfidence": "likely",
   "source": "osm"
  },
  {
   "nom": "Dobrumba",
   "type": "arab, turkish",
   "priceRange": "€€",
   "mapsUrl": "https://maps.google.com/?q=47.4969012,19.0599052",
   "lat": 47.4969012,
   "lng": 19.0599052,
   "halalConfidence": "likely",
   "source": "osm"
  },
  {
   "nom": "Istanbul Török Étterem",
   "type": "turkish",
   "priceRange": "€€",
   "mapsUrl": "https://maps.google.com/?q=47.4943395,19.0594686",
   "lat": 47.4943395,
   "lng": 19.0594686,
   "halalConfidence": "likely",
   "source": "osm"
  },
  {
   "nom": "Piramis",
   "type": "kebab",
   "priceRange": "€€",
   "mapsUrl": "https://maps.google.com/?q=47.5053085,19.0578152",
   "lat": 47.5053085,
   "lng": 19.0578152,
   "halalConfidence": "likely",
   "source": "osm"
  },
  {
   "nom": "Eker Török étterem",
   "type": "turkish, döner, dessert",
   "priceRange": "€€",
   "mapsUrl": "https://maps.google.com/?q=47.507818,19.0247057",
   "lat": 47.507818,
   "lng": 19.0247057,
   "halalConfidence": "likely",
   "source": "osm"
  },
  {
   "nom": "Chef Kebab",
   "type": "turkish",
   "priceRange": "€€",
   "mapsUrl": "https://maps.google.com/?q=47.4953397,19.0614689",
   "lat": 47.4953397,
   "lng": 19.0614689,
   "halalConfidence": "likely",
   "source": "osm"
  },
  {
   "nom": "Urfa Kebab",
   "type": "kebab",
   "priceRange": "€€",
   "mapsUrl": "https://maps.google.com/?q=47.4972375,19.0626669",
   "lat": 47.4972375,
   "lng": 19.0626669,
   "halalConfidence": "likely",
   "source": "osm"
  },
  {
   "nom": "Darband Restaurant",
   "type": "arab",
   "priceRange": "€€",
   "mapsUrl": "https://maps.google.com/?q=47.511293,19.0516737",
   "lat": 47.511293,
   "lng": 19.0516737,
   "halalConfidence": "likely",
   "source": "osm"
  },
  {
   "nom": "Szeráj Török Étterem",
   "type": "turkish",
   "priceRange": "€€",
   "mapsUrl": "https://maps.google.com/?q=47.5119522,19.0507674",
   "lat": 47.5119522,
   "lng": 19.0507674,
   "halalConfidence": "likely",
   "source": "osm"
  }
 ],
 "hotels": [],
 "mosqueesPrincipales": [
  {
   "id": "m37135081",
   "nom": "Budavári Nagyboldogasszony-templom",
   "type": "Mosquée",
   "adresse": "Szentháromság tér, Budapest",
   "description": "Lieu de prière (OpenStreetMap).",
   "mapsUrl": "https://maps.google.com/?q=47.5020093,19.0342639",
   "lat": 47.5020093,
   "lng": 19.0342639,
   "source": "osm"
  },
  {
   "id": "m249932064",
   "nom": "Szilágyi Dezső téri református templom",
   "type": "Mosquée",
   "adresse": "",
   "description": "Lieu de prière (OpenStreetMap).",
   "mapsUrl": "https://maps.google.com/?q=47.5038103,19.0389547",
   "lat": 47.5038103,
   "lng": 19.0389547,
   "source": "osm"
  },
  {
   "id": "m243689215",
   "nom": "Szent Anna-templom",
   "type": "Mosquée",
   "adresse": "",
   "description": "Lieu de prière (OpenStreetMap).",
   "mapsUrl": "https://maps.google.com/?q=47.5055806,19.0383772",
   "lat": 47.5055806,
   "lng": 19.0383772,
   "source": "osm"
  },
  {
   "id": "m24321885",
   "nom": "Belvárosi Nagyboldogasszony-templom",
   "type": "Mosquée",
   "adresse": "",
   "description": "Lieu de prière (OpenStreetMap).",
   "mapsUrl": "https://maps.google.com/?q=47.492233,19.0522943",
   "lat": 47.492233,
   "lng": 19.0522943,
   "source": "osm"
  },
  {
   "id": "m24324325",
   "nom": "Belvárosi Ferences templom",
   "type": "Mosquée",
   "adresse": "Ferenciek tere, Budapest",
   "description": "Lieu de prière (OpenStreetMap).",
   "mapsUrl": "https://maps.google.com/?q=47.4931962,19.0564677",
   "lat": 47.4931962,
   "lng": 19.0564677,
   "source": "osm"
  },
  {
   "id": "m259555819",
   "nom": "Rumbach utcai zsinagóga",
   "type": "Mosquée",
   "adresse": "Rumbach Sebestyén utca, Budapest",
   "description": "Lieu de prière (OpenStreetMap).",
   "mapsUrl": "https://maps.google.com/?q=47.4979011,19.0589118",
   "lat": 47.4979011,
   "lng": 19.0589118,
   "source": "osm"
  },
  {
   "id": "m223530620",
   "nom": "Dohány utcai zsinagóga",
   "type": "Mosquée",
   "adresse": "Dohány utca, Budapest",
   "description": "Lieu de prière (OpenStreetMap).",
   "mapsUrl": "https://maps.google.com/?q=47.4960023,19.0607176",
   "lat": 47.4960023,
   "lng": 19.0607176,
   "source": "osm"
  },
  {
   "id": "m9114091196",
   "nom": "Magyarok Nagyasszonya Sziklatemplom",
   "type": "Mosquée",
   "adresse": "Szent Gellért rakpart, Budapest",
   "description": "Lieu de prière (OpenStreetMap).",
   "mapsUrl": "https://maps.google.com/?q=47.4849249,19.0521678",
   "lat": 47.4849249,
   "lng": 19.0521678,
   "source": "osm"
  },
  {
   "id": "m25215160",
   "nom": "Avilai Nagy Szent Teréz-templom",
   "type": "Mosquée",
   "adresse": "Szent Teréz utca, Budapest",
   "description": "Lieu de prière (OpenStreetMap).",
   "mapsUrl": "https://maps.google.com/?q=47.5022349,19.0627121",
   "lat": 47.5022349,
   "lng": 19.0627121,
   "source": "osm"
  },
  {
   "id": "m129917687",
   "nom": "Kálvin téri református templom",
   "type": "Mosquée",
   "adresse": "",
   "description": "Lieu de prière (OpenStreetMap).",
   "mapsUrl": "https://maps.google.com/?q=47.4885398,19.0612151",
   "lat": 47.4885398,
   "lng": 19.0612151,
   "source": "osm"
  },
  {
   "id": "m3007189611",
   "nom": "Dar Al Salam mecset",
   "type": "Mosquée",
   "adresse": "",
   "description": "Lieu de prière (OpenStreetMap).",
   "mapsUrl": "https://maps.google.com/?q=47.4799148,19.0503655",
   "lat": 47.4799148,
   "lng": 19.0503655,
   "source": "osm"
  },
  {
   "id": "m25277227",
   "nom": "Árpád-házi Szent Erzsébet-templom",
   "type": "Mosquée",
   "adresse": "Rózsák tere, Budapest",
   "description": "Lieu de prière (OpenStreetMap).",
   "mapsUrl": "https://maps.google.com/?q=47.5011417,19.0762367",
   "lat": 47.5011417,
   "lng": 19.0762367,
   "source": "osm"
  },
  {
   "id": "m11345814718",
   "nom": "Masjid-Al Noor",
   "type": "Mosquée",
   "adresse": "Rákóczi út, Budapest",
   "description": "Lieu de prière (OpenStreetMap).",
   "mapsUrl": "https://maps.google.com/?q=47.4992793,19.0777005",
   "lat": 47.4992793,
   "lng": 19.0777005,
   "source": "osm"
  },
  {
   "id": "m32805297",
   "nom": "Budapest Mecset",
   "type": "Mosquée",
   "adresse": "Fehérvári út, Budapest",
   "description": "Lieu de prière (OpenStreetMap).",
   "mapsUrl": "https://maps.google.com/?q=47.470789,19.0442503",
   "lat": 47.470789,
   "lng": 19.0442503,
   "source": "osm"
  },
  {
   "id": "m254158934",
   "nom": "Örökimádás-templom",
   "type": "Mosquée",
   "adresse": "Üllői út, Budapest",
   "description": "Lieu de prière (OpenStreetMap).",
   "mapsUrl": "https://maps.google.com/?q=47.483167,19.0763113",
   "lat": 47.483167,
   "lng": 19.0763113,
   "source": "osm"
  },
  {
   "id": "m11232493021",
   "nom": "Al-Huda Mecset",
   "type": "Mosquée",
   "adresse": "Dobozi utca, Budapest",
   "description": "Lieu de prière (OpenStreetMap).",
   "mapsUrl": "https://maps.google.com/?q=47.4931416,19.0852753",
   "lat": 47.4931416,
   "lng": 19.0852753,
   "source": "osm"
  },
  {
   "id": "m6581341610",
   "nom": "Elnour Center Mecset",
   "type": "Mosquée",
   "adresse": "",
   "description": "Lieu de prière (OpenStreetMap).",
   "mapsUrl": "https://maps.google.com/?q=47.5019601,19.0908518",
   "lat": 47.5019601,
   "lng": 19.0908518,
   "source": "osm"
  },
  {
   "id": "m255174410",
   "nom": "Kokárda Katakomba Emlékhely és kápolna",
   "type": "Mosquée",
   "adresse": "",
   "description": "Lieu de prière (OpenStreetMap).",
   "mapsUrl": "https://maps.google.com/?q=47.4889634,19.0907927",
   "lat": 47.4889634,
   "lng": 19.0907927,
   "source": "osm"
  },
  {
   "id": "m117516299",
   "nom": "Óbudai zsinagóga",
   "type": "Mosquée",
   "adresse": "Árpád fejedelem útja",
   "description": "Lieu de prière (OpenStreetMap).",
   "mapsUrl": "https://maps.google.com/?q=47.5370122,19.0459309",
   "lat": 47.5370122,
   "lng": 19.0459309,
   "source": "osm"
  }
 ],
 "activites": [
  {
   "id": "a735462396",
   "nom": "Alagút, keleti bejárat",
   "categorie": "viewpoint",
   "description": "",
   "prix": "",
   "duree": "",
   "mapsUrl": "https://maps.google.com/?q=47.4981745,19.0394965",
   "lat": 47.4981745,
   "lng": 19.0394965,
   "source": "osm"
  },
  {
   "id": "a8838110951",
   "nom": "gróf Széchenyi István címere",
   "categorie": "memorial",
   "description": "",
   "prix": "",
   "duree": "",
   "mapsUrl": "https://maps.google.com/?q=47.4984403,19.0411899",
   "lat": 47.4984403,
   "lng": 19.0411899,
   "source": "osm"
  },
  {
   "id": "a8838187692",
   "nom": "Podmaniczky Frigyes",
   "categorie": "memorial",
   "description": "",
   "prix": "",
   "duree": "",
   "mapsUrl": "https://maps.google.com/?q=47.4987635,19.0404204",
   "lat": 47.4987635,
   "lng": 19.0404204,
   "source": "osm"
  },
  {
   "id": "a8838114190",
   "nom": "báró Sina György címere",
   "categorie": "memorial",
   "description": "",
   "prix": "",
   "duree": "",
   "mapsUrl": "https://maps.google.com/?q=47.4985627,19.0411493",
   "lat": 47.4985627,
   "lng": 19.0411493,
   "source": "osm"
  },
  {
   "id": "a2091172445",
   "nom": "Turul",
   "categorie": "memorial",
   "description": "",
   "prix": "",
   "duree": "",
   "mapsUrl": "https://maps.google.com/?q=47.4974719,19.0387968",
   "lat": 47.4974719,
   "lng": 19.0387968,
   "source": "osm"
  },
  {
   "id": "a9894131864",
   "nom": "Jeruzsálem park",
   "categorie": "memorial",
   "description": "",
   "prix": "",
   "duree": "",
   "mapsUrl": "https://maps.google.com/?q=47.4970138,19.0415946",
   "lat": 47.4970138,
   "lng": 19.0415946,
   "source": "osm"
  },
  {
   "id": "a6458710786",
   "nom": "őrségváltás",
   "categorie": "attraction",
   "description": "",
   "prix": "",
   "duree": "",
   "mapsUrl": "https://maps.google.com/?q=47.4976438,19.0382673",
   "lat": 47.4976438,
   "lng": 19.0382673,
   "source": "osm"
  },
  {
   "id": "a2315294665",
   "nom": "Savoyai Jenő",
   "categorie": "memorial",
   "description": "",
   "prix": "",
   "duree": "",
   "mapsUrl": "https://maps.google.com/?q=47.496414,19.04008",
   "lat": 47.496414,
   "lng": 19.04008,
   "source": "osm"
  },
  {
   "id": "a9653725776",
   "nom": "Konkoly-Thege Miklós",
   "categorie": "memorial",
   "description": "",
   "prix": "",
   "duree": "",
   "mapsUrl": "https://maps.google.com/?q=47.4994339,19.0399709",
   "lat": 47.4994339,
   "lng": 19.0399709,
   "source": "osm"
  },
  {
   "id": "a5642565536",
   "nom": "Akseli Gallen-Kallela",
   "categorie": "memorial",
   "description": "",
   "prix": "",
   "duree": "",
   "mapsUrl": "https://maps.google.com/?q=47.4967987,19.0418314",
   "lat": 47.4967987,
   "lng": 19.0418314,
   "source": "osm"
  },
  {
   "id": "a5249045295",
   "nom": "Hollán Sándor",
   "categorie": "memorial",
   "description": "",
   "prix": "",
   "duree": "",
   "mapsUrl": "https://maps.google.com/?q=47.4986415,19.0423966",
   "lat": 47.4986415,
   "lng": 19.0423966,
   "source": "osm"
  },
  {
   "id": "a8728469589",
   "nom": "Magyar Asszonyok Bástyája",
   "categorie": "viewpoint",
   "description": "",
   "prix": "",
   "duree": "",
   "mapsUrl": "https://maps.google.com/?q=47.4988801,19.0381872",
   "lat": 47.4988801,
   "lng": 19.0381872,
   "source": "osm"
  },
  {
   "id": "a735186601",
   "nom": "Magyar Nemzeti Galéria",
   "categorie": "gallery",
   "description": "",
   "prix": "",
   "duree": "",
   "mapsUrl": "https://maps.google.com/?q=47.4962283,19.0397733",
   "lat": 47.4962283,
   "lng": 19.0397733,
   "source": "osm"
  },
  {
   "id": "a735262948",
   "nom": "Hunyadi László emléktábla",
   "categorie": "memorial",
   "description": "",
   "prix": "",
   "duree": "",
   "mapsUrl": "https://maps.google.com/?q=47.4966685,19.038304",
   "lat": 47.4966685,
   "lng": 19.038304,
   "source": "osm"
  },
  {
   "id": "a5136184164",
   "nom": "Emlékfa 2006. augusztus 20.",
   "categorie": "memorial",
   "description": "",
   "prix": "",
   "duree": "",
   "mapsUrl": "https://maps.google.com/?q=47.4997316,19.0406499",
   "lat": 47.4997316,
   "lng": 19.0406499,
   "source": "osm"
  },
  {
   "id": "a12343899653",
   "nom": "Orgona 22 Gallery",
   "categorie": "gallery",
   "description": "",
   "prix": "",
   "duree": "",
   "mapsUrl": "https://maps.google.com/?q=47.4999299,19.0396582",
   "lat": 47.4999299,
   "lng": 19.0396582,
   "source": "osm"
  },
  {
   "id": "a9162342321",
   "nom": "Főőrség kiállítás",
   "categorie": "museum",
   "description": "",
   "prix": "",
   "duree": "",
   "mapsUrl": "https://maps.google.com/?q=47.4960452,19.0385702",
   "lat": 47.4960452,
   "lng": 19.0385702,
   "source": "osm"
  },
  {
   "id": "a9162342335",
   "nom": "Luigi Ferdinando Marsigli",
   "categorie": "memorial",
   "description": "",
   "prix": "",
   "duree": "",
   "mapsUrl": "https://maps.google.com/?q=47.4958471,19.0389545",
   "lat": 47.4958471,
   "lng": 19.0389545,
   "source": "osm"
  }
 ],
 "scoreIndicatif": true,
 "osmEnriched": true,
 "osmEnrichedAt": "2026-06-30"
}
