{
 "slug": "budapest",
 "nom": "Budapest",
 "pays": "Hongrie",
 "pays_slug": "hongrie",
 "continent": "Europe",
 "region": "Hongrie",
 "coordonnees": {
  "lat": 47.4979,
  "lng": 19.0402
 },
 "codeISO": "HU",
 "score_halal": 3,
 "halalScore": 6,
 "villeNonMusulmane": true,
 "description": "Perle du Danube et de ses thermes. Quelques restaurants halal et lieux de prière dans le centre.",
 "metaDescription": "Perle du Danube et de ses thermes. Quelques restaurants halal et lieux de prière dans le centre.",
 "image": "https://upload.wikimedia.org/wikipedia/commons/thumb/d/d8/Budapest_from_Gellert_Hill_MC.jpg/1920px-Budapest_from_Gellert_Hill_MC.jpg",
 "image_hero": "https://upload.wikimedia.org/wikipedia/commons/thumb/d/d8/Budapest_from_Gellert_Hill_MC.jpg/1920px-Budapest_from_Gellert_Hill_MC.jpg",
 "imageCredit": "Wikimedia Commons",
 "statistiques": {
  "restaurants_halal": 60,
  "mosquees": 19,
  "hotels": 30
 },
 "infoPratique": {
  "transport": "Accessible par avion et transports en commun locaux.",
  "meilleureEpoque": "Printemps et automne (climat tempéré).",
  "conseilHalal": "Ville non-musulmane : repérez les restaurants halal certifiés et les mosquées via l'application avant votre visite."
 },
 "tags": [
  "halal",
  "ville non-musulmane",
  "europe"
 ],
 "restaurants": [
  {
   "nom": "Leila's",
   "type": "lebanese, arab",
   "priceRange": "€€",
   "mapsUrl": "https://maps.google.com/?q=47.4911017,19.0545574",
   "lat": 47.4911017,
   "lng": 19.0545574,
   "halalConfidence": "yes",
   "source": "osm"
  },
  {
   "nom": "Best Burger",
   "type": "Restaurant halal",
   "priceRange": "€€",
   "mapsUrl": "https://maps.google.com/?q=47.5062317,19.0560723",
   "lat": 47.5062317,
   "lng": 19.0560723,
   "halalConfidence": "yes",
   "source": "osm"
  },
  {
   "nom": "Két Tigris Török Étterem",
   "type": "turkish",
   "priceRange": "€€",
   "mapsUrl": "https://maps.google.com/?q=47.4956467,19.0727026",
   "lat": 47.4956467,
   "lng": 19.0727026,
   "halalConfidence": "yes",
   "source": "osm"
  },
  {
   "nom": "Darbar Friends",
   "type": "indian, pakistani",
   "priceRange": "€€",
   "mapsUrl": "https://maps.google.com/?q=47.4748192,19.0420423",
   "lat": 47.4748192,
   "lng": 19.0420423,
   "halalConfidence": "yes",
   "source": "osm"
  },
  {
   "nom": "NOOR",
   "type": "lebanese",
   "priceRange": "€€",
   "mapsUrl": "https://maps.google.com/?q=47.4971166,19.0345258",
   "lat": 47.4971166,
   "lng": 19.0345258,
   "halalConfidence": "likely",
   "source": "osm"
  },
  {
   "nom": "Arz Lebanese Restaurant",
   "type": "arab",
   "priceRange": "€€",
   "mapsUrl": "https://maps.google.com/?q=47.4968486,19.0479013",
   "lat": 47.4968486,
   "lng": 19.0479013,
   "halalConfidence": "likely",
   "source": "osm"
  },
  {
   "nom": "Istanbul Kebab",
   "type": "turkish",
   "priceRange": "€€",
   "mapsUrl": "https://maps.google.com/?q=47.5019568,19.0505806",
   "lat": 47.5019568,
   "lng": 19.0505806,
   "halalConfidence": "likely",
   "source": "osm"
  },
  {
   "nom": "Rose Meze & Coctail Bar",
   "type": "brunch, turkish",
   "priceRange": "€€",
   "mapsUrl": "https://maps.google.com/?q=47.505135,19.0479969",
   "lat": 47.505135,
   "lng": 19.0479969,
   "halalConfidence": "likely",
   "source": "osm"
  },
  {
   "nom": "Türkiz Étterem",
   "type": "turkish",
   "priceRange": "€€",
   "mapsUrl": "https://maps.google.com/?q=47.5052059,19.0479782",
   "lat": 47.5052059,
   "lng": 19.0479782,
   "halalConfidence": "likely",
   "source": "osm"
  },
  {
   "nom": "Gülbaba Török Büfe",
   "type": "turkish",
   "priceRange": "€€",
   "mapsUrl": "https://maps.google.com/?q=47.5068198,19.037967",
   "lat": 47.5068198,
   "lng": 19.037967,
   "halalConfidence": "likely",
   "source": "osm"
  },
  {
   "nom": "Al-Amir",
   "type": "arab",
   "priceRange": "€€",
   "mapsUrl": "https://maps.google.com/?q=47.494819,19.0533088",
   "lat": 47.494819,
   "lng": 19.0533088,
   "halalConfidence": "likely",
   "source": "osm"
  },
  {
   "nom": "Mozata",
   "type": "lebanese, arab",
   "priceRange": "€€",
   "mapsUrl": "https://maps.google.com/?q=47.4939525,19.0536589",
   "lat": 47.4939525,
   "lng": 19.0536589,
   "halalConfidence": "likely",
   "source": "osm"
  },
  {
   "nom": "Chef Kebab",
   "type": "kebab",
   "priceRange": "€€",
   "mapsUrl": "https://maps.google.com/?q=47.4989221,19.0550691",
   "lat": 47.4989221,
   "lng": 19.0550691,
   "halalConfidence": "likely",
   "source": "osm"
  },
  {
   "nom": "Lansky Restaurant",
   "type": "arab",
   "priceRange": "€€",
   "mapsUrl": "https://maps.google.com/?q=47.5060699,19.0495131",
   "lat": 47.5060699,
   "lng": 19.0495131,
   "halalConfidence": "likely",
   "source": "osm"
  },
  {
   "nom": "Zakora Gyros",
   "type": "kebab",
   "priceRange": "€€",
   "mapsUrl": "https://maps.google.com/?q=47.4945861,19.0547726",
   "lat": 47.4945861,
   "lng": 19.0547726,
   "halalConfidence": "likely",
   "source": "osm"
  },
  {
   "nom": "Török Büfé",
   "type": "turkish",
   "priceRange": "€€",
   "mapsUrl": "https://maps.google.com/?q=47.5002289,19.0250361",
   "lat": 47.5002289,
   "lng": 19.0250361,
   "halalConfidence": "likely",
   "source": "osm"
  },
  {
   "nom": "MiR Étterem",
   "type": "kurdish, kebab",
   "priceRange": "€€",
   "mapsUrl": "https://maps.google.com/?q=47.4979032,19.0561254",
   "lat": 47.4979032,
   "lng": 19.0561254,
   "halalConfidence": "likely",
   "source": "osm"
  },
  {
   "nom": "Deák Kebab",
   "type": "turkish",
   "priceRange": "€€",
   "mapsUrl": "https://maps.google.com/?q=47.4973193,19.05631",
   "lat": 47.4973193,
   "lng": 19.05631,
   "halalConfidence": "likely",
   "source": "osm"
  },
  {
   "nom": "Dörner Kebab Expres",
   "type": "turkish",
   "priceRange": "€€",
   "mapsUrl": "https://maps.google.com/?q=47.5001214,19.0243578",
   "lat": 47.5001214,
   "lng": 19.0243578,
   "halalConfidence": "likely",
   "source": "osm"
  },
  {
   "nom": "Aberna Kebab",
   "type": "turkish, kebab",
   "priceRange": "€€",
   "mapsUrl": "https://maps.google.com/?q=47.4926834,19.0551835",
   "lat": 47.4926834,
   "lng": 19.0551835,
   "halalConfidence": "likely",
   "source": "osm"
  },
  {
   "nom": "Yayla Török Étterem",
   "type": "turkish, kebab, hungarian",
   "priceRange": "€€",
   "mapsUrl": "https://maps.google.com/?q=47.5035293,19.0551824",
   "lat": 47.5035293,
   "lng": 19.0551824,
   "halalConfidence": "likely",
   "source": "osm"
  },
  {
   "nom": "Majorelle",
   "type": "moroccan",
   "priceRange": "€€",
   "mapsUrl": "https://maps.google.com/?q=47.5062723,19.0523015",
   "lat": 47.5062723,
   "lng": 19.0523015,
   "halalConfidence": "likely",
   "source": "osm"
  },
  {
   "nom": "Károly Kebab",
   "type": "kebab, turkish",
   "priceRange": "€€",
   "mapsUrl": "https://maps.google.com/?q=47.4967276,19.0575676",
   "lat": 47.4967276,
   "lng": 19.0575676,
   "halalConfidence": "likely",
   "source": "osm"
  },
  {
   "nom": "Baalbek",
   "type": "lebanese, arab",
   "priceRange": "€€",
   "mapsUrl": "https://maps.google.com/?q=47.4898725,19.0529893",
   "lat": 47.4898725,
   "lng": 19.0529893,
   "halalConfidence": "likely",
   "source": "osm"
  },
  {
   "nom": "Petra Gyros",
   "type": "arab",
   "priceRange": "€€",
   "mapsUrl": "https://maps.google.com/?q=47.501356,19.02348",
   "lat": 47.501356,
   "lng": 19.02348,
   "halalConfidence": "likely",
   "source": "osm"
  },
  {
   "nom": "Urfa Kebab",
   "type": "kebab",
   "priceRange": "€€",
   "mapsUrl": "https://maps.google.com/?q=47.5020115,19.0233543",
   "lat": 47.5020115,
   "lng": 19.0233543,
   "halalConfidence": "likely",
   "source": "osm"
  },
  {
   "nom": "Black Hole",
   "type": "kebab",
   "priceRange": "€€",
   "mapsUrl": "https://maps.google.com/?q=47.4908029,19.0548105",
   "lat": 47.4908029,
   "lng": 19.0548105,
   "halalConfidence": "likely",
   "source": "osm"
  },
  {
   "nom": "Greenland",
   "type": "arab, hungarian",
   "priceRange": "€€",
   "mapsUrl": "https://maps.google.com/?q=47.4976142,19.0584173",
   "lat": 47.4976142,
   "lng": 19.0584173,
   "halalConfidence": "likely",
   "source": "osm"
  },
  {
   "nom": "Jouri",
   "type": "lebanese",
   "priceRange": "€€",
   "mapsUrl": "https://maps.google.com/?q=47.4946475,19.0580859",
   "lat": 47.4946475,
   "lng": 19.0580859,
   "halalConfidence": "likely",
   "source": "osm"
  },
  {
   "nom": "Titiz Turkish Restaurant",
   "type": "turkish",
   "priceRange": "€€",
   "mapsUrl": "https://maps.google.com/?q=47.506274,19.054706",
   "lat": 47.506274,
   "lng": 19.054706,
   "halalConfidence": "likely",
   "source": "osm"
  },
  {
   "nom": "Istanbul",
   "type": "kebab",
   "priceRange": "€€",
   "mapsUrl": "https://maps.google.com/?q=47.4959821,19.0592068",
   "lat": 47.4959821,
   "lng": 19.0592068,
   "halalConfidence": "likely",
   "source": "osm"
  },
  {
   "nom": "Byblos",
   "type": "lebanese",
   "priceRange": "€€",
   "mapsUrl": "https://maps.google.com/?q=47.494377,19.058774",
   "lat": 47.494377,
   "lng": 19.058774,
   "halalConfidence": "likely",
   "source": "osm"
  },
  {
   "nom": "Dobrumba",
   "type": "arab, turkish",
   "priceRange": "€€",
   "mapsUrl": "https://maps.google.com/?q=47.4969012,19.0599052",
   "lat": 47.4969012,
   "lng": 19.0599052,
   "halalConfidence": "likely",
   "source": "osm"
  },
  {
   "nom": "Istanbul Török Étterem",
   "type": "turkish",
   "priceRange": "€€",
   "mapsUrl": "https://maps.google.com/?q=47.4943395,19.0594686",
   "lat": 47.4943395,
   "lng": 19.0594686,
   "halalConfidence": "likely",
   "source": "osm"
  },
  {
   "nom": "Piramis",
   "type": "kebab",
   "priceRange": "€€",
   "mapsUrl": "https://maps.google.com/?q=47.5053085,19.0578152",
   "lat": 47.5053085,
   "lng": 19.0578152,
   "halalConfidence": "likely",
   "source": "osm"
  },
  {
   "nom": "Eker Török étterem",
   "type": "turkish, döner, dessert",
   "priceRange": "€€",
   "mapsUrl": "https://maps.google.com/?q=47.507818,19.0247057",
   "lat": 47.507818,
   "lng": 19.0247057,
   "halalConfidence": "likely",
   "source": "osm"
  },
  {
   "nom": "Chef Kebab",
   "type": "turkish",
   "priceRange": "€€",
   "mapsUrl": "https://maps.google.com/?q=47.4953397,19.0614689",
   "lat": 47.4953397,
   "lng": 19.0614689,
   "halalConfidence": "likely",
   "source": "osm"
  },
  {
   "nom": "Urfa Kebab",
   "type": "kebab",
   "priceRange": "€€",
   "mapsUrl": "https://maps.google.com/?q=47.4972375,19.0626669",
   "lat": 47.4972375,
   "lng": 19.0626669,
   "halalConfidence": "likely",
   "source": "osm"
  },
  {
   "nom": "Darband Restaurant",
   "type": "arab",
   "priceRange": "€€",
   "mapsUrl": "https://maps.google.com/?q=47.511293,19.0516737",
   "lat": 47.511293,
   "lng": 19.0516737,
   "halalConfidence": "likely",
   "source": "osm"
  },
  {
   "nom": "Szeráj Török Étterem",
   "type": "turkish",
   "priceRange": "€€",
   "mapsUrl": "https://maps.google.com/?q=47.5119522,19.0507674",
   "lat": 47.5119522,
   "lng": 19.0507674,
   "halalConfidence": "likely",
   "source": "osm"
  },
  {
   "nom": "Meraki",
   "type": "kebab",
   "priceRange": "€€",
   "mapsUrl": "https://maps.google.com/?q=47.4949203,19.0632149",
   "lat": 47.4949203,
   "lng": 19.0632149,
   "halalConfidence": "likely",
   "source": "osm"
  },
  {
   "nom": "Manouche",
   "type": "lebanese",
   "priceRange": "€€",
   "mapsUrl": "https://maps.google.com/?q=47.4969034,19.0635932",
   "lat": 47.4969034,
   "lng": 19.0635932,
   "halalConfidence": "likely",
   "source": "osm"
  },
  {
   "nom": "Zaza Kebab",
   "type": "kebab",
   "priceRange": "€€",
   "mapsUrl": "https://maps.google.com/?q=47.5127399,19.0485233",
   "lat": 47.5127399,
   "lng": 19.0485233,
   "halalConfidence": "likely",
   "source": "osm"
  },
  {
   "nom": "Star Kebab",
   "type": "turkish",
   "priceRange": "€€",
   "mapsUrl": "https://maps.google.com/?q=47.5092129,19.0568196",
   "lat": 47.5092129,
   "lng": 19.0568196,
   "halalConfidence": "likely",
   "source": "osm"
  },
  {
   "nom": "Bistro Dash Cafe",
   "type": "turkish",
   "priceRange": "€€",
   "mapsUrl": "https://maps.google.com/?q=47.4881536,19.0593049",
   "lat": 47.4881536,
   "lng": 19.0593049,
   "halalConfidence": "likely",
   "source": "osm"
  },
  {
   "nom": "Star Kebab",
   "type": "turkish",
   "priceRange": "€€",
   "mapsUrl": "https://maps.google.com/?q=47.5093762,19.0571122",
   "lat": 47.5093762,
   "lng": 19.0571122,
   "halalConfidence": "likely",
   "source": "osm"
  },
  {
   "nom": "Antalya Kebab",
   "type": "kebab",
   "priceRange": "€€",
   "mapsUrl": "https://maps.google.com/?q=47.5116618,19.052964",
   "lat": 47.5116618,
   "lng": 19.052964,
   "halalConfidence": "likely",
   "source": "osm"
  },
  {
   "nom": "Kálvin Kebab",
   "type": "turkish, kebab",
   "priceRange": "€€",
   "mapsUrl": "https://maps.google.com/?q=47.4894962,19.061015",
   "lat": 47.4894962,
   "lng": 19.061015,
   "halalConfidence": "likely",
   "source": "osm"
  },
  {
   "nom": "Papa Gyrosa",
   "type": "syrian",
   "priceRange": "€€",
   "mapsUrl": "https://maps.google.com/?q=47.5102748,19.0242693",
   "lat": 47.5102748,
   "lng": 19.0242693,
   "halalConfidence": "likely",
   "source": "osm"
  },
  {
   "nom": "Pitagorasz",
   "type": "greek, kebab",
   "priceRange": "€€",
   "mapsUrl": "https://maps.google.com/?q=47.4890248,19.060689",
   "lat": 47.4890248,
   "lng": 19.060689,
   "halalConfidence": "likely",
   "source": "osm"
  },
  {
   "nom": "Chef Kebab Margit",
   "type": "turkish, kebab",
   "priceRange": "€€",
   "mapsUrl": "https://maps.google.com/?q=47.5147166,19.0366694",
   "lat": 47.5147166,
   "lng": 19.0366694,
   "halalConfidence": "likely",
   "source": "osm"
  },
  {
   "nom": "Istambul",
   "type": "turkish",
   "priceRange": "€€",
   "mapsUrl": "https://maps.google.com/?q=47.5065201,19.0619804",
   "lat": 47.5065201,
   "lng": 19.0619804,
   "halalConfidence": "likely",
   "source": "osm"
  },
  {
   "nom": "Deshi Dine",
   "type": "bangladeshi, indian",
   "priceRange": "€€",
   "mapsUrl": "https://maps.google.com/?q=47.5010382,19.0652456",
   "lat": 47.5010382,
   "lng": 19.0652456,
   "halalConfidence": "likely",
   "source": "osm"
  },
  {
   "nom": "Babka Budapest",
   "type": "arab, vietnamese, mediterranean",
   "priceRange": "€€",
   "mapsUrl": "https://maps.google.com/?q=47.5142034,19.0488579",
   "lat": 47.5142034,
   "lng": 19.0488579,
   "halalConfidence": "likely",
   "source": "osm"
  },
  {
   "nom": "Alanya Kebab Török Étterem",
   "type": "kebab",
   "priceRange": "€€",
   "mapsUrl": "https://maps.google.com/?q=47.49894,19.0660315",
   "lat": 47.49894,
   "lng": 19.0660315,
   "halalConfidence": "likely",
   "source": "osm"
  },
  {
   "nom": "Hummus Bár",
   "type": "arab",
   "priceRange": "€€",
   "mapsUrl": "https://maps.google.com/?q=47.4827239,19.0531202",
   "lat": 47.4827239,
   "lng": 19.0531202,
   "halalConfidence": "likely",
   "source": "osm"
  },
  {
   "nom": "Pasa kebab",
   "type": "kebab",
   "priceRange": "€€",
   "mapsUrl": "https://maps.google.com/?q=47.4955836,19.0661178",
   "lat": 47.4955836,
   "lng": 19.0661178,
   "halalConfidence": "likely",
   "source": "osm"
  },
  {
   "nom": "Beriko Gyros",
   "type": "kebab, gyros",
   "priceRange": "€€",
   "mapsUrl": "https://maps.google.com/?q=47.4867124,19.0605975",
   "lat": 47.4867124,
   "lng": 19.0605975,
   "halalConfidence": "likely",
   "source": "osm"
  },
  {
   "nom": "DönerWay",
   "type": "kebab",
   "priceRange": "€€",
   "mapsUrl": "https://maps.google.com/?q=47.4823092,19.0529678",
   "lat": 47.4823092,
   "lng": 19.0529678,
   "halalConfidence": "likely",
   "source": "osm"
  },
  {
   "nom": "Antalya Kebab",
   "type": "kebab",
   "priceRange": "€€",
   "mapsUrl": "https://maps.google.com/?q=47.5036568,19.0656693",
   "lat": 47.5036568,
   "lng": 19.0656693,
   "halalConfidence": "likely",
   "source": "osm"
  }
 ],
 "hotels": [
  {
   "nom": "Hotel Clark",
   "categorie": "Hôtel",
   "priceRange": "€€€€",
   "score": 5,
   "mapsUrl": "https://maps.google.com/?q=47.4986057,19.0400191",
   "lat": 47.4986057,
   "lng": 19.0400191,
   "halalFriendly": false,
   "bookingUrl": "https://maps.google.com/?q=47.4986057,19.0400191",
   "source": "osm"
  },
  {
   "nom": "Hotel Carlton",
   "categorie": "Hôtel",
   "priceRange": "€€€€",
   "score": 4,
   "mapsUrl": "https://maps.google.com/?q=47.4994363,19.039288",
   "lat": 47.4994363,
   "lng": 19.039288,
   "halalFriendly": false,
   "bookingUrl": "https://maps.google.com/?q=47.4994363,19.039288",
   "source": "osm"
  },
  {
   "nom": "Lánchíd 19 Design Hotel",
   "categorie": "Hôtel",
   "priceRange": "€€",
   "mapsUrl": "https://maps.google.com/?q=47.4964482,19.0414698",
   "lat": 47.4964482,
   "lng": 19.0414698,
   "halalFriendly": false,
   "bookingUrl": "https://maps.google.com/?q=47.4964482,19.0414698",
   "source": "osm"
  },
  {
   "nom": "Boutique Hotel Victoria Budapest ****",
   "categorie": "Hôtel",
   "priceRange": "€€€€",
   "score": 4,
   "mapsUrl": "https://maps.google.com/?q=47.5015472,19.039772",
   "lat": 47.5015472,
   "lng": 19.039772,
   "halalFriendly": false,
   "bookingUrl": "https://maps.google.com/?q=47.5015472,19.039772",
   "source": "osm"
  },
  {
   "nom": "Park Plaza Budapest",
   "categorie": "Hôtel",
   "priceRange": "€€",
   "mapsUrl": "https://maps.google.com/?q=47.5028098,19.0394296",
   "lat": 47.5028098,
   "lng": 19.0394296,
   "halalFriendly": false,
   "bookingUrl": "https://maps.google.com/?q=47.5028098,19.0394296",
   "source": "osm"
  },
  {
   "nom": "Art Hostel Gallery",
   "categorie": "Auberge",
   "priceRange": "€€",
   "mapsUrl": "https://maps.google.com/?q=47.493304,19.0438167",
   "lat": 47.493304,
   "lng": 19.0438167,
   "halalFriendly": false,
   "bookingUrl": "https://maps.google.com/?q=47.493304,19.0438167",
   "source": "osm"
  },
  {
   "nom": "InterContinental",
   "categorie": "Hôtel",
   "priceRange": "€€",
   "mapsUrl": "https://maps.google.com/?q=47.497314,19.0478692",
   "lat": 47.497314,
   "lng": 19.0478692,
   "halalFriendly": false,
   "bookingUrl": "http://budapest.intercontinental.com",
   "source": "osm"
  },
  {
   "nom": "Four Seasons Gresham Palace",
   "categorie": "Hôtel",
   "priceRange": "€€",
   "mapsUrl": "https://maps.google.com/?q=47.4998029,19.0480404",
   "lat": 47.4998029,
   "lng": 19.0480404,
   "halalFriendly": false,
   "bookingUrl": "https://maps.google.com/?q=47.4998029,19.0480404",
   "source": "osm"
  },
  {
   "nom": "Milford Suites Budapest",
   "categorie": "Hôtel",
   "priceRange": "€€",
   "mapsUrl": "https://maps.google.com/?q=47.5032224,19.0359934",
   "lat": 47.5032224,
   "lng": 19.0359934,
   "halalFriendly": false,
   "bookingUrl": "https://maps.google.com/?q=47.5032224,19.0359934",
   "source": "osm"
  },
  {
   "nom": "Mamaison Hotel Chain Bridge Budapest",
   "categorie": "Hôtel",
   "priceRange": "€€€€",
   "score": 4,
   "mapsUrl": "https://maps.google.com/?q=47.4996765,19.0488625",
   "lat": 47.4996765,
   "lng": 19.0488625,
   "halalFriendly": false,
   "bookingUrl": "https://maps.google.com/?q=47.4996765,19.0488625",
   "source": "osm"
  },
  {
   "nom": "Orion Hotel",
   "categorie": "Hôtel",
   "priceRange": "€€€",
   "score": 3,
   "mapsUrl": "https://maps.google.com/?q=47.4924075,19.0441912",
   "lat": 47.4924075,
   "lng": 19.0441912,
   "halalFriendly": false,
   "bookingUrl": "https://maps.google.com/?q=47.4924075,19.0441912",
   "source": "osm"
  },
  {
   "nom": "Dorothea Hotel, Budapest, Autograph Collection",
   "categorie": "Hôtel",
   "priceRange": "€€€€",
   "score": 5,
   "mapsUrl": "https://maps.google.com/?q=47.4967006,19.049246",
   "lat": 47.4967006,
   "lng": 19.049246,
   "halalFriendly": false,
   "bookingUrl": "https://maps.google.com/?q=47.4967006,19.049246",
   "source": "osm"
  },
  {
   "nom": "Prestige Hotel",
   "categorie": "Hôtel",
   "priceRange": "€€",
   "mapsUrl": "https://maps.google.com/?q=47.5008978,19.0484755",
   "lat": 47.5008978,
   "lng": 19.0484755,
   "halalFriendly": false,
   "bookingUrl": "https://maps.google.com/?q=47.5008978,19.0484755",
   "source": "osm"
  },
  {
   "nom": "Feel Different Budapest Apartments",
   "categorie": "Appartement",
   "priceRange": "€€",
   "mapsUrl": "https://maps.google.com/?q=47.5017927,19.0479749",
   "lat": 47.5017927,
   "lng": 19.0479749,
   "halalFriendly": false,
   "bookingUrl": "https://maps.google.com/?q=47.5017927,19.0479749",
   "source": "osm"
  },
  {
   "nom": "Marriott",
   "categorie": "Hôtel",
   "priceRange": "€€€€",
   "score": 5,
   "mapsUrl": "https://maps.google.com/?q=47.4948615,19.0494709",
   "lat": 47.4948615,
   "lng": 19.0494709,
   "halalFriendly": false,
   "bookingUrl": "https://maps.google.com/?q=47.4948615,19.0494709",
   "source": "osm"
  },
  {
   "nom": "Áurea Ana Palace Hotel",
   "categorie": "Hôtel",
   "priceRange": "€€€€",
   "score": 5,
   "mapsUrl": "https://maps.google.com/?q=47.5038184,19.0465108",
   "lat": 47.5038184,
   "lng": 19.0465108,
   "halalFriendly": false,
   "bookingUrl": "https://maps.google.com/?q=47.5038184,19.0465108",
   "source": "osm"
  },
  {
   "nom": "Hotel Zenit Budapest Palace",
   "categorie": "Hôtel",
   "priceRange": "€€",
   "mapsUrl": "https://maps.google.com/?q=47.4948395,19.0501147",
   "lat": 47.4948395,
   "lng": 19.0501147,
   "halalFriendly": false,
   "bookingUrl": "https://maps.google.com/?q=47.4948395,19.0501147",
   "source": "osm"
  },
  {
   "nom": "Buda Castle Fashion Hotel",
   "categorie": "Hôtel",
   "priceRange": "€€",
   "mapsUrl": "https://maps.google.com/?q=47.5020518,19.0311841",
   "lat": 47.5020518,
   "lng": 19.0311841,
   "halalFriendly": false,
   "bookingUrl": "https://maps.google.com/?q=47.5020518,19.0311841",
   "source": "osm"
  },
  {
   "nom": "The Three Corners Hotel & Resort",
   "categorie": "Hôtel",
   "priceRange": "€€",
   "mapsUrl": "https://maps.google.com/?q=47.5015027,19.0506824",
   "lat": 47.5015027,
   "lng": 19.0506824,
   "halalFriendly": false,
   "bookingUrl": "https://maps.google.com/?q=47.5015027,19.0506824",
   "source": "osm"
  },
  {
   "nom": "Anabelle B&B",
   "categorie": "Hôtel",
   "priceRange": "€€",
   "mapsUrl": "https://maps.google.com/?q=47.5047583,19.0464149",
   "lat": 47.5047583,
   "lng": 19.0464149,
   "halalFriendly": false,
   "bookingUrl": "https://maps.google.com/?q=47.5047583,19.0464149",
   "source": "osm"
  },
  {
   "nom": "The Loft Budapest",
   "categorie": "Hôtel",
   "priceRange": "€€€",
   "score": 3,
   "mapsUrl": "https://maps.google.com/?q=47.4957815,19.0519754",
   "lat": 47.4957815,
   "lng": 19.0519754,
   "halalFriendly": false,
   "bookingUrl": "https://maps.google.com/?q=47.4957815,19.0519754",
   "source": "osm"
  },
  {
   "nom": "Kempinski Hotel Corvinus Budapest",
   "categorie": "Hôtel",
   "priceRange": "€€",
   "mapsUrl": "https://maps.google.com/?q=47.4970472,19.0523428",
   "lat": 47.4970472,
   "lng": 19.0523428,
   "halalFriendly": false,
   "bookingUrl": "https://maps.google.com/?q=47.4970472,19.0523428",
   "source": "osm"
  },
  {
   "nom": "2B Hostel & Rooms",
   "categorie": "Auberge",
   "priceRange": "€€",
   "mapsUrl": "https://maps.google.com/?q=47.4959029,19.0521209",
   "lat": 47.4959029,
   "lng": 19.0521209,
   "halalFriendly": false,
   "bookingUrl": "https://maps.google.com/?q=47.4959029,19.0521209",
   "source": "osm"
  },
  {
   "nom": "BasiliQ Hotel",
   "categorie": "Hôtel",
   "priceRange": "€€",
   "mapsUrl": "https://maps.google.com/?q=47.5008751,19.0516905",
   "lat": 47.5008751,
   "lng": 19.0516905,
   "halalFriendly": false,
   "bookingUrl": "https://maps.google.com/?q=47.5008751,19.0516905",
   "source": "osm"
  },
  {
   "nom": "Verno House",
   "categorie": "Hôtel",
   "priceRange": "€€",
   "mapsUrl": "https://maps.google.com/?q=47.5026274,19.0504451",
   "lat": 47.5026274,
   "lng": 19.0504451,
   "halalFriendly": false,
   "bookingUrl": "https://maps.google.com/?q=47.5026274,19.0504451",
   "source": "osm"
  },
  {
   "nom": "H2 Hotel Budapest",
   "categorie": "Hôtel",
   "priceRange": "€€",
   "mapsUrl": "https://maps.google.com/?q=47.5020582,19.0514345",
   "lat": 47.5020582,
   "lng": 19.0514345,
   "halalFriendly": false,
   "bookingUrl": "https://maps.google.com/?q=47.5020582,19.0514345",
   "source": "osm"
  },
  {
   "nom": "Ibis Budapest Castle Hill",
   "categorie": "Hôtel",
   "priceRange": "€€€",
   "score": 3,
   "mapsUrl": "https://maps.google.com/?q=47.4986436,19.0273096",
   "lat": 47.4986436,
   "lng": 19.0273096,
   "halalFriendly": false,
   "bookingUrl": "https://maps.google.com/?q=47.4986436,19.0273096",
   "source": "osm"
  },
  {
   "nom": "Hi5 Apartments Budapest",
   "categorie": "Appartement",
   "priceRange": "€€",
   "mapsUrl": "https://maps.google.com/?q=47.4961937,19.0528956",
   "lat": 47.4961937,
   "lng": 19.0528956,
   "halalFriendly": false,
   "bookingUrl": "https://www.hi5apartments.com/",
   "source": "osm"
  },
  {
   "nom": "Maison Bistro & Hotel",
   "categorie": "Hôtel",
   "priceRange": "€€",
   "mapsUrl": "https://maps.google.com/?q=47.5036283,19.0303231",
   "lat": 47.5036283,
   "lng": 19.0303231,
   "halalFriendly": false,
   "bookingUrl": "https://maps.google.com/?q=47.5036283,19.0303231",
   "source": "osm"
  },
  {
   "nom": "Mercure Budapest Castle Hill",
   "categorie": "Hôtel",
   "priceRange": "€€€€",
   "score": 4,
   "mapsUrl": "https://maps.google.com/?q=47.4987031,19.0272273",
   "lat": 47.4987031,
   "lng": 19.0272273,
   "halalFriendly": false,
   "bookingUrl": "https://maps.google.com/?q=47.4987031,19.0272273",
   "source": "osm"
  }
 ],
 "mosqueesPrincipales": [
  {
   "id": "m37135081",
   "nom": "Budavári Nagyboldogasszony-templom",
   "type": "Mosquée",
   "adresse": "Szentháromság tér, Budapest",
   "description": "Lieu de prière (OpenStreetMap).",
   "mapsUrl": "https://maps.google.com/?q=47.5020093,19.0342639",
   "lat": 47.5020093,
   "lng": 19.0342639,
   "source": "osm"
  },
  {
   "id": "m249932064",
   "nom": "Szilágyi Dezső téri református templom",
   "type": "Mosquée",
   "adresse": "",
   "description": "Lieu de prière (OpenStreetMap).",
   "mapsUrl": "https://maps.google.com/?q=47.5038103,19.0389547",
   "lat": 47.5038103,
   "lng": 19.0389547,
   "source": "osm"
  },
  {
   "id": "m243689215",
   "nom": "Szent Anna-templom",
   "type": "Mosquée",
   "adresse": "",
   "description": "Lieu de prière (OpenStreetMap).",
   "mapsUrl": "https://maps.google.com/?q=47.5055806,19.0383772",
   "lat": 47.5055806,
   "lng": 19.0383772,
   "source": "osm"
  },
  {
   "id": "m24321885",
   "nom": "Belvárosi Nagyboldogasszony-templom",
   "type": "Mosquée",
   "adresse": "",
   "description": "Lieu de prière (OpenStreetMap).",
   "mapsUrl": "https://maps.google.com/?q=47.492233,19.0522943",
   "lat": 47.492233,
   "lng": 19.0522943,
   "source": "osm"
  },
  {
   "id": "m24324325",
   "nom": "Belvárosi Ferences templom",
   "type": "Mosquée",
   "adresse": "Ferenciek tere, Budapest",
   "description": "Lieu de prière (OpenStreetMap).",
   "mapsUrl": "https://maps.google.com/?q=47.4931962,19.0564677",
   "lat": 47.4931962,
   "lng": 19.0564677,
   "source": "osm"
  },
  {
   "id": "m259555819",
   "nom": "Rumbach utcai zsinagóga",
   "type": "Mosquée",
   "adresse": "Rumbach Sebestyén utca, Budapest",
   "description": "Lieu de prière (OpenStreetMap).",
   "mapsUrl": "https://maps.google.com/?q=47.4979011,19.0589118",
   "lat": 47.4979011,
   "lng": 19.0589118,
   "source": "osm"
  },
  {
   "id": "m223530620",
   "nom": "Dohány utcai zsinagóga",
   "type": "Mosquée",
   "adresse": "Dohány utca, Budapest",
   "description": "Lieu de prière (OpenStreetMap).",
   "mapsUrl": "https://maps.google.com/?q=47.4960023,19.0607176",
   "lat": 47.4960023,
   "lng": 19.0607176,
   "source": "osm"
  },
  {
   "id": "m9114091196",
   "nom": "Magyarok Nagyasszonya Sziklatemplom",
   "type": "Mosquée",
   "adresse": "Szent Gellért rakpart, Budapest",
   "description": "Lieu de prière (OpenStreetMap).",
   "mapsUrl": "https://maps.google.com/?q=47.4849249,19.0521678",
   "lat": 47.4849249,
   "lng": 19.0521678,
   "source": "osm"
  },
  {
   "id": "m25215160",
   "nom": "Avilai Nagy Szent Teréz-templom",
   "type": "Mosquée",
   "adresse": "Szent Teréz utca, Budapest",
   "description": "Lieu de prière (OpenStreetMap).",
   "mapsUrl": "https://maps.google.com/?q=47.5022349,19.0627121",
   "lat": 47.5022349,
   "lng": 19.0627121,
   "source": "osm"
  },
  {
   "id": "m129917687",
   "nom": "Kálvin téri református templom",
   "type": "Mosquée",
   "adresse": "",
   "description": "Lieu de prière (OpenStreetMap).",
   "mapsUrl": "https://maps.google.com/?q=47.4885398,19.0612151",
   "lat": 47.4885398,
   "lng": 19.0612151,
   "source": "osm"
  },
  {
   "id": "m3007189611",
   "nom": "Dar Al Salam mecset",
   "type": "Mosquée",
   "adresse": "",
   "description": "Lieu de prière (OpenStreetMap).",
   "mapsUrl": "https://maps.google.com/?q=47.4799148,19.0503655",
   "lat": 47.4799148,
   "lng": 19.0503655,
   "source": "osm"
  },
  {
   "id": "m25277227",
   "nom": "Árpád-házi Szent Erzsébet-templom",
   "type": "Mosquée",
   "adresse": "Rózsák tere, Budapest",
   "description": "Lieu de prière (OpenStreetMap).",
   "mapsUrl": "https://maps.google.com/?q=47.5011417,19.0762367",
   "lat": 47.5011417,
   "lng": 19.0762367,
   "source": "osm"
  },
  {
   "id": "m11345814718",
   "nom": "Masjid-Al Noor",
   "type": "Mosquée",
   "adresse": "Rákóczi út, Budapest",
   "description": "Lieu de prière (OpenStreetMap).",
   "mapsUrl": "https://maps.google.com/?q=47.4992793,19.0777005",
   "lat": 47.4992793,
   "lng": 19.0777005,
   "source": "osm"
  },
  {
   "id": "m32805297",
   "nom": "Budapest Mecset",
   "type": "Mosquée",
   "adresse": "Fehérvári út, Budapest",
   "description": "Lieu de prière (OpenStreetMap).",
   "mapsUrl": "https://maps.google.com/?q=47.470789,19.0442503",
   "lat": 47.470789,
   "lng": 19.0442503,
   "source": "osm"
  },
  {
   "id": "m254158934",
   "nom": "Örökimádás-templom",
   "type": "Mosquée",
   "adresse": "Üllői út, Budapest",
   "description": "Lieu de prière (OpenStreetMap).",
   "mapsUrl": "https://maps.google.com/?q=47.483167,19.0763113",
   "lat": 47.483167,
   "lng": 19.0763113,
   "source": "osm"
  },
  {
   "id": "m11232493021",
   "nom": "Al-Huda Mecset",
   "type": "Mosquée",
   "adresse": "Dobozi utca, Budapest",
   "description": "Lieu de prière (OpenStreetMap).",
   "mapsUrl": "https://maps.google.com/?q=47.4931416,19.0852753",
   "lat": 47.4931416,
   "lng": 19.0852753,
   "source": "osm"
  },
  {
   "id": "m6581341610",
   "nom": "Elnour Center Mecset",
   "type": "Mosquée",
   "adresse": "",
   "description": "Lieu de prière (OpenStreetMap).",
   "mapsUrl": "https://maps.google.com/?q=47.5019601,19.0908518",
   "lat": 47.5019601,
   "lng": 19.0908518,
   "source": "osm"
  },
  {
   "id": "m255174410",
   "nom": "Kokárda Katakomba Emlékhely és kápolna",
   "type": "Mosquée",
   "adresse": "",
   "description": "Lieu de prière (OpenStreetMap).",
   "mapsUrl": "https://maps.google.com/?q=47.4889634,19.0907927",
   "lat": 47.4889634,
   "lng": 19.0907927,
   "source": "osm"
  },
  {
   "id": "m117516299",
   "nom": "Óbudai zsinagóga",
   "type": "Mosquée",
   "adresse": "Árpád fejedelem útja",
   "description": "Lieu de prière (OpenStreetMap).",
   "mapsUrl": "https://maps.google.com/?q=47.5370122,19.0459309",
   "lat": 47.5370122,
   "lng": 19.0459309,
   "source": "osm"
  }
 ],
 "activites": [
  {
   "id": "a735462396",
   "nom": "Alagút, keleti bejárat",
   "categorie": "viewpoint",
   "description": "",
   "prix": "",
   "duree": "",
   "mapsUrl": "https://maps.google.com/?q=47.4981745,19.0394965",
   "lat": 47.4981745,
   "lng": 19.0394965,
   "source": "osm"
  },
  {
   "id": "a8838110951",
   "nom": "gróf Széchenyi István címere",
   "categorie": "memorial",
   "description": "",
   "prix": "",
   "duree": "",
   "mapsUrl": "https://maps.google.com/?q=47.4984403,19.0411899",
   "lat": 47.4984403,
   "lng": 19.0411899,
   "source": "osm"
  },
  {
   "id": "a8838187692",
   "nom": "Podmaniczky Frigyes",
   "categorie": "memorial",
   "description": "",
   "prix": "",
   "duree": "",
   "mapsUrl": "https://maps.google.com/?q=47.4987635,19.0404204",
   "lat": 47.4987635,
   "lng": 19.0404204,
   "source": "osm"
  },
  {
   "id": "a8838114190",
   "nom": "báró Sina György címere",
   "categorie": "memorial",
   "description": "",
   "prix": "",
   "duree": "",
   "mapsUrl": "https://maps.google.com/?q=47.4985627,19.0411493",
   "lat": 47.4985627,
   "lng": 19.0411493,
   "source": "osm"
  },
  {
   "id": "a2091172445",
   "nom": "Turul",
   "categorie": "memorial",
   "description": "",
   "prix": "",
   "duree": "",
   "mapsUrl": "https://maps.google.com/?q=47.4974719,19.0387968",
   "lat": 47.4974719,
   "lng": 19.0387968,
   "source": "osm"
  },
  {
   "id": "a9894131864",
   "nom": "Jeruzsálem park",
   "categorie": "memorial",
   "description": "",
   "prix": "",
   "duree": "",
   "mapsUrl": "https://maps.google.com/?q=47.4970138,19.0415946",
   "lat": 47.4970138,
   "lng": 19.0415946,
   "source": "osm"
  },
  {
   "id": "a6458710786",
   "nom": "őrségváltás",
   "categorie": "attraction",
   "description": "",
   "prix": "",
   "duree": "",
   "mapsUrl": "https://maps.google.com/?q=47.4976438,19.0382673",
   "lat": 47.4976438,
   "lng": 19.0382673,
   "source": "osm"
  },
  {
   "id": "a2315294665",
   "nom": "Savoyai Jenő",
   "categorie": "memorial",
   "description": "",
   "prix": "",
   "duree": "",
   "mapsUrl": "https://maps.google.com/?q=47.496414,19.04008",
   "lat": 47.496414,
   "lng": 19.04008,
   "source": "osm"
  },
  {
   "id": "a9653725776",
   "nom": "Konkoly-Thege Miklós",
   "categorie": "memorial",
   "description": "",
   "prix": "",
   "duree": "",
   "mapsUrl": "https://maps.google.com/?q=47.4994339,19.0399709",
   "lat": 47.4994339,
   "lng": 19.0399709,
   "source": "osm"
  },
  {
   "id": "a5642565536",
   "nom": "Akseli Gallen-Kallela",
   "categorie": "memorial",
   "description": "",
   "prix": "",
   "duree": "",
   "mapsUrl": "https://maps.google.com/?q=47.4967987,19.0418314",
   "lat": 47.4967987,
   "lng": 19.0418314,
   "source": "osm"
  },
  {
   "id": "a5249045295",
   "nom": "Hollán Sándor",
   "categorie": "memorial",
   "description": "",
   "prix": "",
   "duree": "",
   "mapsUrl": "https://maps.google.com/?q=47.4986415,19.0423966",
   "lat": 47.4986415,
   "lng": 19.0423966,
   "source": "osm"
  },
  {
   "id": "a8728469589",
   "nom": "Magyar Asszonyok Bástyája",
   "categorie": "viewpoint",
   "description": "",
   "prix": "",
   "duree": "",
   "mapsUrl": "https://maps.google.com/?q=47.4988801,19.0381872",
   "lat": 47.4988801,
   "lng": 19.0381872,
   "source": "osm"
  },
  {
   "id": "a735186601",
   "nom": "Magyar Nemzeti Galéria",
   "categorie": "gallery",
   "description": "",
   "prix": "",
   "duree": "",
   "mapsUrl": "https://maps.google.com/?q=47.4962283,19.0397733",
   "lat": 47.4962283,
   "lng": 19.0397733,
   "source": "osm"
  },
  {
   "id": "a735262948",
   "nom": "Hunyadi László emléktábla",
   "categorie": "memorial",
   "description": "",
   "prix": "",
   "duree": "",
   "mapsUrl": "https://maps.google.com/?q=47.4966685,19.038304",
   "lat": 47.4966685,
   "lng": 19.038304,
   "source": "osm"
  },
  {
   "id": "a5136184164",
   "nom": "Emlékfa 2006. augusztus 20.",
   "categorie": "memorial",
   "description": "",
   "prix": "",
   "duree": "",
   "mapsUrl": "https://maps.google.com/?q=47.4997316,19.0406499",
   "lat": 47.4997316,
   "lng": 19.0406499,
   "source": "osm"
  },
  {
   "id": "a12343899653",
   "nom": "Orgona 22 Gallery",
   "categorie": "gallery",
   "description": "",
   "prix": "",
   "duree": "",
   "mapsUrl": "https://maps.google.com/?q=47.4999299,19.0396582",
   "lat": 47.4999299,
   "lng": 19.0396582,
   "source": "osm"
  },
  {
   "id": "a9162342321",
   "nom": "Főőrség kiállítás",
   "categorie": "museum",
   "description": "",
   "prix": "",
   "duree": "",
   "mapsUrl": "https://maps.google.com/?q=47.4960452,19.0385702",
   "lat": 47.4960452,
   "lng": 19.0385702,
   "source": "osm"
  },
  {
   "id": "a9162342335",
   "nom": "Luigi Ferdinando Marsigli",
   "categorie": "memorial",
   "description": "",
   "prix": "",
   "duree": "",
   "mapsUrl": "https://maps.google.com/?q=47.4958471,19.0389545",
   "lat": 47.4958471,
   "lng": 19.0389545,
   "source": "osm"
  },
  {
   "id": "a738284379",
   "nom": "Antonio Bonfini",
   "categorie": "memorial",
   "description": "",
   "prix": "",
   "duree": "",
   "mapsUrl": "https://maps.google.com/?q=47.495821,19.0389829",
   "lat": 47.495821,
   "lng": 19.0389829,
   "source": "osm"
  },
  {
   "id": "a2510714726",
   "nom": "Gróf Bethlen István",
   "categorie": "memorial",
   "description": "",
   "prix": "",
   "duree": "",
   "mapsUrl": "https://maps.google.com/?q=47.4983284,19.0366796",
   "lat": 47.4983284,
   "lng": 19.0366796,
   "source": "osm"
  },
  {
   "id": "a735191228",
   "nom": "Budapesti Történeti Múzeum",
   "categorie": "museum",
   "description": "",
   "prix": "",
   "duree": "",
   "mapsUrl": "https://maps.google.com/?q=47.4954582,19.0404987",
   "lat": 47.4954582,
   "lng": 19.0404987,
   "source": "osm"
  },
  {
   "id": "a197110386",
   "nom": "Széchenyi lánchíd",
   "categorie": "attraction",
   "description": "",
   "prix": "",
   "duree": "",
   "mapsUrl": "https://maps.google.com/?q=47.4989949,19.0437091",
   "lat": 47.4989949,
   "lng": 19.0437091,
   "source": "osm"
  },
  {
   "id": "a9383397187",
   "nom": "Szent István-terem",
   "categorie": "attraction",
   "description": "",
   "prix": "",
   "duree": "",
   "mapsUrl": "https://maps.google.com/?q=47.4951425,19.0401663",
   "lat": 47.4951425,
   "lng": 19.0401663,
   "source": "osm"
  },
  {
   "id": "a11527825081",
   "nom": "Török Ádám miniszobor",
   "categorie": "memorial",
   "description": "",
   "prix": "",
   "duree": "",
   "mapsUrl": "https://maps.google.com/?q=47.5006996,19.0403691",
   "lat": 47.5006996,
   "lng": 19.0403691,
   "source": "osm"
  },
  {
   "id": "a429676480",
   "nom": "Lépcsőpavilon",
   "categorie": "attraction",
   "description": "",
   "prix": "",
   "duree": "",
   "mapsUrl": "https://maps.google.com/?q=47.4954458,19.0423403",
   "lat": 47.4954458,
   "lng": 19.0423403,
   "source": "osm"
  },
  {
   "id": "a6808038570",
   "nom": "Ágyúgolyók",
   "categorie": "attraction",
   "description": "",
   "prix": "",
   "duree": "",
   "mapsUrl": "https://maps.google.com/?q=47.4949999,19.0403842",
   "lat": 47.4949999,
   "lng": 19.0403842,
   "source": "osm"
  },
  {
   "id": "a250066956",
   "nom": "De la Motte-Beer-palota",
   "categorie": "museum",
   "description": "",
   "prix": "",
   "duree": "",
   "mapsUrl": "https://maps.google.com/?q=47.499032,19.0357699",
   "lat": 47.499032,
   "lng": 19.0357699,
   "source": "osm"
  },
  {
   "id": "a11427483491",
   "nom": "Békésy György",
   "categorie": "memorial",
   "description": "",
   "prix": "",
   "duree": "",
   "mapsUrl": "https://maps.google.com/?q=47.501278,19.0394113",
   "lat": 47.501278,
   "lng": 19.0394113,
   "source": "osm"
  },
  {
   "id": "a11427483488",
   "nom": "Hubay Jenő",
   "categorie": "memorial",
   "description": "",
   "prix": "",
   "duree": "",
   "mapsUrl": "https://maps.google.com/?q=47.5014625,19.0393325",
   "lat": 47.5014625,
   "lng": 19.0393325,
   "source": "osm"
  },
  {
   "id": "a735297856",
   "nom": "Mátyás király kertje, emlékoszlop",
   "categorie": "memorial",
   "description": "",
   "prix": "",
   "duree": "",
   "mapsUrl": "https://maps.google.com/?q=47.4943495,19.0387118",
   "lat": 47.4943495,
   "lng": 19.0387118,
   "source": "osm"
  }
 ],
 "scoreIndicatif": true,
 "osmEnriched": true,
 "osmEnrichedAt": "2026-06-30"
}
