{
  "slug": "budapest",
  "nom": "Budapest",
  "pays": "Hongrie",
  "pays_slug": "hongrie",
  "continent": "Europe",
  "region": "Hongrie",
  "coordonnees": {
    "lat": 47.4979,
    "lng": 19.0402
  },
  "codeISO": "HU",
  "score_halal": 3,
  "halalScore": 6,
  "villeNonMusulmane": true,
  "description": "Perle du Danube et de ses thermes. Quelques restaurants halal et lieux de prière dans le centre.",
  "metaDescription": "Perle du Danube et de ses thermes. Quelques restaurants halal et lieux de prière dans le centre.",
  "image": "https://upload.wikimedia.org/wikipedia/commons/thumb/d/d8/Budapest_from_Gellert_Hill_MC.jpg/1920px-Budapest_from_Gellert_Hill_MC.jpg",
  "image_hero": "https://upload.wikimedia.org/wikipedia/commons/thumb/d/d8/Budapest_from_Gellert_Hill_MC.jpg/1920px-Budapest_from_Gellert_Hill_MC.jpg",
  "imageCredit": "Wikimedia Commons",
  "statistiques": {
    "restaurants_halal": 177,
    "mosquees": 27,
    "hotels": 120
  },
  "infoPratique": {
    "transport": "Accessible par avion et transports en commun locaux.",
    "meilleureEpoque": "Printemps et automne (climat tempéré).",
    "conseilHalal": "Ville non-musulmane : repérez les restaurants halal signalés et les mosquées via l'application avant votre visite."
  },
  "tags": [
    "halal",
    "ville non-musulmane",
    "europe"
  ],
  "restaurants": [
    {
      "nom": "Leila's",
      "type": "lebanese, arab",
      "priceRange": "€€",
      "mapsUrl": "https://maps.google.com/?q=47.4911017,19.0545574",
      "lat": 47.4911017,
      "lng": 19.0545574,
      "halalConfidence": "yes",
      "source": "osm"
    },
    {
      "nom": "Best Burger",
      "type": "Restaurant halal",
      "priceRange": "€€",
      "mapsUrl": "https://maps.google.com/?q=47.5062317,19.0560723",
      "lat": 47.5062317,
      "lng": 19.0560723,
      "halalConfidence": "yes",
      "source": "osm"
    },
    {
      "nom": "Két Tigris Török Étterem",
      "type": "turkish",
      "priceRange": "€€",
      "mapsUrl": "https://maps.google.com/?q=47.4956467,19.0727026",
      "lat": 47.4956467,
      "lng": 19.0727026,
      "halalConfidence": "yes",
      "source": "osm"
    },
    {
      "nom": "Darbar Friends",
      "type": "indian, pakistani",
      "priceRange": "€€",
      "mapsUrl": "https://maps.google.com/?q=47.4748192,19.0420423",
      "lat": 47.4748192,
      "lng": 19.0420423,
      "halalConfidence": "yes",
      "source": "osm"
    },
    {
      "nom": "NOOR",
      "type": "lebanese",
      "priceRange": "€€",
      "mapsUrl": "https://maps.google.com/?q=47.4971166,19.0345258",
      "lat": 47.4971166,
      "lng": 19.0345258,
      "halalConfidence": "likely",
      "source": "osm"
    },
    {
      "nom": "Arz Lebanese Restaurant",
      "type": "arab",
      "priceRange": "€€",
      "mapsUrl": "https://maps.google.com/?q=47.4968486,19.0479013",
      "lat": 47.4968486,
      "lng": 19.0479013,
      "halalConfidence": "likely",
      "source": "osm"
    },
    {
      "nom": "Istanbul Kebab",
      "type": "turkish",
      "priceRange": "€€",
      "mapsUrl": "https://maps.google.com/?q=47.5019568,19.0505806",
      "lat": 47.5019568,
      "lng": 19.0505806,
      "halalConfidence": "likely",
      "source": "osm"
    },
    {
      "nom": "Rose Meze & Coctail Bar",
      "type": "brunch, turkish",
      "priceRange": "€€",
      "mapsUrl": "https://maps.google.com/?q=47.505135,19.0479969",
      "lat": 47.505135,
      "lng": 19.0479969,
      "halalConfidence": "likely",
      "source": "osm"
    },
    {
      "nom": "Türkiz Étterem",
      "type": "turkish",
      "priceRange": "€€",
      "mapsUrl": "https://maps.google.com/?q=47.5052059,19.0479782",
      "lat": 47.5052059,
      "lng": 19.0479782,
      "halalConfidence": "likely",
      "source": "osm"
    },
    {
      "nom": "Gülbaba Török Büfe",
      "type": "turkish",
      "priceRange": "€€",
      "mapsUrl": "https://maps.google.com/?q=47.5068198,19.037967",
      "lat": 47.5068198,
      "lng": 19.037967,
      "halalConfidence": "likely",
      "source": "osm"
    },
    {
      "nom": "Al-Amir",
      "type": "arab",
      "priceRange": "€€",
      "mapsUrl": "https://maps.google.com/?q=47.494819,19.0533088",
      "lat": 47.494819,
      "lng": 19.0533088,
      "halalConfidence": "likely",
      "source": "osm"
    },
    {
      "nom": "Mozata",
      "type": "lebanese, arab",
      "priceRange": "€€",
      "mapsUrl": "https://maps.google.com/?q=47.4939525,19.0536589",
      "lat": 47.4939525,
      "lng": 19.0536589,
      "halalConfidence": "likely",
      "source": "osm"
    },
    {
      "nom": "Chef Kebab",
      "type": "kebab",
      "priceRange": "€€",
      "mapsUrl": "https://maps.google.com/?q=47.4989221,19.0550691",
      "lat": 47.4989221,
      "lng": 19.0550691,
      "halalConfidence": "likely",
      "source": "osm"
    },
    {
      "nom": "Lansky Restaurant",
      "type": "arab",
      "priceRange": "€€",
      "mapsUrl": "https://maps.google.com/?q=47.5060699,19.0495131",
      "lat": 47.5060699,
      "lng": 19.0495131,
      "halalConfidence": "likely",
      "source": "osm"
    },
    {
      "nom": "Zakora Gyros",
      "type": "kebab",
      "priceRange": "€€",
      "mapsUrl": "https://maps.google.com/?q=47.4945861,19.0547726",
      "lat": 47.4945861,
      "lng": 19.0547726,
      "halalConfidence": "likely",
      "source": "osm"
    },
    {
      "nom": "Török Büfé",
      "type": "turkish",
      "priceRange": "€€",
      "mapsUrl": "https://maps.google.com/?q=47.5002289,19.0250361",
      "lat": 47.5002289,
      "lng": 19.0250361,
      "halalConfidence": "likely",
      "source": "osm"
    },
    {
      "nom": "MiR Étterem",
      "type": "kurdish, kebab",
      "priceRange": "€€",
      "mapsUrl": "https://maps.google.com/?q=47.4979032,19.0561254",
      "lat": 47.4979032,
      "lng": 19.0561254,
      "halalConfidence": "likely",
      "source": "osm"
    },
    {
      "nom": "Deák Kebab",
      "type": "turkish",
      "priceRange": "€€",
      "mapsUrl": "https://maps.google.com/?q=47.4973193,19.05631",
      "lat": 47.4973193,
      "lng": 19.05631,
      "halalConfidence": "likely",
      "source": "osm"
    },
    {
      "nom": "Dörner Kebab Expres",
      "type": "turkish",
      "priceRange": "€€",
      "mapsUrl": "https://maps.google.com/?q=47.5001214,19.0243578",
      "lat": 47.5001214,
      "lng": 19.0243578,
      "halalConfidence": "likely",
      "source": "osm"
    },
    {
      "nom": "Aberna Kebab",
      "type": "turkish, kebab",
      "priceRange": "€€",
      "mapsUrl": "https://maps.google.com/?q=47.4926834,19.0551835",
      "lat": 47.4926834,
      "lng": 19.0551835,
      "halalConfidence": "likely",
      "source": "osm"
    },
    {
      "nom": "Yayla Török Étterem",
      "type": "turkish, kebab, hungarian",
      "priceRange": "€€",
      "mapsUrl": "https://maps.google.com/?q=47.5035293,19.0551824",
      "lat": 47.5035293,
      "lng": 19.0551824,
      "halalConfidence": "likely",
      "source": "osm"
    },
    {
      "nom": "Majorelle",
      "type": "moroccan",
      "priceRange": "€€",
      "mapsUrl": "https://maps.google.com/?q=47.5062723,19.0523015",
      "lat": 47.5062723,
      "lng": 19.0523015,
      "halalConfidence": "likely",
      "source": "osm"
    },
    {
      "nom": "Károly Kebab",
      "type": "kebab, turkish",
      "priceRange": "€€",
      "mapsUrl": "https://maps.google.com/?q=47.4967276,19.0575676",
      "lat": 47.4967276,
      "lng": 19.0575676,
      "halalConfidence": "likely",
      "source": "osm"
    },
    {
      "nom": "Baalbek",
      "type": "lebanese, arab",
      "priceRange": "€€",
      "mapsUrl": "https://maps.google.com/?q=47.4898725,19.0529893",
      "lat": 47.4898725,
      "lng": 19.0529893,
      "halalConfidence": "likely",
      "source": "osm"
    },
    {
      "nom": "Petra Gyros",
      "type": "arab",
      "priceRange": "€€",
      "mapsUrl": "https://maps.google.com/?q=47.501356,19.02348",
      "lat": 47.501356,
      "lng": 19.02348,
      "halalConfidence": "likely",
      "source": "osm"
    },
    {
      "nom": "Urfa Kebab",
      "type": "kebab",
      "priceRange": "€€",
      "mapsUrl": "https://maps.google.com/?q=47.5020115,19.0233543",
      "lat": 47.5020115,
      "lng": 19.0233543,
      "halalConfidence": "likely",
      "source": "osm"
    },
    {
      "nom": "Black Hole",
      "type": "kebab",
      "priceRange": "€€",
      "mapsUrl": "https://maps.google.com/?q=47.4908029,19.0548105",
      "lat": 47.4908029,
      "lng": 19.0548105,
      "halalConfidence": "likely",
      "source": "osm"
    },
    {
      "nom": "Greenland",
      "type": "arab, hungarian",
      "priceRange": "€€",
      "mapsUrl": "https://maps.google.com/?q=47.4976142,19.0584173",
      "lat": 47.4976142,
      "lng": 19.0584173,
      "halalConfidence": "likely",
      "source": "osm"
    },
    {
      "nom": "Jouri",
      "type": "lebanese",
      "priceRange": "€€",
      "mapsUrl": "https://maps.google.com/?q=47.4946475,19.0580859",
      "lat": 47.4946475,
      "lng": 19.0580859,
      "halalConfidence": "likely",
      "source": "osm"
    },
    {
      "nom": "Titiz Turkish Restaurant",
      "type": "turkish",
      "priceRange": "€€",
      "mapsUrl": "https://maps.google.com/?q=47.506274,19.054706",
      "lat": 47.506274,
      "lng": 19.054706,
      "halalConfidence": "likely",
      "source": "osm"
    },
    {
      "nom": "Istanbul",
      "type": "kebab",
      "priceRange": "€€",
      "mapsUrl": "https://maps.google.com/?q=47.4959821,19.0592068",
      "lat": 47.4959821,
      "lng": 19.0592068,
      "halalConfidence": "likely",
      "source": "osm"
    },
    {
      "nom": "Byblos",
      "type": "lebanese",
      "priceRange": "€€",
      "mapsUrl": "https://maps.google.com/?q=47.494377,19.058774",
      "lat": 47.494377,
      "lng": 19.058774,
      "halalConfidence": "likely",
      "source": "osm"
    },
    {
      "nom": "Dobrumba",
      "type": "arab, turkish",
      "priceRange": "€€",
      "mapsUrl": "https://maps.google.com/?q=47.4969012,19.0599052",
      "lat": 47.4969012,
      "lng": 19.0599052,
      "halalConfidence": "likely",
      "source": "osm"
    },
    {
      "nom": "Istanbul Török Étterem",
      "type": "turkish",
      "priceRange": "€€",
      "mapsUrl": "https://maps.google.com/?q=47.4943395,19.0594686",
      "lat": 47.4943395,
      "lng": 19.0594686,
      "halalConfidence": "likely",
      "source": "osm"
    },
    {
      "nom": "Piramis",
      "type": "kebab",
      "priceRange": "€€",
      "mapsUrl": "https://maps.google.com/?q=47.5053085,19.0578152",
      "lat": 47.5053085,
      "lng": 19.0578152,
      "halalConfidence": "likely",
      "source": "osm"
    },
    {
      "nom": "Eker Török étterem",
      "type": "turkish, döner, dessert",
      "priceRange": "€€",
      "mapsUrl": "https://maps.google.com/?q=47.507818,19.0247057",
      "lat": 47.507818,
      "lng": 19.0247057,
      "halalConfidence": "likely",
      "source": "osm"
    },
    {
      "nom": "Darband Restaurant",
      "type": "arab",
      "priceRange": "€€",
      "mapsUrl": "https://maps.google.com/?q=47.511293,19.0516737",
      "lat": 47.511293,
      "lng": 19.0516737,
      "halalConfidence": "likely",
      "source": "osm"
    },
    {
      "nom": "Szeráj Török Étterem",
      "type": "turkish",
      "priceRange": "€€",
      "mapsUrl": "https://maps.google.com/?q=47.5119522,19.0507674",
      "lat": 47.5119522,
      "lng": 19.0507674,
      "halalConfidence": "likely",
      "source": "osm"
    },
    {
      "nom": "Meraki",
      "type": "kebab",
      "priceRange": "€€",
      "mapsUrl": "https://maps.google.com/?q=47.4949203,19.0632149",
      "lat": 47.4949203,
      "lng": 19.0632149,
      "halalConfidence": "likely",
      "source": "osm"
    },
    {
      "nom": "Manouche",
      "type": "lebanese",
      "priceRange": "€€",
      "mapsUrl": "https://maps.google.com/?q=47.4969034,19.0635932",
      "lat": 47.4969034,
      "lng": 19.0635932,
      "halalConfidence": "likely",
      "source": "osm"
    },
    {
      "nom": "Zaza Kebab",
      "type": "kebab",
      "priceRange": "€€",
      "mapsUrl": "https://maps.google.com/?q=47.5127399,19.0485233",
      "lat": 47.5127399,
      "lng": 19.0485233,
      "halalConfidence": "likely",
      "source": "osm"
    },
    {
      "nom": "Star Kebab",
      "type": "turkish",
      "priceRange": "€€",
      "mapsUrl": "https://maps.google.com/?q=47.5092129,19.0568196",
      "lat": 47.5092129,
      "lng": 19.0568196,
      "halalConfidence": "likely",
      "source": "osm"
    },
    {
      "nom": "Bistro Dash Cafe",
      "type": "turkish",
      "priceRange": "€€",
      "mapsUrl": "https://maps.google.com/?q=47.4881536,19.0593049",
      "lat": 47.4881536,
      "lng": 19.0593049,
      "halalConfidence": "likely",
      "source": "osm"
    },
    {
      "nom": "Antalya Kebab",
      "type": "kebab",
      "priceRange": "€€",
      "mapsUrl": "https://maps.google.com/?q=47.5116618,19.052964",
      "lat": 47.5116618,
      "lng": 19.052964,
      "halalConfidence": "likely",
      "source": "osm"
    },
    {
      "nom": "Kálvin Kebab",
      "type": "turkish, kebab",
      "priceRange": "€€",
      "mapsUrl": "https://maps.google.com/?q=47.4894962,19.061015",
      "lat": 47.4894962,
      "lng": 19.061015,
      "halalConfidence": "likely",
      "source": "osm"
    },
    {
      "nom": "Papa Gyrosa",
      "type": "syrian",
      "priceRange": "€€",
      "mapsUrl": "https://maps.google.com/?q=47.5102748,19.0242693",
      "lat": 47.5102748,
      "lng": 19.0242693,
      "halalConfidence": "likely",
      "source": "osm"
    },
    {
      "nom": "Pitagorasz",
      "type": "greek, kebab",
      "priceRange": "€€",
      "mapsUrl": "https://maps.google.com/?q=47.4890248,19.060689",
      "lat": 47.4890248,
      "lng": 19.060689,
      "halalConfidence": "likely",
      "source": "osm"
    },
    {
      "nom": "Chef Kebab Margit",
      "type": "turkish, kebab",
      "priceRange": "€€",
      "mapsUrl": "https://maps.google.com/?q=47.5147166,19.0366694",
      "lat": 47.5147166,
      "lng": 19.0366694,
      "halalConfidence": "likely",
      "source": "osm"
    },
    {
      "nom": "Istambul",
      "type": "turkish",
      "priceRange": "€€",
      "mapsUrl": "https://maps.google.com/?q=47.5065201,19.0619804",
      "lat": 47.5065201,
      "lng": 19.0619804,
      "halalConfidence": "likely",
      "source": "osm"
    },
    {
      "nom": "Deshi Dine",
      "type": "bangladeshi, indian",
      "priceRange": "€€",
      "mapsUrl": "https://maps.google.com/?q=47.5010382,19.0652456",
      "lat": 47.5010382,
      "lng": 19.0652456,
      "halalConfidence": "likely",
      "source": "osm"
    },
    {
      "nom": "Babka Budapest",
      "type": "arab, vietnamese, mediterranean",
      "priceRange": "€€",
      "mapsUrl": "https://maps.google.com/?q=47.5142034,19.0488579",
      "lat": 47.5142034,
      "lng": 19.0488579,
      "halalConfidence": "likely",
      "source": "osm"
    },
    {
      "nom": "Alanya Kebab Török Étterem",
      "type": "kebab",
      "priceRange": "€€",
      "mapsUrl": "https://maps.google.com/?q=47.49894,19.0660315",
      "lat": 47.49894,
      "lng": 19.0660315,
      "halalConfidence": "likely",
      "source": "osm"
    },
    {
      "nom": "Hummus Bár",
      "type": "arab",
      "priceRange": "€€",
      "mapsUrl": "https://maps.google.com/?q=47.4827239,19.0531202",
      "lat": 47.4827239,
      "lng": 19.0531202,
      "halalConfidence": "likely",
      "source": "osm"
    },
    {
      "nom": "Pasa kebab",
      "type": "kebab",
      "priceRange": "€€",
      "mapsUrl": "https://maps.google.com/?q=47.4955836,19.0661178",
      "lat": 47.4955836,
      "lng": 19.0661178,
      "halalConfidence": "likely",
      "source": "osm"
    },
    {
      "nom": "Beriko Gyros",
      "type": "kebab, gyros",
      "priceRange": "€€",
      "mapsUrl": "https://maps.google.com/?q=47.4867124,19.0605975",
      "lat": 47.4867124,
      "lng": 19.0605975,
      "halalConfidence": "likely",
      "source": "osm"
    },
    {
      "nom": "DönerWay",
      "type": "kebab",
      "priceRange": "€€",
      "mapsUrl": "https://maps.google.com/?q=47.4823092,19.0529678",
      "lat": 47.4823092,
      "lng": 19.0529678,
      "halalConfidence": "likely",
      "source": "osm"
    },
    {
      "nom": "Bangla büfé",
      "type": "bangladeshi, indian, asian",
      "priceRange": "€€",
      "mapsUrl": "https://maps.google.com/?q=47.5017898,19.0669225",
      "lat": 47.5017898,
      "lng": 19.0669225,
      "halalConfidence": "likely",
      "source": "osm"
    },
    {
      "nom": "Orange Kebab",
      "type": "kebab",
      "priceRange": "€€",
      "mapsUrl": "https://maps.google.com/?q=47.5045749,19.0675555",
      "lat": 47.5045749,
      "lng": 19.0675555,
      "halalConfidence": "likely",
      "source": "osm"
    },
    {
      "nom": "Shiraz",
      "type": "persian",
      "priceRange": "€€",
      "mapsUrl": "https://maps.google.com/?q=47.4863274,19.0637687",
      "lat": 47.4863274,
      "lng": 19.0637687,
      "halalConfidence": "likely",
      "source": "osm"
    },
    {
      "nom": "Matt",
      "type": "kebab",
      "priceRange": "€€",
      "mapsUrl": "https://maps.google.com/?q=47.4996235,19.0697044",
      "lat": 47.4996235,
      "lng": 19.0697044,
      "halalConfidence": "likely",
      "source": "osm"
    },
    {
      "nom": "Al Tarboosh",
      "type": "kebab",
      "priceRange": "€€",
      "mapsUrl": "https://maps.google.com/?q=47.4975448,19.0701949",
      "lat": 47.4975448,
      "lng": 19.0701949,
      "halalConfidence": "likely",
      "source": "osm"
    },
    {
      "nom": "Eker Gyros Török Étterem",
      "type": "turkish",
      "priceRange": "€€",
      "mapsUrl": "https://maps.google.com/?q=47.478207,19.0490352",
      "lat": 47.478207,
      "lng": 19.0490352,
      "halalConfidence": "likely",
      "source": "osm"
    },
    {
      "nom": "Babam",
      "type": "turkish",
      "priceRange": "€€",
      "mapsUrl": "https://maps.google.com/?q=47.4969027,19.0709431",
      "lat": 47.4969027,
      "lng": 19.0709431,
      "halalConfidence": "likely",
      "source": "osm"
    },
    {
      "nom": "Döner Kebab Express",
      "type": "turkish",
      "priceRange": "€€",
      "mapsUrl": "https://maps.google.com/?q=47.4975867,19.0714112",
      "lat": 47.4975867,
      "lng": 19.0714112,
      "halalConfidence": "likely",
      "source": "osm"
    },
    {
      "nom": "Isparta döner",
      "type": "kebab",
      "priceRange": "€€",
      "mapsUrl": "https://maps.google.com/?q=47.4773088,19.0480933",
      "lat": 47.4773088,
      "lng": 19.0480933,
      "halalConfidence": "likely",
      "source": "osm"
    },
    {
      "nom": "Hari Kebab",
      "type": "kebab",
      "priceRange": "€€",
      "mapsUrl": "https://maps.google.com/?q=47.4771187,19.0476853",
      "lat": 47.4771187,
      "lng": 19.0476853,
      "halalConfidence": "likely",
      "source": "osm"
    },
    {
      "nom": "Ayasofya Döner Török Étterem",
      "type": "kebab",
      "priceRange": "€€",
      "mapsUrl": "https://maps.google.com/?q=47.4904925,19.0699227",
      "lat": 47.4904925,
      "lng": 19.0699227,
      "halalConfidence": "likely",
      "source": "osm"
    },
    {
      "nom": "Döner Kebab Budapest",
      "type": "kebab",
      "priceRange": "€€",
      "mapsUrl": "https://maps.google.com/?q=47.495765,19.0721028",
      "lat": 47.495765,
      "lng": 19.0721028,
      "halalConfidence": "likely",
      "source": "osm"
    },
    {
      "nom": "Gyros & Chips",
      "type": "kebab",
      "priceRange": "€€",
      "mapsUrl": "https://maps.google.com/?q=47.4771475,19.0501963",
      "lat": 47.4771475,
      "lng": 19.0501963,
      "halalConfidence": "likely",
      "source": "osm"
    },
    {
      "nom": "Syriana Gyros Büfé",
      "type": "kebab, pizza",
      "priceRange": "€€",
      "mapsUrl": "https://maps.google.com/?q=47.4759917,19.0389545",
      "lat": 47.4759917,
      "lng": 19.0389545,
      "halalConfidence": "likely",
      "source": "osm"
    },
    {
      "nom": "Király török étterem",
      "type": "turkish",
      "priceRange": "€€",
      "mapsUrl": "https://maps.google.com/?q=47.5026382,19.0722313",
      "lat": 47.5026382,
      "lng": 19.0722313,
      "halalConfidence": "likely",
      "source": "osm"
    },
    {
      "nom": "Karimi Gyros",
      "type": "kebab",
      "priceRange": "€€",
      "mapsUrl": "https://maps.google.com/?q=47.4768396,19.0512666",
      "lat": 47.4768396,
      "lng": 19.0512666,
      "halalConfidence": "likely",
      "source": "osm"
    },
    {
      "nom": "Balkán II Gyros",
      "type": "kebab",
      "priceRange": "€€",
      "mapsUrl": "https://maps.google.com/?q=47.4833792,19.065866",
      "lat": 47.4833792,
      "lng": 19.065866,
      "halalConfidence": "likely",
      "source": "osm"
    },
    {
      "nom": "Gyros Falafel Salátabár",
      "type": "kebab",
      "priceRange": "€€",
      "mapsUrl": "https://maps.google.com/?q=47.4764772,19.0525951",
      "lat": 47.4764772,
      "lng": 19.0525951,
      "halalConfidence": "likely",
      "source": "osm"
    },
    {
      "nom": "Rumi",
      "type": "persian",
      "priceRange": "€€",
      "mapsUrl": "https://maps.google.com/?q=47.4980688,19.0744402",
      "lat": 47.4980688,
      "lng": 19.0744402,
      "halalConfidence": "likely",
      "source": "osm"
    },
    {
      "nom": "Gaby Gyros",
      "type": "kebab",
      "priceRange": "€€",
      "mapsUrl": "https://maps.google.com/?q=47.4834217,19.0682397",
      "lat": 47.4834217,
      "lng": 19.0682397,
      "halalConfidence": "likely",
      "source": "osm"
    },
    {
      "nom": "Kabul Büfé",
      "type": "afghan, kebab, gyros",
      "priceRange": "€€",
      "mapsUrl": "https://maps.google.com/?q=47.4949981,19.0753972",
      "lat": 47.4949981,
      "lng": 19.0753972,
      "halalConfidence": "likely",
      "source": "osm"
    },
    {
      "nom": "Mevlana Kebab",
      "type": "kebab",
      "priceRange": "€€",
      "mapsUrl": "https://maps.google.com/?q=47.4740923,19.049109",
      "lat": 47.4740923,
      "lng": 19.049109,
      "halalConfidence": "likely",
      "source": "osm"
    },
    {
      "nom": "Gogoji food",
      "type": "kebab",
      "priceRange": "€€",
      "mapsUrl": "https://maps.google.com/?q=47.4734858,19.045917",
      "lat": 47.4734858,
      "lng": 19.045917,
      "halalConfidence": "likely",
      "source": "osm"
    },
    {
      "nom": "Han Döner",
      "type": "kebab",
      "priceRange": "€€",
      "mapsUrl": "https://maps.google.com/?q=47.4988828,19.0774472",
      "lat": 47.4988828,
      "lng": 19.0774472,
      "halalConfidence": "likely",
      "source": "osm"
    },
    {
      "nom": "Gyros",
      "type": "kebab",
      "priceRange": "€€",
      "mapsUrl": "https://maps.google.com/?q=47.4817391,19.0690353",
      "lat": 47.4817391,
      "lng": 19.0690353,
      "halalConfidence": "likely",
      "source": "osm"
    },
    {
      "nom": "Parsa Food",
      "type": "kebab",
      "priceRange": "€€",
      "mapsUrl": "https://maps.google.com/?q=47.519409,19.0617996",
      "lat": 47.519409,
      "lng": 19.0617996,
      "halalConfidence": "likely",
      "source": "osm"
    },
    {
      "nom": "Persian döner kebab",
      "type": "kebab",
      "priceRange": "€€",
      "mapsUrl": "https://maps.google.com/?q=47.4788072,19.0671804",
      "lat": 47.4788072,
      "lng": 19.0671804,
      "halalConfidence": "likely",
      "source": "osm"
    },
    {
      "nom": "SZEMIR GYROS",
      "type": "hungarian, arab",
      "priceRange": "€€",
      "mapsUrl": "https://maps.google.com/?q=47.4923532,19.0788688",
      "lat": 47.4923532,
      "lng": 19.0788688,
      "halalConfidence": "likely",
      "source": "osm"
    },
    {
      "nom": "Royal Kebab",
      "type": "kebab",
      "priceRange": "€€",
      "mapsUrl": "https://maps.google.com/?q=47.5194027,19.0645937",
      "lat": 47.5194027,
      "lng": 19.0645937,
      "halalConfidence": "likely",
      "source": "osm"
    },
    {
      "nom": "Elene Gyros",
      "type": "kebab",
      "priceRange": "€€",
      "mapsUrl": "https://maps.google.com/?q=47.5022462,19.0804456",
      "lat": 47.5022462,
      "lng": 19.0804456,
      "halalConfidence": "likely",
      "source": "osm"
    },
    {
      "nom": "Bagdad gyros",
      "type": "kebab",
      "priceRange": "€€",
      "mapsUrl": "https://maps.google.com/?q=47.4702703,19.0452932",
      "lat": 47.4702703,
      "lng": 19.0452932,
      "halalConfidence": "likely",
      "source": "osm"
    },
    {
      "nom": "Saffron Rose",
      "type": "persian",
      "priceRange": "€€",
      "mapsUrl": "https://maps.google.com/?q=47.4796689,19.0716439",
      "lat": 47.4796689,
      "lng": 19.0716439,
      "halalConfidence": "likely",
      "source": "osm"
    },
    {
      "nom": "Türk Kitch",
      "type": "turkish",
      "priceRange": "€€",
      "mapsUrl": "https://maps.google.com/?q=47.5010299,19.0823425",
      "lat": 47.5010299,
      "lng": 19.0823425,
      "halalConfidence": "likely",
      "source": "osm"
    },
    {
      "nom": "Aus Kebab",
      "type": "kebab",
      "priceRange": "€€",
      "mapsUrl": "https://maps.google.com/?q=47.5084929,19.080567",
      "lat": 47.5084929,
      "lng": 19.080567,
      "halalConfidence": "likely",
      "source": "osm"
    },
    {
      "nom": "Istanbul Kebab & Grill",
      "type": "turkish",
      "priceRange": "€€",
      "mapsUrl": "https://maps.google.com/?q=47.527756,19.0372464",
      "lat": 47.527756,
      "lng": 19.0372464,
      "halalConfidence": "likely",
      "source": "osm"
    },
    {
      "nom": "Old City",
      "type": "kebab",
      "priceRange": "€€",
      "mapsUrl": "https://maps.google.com/?q=47.5226221,19.0149385",
      "lat": 47.5226221,
      "lng": 19.0149385,
      "halalConfidence": "likely",
      "source": "osm"
    },
    {
      "nom": "Efes",
      "type": "turkish",
      "priceRange": "€€",
      "mapsUrl": "https://maps.google.com/?q=47.5043148,19.0855003",
      "lat": 47.5043148,
      "lng": 19.0855003,
      "halalConfidence": "likely",
      "source": "osm"
    },
    {
      "nom": "Oriental Bar",
      "type": "egyptian",
      "priceRange": "€€",
      "mapsUrl": "https://maps.google.com/?q=47.5041211,19.0871318",
      "lat": 47.5041211,
      "lng": 19.0871318,
      "halalConfidence": "likely",
      "source": "osm"
    },
    {
      "nom": "Divan",
      "type": "turkish, kebab",
      "priceRange": "€€",
      "mapsUrl": "https://maps.google.com/?q=47.4654008,19.0430379",
      "lat": 47.4654008,
      "lng": 19.0430379,
      "halalConfidence": "likely",
      "source": "osm"
    },
    {
      "nom": "Döner Kebab Buda",
      "type": "kebab",
      "priceRange": "€€",
      "mapsUrl": "https://maps.google.com/?q=47.4644376,19.0334573",
      "lat": 47.4644376,
      "lng": 19.0334573,
      "halalConfidence": "likely",
      "source": "osm"
    },
    {
      "nom": "Ikram Büfé",
      "type": "kebab, turkish",
      "priceRange": "€€",
      "mapsUrl": "https://maps.google.com/?q=47.464038,19.0338915",
      "lat": 47.464038,
      "lng": 19.0338915,
      "halalConfidence": "likely",
      "source": "osm"
    },
    {
      "nom": "Döner Kebab Expressz",
      "type": "kebab",
      "priceRange": "€€",
      "mapsUrl": "https://maps.google.com/?q=47.4779693,19.0818899",
      "lat": 47.4779693,
      "lng": 19.0818899,
      "halalConfidence": "likely",
      "source": "osm"
    },
    {
      "nom": "Millenium étterem",
      "type": "turkish, gyros, falafel, chicken, salad, dessert",
      "priceRange": "€€",
      "mapsUrl": "https://maps.google.com/?q=47.471029,19.0736852",
      "lat": 47.471029,
      "lng": 19.0736852,
      "halalConfidence": "likely",
      "source": "osm"
    },
    {
      "nom": "Mester Gyros",
      "type": "turkish",
      "priceRange": "€€",
      "mapsUrl": "https://maps.google.com/?q=47.5287287,19.065417",
      "lat": 47.5287287,
      "lng": 19.065417,
      "halalConfidence": "likely",
      "source": "osm"
    },
    {
      "nom": "Oscar Kebab House",
      "type": "turkish",
      "priceRange": "€€",
      "mapsUrl": "https://maps.google.com/?q=47.4883342,19.0928374",
      "lat": 47.4883342,
      "lng": 19.0928374,
      "halalConfidence": "likely",
      "source": "osm"
    },
    {
      "nom": "Lialina Étterem és Klub",
      "type": "arab",
      "priceRange": "€€",
      "mapsUrl": "https://maps.google.com/?q=47.4880752,19.0927442",
      "lat": 47.4880752,
      "lng": 19.0927442,
      "halalConfidence": "likely",
      "source": "osm"
    },
    {
      "nom": "Bereket Török Étterem",
      "type": "turkish",
      "priceRange": "€€",
      "mapsUrl": "https://maps.google.com/?q=47.4792967,19.0878697",
      "lat": 47.4792967,
      "lng": 19.0878697,
      "halalConfidence": "likely",
      "source": "osm"
    },
    {
      "nom": "Lehel Gasztró",
      "type": "kebab",
      "priceRange": "€€",
      "mapsUrl": "https://maps.google.com/?q=47.5271386,19.0759356",
      "lat": 47.5271386,
      "lng": 19.0759356,
      "halalConfidence": "likely",
      "source": "osm"
    },
    {
      "nom": "Trio",
      "type": "pizza, kebab, sandwich",
      "priceRange": "€€",
      "mapsUrl": "https://maps.google.com/?q=47.4791307,19.0892966",
      "lat": 47.4791307,
      "lng": 19.0892966,
      "halalConfidence": "likely",
      "source": "osm"
    },
    {
      "nom": "Dönerland",
      "type": "kebab",
      "priceRange": "€€",
      "mapsUrl": "https://maps.google.com/?q=47.5322541,19.0698253",
      "lat": 47.5322541,
      "lng": 19.0698253,
      "halalConfidence": "likely",
      "source": "osm"
    },
    {
      "nom": "Kebap Time",
      "type": "turkish",
      "priceRange": "€€",
      "mapsUrl": "https://maps.google.com/?q=47.4705334,19.0844005",
      "lat": 47.4705334,
      "lng": 19.0844005,
      "halalConfidence": "likely",
      "source": "osm"
    },
    {
      "nom": "Kebab 06",
      "type": "gyros, kebab",
      "priceRange": "€€",
      "mapsUrl": "https://maps.google.com/?q=47.4574467,19.04817",
      "lat": 47.4574467,
      "lng": 19.04817,
      "halalConfidence": "likely",
      "source": "osm"
    },
    {
      "nom": "Mehari Étterem",
      "type": "kebab",
      "priceRange": "€€",
      "mapsUrl": "https://maps.google.com/?q=47.5060915,19.1028696",
      "lat": 47.5060915,
      "lng": 19.1028696,
      "halalConfidence": "likely",
      "source": "osm"
    },
    {
      "nom": "Gyors Büfé",
      "type": "kebab",
      "priceRange": "€€",
      "mapsUrl": "https://maps.google.com/?q=47.5420056,19.0295892",
      "lat": 47.5420056,
      "lng": 19.0295892,
      "halalConfidence": "likely",
      "source": "osm"
    },
    {
      "nom": "Török Barát",
      "type": "turkish",
      "priceRange": "€€",
      "mapsUrl": "https://maps.google.com/?q=47.4810498,19.1025972",
      "lat": 47.4810498,
      "lng": 19.1025972,
      "halalConfidence": "likely",
      "source": "osm"
    },
    {
      "nom": "Anam Kebab & Fries",
      "type": "kebab, gyros, falafel",
      "priceRange": "€€",
      "mapsUrl": "https://maps.google.com/?q=47.522912,19.1012661",
      "lat": 47.522912,
      "lng": 19.1012661,
      "halalConfidence": "likely",
      "source": "osm"
    },
    {
      "nom": "Ankara Vadi Kebab",
      "type": "turkish",
      "priceRange": "€€",
      "mapsUrl": "https://maps.google.com/?q=47.5228839,19.1013451",
      "lat": 47.5228839,
      "lng": 19.1013451,
      "halalConfidence": "likely",
      "source": "osm"
    },
    {
      "nom": "Royal Döner Kebab",
      "type": "kebab",
      "priceRange": "€€",
      "mapsUrl": "https://maps.google.com/?q=47.5164554,19.1070171",
      "lat": 47.5164554,
      "lng": 19.1070171,
      "halalConfidence": "likely",
      "source": "osm"
    },
    {
      "nom": "Pizza King Express",
      "type": "pizza, kebab",
      "priceRange": "€€",
      "mapsUrl": "https://maps.google.com/?q=47.5044123,19.1162372",
      "lat": 47.5044123,
      "lng": 19.1162372,
      "halalConfidence": "likely",
      "source": "osm"
    },
    {
      "nom": "Prémium Döner Kebab House",
      "type": "kebab",
      "priceRange": "€€",
      "mapsUrl": "https://maps.google.com/?q=47.550337,19.0287516",
      "lat": 47.550337,
      "lng": 19.0287516,
      "halalConfidence": "likely",
      "source": "osm"
    },
    {
      "nom": "Eat Greek!",
      "type": "kebab",
      "priceRange": "€€",
      "mapsUrl": "https://maps.google.com/?q=47.5186681,19.1131209",
      "lat": 47.5186681,
      "lng": 19.1131209,
      "halalConfidence": "likely",
      "source": "osm"
    },
    {
      "nom": "Mido's Shawarma gyorsbüfé",
      "type": "shawarma",
      "priceRange": "€€",
      "mapsUrl": "https://maps.google.com/?q=47.444116,19.0378829",
      "lat": 47.444116,
      "lng": 19.0378829,
      "halalConfidence": "likely",
      "source": "osm"
    },
    {
      "nom": "Syr Gyros",
      "type": "turkish",
      "priceRange": "€€",
      "mapsUrl": "https://maps.google.com/?q=47.4678309,19.1106607",
      "lat": 47.4678309,
      "lng": 19.1106607,
      "halalConfidence": "likely",
      "source": "osm"
    },
    {
      "nom": "Chef Döner Kebab House",
      "type": "kebab",
      "priceRange": "€€",
      "mapsUrl": "https://maps.google.com/?q=47.5143487,19.1201043",
      "lat": 47.5143487,
      "lng": 19.1201043,
      "halalConfidence": "likely",
      "source": "osm"
    },
    {
      "nom": "Kebab Time",
      "type": "kebab",
      "priceRange": "€€",
      "mapsUrl": "https://maps.google.com/?q=47.555437,19.0795627",
      "lat": 47.555437,
      "lng": 19.0795627,
      "halalConfidence": "likely",
      "source": "osm"
    },
    {
      "nom": "Urban Kebab",
      "type": "kebab",
      "priceRange": "€€",
      "mapsUrl": "https://maps.google.com/?q=47.5026571,19.1361661",
      "lat": 47.5026571,
      "lng": 19.1361661,
      "halalConfidence": "likely",
      "source": "osm"
    },
    {
      "nom": "Csirke Sandwich Grill",
      "type": "kebab",
      "priceRange": "€€",
      "mapsUrl": "https://maps.google.com/?q=47.5020242,19.1363419",
      "lat": 47.5020242,
      "lng": 19.1363419,
      "halalConfidence": "likely",
      "source": "osm"
    },
    {
      "nom": "Antakya Döner Török Büfé",
      "type": "turkish",
      "priceRange": "€€",
      "mapsUrl": "https://maps.google.com/?q=47.4604854,18.9577206",
      "lat": 47.4604854,
      "lng": 18.9577206,
      "halalConfidence": "likely",
      "source": "osm"
    },
    {
      "nom": "Döner Kebab Kápolna Tér",
      "type": "turkish, kebab",
      "priceRange": "€€",
      "mapsUrl": "https://maps.google.com/?q=47.481109,19.1366125",
      "lat": 47.481109,
      "lng": 19.1366125,
      "halalConfidence": "likely",
      "source": "osm"
    },
    {
      "nom": "Lále Sultán",
      "type": "burger, turkish",
      "priceRange": "€€",
      "mapsUrl": "https://maps.google.com/?q=47.4316954,19.0706925",
      "lat": 47.4316954,
      "lng": 19.0706925,
      "halalConfidence": "likely",
      "source": "osm"
    },
    {
      "nom": "Kiki's kebab",
      "type": "kebab",
      "priceRange": "€€",
      "mapsUrl": "https://maps.google.com/?q=47.4306395,19.0679299",
      "lat": 47.4306395,
      "lng": 19.0679299,
      "halalConfidence": "likely",
      "source": "osm"
    },
    {
      "nom": "Csopan Kebab",
      "type": "kebab",
      "priceRange": "€€",
      "mapsUrl": "https://maps.google.com/?q=47.5594408,19.0900336",
      "lat": 47.5594408,
      "lng": 19.0900336,
      "halalConfidence": "likely",
      "source": "osm"
    },
    {
      "nom": "Alexandrosz Gyros",
      "type": "greek, kebab",
      "priceRange": "€€",
      "mapsUrl": "https://maps.google.com/?q=47.5683733,19.0513795",
      "lat": 47.5683733,
      "lng": 19.0513795,
      "halalConfidence": "likely",
      "source": "osm"
    },
    {
      "nom": "Arya Restaurant",
      "type": "kebab",
      "priceRange": "€€",
      "mapsUrl": "https://maps.google.com/?q=47.5600998,19.0931024",
      "lat": 47.5600998,
      "lng": 19.0931024,
      "halalConfidence": "likely",
      "source": "osm"
    },
    {
      "nom": "Pasa Kebab Döner & Pizza",
      "type": "pizza, turkish",
      "priceRange": "€€",
      "mapsUrl": "https://maps.google.com/?q=47.4389582,19.1039103",
      "lat": 47.4389582,
      "lng": 19.1039103,
      "halalConfidence": "likely",
      "source": "osm"
    },
    {
      "nom": "Döner Kebab",
      "type": "kebab, gyros",
      "priceRange": "€€",
      "mapsUrl": "https://maps.google.com/?q=47.4373543,19.1010717",
      "lat": 47.4373543,
      "lng": 19.1010717,
      "halalConfidence": "likely",
      "source": "osm"
    },
    {
      "nom": "Eperke Faloda",
      "type": "burger, kebab",
      "priceRange": "€€",
      "mapsUrl": "https://maps.google.com/?q=47.5657781,19.1000278",
      "lat": 47.5657781,
      "lng": 19.1000278,
      "halalConfidence": "likely",
      "source": "osm"
    },
    {
      "nom": "Kebab House",
      "type": "kebab",
      "priceRange": "€€",
      "mapsUrl": "https://maps.google.com/?q=47.541551,19.1403393",
      "lat": 47.541551,
      "lng": 19.1403393,
      "halalConfidence": "likely",
      "source": "osm"
    },
    {
      "nom": "Palota Döner Kebab",
      "type": "kebab",
      "priceRange": "€€",
      "mapsUrl": "https://maps.google.com/?q=47.5425123,19.1408813",
      "lat": 47.5425123,
      "lng": 19.1408813,
      "halalConfidence": "likely",
      "source": "osm"
    },
    {
      "nom": "Ayzee kebab ház",
      "type": "kebab",
      "priceRange": "€€",
      "mapsUrl": "https://maps.google.com/?q=47.5180469,19.1607091",
      "lat": 47.5180469,
      "lng": 19.1607091,
      "halalConfidence": "likely",
      "source": "osm"
    },
    {
      "nom": "Habibi gyros",
      "type": "kebab",
      "priceRange": "€€",
      "mapsUrl": "https://maps.google.com/?q=47.4692743,19.1605087",
      "lat": 47.4692743,
      "lng": 19.1605087,
      "halalConfidence": "likely",
      "source": "osm"
    },
    {
      "nom": "Narin",
      "type": "kebab",
      "priceRange": "€€",
      "mapsUrl": "https://maps.google.com/?q=47.5525345,19.1403239",
      "lat": 47.5525345,
      "lng": 19.1403239,
      "halalConfidence": "likely",
      "source": "osm"
    },
    {
      "nom": "Gyrosom",
      "type": "greek, kebab, salad, dessert",
      "priceRange": "€€",
      "mapsUrl": "https://maps.google.com/?q=47.5799107,19.1094093",
      "lat": 47.5799107,
      "lng": 19.1094093,
      "halalConfidence": "likely",
      "source": "osm"
    },
    {
      "nom": "Gyradiko",
      "type": "greek, kebab",
      "priceRange": "€€",
      "mapsUrl": "https://maps.google.com/?q=47.5940323,19.0665534",
      "lat": 47.5940323,
      "lng": 19.0665534,
      "halalConfidence": "likely",
      "source": "osm"
    },
    {
      "nom": "Ali Gyros",
      "type": "burger, kebab, turkish",
      "priceRange": "€€",
      "mapsUrl": "https://maps.google.com/?q=47.595051,19.0592102",
      "lat": 47.595051,
      "lng": 19.0592102,
      "halalConfidence": "likely",
      "source": "osm"
    },
    {
      "nom": "Gyradiko Pita Bár",
      "type": "greek, kebab",
      "priceRange": "€€",
      "mapsUrl": "https://maps.google.com/?q=47.5942809,19.0665581",
      "lat": 47.5942809,
      "lng": 19.0665581,
      "halalConfidence": "likely",
      "source": "osm"
    },
    {
      "nom": "Istanbul Premium Grill",
      "type": "turkish",
      "priceRange": "€€",
      "mapsUrl": "https://maps.google.com/?q=47.59772,19.05706",
      "lat": 47.59772,
      "lng": 19.05706,
      "halalConfidence": "likely",
      "source": "osm"
    },
    {
      "nom": "Basa Büfé",
      "type": "kebab, pizza, turkish",
      "priceRange": "€€",
      "mapsUrl": "https://maps.google.com/?q=47.5991425,19.0525917",
      "lat": 47.5991425,
      "lng": 19.0525917,
      "halalConfidence": "likely",
      "source": "osm"
    },
    {
      "nom": "HITCHKI",
      "lat": 47.5011428,
      "lng": 19.0479418,
      "type": "indian",
      "halalConfidence": "likely",
      "mapsUrl": "https://maps.google.com/?q=47.5011428,19.0479418",
      "source": "osm"
    },
    {
      "nom": "Indigo Express",
      "lat": 47.4992663,
      "lng": 19.0532842,
      "type": "indian",
      "halalConfidence": "likely",
      "mapsUrl": "https://maps.google.com/?q=47.4992663,19.0532842",
      "source": "osm"
    },
    {
      "nom": "Levant Lebanese Bistro",
      "lat": 47.4930767,
      "lng": 19.0520188,
      "type": "lebanese",
      "halalConfidence": "likely",
      "mapsUrl": "https://maps.google.com/?q=47.4930767,19.0520188",
      "source": "osm"
    },
    {
      "nom": "Indian Palate",
      "lat": 47.4912412,
      "lng": 19.0558616,
      "type": "indian",
      "halalConfidence": "likely",
      "mapsUrl": "https://maps.google.com/?q=47.4912412,19.0558616",
      "source": "osm"
    },
    {
      "nom": "Pingrumba",
      "lat": 47.5079194,
      "lng": 19.0228045,
      "type": "asian, middle eastern, central asian, indian",
      "halalConfidence": "likely",
      "mapsUrl": "https://maps.google.com/?q=47.5079194,19.0228045",
      "source": "osm"
    },
    {
      "nom": "Indigo",
      "lat": 47.5099608,
      "lng": 19.0254703,
      "type": "indian",
      "halalConfidence": "likely",
      "mapsUrl": "https://maps.google.com/?q=47.5099608,19.0254703",
      "source": "osm"
    }
  ],
  "hotels": [
    {
      "nom": "Hotel Clark",
      "categorie": "Hôtel",
      "priceRange": "€€€€",
      "score": 5,
      "mapsUrl": "https://maps.google.com/?q=47.4986057,19.0400191",
      "lat": 47.4986057,
      "lng": 19.0400191,
      "halalFriendly": false,
      "bookingUrl": "https://maps.google.com/?q=47.4986057,19.0400191",
      "source": "osm"
    },
    {
      "nom": "Hotel Carlton",
      "categorie": "Hôtel",
      "priceRange": "€€€€",
      "score": 4,
      "mapsUrl": "https://maps.google.com/?q=47.4994363,19.039288",
      "lat": 47.4994363,
      "lng": 19.039288,
      "halalFriendly": false,
      "bookingUrl": "https://maps.google.com/?q=47.4994363,19.039288",
      "source": "osm"
    },
    {
      "nom": "Lánchíd 19 Design Hotel",
      "categorie": "Hôtel",
      "priceRange": "€€",
      "mapsUrl": "https://maps.google.com/?q=47.4964482,19.0414698",
      "lat": 47.4964482,
      "lng": 19.0414698,
      "halalFriendly": false,
      "bookingUrl": "https://maps.google.com/?q=47.4964482,19.0414698",
      "source": "osm"
    },
    {
      "nom": "Boutique Hotel Victoria Budapest ****",
      "categorie": "Hôtel",
      "priceRange": "€€€€",
      "score": 4,
      "mapsUrl": "https://maps.google.com/?q=47.5015472,19.039772",
      "lat": 47.5015472,
      "lng": 19.039772,
      "halalFriendly": false,
      "bookingUrl": "https://maps.google.com/?q=47.5015472,19.039772",
      "source": "osm"
    },
    {
      "nom": "Park Plaza Budapest",
      "categorie": "Hôtel",
      "priceRange": "€€",
      "mapsUrl": "https://maps.google.com/?q=47.5028098,19.0394296",
      "lat": 47.5028098,
      "lng": 19.0394296,
      "halalFriendly": false,
      "bookingUrl": "https://maps.google.com/?q=47.5028098,19.0394296",
      "source": "osm"
    },
    {
      "nom": "Art Hostel Gallery",
      "categorie": "Auberge",
      "priceRange": "€€",
      "mapsUrl": "https://maps.google.com/?q=47.493304,19.0438167",
      "lat": 47.493304,
      "lng": 19.0438167,
      "halalFriendly": false,
      "bookingUrl": "https://maps.google.com/?q=47.493304,19.0438167",
      "source": "osm"
    },
    {
      "nom": "InterContinental",
      "categorie": "Hôtel",
      "priceRange": "€€",
      "mapsUrl": "https://maps.google.com/?q=47.497314,19.0478692",
      "lat": 47.497314,
      "lng": 19.0478692,
      "halalFriendly": false,
      "bookingUrl": "http://budapest.intercontinental.com",
      "source": "osm"
    },
    {
      "nom": "Four Seasons Gresham Palace",
      "categorie": "Hôtel",
      "priceRange": "€€",
      "mapsUrl": "https://maps.google.com/?q=47.4998029,19.0480404",
      "lat": 47.4998029,
      "lng": 19.0480404,
      "halalFriendly": false,
      "bookingUrl": "https://maps.google.com/?q=47.4998029,19.0480404",
      "source": "osm"
    },
    {
      "nom": "Milford Suites Budapest",
      "categorie": "Hôtel",
      "priceRange": "€€",
      "mapsUrl": "https://maps.google.com/?q=47.5032224,19.0359934",
      "lat": 47.5032224,
      "lng": 19.0359934,
      "halalFriendly": false,
      "bookingUrl": "https://maps.google.com/?q=47.5032224,19.0359934",
      "source": "osm"
    },
    {
      "nom": "Mamaison Hotel Chain Bridge Budapest",
      "categorie": "Hôtel",
      "priceRange": "€€€€",
      "score": 4,
      "mapsUrl": "https://maps.google.com/?q=47.4996765,19.0488625",
      "lat": 47.4996765,
      "lng": 19.0488625,
      "halalFriendly": false,
      "bookingUrl": "https://maps.google.com/?q=47.4996765,19.0488625",
      "source": "osm"
    },
    {
      "nom": "Orion Hotel",
      "categorie": "Hôtel",
      "priceRange": "€€€",
      "score": 3,
      "mapsUrl": "https://maps.google.com/?q=47.4924075,19.0441912",
      "lat": 47.4924075,
      "lng": 19.0441912,
      "halalFriendly": false,
      "bookingUrl": "https://maps.google.com/?q=47.4924075,19.0441912",
      "source": "osm"
    },
    {
      "nom": "Dorothea Hotel, Budapest, Autograph Collection",
      "categorie": "Hôtel",
      "priceRange": "€€€€",
      "score": 5,
      "mapsUrl": "https://maps.google.com/?q=47.4967006,19.049246",
      "lat": 47.4967006,
      "lng": 19.049246,
      "halalFriendly": false,
      "bookingUrl": "https://maps.google.com/?q=47.4967006,19.049246",
      "source": "osm"
    },
    {
      "nom": "Prestige Hotel",
      "categorie": "Hôtel",
      "priceRange": "€€",
      "mapsUrl": "https://maps.google.com/?q=47.5008978,19.0484755",
      "lat": 47.5008978,
      "lng": 19.0484755,
      "halalFriendly": false,
      "bookingUrl": "https://maps.google.com/?q=47.5008978,19.0484755",
      "source": "osm"
    },
    {
      "nom": "Feel Different Budapest Apartments",
      "categorie": "Appartement",
      "priceRange": "€€",
      "mapsUrl": "https://maps.google.com/?q=47.5017927,19.0479749",
      "lat": 47.5017927,
      "lng": 19.0479749,
      "halalFriendly": false,
      "bookingUrl": "https://maps.google.com/?q=47.5017927,19.0479749",
      "source": "osm"
    },
    {
      "nom": "Marriott",
      "categorie": "Hôtel",
      "priceRange": "€€€€",
      "score": 5,
      "mapsUrl": "https://maps.google.com/?q=47.4948615,19.0494709",
      "lat": 47.4948615,
      "lng": 19.0494709,
      "halalFriendly": false,
      "bookingUrl": "https://maps.google.com/?q=47.4948615,19.0494709",
      "source": "osm"
    },
    {
      "nom": "Áurea Ana Palace Hotel",
      "categorie": "Hôtel",
      "priceRange": "€€€€",
      "score": 5,
      "mapsUrl": "https://maps.google.com/?q=47.5038184,19.0465108",
      "lat": 47.5038184,
      "lng": 19.0465108,
      "halalFriendly": false,
      "bookingUrl": "https://maps.google.com/?q=47.5038184,19.0465108",
      "source": "osm"
    },
    {
      "nom": "Hotel Zenit Budapest Palace",
      "categorie": "Hôtel",
      "priceRange": "€€",
      "mapsUrl": "https://maps.google.com/?q=47.4948395,19.0501147",
      "lat": 47.4948395,
      "lng": 19.0501147,
      "halalFriendly": false,
      "bookingUrl": "https://maps.google.com/?q=47.4948395,19.0501147",
      "source": "osm"
    },
    {
      "nom": "Buda Castle Fashion Hotel",
      "categorie": "Hôtel",
      "priceRange": "€€",
      "mapsUrl": "https://maps.google.com/?q=47.5020518,19.0311841",
      "lat": 47.5020518,
      "lng": 19.0311841,
      "halalFriendly": false,
      "bookingUrl": "https://maps.google.com/?q=47.5020518,19.0311841",
      "source": "osm"
    },
    {
      "nom": "The Three Corners Hotel & Resort",
      "categorie": "Hôtel",
      "priceRange": "€€",
      "mapsUrl": "https://maps.google.com/?q=47.5015027,19.0506824",
      "lat": 47.5015027,
      "lng": 19.0506824,
      "halalFriendly": false,
      "bookingUrl": "https://maps.google.com/?q=47.5015027,19.0506824",
      "source": "osm"
    },
    {
      "nom": "Anabelle B&B",
      "categorie": "Hôtel",
      "priceRange": "€€",
      "mapsUrl": "https://maps.google.com/?q=47.5047583,19.0464149",
      "lat": 47.5047583,
      "lng": 19.0464149,
      "halalFriendly": false,
      "bookingUrl": "https://maps.google.com/?q=47.5047583,19.0464149",
      "source": "osm"
    },
    {
      "nom": "The Loft Budapest",
      "categorie": "Hôtel",
      "priceRange": "€€€",
      "score": 3,
      "mapsUrl": "https://maps.google.com/?q=47.4957815,19.0519754",
      "lat": 47.4957815,
      "lng": 19.0519754,
      "halalFriendly": false,
      "bookingUrl": "https://maps.google.com/?q=47.4957815,19.0519754",
      "source": "osm"
    },
    {
      "nom": "Kempinski Hotel Corvinus Budapest",
      "categorie": "Hôtel",
      "priceRange": "€€",
      "mapsUrl": "https://maps.google.com/?q=47.4970472,19.0523428",
      "lat": 47.4970472,
      "lng": 19.0523428,
      "halalFriendly": false,
      "bookingUrl": "https://maps.google.com/?q=47.4970472,19.0523428",
      "source": "osm"
    },
    {
      "nom": "2B Hostel & Rooms",
      "categorie": "Auberge",
      "priceRange": "€€",
      "mapsUrl": "https://maps.google.com/?q=47.4959029,19.0521209",
      "lat": 47.4959029,
      "lng": 19.0521209,
      "halalFriendly": false,
      "bookingUrl": "https://maps.google.com/?q=47.4959029,19.0521209",
      "source": "osm"
    },
    {
      "nom": "BasiliQ Hotel",
      "categorie": "Hôtel",
      "priceRange": "€€",
      "mapsUrl": "https://maps.google.com/?q=47.5008751,19.0516905",
      "lat": 47.5008751,
      "lng": 19.0516905,
      "halalFriendly": false,
      "bookingUrl": "https://maps.google.com/?q=47.5008751,19.0516905",
      "source": "osm"
    },
    {
      "nom": "Verno House",
      "categorie": "Hôtel",
      "priceRange": "€€",
      "mapsUrl": "https://maps.google.com/?q=47.5026274,19.0504451",
      "lat": 47.5026274,
      "lng": 19.0504451,
      "halalFriendly": false,
      "bookingUrl": "https://maps.google.com/?q=47.5026274,19.0504451",
      "source": "osm"
    },
    {
      "nom": "H2 Hotel Budapest",
      "categorie": "Hôtel",
      "priceRange": "€€",
      "mapsUrl": "https://maps.google.com/?q=47.5020582,19.0514345",
      "lat": 47.5020582,
      "lng": 19.0514345,
      "halalFriendly": false,
      "bookingUrl": "https://maps.google.com/?q=47.5020582,19.0514345",
      "source": "osm"
    },
    {
      "nom": "Ibis Budapest Castle Hill",
      "categorie": "Hôtel",
      "priceRange": "€€€",
      "score": 3,
      "mapsUrl": "https://maps.google.com/?q=47.4986436,19.0273096",
      "lat": 47.4986436,
      "lng": 19.0273096,
      "halalFriendly": false,
      "bookingUrl": "https://maps.google.com/?q=47.4986436,19.0273096",
      "source": "osm"
    },
    {
      "nom": "Hi5 Apartments Budapest",
      "categorie": "Appartement",
      "priceRange": "€€",
      "mapsUrl": "https://maps.google.com/?q=47.4961937,19.0528956",
      "lat": 47.4961937,
      "lng": 19.0528956,
      "halalFriendly": false,
      "bookingUrl": "https://www.hi5apartments.com/",
      "source": "osm"
    },
    {
      "nom": "Maison Bistro & Hotel",
      "categorie": "Hôtel",
      "priceRange": "€€",
      "mapsUrl": "https://maps.google.com/?q=47.5036283,19.0303231",
      "lat": 47.5036283,
      "lng": 19.0303231,
      "halalFriendly": false,
      "bookingUrl": "https://maps.google.com/?q=47.5036283,19.0303231",
      "source": "osm"
    },
    {
      "nom": "Mercure Budapest Castle Hill",
      "categorie": "Hôtel",
      "priceRange": "€€€€",
      "score": 4,
      "mapsUrl": "https://maps.google.com/?q=47.4987031,19.0272273",
      "lat": 47.4987031,
      "lng": 19.0272273,
      "halalFriendly": false,
      "bookingUrl": "https://maps.google.com/?q=47.4987031,19.0272273",
      "source": "osm"
    },
    {
      "nom": "The Magazine Hotel & Apartments",
      "categorie": "Hôtel",
      "priceRange": "€€",
      "mapsUrl": "https://maps.google.com/?q=47.5003468,19.0527958",
      "lat": 47.5003468,
      "lng": 19.0527958,
      "halalFriendly": false,
      "bookingUrl": "https://maps.google.com/?q=47.5003468,19.0527958",
      "source": "osm"
    },
    {
      "nom": "Al Habtoor Palace, Budapest",
      "categorie": "Hôtel",
      "priceRange": "€€",
      "mapsUrl": "https://maps.google.com/?q=47.4972975,19.0532922",
      "lat": 47.4972975,
      "lng": 19.0532922,
      "halalFriendly": false,
      "bookingUrl": "https://maps.google.com/?q=47.4972975,19.0532922",
      "source": "osm"
    },
    {
      "nom": "Rumor Apartments",
      "categorie": "Appartement",
      "priceRange": "€€",
      "mapsUrl": "https://maps.google.com/?q=47.5003492,19.0528655",
      "lat": 47.5003492,
      "lng": 19.0528655,
      "halalFriendly": false,
      "bookingUrl": "https://maps.google.com/?q=47.5003492,19.0528655",
      "source": "osm"
    },
    {
      "nom": "Hapimag Resort Budapest",
      "categorie": "Hôtel",
      "priceRange": "€€",
      "mapsUrl": "https://maps.google.com/?q=47.5040767,19.0306429",
      "lat": 47.5040767,
      "lng": 19.0306429,
      "halalFriendly": false,
      "bookingUrl": "https://www.hapimag.com/nl/waar/hongarije/boedapest.html",
      "source": "osm"
    },
    {
      "nom": "Pal's Hostel",
      "categorie": "Auberge",
      "priceRange": "€€",
      "mapsUrl": "https://maps.google.com/?q=47.5001752,19.0530449",
      "lat": 47.5001752,
      "lng": 19.0530449,
      "halalFriendly": false,
      "bookingUrl": "https://maps.google.com/?q=47.5001752,19.0530449",
      "source": "osm"
    },
    {
      "nom": "La Prima Fashion Hotel",
      "categorie": "Hôtel",
      "priceRange": "€€",
      "mapsUrl": "https://maps.google.com/?q=47.493506,19.0522513",
      "lat": 47.493506,
      "lng": 19.0522513,
      "halalFriendly": false,
      "bookingUrl": "https://maps.google.com/?q=47.493506,19.0522513",
      "source": "osm"
    },
    {
      "nom": "Aria Hotel Budapest",
      "categorie": "Hôtel",
      "priceRange": "€€",
      "mapsUrl": "https://maps.google.com/?q=47.4998527,19.053589",
      "lat": 47.4998527,
      "lng": 19.053589,
      "halalFriendly": false,
      "bookingUrl": "https://maps.google.com/?q=47.4998527,19.053589",
      "source": "osm"
    },
    {
      "nom": "Millennium Court",
      "categorie": "Hôtel",
      "priceRange": "€€",
      "mapsUrl": "https://maps.google.com/?q=47.4932729,19.0521994",
      "lat": 47.4932729,
      "lng": 19.0521994,
      "halalFriendly": false,
      "bookingUrl": "https://maps.google.com/?q=47.4932729,19.0521994",
      "source": "osm"
    },
    {
      "nom": "Promenade City Hotel",
      "categorie": "Hôtel",
      "priceRange": "€€",
      "mapsUrl": "https://maps.google.com/?q=47.4939447,19.0527722",
      "lat": 47.4939447,
      "lng": 19.0527722,
      "halalFriendly": false,
      "bookingUrl": "https://maps.google.com/?q=47.4939447,19.0527722",
      "source": "osm"
    },
    {
      "nom": "Petite Maison",
      "categorie": "Hôtel",
      "priceRange": "€€",
      "mapsUrl": "https://maps.google.com/?q=47.5040957,19.02977",
      "lat": 47.5040957,
      "lng": 19.02977,
      "halalFriendly": false,
      "bookingUrl": "https://maps.google.com/?q=47.5040957,19.02977",
      "source": "osm"
    },
    {
      "nom": "Mercure Budapest City Center",
      "categorie": "Hôtel",
      "priceRange": "€€",
      "mapsUrl": "https://maps.google.com/?q=47.494205,19.0529839",
      "lat": 47.494205,
      "lng": 19.0529839,
      "halalFriendly": false,
      "bookingUrl": "https://maps.google.com/?q=47.494205,19.0529839",
      "source": "osm"
    },
    {
      "nom": "Boutique Residence",
      "categorie": "Hôtel",
      "priceRange": "€€",
      "mapsUrl": "https://maps.google.com/?q=47.5017765,19.0530169",
      "lat": 47.5017765,
      "lng": 19.0530169,
      "halalFriendly": false,
      "bookingUrl": "https://www.hotelsone.com/budapest-hotels-hu/boutique-residence-budapest.html",
      "source": "osm"
    },
    {
      "nom": "Ramada by Wyndham Budapest City Center",
      "categorie": "Hôtel",
      "priceRange": "€€",
      "mapsUrl": "https://maps.google.com/?q=47.4943445,19.0534613",
      "lat": 47.4943445,
      "lng": 19.0534613,
      "halalFriendly": false,
      "bookingUrl": "https://www.wyndhamhotels.com/ramada/budapest-hungary/ramada-budapest-hu/overview",
      "source": "osm"
    },
    {
      "nom": "Radisson Collection Hotel",
      "categorie": "Hôtel",
      "priceRange": "€€",
      "mapsUrl": "https://maps.google.com/?q=47.5015057,19.0535968",
      "lat": 47.5015057,
      "lng": 19.0535968,
      "halalFriendly": false,
      "bookingUrl": "https://maps.google.com/?q=47.5015057,19.0535968",
      "source": "osm"
    },
    {
      "nom": "Gold Hotel Buda",
      "categorie": "Hôtel",
      "priceRange": "€€",
      "mapsUrl": "https://maps.google.com/?q=47.4887716,19.0344687",
      "lat": 47.4887716,
      "lng": 19.0344687,
      "halalFriendly": false,
      "bookingUrl": "https://maps.google.com/?q=47.4887716,19.0344687",
      "source": "osm"
    },
    {
      "nom": "Baltazár",
      "categorie": "Hôtel",
      "priceRange": "€€",
      "mapsUrl": "https://maps.google.com/?q=47.5046255,19.0290377",
      "lat": 47.5046255,
      "lng": 19.0290377,
      "halalFriendly": false,
      "bookingUrl": "https://maps.google.com/?q=47.5046255,19.0290377",
      "source": "osm"
    },
    {
      "nom": "B3 Hostel",
      "categorie": "Auberge",
      "priceRange": "€€",
      "mapsUrl": "https://maps.google.com/?q=47.4984074,19.0551591",
      "lat": 47.4984074,
      "lng": 19.0551591,
      "halalFriendly": false,
      "bookingUrl": "https://maps.google.com/?q=47.4984074,19.0551591",
      "source": "osm"
    },
    {
      "nom": "Jet Setter Appartment",
      "categorie": "Maison d'hôtes",
      "priceRange": "€€",
      "mapsUrl": "https://maps.google.com/?q=47.5079152,19.037735",
      "lat": 47.5079152,
      "lng": 19.037735,
      "halalFriendly": false,
      "bookingUrl": "https://maps.google.com/?q=47.5079152,19.037735",
      "source": "osm"
    },
    {
      "nom": "Deák Hostel",
      "categorie": "Auberge",
      "priceRange": "€€",
      "mapsUrl": "https://maps.google.com/?q=47.4980283,19.0552386",
      "lat": 47.4980283,
      "lng": 19.0552386,
      "halalFriendly": false,
      "bookingUrl": "http://www.deakhostel.hu",
      "source": "osm"
    },
    {
      "nom": "Activity Hostel",
      "categorie": "Auberge",
      "priceRange": "€€",
      "mapsUrl": "https://maps.google.com/?q=47.4995709,19.055192",
      "lat": 47.4995709,
      "lng": 19.055192,
      "halalFriendly": false,
      "bookingUrl": "https://maps.google.com/?q=47.4995709,19.055192",
      "source": "osm"
    },
    {
      "nom": "Hotel President",
      "categorie": "Hôtel",
      "priceRange": "€€€€",
      "score": 4,
      "mapsUrl": "https://maps.google.com/?q=47.5037963,19.0529266",
      "lat": 47.5037963,
      "lng": 19.0529266,
      "halalFriendly": false,
      "bookingUrl": "https://maps.google.com/?q=47.5037963,19.0529266",
      "source": "osm"
    },
    {
      "nom": "Adagio 2.0 Basilica",
      "categorie": "Auberge",
      "priceRange": "€€",
      "mapsUrl": "https://maps.google.com/?q=47.5001635,19.0553036",
      "lat": 47.5001635,
      "lng": 19.0553036,
      "halalFriendly": false,
      "bookingUrl": "https://maps.google.com/?q=47.5001635,19.0553036",
      "source": "osm"
    },
    {
      "nom": "Park Residence Budapest",
      "categorie": "Hôtel",
      "priceRange": "€€",
      "mapsUrl": "https://maps.google.com/?q=47.4989174,19.0556286",
      "lat": 47.4989174,
      "lng": 19.0556286,
      "halalFriendly": false,
      "bookingUrl": "https://www.parkresidence.eu/",
      "source": "osm"
    },
    {
      "nom": "Basilica Friends Apartment",
      "categorie": "Hôtel",
      "priceRange": "€€",
      "mapsUrl": "https://maps.google.com/?q=47.4976003,19.0557139",
      "lat": 47.4976003,
      "lng": 19.0557139,
      "halalFriendly": false,
      "bookingUrl": "https://maps.google.com/?q=47.4976003,19.0557139",
      "source": "osm"
    },
    {
      "nom": "Novotel Budapest Danube",
      "categorie": "Hôtel",
      "priceRange": "€€€€",
      "score": 4,
      "mapsUrl": "https://maps.google.com/?q=47.5083871,19.0387174",
      "lat": 47.5083871,
      "lng": 19.0387174,
      "halalFriendly": false,
      "bookingUrl": "https://www.accorhotels.com/",
      "source": "osm"
    },
    {
      "nom": "City Hotel Mátyás",
      "categorie": "Hôtel",
      "priceRange": "€€",
      "mapsUrl": "https://maps.google.com/?q=47.4914182,19.0526574",
      "lat": 47.4914182,
      "lng": 19.0526574,
      "halalFriendly": false,
      "bookingUrl": "https://maps.google.com/?q=47.4914182,19.0526574",
      "source": "osm"
    },
    {
      "nom": "Boomerang Hostel",
      "categorie": "Auberge",
      "priceRange": "€€",
      "mapsUrl": "https://maps.google.com/?q=47.5033374,19.0537114",
      "lat": 47.5033374,
      "lng": 19.0537114,
      "halalFriendly": false,
      "bookingUrl": "https://boomeranghostel.com",
      "source": "osm"
    },
    {
      "nom": "Párizsi udvar",
      "categorie": "Hôtel",
      "priceRange": "€€€€",
      "score": 5,
      "mapsUrl": "https://maps.google.com/?q=47.4933738,19.0547799",
      "lat": 47.4933738,
      "lng": 19.0547799,
      "halalFriendly": false,
      "bookingUrl": "https://maps.google.com/?q=47.4933738,19.0547799",
      "source": "osm"
    },
    {
      "nom": "Hotel Charles",
      "categorie": "Hôtel",
      "priceRange": "€€€",
      "score": 3,
      "mapsUrl": "https://maps.google.com/?q=47.4887815,19.0314591",
      "lat": 47.4887815,
      "lng": 19.0314591,
      "halalFriendly": false,
      "bookingUrl": "https://maps.google.com/?q=47.4887815,19.0314591",
      "source": "osm"
    },
    {
      "nom": "Matild Palace, a Luxury Collection Hotel, Budapest",
      "categorie": "Hôtel",
      "priceRange": "€€€€",
      "score": 5,
      "mapsUrl": "https://maps.google.com/?q=47.4923593,19.0540551",
      "lat": 47.4923593,
      "lng": 19.0540551,
      "halalFriendly": false,
      "bookingUrl": "https://maps.google.com/?q=47.4923593,19.0540551",
      "source": "osm"
    },
    {
      "nom": "City Hotel Pilvax",
      "categorie": "Hôtel",
      "priceRange": "€€",
      "mapsUrl": "https://maps.google.com/?q=47.4942056,19.0553623",
      "lat": 47.4942056,
      "lng": 19.0553623,
      "halalFriendly": false,
      "bookingUrl": "https://maps.google.com/?q=47.4942056,19.0553623",
      "source": "osm"
    },
    {
      "nom": "Carat Boutique Hotel",
      "categorie": "Hôtel",
      "priceRange": "€€€€",
      "score": 4,
      "mapsUrl": "https://maps.google.com/?q=47.49828,19.0563127",
      "lat": 47.49828,
      "lng": 19.0563127,
      "halalFriendly": false,
      "bookingUrl": "https://maps.google.com/?q=47.49828,19.0563127",
      "source": "osm"
    },
    {
      "nom": "Hotel Castle Garden",
      "categorie": "Hôtel",
      "priceRange": "€€€€",
      "score": 4,
      "mapsUrl": "https://maps.google.com/?q=47.5057283,19.0287675",
      "lat": 47.5057283,
      "lng": 19.0287675,
      "halalFriendly": false,
      "bookingUrl": "https://maps.google.com/?q=47.5057283,19.0287675",
      "source": "osm"
    },
    {
      "nom": "7Seasons Apartments",
      "categorie": "Appartement",
      "priceRange": "€€",
      "mapsUrl": "https://maps.google.com/?q=47.4989691,19.0564634",
      "lat": 47.4989691,
      "lng": 19.0564634,
      "halalFriendly": false,
      "bookingUrl": "https://maps.google.com/?q=47.4989691,19.0564634",
      "source": "osm"
    },
    {
      "nom": "Gerlóczy Boutique Hotel",
      "categorie": "Hôtel",
      "priceRange": "€€",
      "mapsUrl": "https://maps.google.com/?q=47.4950151,19.0561328",
      "lat": 47.4950151,
      "lng": 19.0561328,
      "halalFriendly": false,
      "bookingUrl": "https://maps.google.com/?q=47.4950151,19.0561328",
      "source": "osm"
    },
    {
      "nom": "Leo Boutique Rooms",
      "categorie": "Hôtel",
      "priceRange": "€€",
      "mapsUrl": "https://maps.google.com/?q=47.4934421,19.0556681",
      "lat": 47.4934421,
      "lng": 19.0556681,
      "halalFriendly": false,
      "bookingUrl": "https://leoboutiquerooms.com",
      "source": "osm"
    },
    {
      "nom": "Absolut City Hostel",
      "categorie": "Auberge",
      "priceRange": "€€",
      "mapsUrl": "https://maps.google.com/?q=47.4970583,19.0569747",
      "lat": 47.4970583,
      "lng": 19.0569747,
      "halalFriendly": false,
      "bookingUrl": "https://maps.google.com/?q=47.4970583,19.0569747",
      "source": "osm"
    },
    {
      "nom": "Hotel Moments Budapest",
      "categorie": "Hôtel",
      "priceRange": "€€€€",
      "score": 4,
      "mapsUrl": "https://maps.google.com/?q=47.5010643,19.0564476",
      "lat": 47.5010643,
      "lng": 19.0564476,
      "halalFriendly": false,
      "bookingUrl": "https://maps.google.com/?q=47.5010643,19.0564476",
      "source": "osm"
    },
    {
      "nom": "Maverick Downtown",
      "categorie": "Auberge",
      "priceRange": "€€",
      "mapsUrl": "https://maps.google.com/?q=47.4924963,19.0551327",
      "lat": 47.4924963,
      "lng": 19.0551327,
      "halalFriendly": false,
      "bookingUrl": "https://maps.google.com/?q=47.4924963,19.0551327",
      "source": "osm"
    },
    {
      "nom": "Paulay Downtown Apartments",
      "categorie": "Appartement",
      "priceRange": "€€",
      "mapsUrl": "https://maps.google.com/?q=47.4998496,19.0569005",
      "lat": 47.4998496,
      "lng": 19.0569005,
      "halalFriendly": false,
      "bookingUrl": "https://maps.google.com/?q=47.4998496,19.0569005",
      "source": "osm"
    },
    {
      "nom": "Leonardo Boutique Hotel Budapest M-SQUARE",
      "categorie": "Hôtel",
      "priceRange": "€€",
      "mapsUrl": "https://maps.google.com/?q=47.4973181,19.0572653",
      "lat": 47.4973181,
      "lng": 19.0572653,
      "halalFriendly": false,
      "bookingUrl": "https://maps.google.com/?q=47.4973181,19.0572653",
      "source": "osm"
    },
    {
      "nom": "Hotel Vision Budapest",
      "categorie": "Hôtel",
      "priceRange": "€€€€",
      "score": 4,
      "mapsUrl": "https://maps.google.com/?q=47.4902981,19.0531067",
      "lat": 47.4902981,
      "lng": 19.0531067,
      "halalFriendly": false,
      "bookingUrl": "https://maps.google.com/?q=47.4902981,19.0531067",
      "source": "osm"
    },
    {
      "nom": "7x24 Central Hostel",
      "categorie": "Auberge",
      "priceRange": "€€",
      "mapsUrl": "https://maps.google.com/?q=47.4988185,19.0572996",
      "lat": 47.4988185,
      "lng": 19.0572996,
      "halalFriendly": false,
      "bookingUrl": "https://maps.google.com/?q=47.4988185,19.0572996",
      "source": "osm"
    },
    {
      "nom": "Budapest Holidays Harmony",
      "categorie": "Hôtel",
      "priceRange": "€€",
      "mapsUrl": "https://maps.google.com/?q=47.4935628,19.0561549",
      "lat": 47.4935628,
      "lng": 19.0561549,
      "halalFriendly": false,
      "bookingUrl": "https://maps.google.com/?q=47.4935628,19.0561549",
      "source": "osm"
    },
    {
      "nom": "Barceló Budapest",
      "categorie": "Hôtel",
      "priceRange": "€€",
      "mapsUrl": "https://maps.google.com/?q=47.4988969,19.057611",
      "lat": 47.4988969,
      "lng": 19.057611,
      "halalFriendly": false,
      "bookingUrl": "https://www.parkresidence.eu/",
      "source": "osm"
    },
    {
      "nom": "Noble Hotel",
      "categorie": "Hôtel",
      "priceRange": "€€",
      "mapsUrl": "https://maps.google.com/?q=47.4937368,19.0566015",
      "lat": 47.4937368,
      "lng": 19.0566015,
      "halalFriendly": false,
      "bookingUrl": "https://maps.google.com/?q=47.4937368,19.0566015",
      "source": "osm"
    },
    {
      "nom": "K4 Apartments",
      "categorie": "Hôtel",
      "priceRange": "€€",
      "mapsUrl": "https://maps.google.com/?q=47.4936646,19.0566483",
      "lat": 47.4936646,
      "lng": 19.0566483,
      "halalFriendly": false,
      "bookingUrl": "https://maps.google.com/?q=47.4936646,19.0566483",
      "source": "osm"
    },
    {
      "nom": "Walk Inn Vaci 42",
      "categorie": "Appartement",
      "priceRange": "€€",
      "mapsUrl": "https://maps.google.com/?q=47.4910772,19.0546934",
      "lat": 47.4910772,
      "lng": 19.0546934,
      "halalFriendly": false,
      "bookingUrl": "https://maps.google.com/?q=47.4910772,19.0546934",
      "source": "osm"
    },
    {
      "nom": "Hilton Garden Inn Budapest City Centre",
      "categorie": "Hôtel",
      "priceRange": "€€€€",
      "score": 4,
      "mapsUrl": "https://maps.google.com/?q=47.5023798,19.0566509",
      "lat": 47.5023798,
      "lng": 19.0566509,
      "halalFriendly": false,
      "bookingUrl": "https://www.hilton.com/en/hotels/budccgi-hilton-garden-inn-budapest-city-centre/",
      "source": "osm"
    },
    {
      "nom": "Eurostars Danube Budapest",
      "categorie": "Hôtel",
      "priceRange": "€€€€",
      "score": 4,
      "mapsUrl": "https://maps.google.com/?q=47.4972994,19.0579405",
      "lat": 47.4972994,
      "lng": 19.0579405,
      "halalFriendly": false,
      "bookingUrl": "https://www.eurostarsdanubebudapest.com/",
      "source": "osm"
    },
    {
      "nom": "Mera",
      "categorie": "Hôtel",
      "priceRange": "€€",
      "mapsUrl": "https://maps.google.com/?q=47.5044095,19.0552169",
      "lat": 47.5044095,
      "lng": 19.0552169,
      "halalFriendly": false,
      "bookingUrl": "https://maps.google.com/?q=47.5044095,19.0552169",
      "source": "osm"
    },
    {
      "nom": "Florin Apart Hotel",
      "categorie": "Hôtel",
      "priceRange": "€€€",
      "score": 3,
      "mapsUrl": "https://maps.google.com/?q=47.496638,19.0579515",
      "lat": 47.496638,
      "lng": 19.0579515,
      "halalFriendly": false,
      "bookingUrl": "https://maps.google.com/?q=47.496638,19.0579515",
      "source": "osm"
    },
    {
      "nom": "Wombat's City Hostel",
      "categorie": "Hôtel",
      "priceRange": "€€",
      "mapsUrl": "https://maps.google.com/?q=47.4991383,19.0580138",
      "lat": 47.4991383,
      "lng": 19.0580138,
      "halalFriendly": false,
      "bookingUrl": "https://www.wombats-hostels.com/budapest/",
      "source": "osm"
    },
    {
      "nom": "Roombach Hotel",
      "categorie": "Hôtel",
      "priceRange": "€€",
      "mapsUrl": "https://maps.google.com/?q=47.4977402,19.0581327",
      "lat": 47.4977402,
      "lng": 19.0581327,
      "halalFriendly": false,
      "bookingUrl": "https://maps.google.com/?q=47.4977402,19.0581327",
      "source": "osm"
    },
    {
      "nom": "Apartman 4 you",
      "categorie": "Appartement",
      "priceRange": "€€",
      "mapsUrl": "https://maps.google.com/?q=47.4939512,19.057328",
      "lat": 47.4939512,
      "lng": 19.057328,
      "halalFriendly": false,
      "bookingUrl": "https://maps.google.com/?q=47.4939512,19.057328",
      "source": "osm"
    },
    {
      "nom": "Hotel Bara Budapest",
      "categorie": "Hôtel",
      "priceRange": "€€",
      "mapsUrl": "https://maps.google.com/?q=47.4878526,19.0297805",
      "lat": 47.4878526,
      "lng": 19.0297805,
      "halalFriendly": false,
      "bookingUrl": "https://maps.google.com/?q=47.4878526,19.0297805",
      "source": "osm"
    },
    {
      "nom": "Opera Hostel",
      "categorie": "Auberge",
      "priceRange": "€€",
      "mapsUrl": "https://maps.google.com/?q=47.5031278,19.0566529",
      "lat": 47.5031278,
      "lng": 19.0566529,
      "halalFriendly": false,
      "bookingUrl": "https://www.operahostelbudapest.hu",
      "source": "osm"
    },
    {
      "nom": "Hampton by Hilton Budapest City Centre",
      "categorie": "Hôtel",
      "priceRange": "€€€",
      "score": 3,
      "mapsUrl": "https://maps.google.com/?q=47.5041346,19.0560129",
      "lat": 47.5041346,
      "lng": 19.0560129,
      "halalFriendly": false,
      "bookingUrl": "https://maps.google.com/?q=47.5041346,19.0560129",
      "source": "osm"
    },
    {
      "nom": "City Rooms",
      "categorie": "Appartement",
      "priceRange": "€€",
      "mapsUrl": "https://maps.google.com/?q=47.4911679,19.0558341",
      "lat": 47.4911679,
      "lng": 19.0558341,
      "halalFriendly": false,
      "bookingUrl": "https://maps.google.com/?q=47.4911679,19.0558341",
      "source": "osm"
    },
    {
      "nom": "Ikonik Parlament",
      "categorie": "Hôtel",
      "priceRange": "€€€€",
      "score": 4,
      "mapsUrl": "https://maps.google.com/?q=47.5068414,19.0532009",
      "lat": 47.5068414,
      "lng": 19.0532009,
      "halalFriendly": false,
      "bookingUrl": "https://maps.google.com/?q=47.5068414,19.0532009",
      "source": "osm"
    },
    {
      "nom": "Amber Terrace Studios",
      "categorie": "Appartement",
      "priceRange": "€€",
      "mapsUrl": "https://maps.google.com/?q=47.4909798,19.0560121",
      "lat": 47.4909798,
      "lng": 19.0560121,
      "halalFriendly": false,
      "bookingUrl": "https://maps.google.com/?q=47.4909798,19.0560121",
      "source": "osm"
    },
    {
      "nom": "Opera Garden Hotel & Apartments",
      "categorie": "Hôtel",
      "priceRange": "€€€€",
      "score": 4,
      "mapsUrl": "https://maps.google.com/?q=47.5044271,19.0567647",
      "lat": 47.5044271,
      "lng": 19.0567647,
      "halalFriendly": false,
      "bookingUrl": "https://www.operagardenhotel.hu/",
      "source": "osm"
    },
    {
      "nom": "Inner City hostel",
      "categorie": "Auberge",
      "priceRange": "€€",
      "mapsUrl": "https://maps.google.com/?q=47.5006598,19.0589798",
      "lat": 47.5006598,
      "lng": 19.0589798,
      "halalFriendly": false,
      "bookingUrl": "https://maps.google.com/?q=47.5006598,19.0589798",
      "source": "osm"
    },
    {
      "nom": "Hotel Regnum Residence",
      "categorie": "Hôtel",
      "priceRange": "€€€€",
      "score": 4,
      "mapsUrl": "https://maps.google.com/?q=47.5107569,19.0372385",
      "lat": 47.5107569,
      "lng": 19.0372385,
      "halalFriendly": false,
      "bookingUrl": "https://maps.google.com/?q=47.5107569,19.0372385",
      "source": "osm"
    },
    {
      "nom": "Danubius Hotel Erzsébet",
      "categorie": "Hôtel",
      "priceRange": "€€€",
      "score": 3,
      "mapsUrl": "https://maps.google.com/?q=47.4917298,19.0572443",
      "lat": 47.4917298,
      "lng": 19.0572443,
      "halalFriendly": false,
      "bookingUrl": "https://maps.google.com/?q=47.4917298,19.0572443",
      "source": "osm"
    },
    {
      "nom": "Onefam Budapest Hostel",
      "categorie": "Auberge",
      "priceRange": "€€",
      "mapsUrl": "https://maps.google.com/?q=47.497066,19.0595375",
      "lat": 47.497066,
      "lng": 19.0595375,
      "halalFriendly": false,
      "bookingUrl": "https://onefamhostels.com/budapest-onefam-hostel-budapest/",
      "source": "osm"
    },
    {
      "nom": "Cortile Hotel",
      "categorie": "Hôtel",
      "priceRange": "€€",
      "mapsUrl": "https://maps.google.com/?q=47.5051314,19.0564224",
      "lat": 47.5051314,
      "lng": 19.0564224,
      "halalFriendly": false,
      "bookingUrl": "https://cortilebudapesthotel.com/hu/",
      "source": "osm"
    },
    {
      "nom": "Hotel Casati",
      "categorie": "Hôtel",
      "priceRange": "€€",
      "mapsUrl": "https://maps.google.com/?q=47.5012263,19.0590057",
      "lat": 47.5012263,
      "lng": 19.0590057,
      "halalFriendly": false,
      "bookingUrl": "https://maps.google.com/?q=47.5012263,19.0590057",
      "source": "osm"
    },
    {
      "nom": "Budapest Panorama Central",
      "categorie": "Hôtel",
      "priceRange": "€€€",
      "score": 3,
      "mapsUrl": "https://maps.google.com/?q=47.4950011,19.059163",
      "lat": 47.4950011,
      "lng": 19.059163,
      "halalFriendly": false,
      "bookingUrl": "https://budapestpanoramacentral.com/",
      "source": "osm"
    },
    {
      "nom": "Vagabond Gozsdu",
      "categorie": "Appartement",
      "priceRange": "€€",
      "mapsUrl": "https://maps.google.com/?q=47.4988952,19.0596722",
      "lat": 47.4988952,
      "lng": 19.0596722,
      "halalFriendly": false,
      "bookingUrl": "https://maps.google.com/?q=47.4988952,19.0596722",
      "source": "osm"
    },
    {
      "nom": "Gaia Hostel",
      "categorie": "Auberge",
      "priceRange": "€€",
      "mapsUrl": "https://maps.google.com/?q=47.493877,19.05901",
      "lat": 47.493877,
      "lng": 19.05901,
      "halalFriendly": false,
      "bookingUrl": "https://maps.google.com/?q=47.493877,19.05901",
      "source": "osm"
    },
    {
      "nom": "Aboriginal Budapest Apartments",
      "categorie": "Appartement",
      "priceRange": "€€",
      "mapsUrl": "https://maps.google.com/?q=47.5004725,19.0595731",
      "lat": 47.5004725,
      "lng": 19.0595731,
      "halalFriendly": false,
      "bookingUrl": "http://www.aboriginal-budapest-apartments.com/",
      "source": "osm"
    },
    {
      "nom": "Károly Corner Residences",
      "categorie": "Appartement",
      "priceRange": "€€",
      "mapsUrl": "https://maps.google.com/?q=47.4953407,19.0596911",
      "lat": 47.4953407,
      "lng": 19.0596911,
      "halalFriendly": false,
      "bookingUrl": "https://maps.google.com/?q=47.4953407,19.0596911",
      "source": "osm"
    },
    {
      "nom": "Maria's Apartment",
      "categorie": "Appartement",
      "priceRange": "€€",
      "mapsUrl": "https://maps.google.com/?q=47.5105919,19.0337561",
      "lat": 47.5105919,
      "lng": 19.0337561,
      "halalFriendly": false,
      "bookingUrl": "https://maps.google.com/?q=47.5105919,19.0337561",
      "source": "osm"
    },
    {
      "nom": "Broadway Apartments and Hostel",
      "categorie": "Hôtel",
      "priceRange": "€€",
      "mapsUrl": "https://maps.google.com/?q=47.5041509,19.0579592",
      "lat": 47.5041509,
      "lng": 19.0579592,
      "halalFriendly": false,
      "bookingUrl": "https://maps.google.com/?q=47.5041509,19.0579592",
      "source": "osm"
    },
    {
      "nom": "W Budapest",
      "categorie": "Hôtel",
      "priceRange": "€€",
      "mapsUrl": "https://maps.google.com/?q=47.5019512,19.0593265",
      "lat": 47.5019512,
      "lng": 19.0593265,
      "halalFriendly": false,
      "bookingUrl": "https://maps.google.com/?q=47.5019512,19.0593265",
      "source": "osm"
    },
    {
      "nom": "Season Hostel 2",
      "categorie": "Auberge",
      "priceRange": "€€",
      "mapsUrl": "https://maps.google.com/?q=47.5090865,19.028838",
      "lat": 47.5090865,
      "lng": 19.028838,
      "halalFriendly": false,
      "bookingUrl": "https://maps.google.com/?q=47.5090865,19.028838",
      "source": "osm"
    },
    {
      "nom": "Christoph’s Central Apartment",
      "categorie": "Appartement",
      "priceRange": "€€",
      "mapsUrl": "https://maps.google.com/?q=47.4891106,19.0555111",
      "lat": 47.4891106,
      "lng": 19.0555111,
      "halalFriendly": false,
      "bookingUrl": "https://www.booking.com/Share-nmIuSK",
      "source": "osm"
    },
    {
      "nom": "Hotel Memories Budapest",
      "categorie": "Hôtel",
      "priceRange": "€€",
      "mapsUrl": "https://maps.google.com/?q=47.4966315,19.0603781",
      "lat": 47.4966315,
      "lng": 19.0603781,
      "halalFriendly": false,
      "bookingUrl": "https://maps.google.com/?q=47.4966315,19.0603781",
      "source": "osm"
    },
    {
      "nom": "HBC Hostel",
      "categorie": "Auberge",
      "priceRange": "€€",
      "mapsUrl": "https://maps.google.com/?q=47.5065773,19.055897",
      "lat": 47.5065773,
      "lng": 19.055897,
      "halalFriendly": false,
      "bookingUrl": "https://maps.google.com/?q=47.5065773,19.055897",
      "source": "osm"
    },
    {
      "nom": "Danubius Hotel Astoria",
      "categorie": "Hôtel",
      "priceRange": "€€€€",
      "score": 4,
      "mapsUrl": "https://maps.google.com/?q=47.4937724,19.0595899",
      "lat": 47.4937724,
      "lng": 19.0595899,
      "halalFriendly": false,
      "bookingUrl": "https://maps.google.com/?q=47.4937724,19.0595899",
      "source": "osm"
    },
    {
      "nom": "Wonder",
      "categorie": "Hôtel",
      "priceRange": "€€",
      "mapsUrl": "https://maps.google.com/?q=47.5005515,19.0601578",
      "lat": 47.5005515,
      "lng": 19.0601578,
      "halalFriendly": false,
      "bookingUrl": "https://maps.google.com/?q=47.5005515,19.0601578",
      "source": "osm"
    },
    {
      "nom": "Hotel Kristal",
      "categorie": "Hôtel",
      "priceRange": "€€",
      "mapsUrl": "https://maps.google.com/?q=47.4872809,19.0272837",
      "lat": 47.4872809,
      "lng": 19.0272837,
      "halalFriendly": false,
      "bookingUrl": "https://maps.google.com/?q=47.4872809,19.0272837",
      "source": "osm"
    },
    {
      "nom": "The Loft Hostel",
      "categorie": "Auberge",
      "priceRange": "€€",
      "mapsUrl": "https://maps.google.com/?q=47.4898682,19.0568282",
      "lat": 47.4898682,
      "lng": 19.0568282,
      "halalFriendly": false,
      "bookingUrl": "https://maps.google.com/?q=47.4898682,19.0568282",
      "source": "osm"
    },
    {
      "nom": "Pullman",
      "categorie": "Hôtel",
      "priceRange": "€€",
      "mapsUrl": "https://maps.google.com/?q=47.5044072,19.058258",
      "lat": 47.5044072,
      "lng": 19.058258,
      "halalFriendly": false,
      "bookingUrl": "https://maps.google.com/?q=47.5044072,19.058258",
      "source": "osm"
    },
    {
      "nom": "Loft Astoria",
      "categorie": "Appartement",
      "priceRange": "€€",
      "mapsUrl": "https://maps.google.com/?q=47.4938945,19.0598544",
      "lat": 47.4938945,
      "lng": 19.0598544,
      "halalFriendly": false,
      "bookingUrl": "https://maps.google.com/?q=47.4938945,19.0598544",
      "source": "osm"
    },
    {
      "nom": "Bohem Art Hotel",
      "categorie": "Hôtel",
      "priceRange": "€€€€",
      "score": 4,
      "mapsUrl": "https://maps.google.com/?q=47.4885249,19.0554435",
      "lat": 47.4885249,
      "lng": 19.0554435,
      "halalFriendly": false,
      "bookingUrl": "https://maps.google.com/?q=47.4885249,19.0554435",
      "source": "osm"
    },
    {
      "nom": "Hotel Mika Downtown",
      "categorie": "Hôtel",
      "priceRange": "€€",
      "mapsUrl": "https://maps.google.com/?q=47.4993854,19.0609476",
      "lat": 47.4993854,
      "lng": 19.0609476,
      "halalFriendly": false,
      "bookingUrl": "https://hotelmika.com/",
      "source": "osm"
    },
    {
      "nom": "11th Hour Cinema Hostel",
      "categorie": "Auberge",
      "priceRange": "€€",
      "mapsUrl": "https://maps.google.com/?q=47.4929353,19.0597877",
      "lat": 47.4929353,
      "lng": 19.0597877,
      "halalFriendly": false,
      "bookingUrl": "https://maps.google.com/?q=47.4929353,19.0597877",
      "source": "osm"
    },
    {
      "nom": "Kimpton BEM Budapest",
      "categorie": "Hôtel",
      "priceRange": "€€",
      "mapsUrl": "https://maps.google.com/?q=47.5121016,19.0379353",
      "lat": 47.5121016,
      "lng": 19.0379353,
      "halalFriendly": false,
      "bookingUrl": "https://maps.google.com/?q=47.5121016,19.0379353",
      "source": "osm"
    }
  ],
  "mosqueesPrincipales": [
    {
      "id": "m37135081",
      "nom": "Budavári Nagyboldogasszony-templom",
      "type": "Mosquée",
      "adresse": "Szentháromság tér, Budapest",
      "description": "Lieu de prière (OpenStreetMap).",
      "mapsUrl": "https://maps.google.com/?q=47.5020093,19.0342639",
      "lat": 47.5020093,
      "lng": 19.0342639,
      "source": "osm"
    },
    {
      "id": "m249932064",
      "nom": "Szilágyi Dezső téri református templom",
      "type": "Mosquée",
      "adresse": "",
      "description": "Lieu de prière (OpenStreetMap).",
      "mapsUrl": "https://maps.google.com/?q=47.5038103,19.0389547",
      "lat": 47.5038103,
      "lng": 19.0389547,
      "source": "osm"
    },
    {
      "id": "m243689215",
      "nom": "Szent Anna-templom",
      "type": "Mosquée",
      "adresse": "",
      "description": "Lieu de prière (OpenStreetMap).",
      "mapsUrl": "https://maps.google.com/?q=47.5055806,19.0383772",
      "lat": 47.5055806,
      "lng": 19.0383772,
      "source": "osm"
    },
    {
      "id": "m24321885",
      "nom": "Belvárosi Nagyboldogasszony-templom",
      "type": "Mosquée",
      "adresse": "",
      "description": "Lieu de prière (OpenStreetMap).",
      "mapsUrl": "https://maps.google.com/?q=47.492233,19.0522943",
      "lat": 47.492233,
      "lng": 19.0522943,
      "source": "osm"
    },
    {
      "id": "m24324325",
      "nom": "Belvárosi Ferences templom",
      "type": "Mosquée",
      "adresse": "Ferenciek tere, Budapest",
      "description": "Lieu de prière (OpenStreetMap).",
      "mapsUrl": "https://maps.google.com/?q=47.4931962,19.0564677",
      "lat": 47.4931962,
      "lng": 19.0564677,
      "source": "osm"
    },
    {
      "id": "m259555819",
      "nom": "Rumbach utcai zsinagóga",
      "type": "Mosquée",
      "adresse": "Rumbach Sebestyén utca, Budapest",
      "description": "Lieu de prière (OpenStreetMap).",
      "mapsUrl": "https://maps.google.com/?q=47.4979011,19.0589118",
      "lat": 47.4979011,
      "lng": 19.0589118,
      "source": "osm"
    },
    {
      "id": "m223530620",
      "nom": "Dohány utcai zsinagóga",
      "type": "Mosquée",
      "adresse": "Dohány utca, Budapest",
      "description": "Lieu de prière (OpenStreetMap).",
      "mapsUrl": "https://maps.google.com/?q=47.4960023,19.0607176",
      "lat": 47.4960023,
      "lng": 19.0607176,
      "source": "osm"
    },
    {
      "id": "m9114091196",
      "nom": "Magyarok Nagyasszonya Sziklatemplom",
      "type": "Mosquée",
      "adresse": "Szent Gellért rakpart, Budapest",
      "description": "Lieu de prière (OpenStreetMap).",
      "mapsUrl": "https://maps.google.com/?q=47.4849249,19.0521678",
      "lat": 47.4849249,
      "lng": 19.0521678,
      "source": "osm"
    },
    {
      "id": "m25215160",
      "nom": "Avilai Nagy Szent Teréz-templom",
      "type": "Mosquée",
      "adresse": "Szent Teréz utca, Budapest",
      "description": "Lieu de prière (OpenStreetMap).",
      "mapsUrl": "https://maps.google.com/?q=47.5022349,19.0627121",
      "lat": 47.5022349,
      "lng": 19.0627121,
      "source": "osm"
    },
    {
      "id": "m129917687",
      "nom": "Kálvin téri református templom",
      "type": "Mosquée",
      "adresse": "",
      "description": "Lieu de prière (OpenStreetMap).",
      "mapsUrl": "https://maps.google.com/?q=47.4885398,19.0612151",
      "lat": 47.4885398,
      "lng": 19.0612151,
      "source": "osm"
    },
    {
      "id": "m3007189611",
      "nom": "Dar Al Salam mecset",
      "type": "Mosquée",
      "adresse": "",
      "description": "Lieu de prière (OpenStreetMap).",
      "mapsUrl": "https://maps.google.com/?q=47.4799148,19.0503655",
      "lat": 47.4799148,
      "lng": 19.0503655,
      "source": "osm"
    },
    {
      "id": "m25277227",
      "nom": "Árpád-házi Szent Erzsébet-templom",
      "type": "Mosquée",
      "adresse": "Rózsák tere, Budapest",
      "description": "Lieu de prière (OpenStreetMap).",
      "mapsUrl": "https://maps.google.com/?q=47.5011417,19.0762367",
      "lat": 47.5011417,
      "lng": 19.0762367,
      "source": "osm"
    },
    {
      "id": "m11345814718",
      "nom": "Masjid-Al Noor",
      "type": "Mosquée",
      "adresse": "Rákóczi út, Budapest",
      "description": "Lieu de prière (OpenStreetMap).",
      "mapsUrl": "https://maps.google.com/?q=47.4992793,19.0777005",
      "lat": 47.4992793,
      "lng": 19.0777005,
      "source": "osm"
    },
    {
      "id": "m32805297",
      "nom": "Budapest Mecset",
      "type": "Mosquée",
      "adresse": "Fehérvári út, Budapest",
      "description": "Lieu de prière (OpenStreetMap).",
      "mapsUrl": "https://maps.google.com/?q=47.470789,19.0442503",
      "lat": 47.470789,
      "lng": 19.0442503,
      "source": "osm"
    },
    {
      "id": "m254158934",
      "nom": "Örökimádás-templom",
      "type": "Mosquée",
      "adresse": "Üllői út, Budapest",
      "description": "Lieu de prière (OpenStreetMap).",
      "mapsUrl": "https://maps.google.com/?q=47.483167,19.0763113",
      "lat": 47.483167,
      "lng": 19.0763113,
      "source": "osm"
    },
    {
      "id": "m11232493021",
      "nom": "Al-Huda Mecset",
      "type": "Mosquée",
      "adresse": "Dobozi utca, Budapest",
      "description": "Lieu de prière (OpenStreetMap).",
      "mapsUrl": "https://maps.google.com/?q=47.4931416,19.0852753",
      "lat": 47.4931416,
      "lng": 19.0852753,
      "source": "osm"
    },
    {
      "id": "m6581341610",
      "nom": "Elnour Center Mecset",
      "type": "Mosquée",
      "adresse": "",
      "description": "Lieu de prière (OpenStreetMap).",
      "mapsUrl": "https://maps.google.com/?q=47.5019601,19.0908518",
      "lat": 47.5019601,
      "lng": 19.0908518,
      "source": "osm"
    },
    {
      "id": "m255174410",
      "nom": "Kokárda Katakomba Emlékhely és kápolna",
      "type": "Mosquée",
      "adresse": "",
      "description": "Lieu de prière (OpenStreetMap).",
      "mapsUrl": "https://maps.google.com/?q=47.4889634,19.0907927",
      "lat": 47.4889634,
      "lng": 19.0907927,
      "source": "osm"
    },
    {
      "id": "m117516299",
      "nom": "Óbudai zsinagóga",
      "type": "Mosquée",
      "adresse": "Árpád fejedelem útja",
      "description": "Lieu de prière (OpenStreetMap).",
      "mapsUrl": "https://maps.google.com/?q=47.5370122,19.0459309",
      "lat": 47.5370122,
      "lng": 19.0459309,
      "source": "osm"
    },
    {
      "id": "m3843609299",
      "nom": "Kövi Szűz Mária",
      "type": "Mosquée",
      "adresse": "",
      "description": "Lieu de prière (OpenStreetMap).",
      "mapsUrl": "https://maps.google.com/?q=47.5551499,19.0448804",
      "lat": 47.5551499,
      "lng": 19.0448804,
      "source": "osm"
    },
    {
      "id": "m1009647917",
      "nom": "Szent László-templom",
      "type": "Mosquée",
      "adresse": "Szent László tér, Budapest",
      "description": "Lieu de prière (OpenStreetMap).",
      "mapsUrl": "https://maps.google.com/?q=47.4871249,19.1319654",
      "lat": 47.4871249,
      "lng": 19.1319654,
      "source": "osm"
    },
    {
      "id": "m5739229969",
      "nom": "Pálos kolostorrom",
      "type": "Mosquée",
      "adresse": "Budakeszi út, Budapest",
      "description": "Lieu de prière (OpenStreetMap).",
      "mapsUrl": "https://maps.google.com/?q=47.5267721,18.9558554",
      "lat": 47.5267721,
      "lng": 18.9558554,
      "source": "osm"
    },
    {
      "id": "m378904622",
      "nom": "Budapest-Kőbányai evangélikus templom",
      "type": "Mosquée",
      "adresse": "Kápolna utca, Budapest",
      "description": "Lieu de prière (OpenStreetMap).",
      "mapsUrl": "https://maps.google.com/?q=47.4820497,19.1323803",
      "lat": 47.4820497,
      "lng": 19.1323803,
      "source": "osm"
    },
    {
      "id": "m523418787",
      "nom": "Segítő Szűz Mária-kápolna",
      "type": "Mosquée",
      "adresse": "Kápolna tér, Budapest",
      "description": "Lieu de prière (OpenStreetMap).",
      "mapsUrl": "https://maps.google.com/?q=47.4807987,19.1390234",
      "lat": 47.4807987,
      "lng": 19.1390234,
      "source": "osm"
    },
    {
      "id": "m4796818922",
      "nom": "Durics Hilmi Huszein mecset",
      "type": "Mosquée",
      "adresse": "Paskál utca, Budapest",
      "description": "Lieu de prière (OpenStreetMap).",
      "mapsUrl": "https://maps.google.com/?q=47.5272891,19.1386696",
      "lat": 47.5272891,
      "lng": 19.1386696,
      "source": "osm"
    },
    {
      "id": "m8402064020",
      "nom": "Mária kegyhely",
      "type": "Mosquée",
      "adresse": "Budakeszi",
      "description": "Lieu de prière (OpenStreetMap).",
      "mapsUrl": "https://maps.google.com/?q=47.4944794,18.9259129",
      "lat": 47.4944794,
      "lng": 18.9259129,
      "source": "osm"
    },
    {
      "id": "m129103854",
      "nom": "Nagyboldogasszony-kápolna",
      "type": "Mosquée",
      "adresse": "Gercsényi utca, Budapest",
      "description": "Lieu de prière (OpenStreetMap).",
      "mapsUrl": "https://maps.google.com/?q=47.5646442,18.9798465",
      "lat": 47.5646442,
      "lng": 18.9798465,
      "source": "osm"
    }
  ],
  "activites": [
    {
      "id": "a736070388",
      "nom": "„0” kilométerkő",
      "categorie": "artwork",
      "description": "",
      "prix": "",
      "duree": "",
      "mapsUrl": "https://maps.google.com/?q=47.4978783,19.0402358",
      "lat": 47.4978783,
      "lng": 19.0402358,
      "source": "osm"
    },
    {
      "id": "a736076026",
      "nom": "Bizalom címer",
      "categorie": "artwork",
      "description": "",
      "prix": "",
      "duree": "",
      "mapsUrl": "https://maps.google.com/?q=47.497747,19.0398674",
      "lat": 47.497747,
      "lng": 19.0398674,
      "source": "osm"
    },
    {
      "id": "a735462396",
      "nom": "Alagút, keleti bejárat",
      "categorie": "viewpoint",
      "description": "",
      "prix": "",
      "duree": "",
      "mapsUrl": "https://maps.google.com/?q=47.4981745,19.0394965",
      "lat": 47.4981745,
      "lng": 19.0394965,
      "source": "osm"
    },
    {
      "id": "a8838110951",
      "nom": "gróf Széchenyi István címere",
      "categorie": "memorial",
      "description": "",
      "prix": "",
      "duree": "",
      "mapsUrl": "https://maps.google.com/?q=47.4984403,19.0411899",
      "lat": 47.4984403,
      "lng": 19.0411899,
      "source": "osm"
    },
    {
      "id": "a4191830926",
      "nom": "Oroszlán",
      "categorie": "artwork",
      "description": "",
      "prix": "",
      "duree": "",
      "mapsUrl": "https://maps.google.com/?q=47.4984452,19.0412082",
      "lat": 47.4984452,
      "lng": 19.0412082,
      "source": "osm"
    },
    {
      "id": "a8838187692",
      "nom": "Podmaniczky Frigyes",
      "categorie": "memorial",
      "description": "",
      "prix": "",
      "duree": "",
      "mapsUrl": "https://maps.google.com/?q=47.4987635,19.0404204",
      "lat": 47.4987635,
      "lng": 19.0404204,
      "source": "osm"
    },
    {
      "id": "a8838114190",
      "nom": "báró Sina György címere",
      "categorie": "memorial",
      "description": "",
      "prix": "",
      "duree": "",
      "mapsUrl": "https://maps.google.com/?q=47.4985627,19.0411493",
      "lat": 47.4985627,
      "lng": 19.0411493,
      "source": "osm"
    },
    {
      "id": "a6838313001",
      "nom": "Kockásfülű nyúl",
      "categorie": "artwork",
      "description": "",
      "prix": "",
      "duree": "",
      "mapsUrl": "https://maps.google.com/?q=47.4975131,19.0387926",
      "lat": 47.4975131,
      "lng": 19.0387926,
      "source": "osm"
    },
    {
      "id": "a2091172445",
      "nom": "Turul",
      "categorie": "memorial",
      "description": "",
      "prix": "",
      "duree": "",
      "mapsUrl": "https://maps.google.com/?q=47.4974719,19.0387968",
      "lat": 47.4974719,
      "lng": 19.0387968,
      "source": "osm"
    },
    {
      "id": "a735696178",
      "nom": "Halászó gyerekek",
      "categorie": "artwork",
      "description": "",
      "prix": "",
      "duree": "",
      "mapsUrl": "https://maps.google.com/?q=47.4971289,19.0388556",
      "lat": 47.4971289,
      "lng": 19.0388556,
      "source": "osm"
    },
    {
      "id": "a4483674289",
      "nom": "Polipölő",
      "categorie": "artwork",
      "description": "",
      "prix": "",
      "duree": "",
      "mapsUrl": "https://maps.google.com/?q=47.498891,19.0391185",
      "lat": 47.498891,
      "lng": 19.0391185,
      "source": "osm"
    },
    {
      "id": "a9894131864",
      "nom": "Jeruzsálem park",
      "categorie": "memorial",
      "description": "",
      "prix": "",
      "duree": "",
      "mapsUrl": "https://maps.google.com/?q=47.4970138,19.0415946",
      "lat": 47.4970138,
      "lng": 19.0415946,
      "source": "osm"
    },
    {
      "id": "a9894131866",
      "nom": "Kavics",
      "categorie": "artwork",
      "description": "",
      "prix": "",
      "duree": "",
      "mapsUrl": "https://maps.google.com/?q=47.4970364,19.041672",
      "lat": 47.4970364,
      "lng": 19.041672,
      "source": "osm"
    },
    {
      "id": "a6458710786",
      "nom": "őrségváltás",
      "categorie": "attraction",
      "description": "",
      "prix": "",
      "duree": "",
      "mapsUrl": "https://maps.google.com/?q=47.4976438,19.0382673",
      "lat": 47.4976438,
      "lng": 19.0382673,
      "source": "osm"
    },
    {
      "id": "a2315294665",
      "nom": "Savoyai Jenő",
      "categorie": "memorial",
      "description": "",
      "prix": "",
      "duree": "",
      "mapsUrl": "https://maps.google.com/?q=47.496414,19.04008",
      "lat": 47.496414,
      "lng": 19.04008,
      "source": "osm"
    },
    {
      "id": "a12103076653",
      "nom": "Csongor",
      "categorie": "artwork",
      "description": "",
      "prix": "",
      "duree": "",
      "mapsUrl": "https://maps.google.com/?q=47.496408,19.0397083",
      "lat": 47.496408,
      "lng": 19.0397083,
      "source": "osm"
    },
    {
      "id": "a9653725776",
      "nom": "Konkoly-Thege Miklós",
      "categorie": "memorial",
      "description": "",
      "prix": "",
      "duree": "",
      "mapsUrl": "https://maps.google.com/?q=47.4994339,19.0399709",
      "lat": 47.4994339,
      "lng": 19.0399709,
      "source": "osm"
    },
    {
      "id": "a5642565536",
      "nom": "Akseli Gallen-Kallela",
      "categorie": "memorial",
      "description": "",
      "prix": "",
      "duree": "",
      "mapsUrl": "https://maps.google.com/?q=47.4967987,19.0418314",
      "lat": 47.4967987,
      "lng": 19.0418314,
      "source": "osm"
    },
    {
      "id": "a5249045295",
      "nom": "Hollán Sándor",
      "categorie": "memorial",
      "description": "",
      "prix": "",
      "duree": "",
      "mapsUrl": "https://maps.google.com/?q=47.4986415,19.0423966",
      "lat": 47.4986415,
      "lng": 19.0423966,
      "source": "osm"
    },
    {
      "id": "a8728469589",
      "nom": "Magyar Asszonyok Bástyája",
      "categorie": "viewpoint",
      "description": "",
      "prix": "",
      "duree": "",
      "mapsUrl": "https://maps.google.com/?q=47.4988801,19.0381872",
      "lat": 47.4988801,
      "lng": 19.0381872,
      "source": "osm"
    },
    {
      "id": "a735186601",
      "nom": "Magyar Nemzeti Galéria",
      "categorie": "gallery",
      "description": "",
      "prix": "",
      "duree": "",
      "mapsUrl": "https://maps.google.com/?q=47.4962283,19.0397733",
      "lat": 47.4962283,
      "lng": 19.0397733,
      "source": "osm"
    },