{
  "slug": "buenos-aires",
  "nom": "Buenos Aires",
  "pays": "Argentine",
  "pays_slug": "argentine",
  "continent": "Amérique du Sud",
  "region": "Argentine",
  "coordonnees": {
    "lat": -34.6037,
    "lng": -58.3816
  },
  "codeISO": "AR",
  "score_halal": 3.1,
  "halalScore": 6.2,
  "villeNonMusulmane": true,
  "description": "Capitale élégante au charme européen. Centre islamique Roi Fahd et restaurants halal dans la capitale.",
  "metaDescription": "Capitale élégante au charme européen. Centre islamique Roi Fahd et restaurants halal dans la capitale.",
  "image": "https://upload.wikimedia.org/wikipedia/commons/thumb/7/7f/Buenos_Aires_skyline_day.jpg/1920px-Buenos_Aires_skyline_day.jpg",
  "image_hero": "https://upload.wikimedia.org/wikipedia/commons/thumb/7/7f/Buenos_Aires_skyline_day.jpg/1920px-Buenos_Aires_skyline_day.jpg",
  "imageCredit": "Wikimedia Commons",
  "statistiques": {
    "restaurants_halal": 29,
    "mosquees": 7,
    "hotels": 120
  },
  "infoPratique": {
    "transport": "Accessible par avion et transports en commun locaux.",
    "meilleureEpoque": "Printemps et automne (climat tempéré).",
    "conseilHalal": "Ville non-musulmane : repérez les restaurants halal signalés et les mosquées via l'application avant votre visite."
  },
  "tags": [
    "halal",
    "ville non-musulmane",
    "amérique du sud"
  ],
  "restaurants": [
    {
      "nom": "La Mil y Una Noches",
      "type": "arab",
      "priceRange": "€€",
      "mapsUrl": "https://maps.google.com/?q=-34.6043411,-58.3850318",
      "lat": -34.6043411,
      "lng": -58.3850318,
      "halalConfidence": "likely",
      "source": "osm"
    },
    {
      "nom": "Don Shawarma",
      "type": "turkish",
      "priceRange": "€€",
      "mapsUrl": "https://maps.google.com/?q=-34.6004601,-58.3867145",
      "lat": -34.6004601,
      "lng": -58.3867145,
      "halalConfidence": "likely",
      "source": "osm"
    },
    {
      "nom": "Lo de Amira",
      "type": "kebab",
      "priceRange": "€€",
      "mapsUrl": "https://maps.google.com/?q=-34.6023999,-58.3893915",
      "lat": -34.6023999,
      "lng": -58.3893915,
      "halalConfidence": "likely",
      "source": "osm"
    },
    {
      "nom": "Shami Shawarma",
      "type": "arab",
      "priceRange": "€€",
      "mapsUrl": "https://maps.google.com/?q=-34.5988164,-58.3928281",
      "lat": -34.5988164,
      "lng": -58.3928281,
      "halalConfidence": "likely",
      "source": "osm"
    },
    {
      "nom": "Shawarma Al Nabek",
      "type": "arab, kebab, oriental, persian",
      "priceRange": "€€",
      "mapsUrl": "https://maps.google.com/?q=-34.6148347,-58.3903957",
      "lat": -34.6148347,
      "lng": -58.3903957,
      "halalConfidence": "likely",
      "source": "osm"
    },
    {
      "nom": "Al Arabe",
      "type": "kebab",
      "priceRange": "€€",
      "mapsUrl": "https://maps.google.com/?q=-34.5920139,-58.3901391",
      "lat": -34.5920139,
      "lng": -58.3901391,
      "halalConfidence": "likely",
      "source": "osm"
    },
    {
      "nom": "Jhabibi",
      "type": "arab",
      "priceRange": "€€",
      "mapsUrl": "https://maps.google.com/?q=-34.6206667,-58.373451",
      "lat": -34.6206667,
      "lng": -58.373451,
      "halalConfidence": "likely",
      "source": "osm"
    },
    {
      "nom": "Souriana",
      "type": "kebab",
      "priceRange": "€€",
      "mapsUrl": "https://maps.google.com/?q=-34.5927321,-58.4029087",
      "lat": -34.5927321,
      "lng": -58.4029087,
      "halalConfidence": "likely",
      "source": "osm"
    },
    {
      "nom": "Shawami",
      "type": "shawarma",
      "priceRange": "€€",
      "mapsUrl": "https://maps.google.com/?q=-34.5867773,-58.4132248",
      "lat": -34.5867773,
      "lng": -58.4132248,
      "halalConfidence": "likely",
      "source": "osm"
    },
    {
      "nom": "La Vianda",
      "type": "arab, argentinian",
      "priceRange": "€€",
      "mapsUrl": "https://maps.google.com/?q=-34.6378114,-58.3752869",
      "lat": -34.6378114,
      "lng": -58.3752869,
      "halalConfidence": "likely",
      "source": "osm"
    },
    {
      "nom": "Garbis",
      "type": "arab",
      "priceRange": "€€",
      "mapsUrl": "https://maps.google.com/?q=-34.5982162,-58.4278322",
      "lat": -34.5982162,
      "lng": -58.4278322,
      "halalConfidence": "likely",
      "source": "osm"
    },
    {
      "nom": "Al Shark",
      "type": "arab",
      "priceRange": "€€",
      "mapsUrl": "https://maps.google.com/?q=-34.5917917,-58.4267697",
      "lat": -34.5917917,
      "lng": -58.4267697,
      "halalConfidence": "likely",
      "source": "osm"
    },
    {
      "nom": "Comida Arabe",
      "type": "kebab",
      "priceRange": "€€",
      "mapsUrl": "https://maps.google.com/?q=-34.5826301,-58.4272168",
      "lat": -34.5826301,
      "lng": -58.4272168,
      "halalConfidence": "likely",
      "source": "osm"
    },
    {
      "nom": "Shawarma Honduras",
      "type": "turkish",
      "priceRange": "€€",
      "mapsUrl": "https://maps.google.com/?q=-34.586652,-58.4332999",
      "lat": -34.586652,
      "lng": -58.4332999,
      "halalConfidence": "likely",
      "source": "osm"
    },
    {
      "nom": "Falafelandia",
      "type": "arab, sandwich, tea, turkish",
      "priceRange": "€€",
      "mapsUrl": "https://maps.google.com/?q=-34.5904823,-58.4360455",
      "lat": -34.5904823,
      "lng": -58.4360455,
      "halalConfidence": "likely",
      "source": "osm"
    },
    {
      "nom": "Al Karim",
      "type": "shawarma",
      "priceRange": "€€",
      "mapsUrl": "https://maps.google.com/?q=-34.6162424,-58.4388154",
      "lat": -34.6162424,
      "lng": -58.4388154,
      "halalConfidence": "likely",
      "source": "osm"
    },
    {
      "nom": "Mezze Delicatessen",
      "type": "arab, mediterranean",
      "priceRange": "€€",
      "mapsUrl": "https://maps.google.com/?q=-34.5696397,-58.4417168",
      "lat": -34.5696397,
      "lng": -58.4417168,
      "halalConfidence": "likely",
      "source": "osm"
    },
    {
      "nom": "Al Zein",
      "type": "arab, shawarma",
      "priceRange": "€€",
      "mapsUrl": "https://maps.google.com/?q=-34.5635258,-58.4384811",
      "lat": -34.5635258,
      "lng": -58.4384811,
      "halalConfidence": "likely",
      "source": "osm"
    },
    {
      "nom": "El Armenio",
      "type": "arab",
      "priceRange": "€€",
      "mapsUrl": "https://maps.google.com/?q=-34.578687,-58.4602977",
      "lat": -34.578687,
      "lng": -58.4602977,
      "halalConfidence": "likely",
      "source": "osm"
    },
    {
      "nom": "Shawarma Qatar",
      "type": "shawarma",
      "priceRange": "€€",
      "mapsUrl": "https://maps.google.com/?q=-34.5585547,-58.4482285",
      "lat": -34.5585547,
      "lng": -58.4482285,
      "halalConfidence": "likely",
      "source": "osm"
    },
    {
      "nom": "Al-Amir",
      "type": "arab",
      "priceRange": "€€",
      "mapsUrl": "https://maps.google.com/?q=-34.5576255,-58.4486123",
      "lat": -34.5576255,
      "lng": -58.4486123,
      "halalConfidence": "likely",
      "source": "osm"
    },
    {
      "nom": "Al Rayan",
      "type": "arab",
      "priceRange": "€€",
      "mapsUrl": "https://maps.google.com/?q=-34.5608098,-58.4568901",
      "lat": -34.5608098,
      "lng": -58.4568901,
      "halalConfidence": "likely",
      "source": "osm"
    },
    {
      "nom": "Fatay - Comida Arabe",
      "type": "arab",
      "priceRange": "€€",
      "mapsUrl": "https://maps.google.com/?q=-34.6254463,-58.4775631",
      "lat": -34.6254463,
      "lng": -58.4775631,
      "halalConfidence": "likely",
      "source": "osm"
    },
    {
      "nom": "Rami",
      "type": "arab",
      "priceRange": "€€",
      "mapsUrl": "https://maps.google.com/?q=-34.5643272,-58.4698601",
      "lat": -34.5643272,
      "lng": -58.4698601,
      "halalConfidence": "likely",
      "source": "osm"
    },
    {
      "nom": "Shawarma Dalal",
      "type": "arab, turkish",
      "priceRange": "€€",
      "mapsUrl": "https://maps.google.com/?q=-34.5448809,-58.4722058",
      "lat": -34.5448809,
      "lng": -58.4722058,
      "halalConfidence": "likely",
      "source": "osm"
    },
    {
      "nom": "Delhi Mahal",
      "lat": -34.5989593,
      "lng": -58.3832048,
      "type": "indian",
      "halalConfidence": "likely",
      "mapsUrl": "https://maps.google.com/?q=-34.5989593,-58.3832048",
      "source": "osm"
    },
    {
      "nom": "Mumbai Mahal",
      "lat": -34.5974321,
      "lng": -58.3733871,
      "type": "indian",
      "halalConfidence": "likely",
      "mapsUrl": "https://maps.google.com/?q=-34.5974321,-58.3733871",
      "source": "osm"
    },
    {
      "nom": "Bharat",
      "lat": -34.6099435,
      "lng": -58.3634439,
      "type": "indian",
      "halalConfidence": "likely",
      "mapsUrl": "https://maps.google.com/?q=-34.6099435,-58.3634439",
      "source": "osm"
    },
    {
      "nom": "Tandoor",
      "lat": -34.5937058,
      "lng": -58.407231,
      "type": "indian",
      "halalConfidence": "likely",
      "mapsUrl": "https://maps.google.com/?q=-34.5937058,-58.407231",
      "source": "osm"
    },
    {
      "nom": "La Reina Kunti",
      "lat": -34.6025086,
      "lng": -58.4156753,
      "type": "indian",
      "halalConfidence": "likely",
      "mapsUrl": "https://maps.google.com/?q=-34.6025086,-58.4156753",
      "source": "osm"
    },
    {
      "nom": "Taj Mahal",
      "lat": -34.5900062,
      "lng": -58.422704,
      "type": "indian",
      "halalConfidence": "likely",
      "mapsUrl": "https://maps.google.com/?q=-34.5900062,-58.422704",
      "source": "osm"
    },
    {
      "nom": "Vrindavan",
      "lat": -34.584742,
      "lng": -58.4350083,
      "type": "indian",
      "halalConfidence": "likely",
      "mapsUrl": "https://maps.google.com/?q=-34.584742,-58.4350083",
      "source": "osm"
    },
    {
      "nom": "Mumbai",
      "lat": -34.5835458,
      "lng": -58.4372241,
      "type": "indian",
      "halalConfidence": "likely",
      "mapsUrl": "https://maps.google.com/?q=-34.5835458,-58.4372241",
      "source": "osm"
    }
  ],
  "hotels": [
    {
      "nom": "Hotel República",
      "categorie": "Hôtel",
      "priceRange": "€€€€",
      "score": 4,
      "mapsUrl": "https://maps.google.com/?q=-34.6042199,-58.3824046",
      "lat": -34.6042199,
      "lng": -58.3824046,
      "halalFriendly": false,
      "bookingUrl": "https://www.globales.com/es/hoteles/argentina/argentina/buenos-aires/globales-republica/",
      "source": "osm"
    },
    {
      "nom": "Obelisco Center Suites",
      "categorie": "Hôtel",
      "priceRange": "€€",
      "mapsUrl": "https://maps.google.com/?q=-34.6040864,-58.3805828",
      "lat": -34.6040864,
      "lng": -58.3805828,
      "halalFriendly": false,
      "bookingUrl": "https://maps.google.com/?q=-34.6040864,-58.3805828",
      "source": "osm"
    },
    {
      "nom": "Park Silver Obelisco Hotel",
      "categorie": "Hôtel",
      "priceRange": "€€€€",
      "score": 4,
      "mapsUrl": "https://maps.google.com/?q=-34.6047206,-58.3823356",
      "lat": -34.6047206,
      "lng": -58.3823356,
      "halalFriendly": false,
      "bookingUrl": "https://parksilverobelisco.com/",
      "source": "osm"
    },
    {
      "nom": "Broadway Hotel & Suites",
      "categorie": "Hôtel",
      "priceRange": "€€€€",
      "score": 4,
      "mapsUrl": "https://maps.google.com/?q=-34.6035706,-58.3831872",
      "lat": -34.6035706,
      "lng": -58.3831872,
      "halalFriendly": false,
      "bookingUrl": "https://www.broadway-suites.com.ar/",
      "source": "osm"
    },
    {
      "nom": "Exe Hotel Colón",
      "categorie": "Hôtel",
      "priceRange": "€€",
      "mapsUrl": "https://maps.google.com/?q=-34.6023098,-58.3808927",
      "lat": -34.6023098,
      "lng": -58.3808927,
      "halalFriendly": false,
      "bookingUrl": "https://www.eurostarshotels.com/exe-hotel-colon.html",
      "source": "osm"
    },
    {
      "nom": "Unique Executive Central",
      "categorie": "Hôtel",
      "priceRange": "€€",
      "mapsUrl": "https://maps.google.com/?q=-34.6030832,-58.3833056",
      "lat": -34.6030832,
      "lng": -58.3833056,
      "halalFriendly": false,
      "bookingUrl": "https://www.hotels-unique.com/unique-executive-central.html",
      "source": "osm"
    },
    {
      "nom": "Hotel Bristol",
      "categorie": "Hôtel",
      "priceRange": "€€",
      "mapsUrl": "https://maps.google.com/?q=-34.6052017,-58.3822929",
      "lat": -34.6052017,
      "lng": -58.3822929,
      "halalFriendly": false,
      "bookingUrl": "https://maps.google.com/?q=-34.6052017,-58.3822929",
      "source": "osm"
    },
    {
      "nom": "Buenos Aires Marriott",
      "categorie": "Hôtel",
      "priceRange": "€€",
      "mapsUrl": "https://maps.google.com/?q=-34.6021542,-58.3806962",
      "lat": -34.6021542,
      "lng": -58.3806962,
      "halalFriendly": false,
      "bookingUrl": "https://maps.google.com/?q=-34.6021542,-58.3806962",
      "source": "osm"
    },
    {
      "nom": "NH Tango",
      "categorie": "Hôtel",
      "priceRange": "€€",
      "mapsUrl": "https://maps.google.com/?q=-34.6021259,-58.3826662",
      "lat": -34.6021259,
      "lng": -58.3826662,
      "halalFriendly": false,
      "bookingUrl": "https://maps.google.com/?q=-34.6021259,-58.3826662",
      "source": "osm"
    },
    {
      "nom": "ART DECO Hotel & Suites ****",
      "categorie": "Hôtel",
      "priceRange": "€€",
      "mapsUrl": "https://maps.google.com/?q=-34.6032952,-58.3838741",
      "lat": -34.6032952,
      "lng": -58.3838741,
      "halalFriendly": false,
      "bookingUrl": "https://maps.google.com/?q=-34.6032952,-58.3838741",
      "source": "osm"
    },
    {
      "nom": "Apart Gran Hotel Libertad",
      "categorie": "Hôtel",
      "priceRange": "€€",
      "mapsUrl": "https://maps.google.com/?q=-34.6050302,-58.3833559",
      "lat": -34.6050302,
      "lng": -58.3833559,
      "halalFriendly": false,
      "bookingUrl": "https://maps.google.com/?q=-34.6050302,-58.3833559",
      "source": "osm"
    },
    {
      "nom": "Suipacha Inn",
      "categorie": "Hôtel",
      "priceRange": "€€",
      "mapsUrl": "https://maps.google.com/?q=-34.6022878,-58.3794174",
      "lat": -34.6022878,
      "lng": -58.3794174,
      "halalFriendly": false,
      "bookingUrl": "https://maps.google.com/?q=-34.6022878,-58.3794174",
      "source": "osm"
    },
    {
      "nom": "Alma Buenos Aires",
      "categorie": "Hôtel",
      "priceRange": "€€",
      "mapsUrl": "https://maps.google.com/?q=-34.602036,-58.379664",
      "lat": -34.602036,
      "lng": -58.379664,
      "halalFriendly": false,
      "bookingUrl": "https://maps.google.com/?q=-34.602036,-58.379664",
      "source": "osm"
    },
    {
      "nom": "Apart Garten Village",
      "categorie": "Hôtel",
      "priceRange": "€€",
      "mapsUrl": "https://maps.google.com/?q=-34.6054378,-58.3794678",
      "lat": -34.6054378,
      "lng": -58.3794678,
      "halalFriendly": false,
      "bookingUrl": "https://maps.google.com/?q=-34.6054378,-58.3794678",
      "source": "osm"
    },
    {
      "nom": "Argentina Tango Hotel",
      "categorie": "Hôtel",
      "priceRange": "€€",
      "mapsUrl": "https://maps.google.com/?q=-34.6018676,-58.3795079",
      "lat": -34.6018676,
      "lng": -58.3795079,
      "halalFriendly": false,
      "bookingUrl": "https://maps.google.com/?q=-34.6018676,-58.3795079",
      "source": "osm"
    },
    {
      "nom": "HR Luxor Hotel Buenos Aires",
      "categorie": "Hôtel",
      "priceRange": "€€",
      "mapsUrl": "https://maps.google.com/?q=-34.6051872,-58.3791151",
      "lat": -34.6051872,
      "lng": -58.3791151,
      "halalFriendly": false,
      "bookingUrl": "https://maps.google.com/?q=-34.6051872,-58.3791151",
      "source": "osm"
    },
    {
      "nom": "Hostal Suites Obelisco",
      "categorie": "Auberge",
      "priceRange": "€€",
      "mapsUrl": "https://maps.google.com/?q=-34.6036768,-58.378463",
      "lat": -34.6036768,
      "lng": -58.378463,
      "halalFriendly": false,
      "bookingUrl": "https://maps.google.com/?q=-34.6036768,-58.378463",
      "source": "osm"
    },
    {
      "nom": "Hoteles de Argentina",
      "categorie": "Hôtel",
      "priceRange": "€€",
      "mapsUrl": "https://maps.google.com/?q=-34.603676,-58.3784003",
      "lat": -34.603676,
      "lng": -58.3784003,
      "halalFriendly": false,
      "bookingUrl": "https://maps.google.com/?q=-34.603676,-58.3784003",
      "source": "osm"
    },
    {
      "nom": "Grand Brizo",
      "categorie": "Hôtel",
      "priceRange": "€€",
      "mapsUrl": "https://maps.google.com/?q=-34.6063068,-58.3822487",
      "lat": -34.6063068,
      "lng": -58.3822487,
      "halalFriendly": false,
      "bookingUrl": "https://maps.google.com/?q=-34.6063068,-58.3822487",
      "source": "osm"
    },
    {
      "nom": "Hotel Las Naciones",
      "categorie": "Hôtel",
      "priceRange": "€€",
      "mapsUrl": "https://maps.google.com/?q=-34.6037276,-58.3782451",
      "lat": -34.6037276,
      "lng": -58.3782451,
      "halalFriendly": false,
      "bookingUrl": "https://maps.google.com/?q=-34.6037276,-58.3782451",
      "source": "osm"
    },
    {
      "nom": "Dome in the Heart of the City",
      "categorie": "Appartement",
      "priceRange": "€€",
      "mapsUrl": "https://maps.google.com/?q=-34.6013707,-58.3794746",
      "lat": -34.6013707,
      "lng": -58.3794746,
      "halalFriendly": false,
      "bookingUrl": "https://airbnb.com/",
      "source": "osm"
    },
    {
      "nom": "NH",
      "categorie": "Hôtel",
      "priceRange": "€€",
      "mapsUrl": "https://maps.google.com/?q=-34.6066387,-58.3822431",
      "lat": -34.6066387,
      "lng": -58.3822431,
      "halalFriendly": false,
      "bookingUrl": "https://maps.google.com/?q=-34.6066387,-58.3822431",
      "source": "osm"
    },
    {
      "nom": "Hotel Regis Orho",
      "categorie": "Hôtel",
      "priceRange": "€€",
      "mapsUrl": "https://maps.google.com/?q=-34.6022596,-58.3784215",
      "lat": -34.6022596,
      "lng": -58.3784215,
      "halalFriendly": false,
      "bookingUrl": "https://maps.google.com/?q=-34.6022596,-58.3784215",
      "source": "osm"
    },
    {
      "nom": "Hotel Micky",
      "categorie": "Hôtel",
      "priceRange": "€€",
      "mapsUrl": "https://maps.google.com/?q=-34.6044921,-58.3851662",
      "lat": -34.6044921,
      "lng": -58.3851662,
      "halalFriendly": false,
      "bookingUrl": "http://hotelmicki.ar.tripod.com/",
      "source": "osm"
    },
    {
      "nom": "Novotel Buenos Aires",
      "categorie": "Hôtel",
      "priceRange": "€€",
      "mapsUrl": "https://maps.google.com/?q=-34.6041034,-58.3856042",
      "lat": -34.6041034,
      "lng": -58.3856042,
      "halalFriendly": false,
      "bookingUrl": "http://www.novotel.com/",
      "source": "osm"
    },
    {
      "nom": "Rochester Classic",
      "categorie": "Hôtel",
      "priceRange": "€€",
      "mapsUrl": "https://maps.google.com/?q=-34.6018023,-58.3782644",
      "lat": -34.6018023,
      "lng": -58.3782644,
      "halalFriendly": false,
      "bookingUrl": "https://maps.google.com/?q=-34.6018023,-58.3782644",
      "source": "osm"
    },
    {
      "nom": "Esmeralda Palace Hotel",
      "categorie": "Hôtel",
      "priceRange": "€€",
      "mapsUrl": "https://maps.google.com/?q=-34.6020308,-58.3780631",
      "lat": -34.6020308,
      "lng": -58.3780631,
      "halalFriendly": false,
      "bookingUrl": "https://maps.google.com/?q=-34.6020308,-58.3780631",
      "source": "osm"
    },
    {
      "nom": "Abh - About Baires Hotel",
      "categorie": "Hôtel",
      "priceRange": "€€",
      "mapsUrl": "https://maps.google.com/?q=-34.6003709,-58.3808414",
      "lat": -34.6003709,
      "lng": -58.3808414,
      "halalFriendly": false,
      "bookingUrl": "https://maps.google.com/?q=-34.6003709,-58.3808414",
      "source": "osm"
    },
    {
      "nom": "Hotel Da Vinci",
      "categorie": "Hôtel",
      "priceRange": "€€€€",
      "score": 4,
      "mapsUrl": "https://maps.google.com/?q=-34.6010689,-58.3789584",
      "lat": -34.6010689,
      "lng": -58.3789584,
      "halalFriendly": false,
      "bookingUrl": "https://www.davincihotel.com.ar",
      "source": "osm"
    },
    {
      "nom": "Conte Hotel",
      "categorie": "Hôtel",
      "priceRange": "€€",
      "mapsUrl": "https://maps.google.com/?q=-34.6070515,-58.3805263",
      "lat": -34.6070515,
      "lng": -58.3805263,
      "halalFriendly": false,
      "bookingUrl": "http://www.conte-hotel.com.ar/",
      "source": "osm"
    },
    {
      "nom": "Hotel Ibis Buenos Aires Obelisco",
      "categorie": "Hôtel",
      "priceRange": "€€",
      "mapsUrl": "https://maps.google.com/?q=-34.6041298,-58.3858207",
      "lat": -34.6041298,
      "lng": -58.3858207,
      "halalFriendly": false,
      "bookingUrl": "https://maps.google.com/?q=-34.6041298,-58.3858207",
      "source": "osm"
    },
    {
      "nom": "Viasui Hotel",
      "categorie": "Hôtel",
      "priceRange": "€€",
      "mapsUrl": "https://maps.google.com/?q=-34.6003142,-58.3805174",
      "lat": -34.6003142,
      "lng": -58.3805174,
      "halalFriendly": false,
      "bookingUrl": "https://maps.google.com/?q=-34.6003142,-58.3805174",
      "source": "osm"
    },
    {
      "nom": "Hotel El Cabildo",
      "categorie": "Hôtel",
      "priceRange": "€€",
      "mapsUrl": "https://maps.google.com/?q=-34.6022829,-58.3774147",
      "lat": -34.6022829,
      "lng": -58.3774147,
      "halalFriendly": false,
      "bookingUrl": "https://maps.google.com/?q=-34.6022829,-58.3774147",
      "source": "osm"
    },
    {
      "nom": "Hotel Majestic",
      "categorie": "Hôtel",
      "priceRange": "€€",
      "mapsUrl": "https://maps.google.com/?q=-34.6071804,-58.3834821",
      "lat": -34.6071804,
      "lng": -58.3834821,
      "halalFriendly": false,
      "bookingUrl": "https://maps.google.com/?q=-34.6071804,-58.3834821",
      "source": "osm"
    },
    {
      "nom": "Hotel La Piedad",
      "categorie": "Hôtel",
      "priceRange": "€€",
      "mapsUrl": "https://maps.google.com/?q=-34.6074849,-58.3829198",
      "lat": -34.6074849,
      "lng": -58.3829198,
      "halalFriendly": false,
      "bookingUrl": "https://maps.google.com/?q=-34.6074849,-58.3829198",
      "source": "osm"
    },
    {
      "nom": "V&S Hostel Club",
      "categorie": "Auberge",
      "priceRange": "€€",
      "mapsUrl": "https://maps.google.com/?q=-34.6000539,-58.379316",
      "lat": -34.6000539,
      "lng": -58.379316,
      "halalFriendly": false,
      "bookingUrl": "https://www.hostelclub.com/",
      "source": "osm"
    },
    {
      "nom": "Hotel Del Sol",
      "categorie": "Hôtel",
      "priceRange": "€€",
      "mapsUrl": "https://maps.google.com/?q=-34.6005727,-58.3781205",
      "lat": -34.6005727,
      "lng": -58.3781205,
      "halalFriendly": false,
      "bookingUrl": "https://maps.google.com/?q=-34.6005727,-58.3781205",
      "source": "osm"
    },
    {
      "nom": "Hotel Viamonte",
      "categorie": "Hôtel",
      "priceRange": "€€",
      "mapsUrl": "https://maps.google.com/?q=-34.600041,-58.3789769",
      "lat": -34.600041,
      "lng": -58.3789769,
      "halalFriendly": false,
      "bookingUrl": "https://maps.google.com/?q=-34.600041,-58.3789769",
      "source": "osm"
    },
    {
      "nom": "Gran Hotel Argentino",
      "categorie": "Hôtel",
      "priceRange": "€€",
      "mapsUrl": "https://maps.google.com/?q=-34.6078811,-58.3805957",
      "lat": -34.6078811,
      "lng": -58.3805957,
      "halalFriendly": false,
      "bookingUrl": "https://maps.google.com/?q=-34.6078811,-58.3805957",
      "source": "osm"
    },
    {
      "nom": "Goya",
      "categorie": "Hôtel",
      "priceRange": "€€",
      "mapsUrl": "https://maps.google.com/?q=-34.5997011,-58.379782",
      "lat": -34.5997011,
      "lng": -58.379782,
      "halalFriendly": false,
      "bookingUrl": "https://maps.google.com/?q=-34.5997011,-58.379782",
      "source": "osm"
    },
    {
      "nom": "Up Tribeca",
      "categorie": "Hôtel",
      "priceRange": "€€",
      "mapsUrl": "https://maps.google.com/?q=-34.6074185,-58.3845556",
      "lat": -34.6074185,
      "lng": -58.3845556,
      "halalFriendly": false,
      "bookingUrl": "https://maps.google.com/?q=-34.6074185,-58.3845556",
      "source": "osm"
    },
    {
      "nom": "Hotel Reconquista Garden",
      "categorie": "Hôtel",
      "priceRange": "€€",
      "mapsUrl": "https://maps.google.com/?q=-34.6003094,-58.378083",
      "lat": -34.6003094,
      "lng": -58.378083,
      "halalFriendly": false,
      "bookingUrl": "https://maps.google.com/?q=-34.6003094,-58.378083",
      "source": "osm"
    },
    {
      "nom": "Rochester Concept",
      "categorie": "Hôtel",
      "priceRange": "€€€",
      "score": 3,
      "mapsUrl": "https://maps.google.com/?q=-34.6013941,-58.3769099",
      "lat": -34.6013941,
      "lng": -58.3769099,
      "halalFriendly": false,
      "bookingUrl": "https://www.rochester-hotel.com.ar/",
      "source": "osm"
    },
    {
      "nom": "Merry Urban Hostel",
      "categorie": "Auberge",
      "priceRange": "€€",
      "mapsUrl": "https://maps.google.com/?q=-34.6057205,-58.3766289",
      "lat": -34.6057205,
      "lng": -58.3766289,
      "halalFriendly": false,
      "bookingUrl": "https://merry-urban-hostel.business.site",
      "source": "osm"
    },
    {
      "nom": "Le Petit",
      "categorie": "Hôtel",
      "priceRange": "€€",
      "mapsUrl": "https://maps.google.com/?q=-34.6046988,-58.376186",
      "lat": -34.6046988,
      "lng": -58.376186,
      "halalFriendly": false,
      "bookingUrl": "https://maps.google.com/?q=-34.6046988,-58.376186",
      "source": "osm"
    },
    {
      "nom": "Hotel 26 de Setiembre",
      "categorie": "Hôtel",
      "priceRange": "€€",
      "mapsUrl": "https://maps.google.com/?q=-34.6077697,-58.3790372",
      "lat": -34.6077697,
      "lng": -58.3790372,
      "halalFriendly": false,
      "bookingUrl": "https://www.faecys.org.ar/hotel-26-de-septiembre/",
      "source": "osm"
    },
    {
      "nom": "Hotel Europa",
      "categorie": "Hôtel",
      "priceRange": "€€",
      "mapsUrl": "https://maps.google.com/?q=-34.6074566,-58.384844",
      "lat": -34.6074566,
      "lng": -58.384844,
      "halalFriendly": false,
      "bookingUrl": "https://maps.google.com/?q=-34.6074566,-58.384844",
      "source": "osm"
    },
    {
      "nom": "Hotel Huinid Obelisco",
      "categorie": "Hôtel",
      "priceRange": "€€",
      "mapsUrl": "https://maps.google.com/?q=-34.6052344,-58.3869345",
      "lat": -34.6052344,
      "lng": -58.3869345,
      "halalFriendly": false,
      "bookingUrl": "https://maps.google.com/?q=-34.6052344,-58.3869345",
      "source": "osm"
    },
    {
      "nom": "725 Continental",
      "categorie": "Hôtel",
      "priceRange": "€€",
      "mapsUrl": "https://maps.google.com/?q=-34.6061021,-58.3767199",
      "lat": -34.6061021,
      "lng": -58.3767199,
      "halalFriendly": false,
      "bookingUrl": "https://maps.google.com/?q=-34.6061021,-58.3767199",
      "source": "osm"
    },
    {
      "nom": "Tanguero Boutique Hotel",
      "categorie": "Hôtel",
      "priceRange": "€€",
      "mapsUrl": "https://maps.google.com/?q=-34.5991913,-58.3798906",
      "lat": -34.5991913,
      "lng": -58.3798906,
      "halalFriendly": false,
      "bookingUrl": "https://maps.google.com/?q=-34.5991913,-58.3798906",
      "source": "osm"
    },
    {
      "nom": "Gran Hotel Ailen",
      "categorie": "Hôtel",
      "priceRange": "€€",
      "mapsUrl": "https://maps.google.com/?q=-34.6080575,-58.3793281",
      "lat": -34.6080575,
      "lng": -58.3793281,
      "halalFriendly": false,
      "bookingUrl": "https://maps.google.com/?q=-34.6080575,-58.3793281",
      "source": "osm"
    },
    {
      "nom": "Gardí",
      "categorie": "Hôtel",
      "priceRange": "€€",
      "mapsUrl": "https://maps.google.com/?q=-34.5997692,-58.3783605",
      "lat": -34.5997692,
      "lng": -58.3783605,
      "halalFriendly": false,
      "bookingUrl": "https://maps.google.com/?q=-34.5997692,-58.3783605",
      "source": "osm"
    },
    {
      "nom": "Hotel Gran Vía",
      "categorie": "Hôtel",
      "priceRange": "€€",
      "mapsUrl": "https://maps.google.com/?q=-34.6054456,-58.3870966",
      "lat": -34.6054456,
      "lng": -58.3870966,
      "halalFriendly": false,
      "bookingUrl": "http://www.hotelgranvia.com.ar",
      "source": "osm"
    },
    {
      "nom": "Gran Hotel de la Paix",
      "categorie": "Hôtel",
      "priceRange": "€€",
      "mapsUrl": "https://maps.google.com/?q=-34.608462,-58.382802",
      "lat": -34.608462,
      "lng": -58.382802,
      "halalFriendly": false,
      "bookingUrl": "https://maps.google.com/?q=-34.608462,-58.382802",
      "source": "osm"
    },
    {
      "nom": "Hostel Downtownmate",
      "categorie": "Hôtel",
      "priceRange": "€€",
      "mapsUrl": "https://maps.google.com/?q=-34.6084939,-58.3831491",
      "lat": -34.6084939,
      "lng": -58.3831491,
      "halalFriendly": false,
      "bookingUrl": "https://maps.google.com/?q=-34.6084939,-58.3831491",
      "source": "osm"
    },
    {
      "nom": "Ibis Styles Buenos Aires Florida",
      "categorie": "Hôtel",
      "priceRange": "€€",
      "mapsUrl": "https://maps.google.com/?q=-34.6035336,-58.3755461",
      "lat": -34.6035336,
      "lng": -58.3755461,
      "halalFriendly": false,
      "bookingUrl": "https://maps.google.com/?q=-34.6035336,-58.3755461",
      "source": "osm"
    },
    {
      "nom": "Hotel Splendid",
      "categorie": "Hôtel",
      "priceRange": "€€",
      "mapsUrl": "https://maps.google.com/?q=-34.608516,-58.379927",
      "lat": -34.608516,
      "lng": -58.379927,
      "halalFriendly": false,
      "bookingUrl": "https://maps.google.com/?q=-34.608516,-58.379927",
      "source": "osm"
    },
    {
      "nom": "Up Viamonte",
      "categorie": "Hôtel",
      "priceRange": "€€",
      "mapsUrl": "https://maps.google.com/?q=-34.6004559,-58.3863244",
      "lat": -34.6004559,
      "lng": -58.3863244,
      "halalFriendly": false,
      "bookingUrl": "https://maps.google.com/?q=-34.6004559,-58.3863244",
      "source": "osm"
    },
    {
      "nom": "Du Helder",
      "categorie": "Hôtel",
      "priceRange": "€€",
      "mapsUrl": "https://maps.google.com/?q=-34.6081735,-58.3786213",
      "lat": -34.6081735,
      "lng": -58.3786213,
      "halalFriendly": false,
      "bookingUrl": "https://maps.google.com/?q=-34.6081735,-58.3786213",
      "source": "osm"
    },
    {
      "nom": "Downtown Apartment",
      "categorie": "Hôtel",
      "priceRange": "€€",
      "mapsUrl": "https://maps.google.com/?q=-34.6009758,-58.3868405",
      "lat": -34.6009758,
      "lng": -58.3868405,
      "halalFriendly": false,
      "bookingUrl": "https://abnb.me/d6hFyeThtZ",
      "source": "osm"
    },
    {
      "nom": "La Giralda",
      "categorie": "Hôtel",
      "priceRange": "€€",
      "mapsUrl": "https://maps.google.com/?q=-34.6084829,-58.3792922",
      "lat": -34.6084829,
      "lng": -58.3792922,
      "halalFriendly": false,
      "bookingUrl": "https://maps.google.com/?q=-34.6084829,-58.3792922",
      "source": "osm"
    },
    {
      "nom": "Hotel Madrid",
      "categorie": "Hôtel",
      "priceRange": "€€",
      "mapsUrl": "https://maps.google.com/?q=-34.6088007,-58.3824825",
      "lat": -34.6088007,
      "lng": -58.3824825,
      "halalFriendly": false,
      "bookingUrl": "https://maps.google.com/?q=-34.6088007,-58.3824825",
      "source": "osm"
    },
    {
      "nom": "Tritone",
      "categorie": "Hôtel",
      "priceRange": "€€",
      "mapsUrl": "https://maps.google.com/?q=-34.6004338,-58.3767184",
      "lat": -34.6004338,
      "lng": -58.3767184,
      "halalFriendly": false,
      "bookingUrl": "https://maps.google.com/?q=-34.6004338,-58.3767184",
      "source": "osm"
    },
    {
      "nom": "Hotel Lennox Buenos Aires",
      "categorie": "Hôtel",
      "priceRange": "€€",
      "mapsUrl": "https://maps.google.com/?q=-34.608173,-58.3847881",
      "lat": -34.608173,
      "lng": -58.3847881,
      "halalFriendly": false,
      "bookingUrl": "https://maps.google.com/?q=-34.608173,-58.3847881",
      "source": "osm"
    },
    {
      "nom": "Hotel Orense",
      "categorie": "Hôtel",
      "priceRange": "€€",
      "mapsUrl": "https://maps.google.com/?q=-34.6076817,-58.3856461",
      "lat": -34.6076817,
      "lng": -58.3856461,
      "halalFriendly": false,
      "bookingUrl": "https://maps.google.com/?q=-34.6076817,-58.3856461",
      "source": "osm"
    },
    {
      "nom": "Ritz Hostel - Hostelling International",
      "categorie": "Auberge",
      "priceRange": "€€",
      "mapsUrl": "https://maps.google.com/?q=-34.6089085,-58.382251",
      "lat": -34.6089085,
      "lng": -58.382251,
      "halalFriendly": false,
      "bookingUrl": "https://maps.google.com/?q=-34.6089085,-58.382251",
      "source": "osm"
    },
    {
      "nom": "Hostel Florida",
      "categorie": "Auberge",
      "priceRange": "€€",
      "mapsUrl": "https://maps.google.com/?q=-34.6041995,-58.3752671",
      "lat": -34.6041995,
      "lng": -58.3752671,
      "halalFriendly": false,
      "bookingUrl": "https://maps.google.com/?q=-34.6041995,-58.3752671",
      "source": "osm"
    },
    {
      "nom": "Hotel Alcazar",
      "categorie": "Hôtel",
      "priceRange": "€€",
      "mapsUrl": "https://maps.google.com/?q=-34.6087488,-58.3797387",
      "lat": -34.6087488,
      "lng": -58.3797387,
      "halalFriendly": false,
      "bookingUrl": "https://maps.google.com/?q=-34.6087488,-58.3797387",
      "source": "osm"
    },
    {
      "nom": "Gran Hotel Hispano",
      "categorie": "Hôtel",
      "priceRange": "€€",
      "mapsUrl": "https://maps.google.com/?q=-34.608486,-58.378816",
      "lat": -34.608486,
      "lng": -58.378816,
      "halalFriendly": false,
      "bookingUrl": "https://maps.google.com/?q=-34.608486,-58.378816",
      "source": "osm"
    },
    {
      "nom": "Presidente Hotel",
      "categorie": "Hôtel",
      "priceRange": "€€",
      "mapsUrl": "https://maps.google.com/?q=-34.5984761,-58.3829508",
      "lat": -34.5984761,
      "lng": -58.3829508,
      "halalFriendly": false,
      "bookingUrl": "https://www.hotelpresidente.com.ar/",
      "source": "osm"
    },
    {
      "nom": "Castelar Hotel Spa",
      "categorie": "Hôtel",
      "priceRange": "€€",
      "mapsUrl": "https://maps.google.com/?q=-34.6089963,-58.3826631",
      "lat": -34.6089963,
      "lng": -58.3826631,
      "halalFriendly": false,
      "bookingUrl": "https://maps.google.com/?q=-34.6089963,-58.3826631",
      "source": "osm"
    },
    {
      "nom": "Novel Hotel",
      "categorie": "Hôtel",
      "priceRange": "€€",
      "mapsUrl": "https://maps.google.com/?q=-34.608751,-58.3793727",
      "lat": -34.608751,
      "lng": -58.3793727,
      "halalFriendly": false,
      "bookingUrl": "https://maps.google.com/?q=-34.608751,-58.3793727",
      "source": "osm"
    },
    {
      "nom": "Hotel Parada",
      "categorie": "Hôtel",
      "priceRange": "€€",
      "mapsUrl": "https://maps.google.com/?q=-34.608504,-58.384545",
      "lat": -34.608504,
      "lng": -58.384545,
      "halalFriendly": false,
      "bookingUrl": "https://maps.google.com/?q=-34.608504,-58.384545",
      "source": "osm"
    },
    {
      "nom": "Pestana Buenos Aires Hotel",
      "categorie": "Hôtel",
      "priceRange": "€€",
      "mapsUrl": "https://maps.google.com/?q=-34.5982279,-58.3810301",
      "lat": -34.5982279,
      "lng": -58.3810301,
      "halalFriendly": false,
      "bookingUrl": "https://maps.google.com/?q=-34.5982279,-58.3810301",
      "source": "osm"
    },
    {
      "nom": "La Fresqué",
      "categorie": "Hôtel",
      "priceRange": "€€€",
      "score": 3,
      "mapsUrl": "https://maps.google.com/?q=-34.609159,-58.3803779",
      "lat": -34.609159,
      "lng": -58.3803779,
      "halalFriendly": false,
      "bookingUrl": "https://maps.google.com/?q=-34.609159,-58.3803779",
      "source": "osm"
    },
    {
      "nom": "Avenue Hostel",
      "categorie": "Auberge",
      "priceRange": "€€",
      "mapsUrl": "https://maps.google.com/?q=-34.6090789,-58.3798336",
      "lat": -34.6090789,
      "lng": -58.3798336,
      "halalFriendly": false,
      "bookingUrl": "https://maps.google.com/?q=-34.6090789,-58.3798336",
      "source": "osm"
    },
    {
      "nom": "Hotel La Reina",
      "categorie": "Hôtel",
      "priceRange": "€€",
      "mapsUrl": "https://maps.google.com/?q=-34.6093092,-58.3822039",
      "lat": -34.6093092,
      "lng": -58.3822039,
      "halalFriendly": false,
      "bookingUrl": "https://www.hotelreina.com.ar",
      "source": "osm"
    },
    {
      "nom": "Astoria Hotel",
      "categorie": "Hôtel",
      "priceRange": "€€",
      "mapsUrl": "https://maps.google.com/?q=-34.609048,-58.379398",
      "lat": -34.609048,
      "lng": -58.379398,
      "halalFriendly": false,
      "bookingUrl": "https://maps.google.com/?q=-34.609048,-58.379398",
      "source": "osm"
    },
    {
      "nom": "Columbia Palace Hotel",
      "categorie": "Hôtel",
      "priceRange": "€€",
      "mapsUrl": "https://maps.google.com/?q=-34.6040068,-58.3884664",
      "lat": -34.6040068,
      "lng": -58.3884664,
      "halalFriendly": false,
      "bookingUrl": "https://maps.google.com/?q=-34.6040068,-58.3884664",
      "source": "osm"
    },
    {
      "nom": "Carsson Hotel",
      "categorie": "Hôtel",
      "priceRange": "€€",
      "mapsUrl": "https://maps.google.com/?q=-34.60019,-58.3761205",
      "lat": -34.60019,
      "lng": -58.3761205,
      "halalFriendly": false,
      "bookingUrl": "https://maps.google.com/?q=-34.60019,-58.3761205",
      "source": "osm"
    },
    {
      "nom": "Hotel Tandil",
      "categorie": "Hôtel",
      "priceRange": "€€",
      "mapsUrl": "https://maps.google.com/?q=-34.609003,-58.3789546",
      "lat": -34.609003,
      "lng": -58.3789546,
      "halalFriendly": false,
      "bookingUrl": "https://maps.google.com/?q=-34.609003,-58.3789546",
      "source": "osm"
    },
    {
      "nom": "MiBAQ Hostel",
      "categorie": "Auberge",
      "priceRange": "€€",
      "mapsUrl": "https://maps.google.com/?q=-34.605525,-58.3882364",
      "lat": -34.605525,
      "lng": -58.3882364,
      "halalFriendly": false,
      "bookingUrl": "https://maps.google.com/?q=-34.605525,-58.3882364",
      "source": "osm"
    },
    {
      "nom": "Milhouse hostel avenue",
      "categorie": "Auberge",
      "priceRange": "€€",
      "mapsUrl": "https://maps.google.com/?q=-34.6091168,-58.3840701",
      "lat": -34.6091168,
      "lng": -58.3840701,
      "halalFriendly": false,
      "bookingUrl": "https://milhousehostel.com",
      "source": "osm"
    },
    {
      "nom": "Grand King Hotel",
      "categorie": "Hôtel",
      "priceRange": "€€",
      "mapsUrl": "https://maps.google.com/?q=-34.6023397,-58.3747677",
      "lat": -34.6023397,
      "lng": -58.3747677,
      "halalFriendly": false,
      "bookingUrl": "https://maps.google.com/?q=-34.6023397,-58.3747677",
      "source": "osm"
    },
    {
      "nom": "Hotel Marbella",
      "categorie": "Hôtel",
      "priceRange": "€€",
      "mapsUrl": "https://maps.google.com/?q=-34.6090749,-58.3843217",
      "lat": -34.6090749,
      "lng": -58.3843217,
      "halalFriendly": false,
      "bookingUrl": "https://maps.google.com/?q=-34.6090749,-58.3843217",
      "source": "osm"
    },
    {
      "nom": "Uruguay",
      "categorie": "Hôtel",
      "priceRange": "€€",
      "mapsUrl": "https://maps.google.com/?q=-34.6092214,-58.3792446",
      "lat": -34.6092214,
      "lng": -58.3792446,
      "halalFriendly": false,
      "bookingUrl": "https://maps.google.com/?q=-34.6092214,-58.3792446",
      "source": "osm"
    },
    {
      "nom": "Gran Hotel España",
      "categorie": "Hôtel",
      "priceRange": "€€",
      "mapsUrl": "https://maps.google.com/?q=-34.6091996,-58.3790537",
      "lat": -34.6091996,
      "lng": -58.3790537,
      "halalFriendly": false,
      "bookingUrl": "https://maps.google.com/?q=-34.6091996,-58.3790537",
      "source": "osm"
    },
    {
      "nom": "Milhouse",
      "categorie": "Auberge",
      "priceRange": "€€",
      "mapsUrl": "https://maps.google.com/?q=-34.6094666,-58.3800981",
      "lat": -34.6094666,
      "lng": -58.3800981,
      "halalFriendly": false,
      "bookingUrl": "https://www.milhousehostel.com/",
      "source": "osm"
    },
    {
      "nom": "Sudamerika",
      "categorie": "Auberge",
      "priceRange": "€€",
      "mapsUrl": "https://maps.google.com/?q=-34.6094475,-58.379943",
      "lat": -34.6094475,
      "lng": -58.379943,
      "halalFriendly": false,
      "bookingUrl": "http://www.sudamerikahostel.com.ar/",
      "source": "osm"
    },
    {
      "nom": "La Argentina Hotel",
      "categorie": "Hôtel",
      "priceRange": "€€",
      "mapsUrl": "https://maps.google.com/?q=-34.6089988,-58.3784014",
      "lat": -34.6089988,
      "lng": -58.3784014,
      "halalFriendly": false,
      "bookingUrl": "https://maps.google.com/?q=-34.6089988,-58.3784014",
      "source": "osm"
    },
    {
      "nom": "Hotel Chile",
      "categorie": "Hôtel",
      "priceRange": "€€",
      "mapsUrl": "https://maps.google.com/?q=-34.609038,-58.384739",
      "lat": -34.609038,
      "lng": -58.384739,
      "halalFriendly": false,
      "bookingUrl": "https://maps.google.com/?q=-34.609038,-58.384739",
      "source": "osm"
    },
    {
      "nom": "Escorial",
      "categorie": "Hôtel",
      "priceRange": "€€",
      "mapsUrl": "https://maps.google.com/?q=-34.6095031,-58.3833459",
      "lat": -34.6095031,
      "lng": -58.3833459,
      "halalFriendly": false,
      "bookingUrl": "https://maps.google.com/?q=-34.6095031,-58.3833459",
      "source": "osm"
    },
    {
      "nom": "Grand Hotel Faecys",
      "categorie": "Hôtel",
      "priceRange": "€€",
      "mapsUrl": "https://maps.google.com/?q=-34.6011062,-58.3748996",
      "lat": -34.6011062,
      "lng": -58.3748996,
      "halalFriendly": false,
      "bookingUrl": "https://www.faecys.org.ar/grand-hotel-faecys/",
      "source": "osm"
    },
    {
      "nom": "Imperial Park",
      "categorie": "Hôtel",
      "priceRange": "€€€€",
      "score": 4,
      "mapsUrl": "https://maps.google.com/?q=-34.609797,-58.3820917",
      "lat": -34.609797,
      "lng": -58.3820917,
      "halalFriendly": false,
      "bookingUrl": "https://maps.google.com/?q=-34.609797,-58.3820917",
      "source": "osm"
    },
    {
      "nom": "Bisonte Libertad",
      "categorie": "Hôtel",
      "priceRange": "€€",
      "mapsUrl": "https://maps.google.com/?q=-34.5979585,-58.3842316",
      "lat": -34.5979585,
      "lng": -58.3842316,
      "halalFriendly": false,
      "bookingUrl": "https://www.bisontelibertad.com/",
      "source": "osm"
    },
    {
      "nom": "Parla Hostel",
      "categorie": "Auberge",
      "priceRange": "€€",
      "mapsUrl": "https://maps.google.com/?q=-34.6093697,-58.3787437",
      "lat": -34.6093697,
      "lng": -58.3787437,
      "halalFriendly": false,
      "bookingUrl": "https://maps.google.com/?q=-34.6093697,-58.3787437",
      "source": "osm"
    },
    {
      "nom": "BA Big Adventure hostel",
      "categorie": "Auberge",
      "priceRange": "€€",
      "mapsUrl": "https://maps.google.com/?q=-34.609829,-58.3827478",
      "lat": -34.609829,
      "lng": -58.3827478,
      "halalFriendly": false,
      "bookingUrl": "https://maps.google.com/?q=-34.609829,-58.3827478",
      "source": "osm"
    },
    {
      "nom": "Loft Argentino",
      "categorie": "Appartement",
      "priceRange": "€€",
      "mapsUrl": "https://maps.google.com/?q=-34.6098164,-58.3831742",
      "lat": -34.6098164,
      "lng": -58.3831742,
      "halalFriendly": false,
      "bookingUrl": "https://maps.google.com/?q=-34.6098164,-58.3831742",
      "source": "osm"
    },
    {
      "nom": "Hotel Napoleon",
      "categorie": "Hôtel",
      "priceRange": "€€",
      "mapsUrl": "https://maps.google.com/?q=-34.608945,-58.385736",
      "lat": -34.608945,
      "lng": -58.385736,
      "halalFriendly": false,
      "bookingUrl": "https://www.hotel-napoleon.com.ar",
      "source": "osm"
    },
    {
      "nom": "Duomi Plaza Hotel",
      "categorie": "Hôtel",
      "priceRange": "€€",
      "mapsUrl": "https://maps.google.com/?q=-34.607761,-58.387454",
      "lat": -34.607761,
      "lng": -58.387454,
      "halalFriendly": false,
      "bookingUrl": "https://maps.google.com/?q=-34.607761,-58.387454",
      "source": "osm"
    },
    {
      "nom": "Libertador Hotel",
      "categorie": "Hôtel",
      "priceRange": "€€",
      "mapsUrl": "https://maps.google.com/?q=-34.5989897,-58.3765073",
      "lat": -34.5989897,
      "lng": -58.3765073,
      "halalFriendly": false,
      "bookingUrl": "https://www.libertadorhotels.com/",
      "source": "osm"
    },
    {
      "nom": "Del900 Hostel Boutique",
      "categorie": "Auberge",
      "priceRange": "€€",
      "mapsUrl": "https://maps.google.com/?q=-34.6098159,-58.3836673",
      "lat": -34.6098159,
      "lng": -58.3836673,
      "halalFriendly": false,
      "bookingUrl": "https://www.del900hostel.com/",
      "source": "osm"
    },
    {
      "nom": "474 Buenos Aires",
      "categorie": "Hôtel",
      "priceRange": "€€",
      "mapsUrl": "https://maps.google.com/?q=-34.6024989,-58.3739727",
      "lat": -34.6024989,
      "lng": -58.3739727,
      "halalFriendly": false,
      "bookingUrl": "https://maps.google.com/?q=-34.6024989,-58.3739727",
      "source": "osm"
    },
    {
      "nom": "Ramada by Wyndham",
      "categorie": "Hôtel",
      "priceRange": "€€",
      "mapsUrl": "https://maps.google.com/?q=-34.5976047,-58.3791781",
      "lat": -34.5976047,
      "lng": -58.3791781,
      "halalFriendly": false,
      "bookingUrl": "https://maps.google.com/?q=-34.5976047,-58.3791781",
      "source": "osm"
    },
    {
      "nom": "Crisol Mundial",
      "categorie": "Hôtel",
      "priceRange": "€€",
      "mapsUrl": "https://maps.google.com/?q=-34.6095797,-58.384716",
      "lat": -34.6095797,
      "lng": -58.384716,
      "halalFriendly": false,
      "bookingUrl": "https://www.eurostarshotels.com/crisol-mundial.html",
      "source": "osm"
    },
    {
      "nom": "Hotel Milán",
      "categorie": "Hôtel",
      "priceRange": "€€",
      "mapsUrl": "https://maps.google.com/?q=-34.6052361,-58.3892173",
      "lat": -34.6052361,
      "lng": -58.3892173,
      "halalFriendly": false,
      "bookingUrl": "https://milanhotel.com.ar/",
      "source": "osm"
    },
    {
      "nom": "Gran Hotel Vedra",
      "categorie": "Hôtel",
      "priceRange": "€€",
      "mapsUrl": "https://maps.google.com/?q=-34.6094548,-58.3851716",
      "lat": -34.6094548,
      "lng": -58.3851716,
      "halalFriendly": false,
      "bookingUrl": "https://maps.google.com/?q=-34.6094548,-58.3851716",
      "source": "osm"
    },
    {
      "nom": "Hotel Siena",
      "categorie": "Hôtel",
      "priceRange": "€€",
      "mapsUrl": "https://maps.google.com/?q=-34.606695,-58.3886164",
      "lat": -34.606695,
      "lng": -58.3886164,
      "halalFriendly": false,
      "bookingUrl": "https://maps.google.com/?q=-34.606695,-58.3886164",
      "source": "osm"
    },
    {
      "nom": "Embassy All Suites",
      "categorie": "Hôtel",
      "priceRange": "€€",
      "mapsUrl": "https://maps.google.com/?q=-34.598811,-58.386821",
      "lat": -34.598811,
      "lng": -58.386821,
      "halalFriendly": false,
      "bookingUrl": "https://maps.google.com/?q=-34.598811,-58.386821",
      "source": "osm"
    },
    {
      "nom": "Claridge Hotel",
      "categorie": "Hôtel",
      "priceRange": "€€€€",
      "score": 5,
      "mapsUrl": "https://maps.google.com/?q=-34.600781,-58.3745171",
      "lat": -34.600781,
      "lng": -58.3745171,
      "halalFriendly": false,
      "bookingUrl": "https://www.eurostarshotels.com/claridge-hotel.html",
      "source": "osm"
    },
    {
      "nom": "Dazzler Tower Maipú",
      "categorie": "Hôtel",
      "priceRange": "€€",
      "mapsUrl": "https://maps.google.com/?q=-34.5982474,-58.3770268",
      "lat": -34.5982474,
      "lng": -58.3770268,
      "halalFriendly": false,
      "bookingUrl": "https://maps.google.com/?q=-34.5982474,-58.3770268",
      "source": "osm"
    },
    {
      "nom": "Top Rentals",
      "categorie": "Appartement",
      "priceRange": "€€",
      "mapsUrl": "https://maps.google.com/?q=-34.5974029,-58.3788082",
      "lat": -34.5974029,
      "lng": -58.3788082,
      "halalFriendly": false,
      "bookingUrl": "https://toprentals.com.ar/",
      "source": "osm"
    },
    {
      "nom": "El Conquistador Hotel",
      "categorie": "Hôtel",
      "priceRange": "€€",
      "mapsUrl": "https://maps.google.com/?q=-34.5970983,-58.380159",
      "lat": -34.5970983,
      "lng": -58.380159,
      "halalFriendly": false,
      "bookingUrl": "https://www.elconquistador.com.ar/",
      "source": "osm"
    },
    {
      "nom": "Icaro Suites",
      "categorie": "Appartement",
      "priceRange": "€€",
      "mapsUrl": "https://maps.google.com/?q=-34.6062585,-58.3891957",
      "lat": -34.6062585,
      "lng": -58.3891957,
      "halalFriendly": false,
      "bookingUrl": "https://icarosuites.com/",
      "source": "osm"
    },
    {
      "nom": "Hotel Turista",
      "categorie": "Hôtel",
      "priceRange": "€€",
      "mapsUrl": "https://maps.google.com/?q=-34.6088394,-58.3761866",
      "lat": -34.6088394,
      "lng": -58.3761866,
      "halalFriendly": false,
      "bookingUrl": "https://maps.google.com/?q=-34.6088394,-58.3761866",
      "source": "osm"
    },
    {
      "nom": "Hotel Roma",
      "categorie": "Hôtel",
      "priceRange": "€€",
      "mapsUrl": "https://maps.google.com/?q=-34.6092411,-58.3865019",
      "lat": -34.6092411,
      "lng": -58.3865019,
      "halalFriendly": false,
      "bookingUrl": "https://maps.google.com/?q=-34.6092411,-58.3865019",
      "source": "osm"
    },
    {
      "nom": "Regente Palace Hotel",
      "categorie": "Hôtel",
      "priceRange": "€€",
      "mapsUrl": "https://maps.google.com/?q=-34.596962,-58.379977",
      "lat": -34.596962,
      "lng": -58.379977,
      "halalFriendly": false,
      "bookingUrl": "https://maps.google.com/?q=-34.596962,-58.379977",
      "source": "osm"
    },
    {
      "nom": "Hotel A y B Internacional",
      "categorie": "Hôtel",
      "priceRange": "€€€",
      "score": 3,
      "mapsUrl": "https://maps.google.com/?q=-34.606121,-58.389426",
      "lat": -34.606121,
      "lng": -58.389426,
      "halalFriendly": false,
      "bookingUrl": "https://www.hotelayb.com/",
      "source": "osm"
    },
    {
      "nom": "Victory",
      "categorie": "Hôtel",
      "priceRange": "€€",
      "mapsUrl": "https://maps.google.com/?q=-34.5979116,-58.3769949",
      "lat": -34.5979116,
      "lng": -58.3769949,
      "halalFriendly": false,
      "bookingUrl": "http://www.victoryhotel.com.ar",
      "source": "osm"
    }
  ],
  "mosqueesPrincipales": [
    {
      "id": "m150610054",
      "nom": "Santa Catalina de Siena",
      "type": "Mosquée",
      "adresse": "",
      "description": "Lieu de prière (OpenStreetMap).",
      "mapsUrl": "https://maps.google.com/?q=-34.5995995,-58.3736548",
      "lat": -34.5995995,
      "lng": -58.3736548,
      "source": "osm"
    },
    {
      "id": "m265344159",
      "nom": "Catedral Metropolitana",
      "type": "Mosquée",
      "adresse": "San Martín, Ciudad Autónoma de Buenos Aires",
      "description": "Lieu de prière (OpenStreetMap).",
      "mapsUrl": "https://maps.google.com/?q=-34.607476,-58.3732471",
      "lat": -34.607476,
      "lng": -58.3732471,
      "source": "osm"
    },
    {
      "id": "m672817484",
      "nom": "Catedral ortodoxa rusa de la Santísima Trinidad",
      "type": "Mosquée",
      "adresse": "Avenida Brasil, Ciudad Autónoma de Buenos Aires",
      "description": "Lieu de prière (OpenStreetMap).",
      "mapsUrl": "https://maps.google.com/?q=-34.6251002,-58.3700364",
      "lat": -34.6251002,
      "lng": -58.3700364,
      "source": "osm"
    },
    {
      "id": "m4396847591",
      "nom": "Mezquita Al Ahmad",
      "type": "Mosquée",
      "adresse": "Alberti, Ciudad Autónoma de Buenos Aires",
      "description": "Lieu de prière (OpenStreetMap).",
      "mapsUrl": "https://maps.google.com/?q=-34.6279696,-58.4001494",
      "lat": -34.6279696,
      "lng": -58.4001494,
      "source": "osm"
    },
    {
      "id": "m55595034",
      "nom": "Centro Cultural Islámico Rey Fahd",
      "type": "Mosquée",
      "adresse": "Avenida Intendente Bullrich, Ciudad Autónoma de Buenos Aires",
      "description": "Lieu de prière (OpenStreetMap).",
      "mapsUrl": "https://maps.google.com/?q=-34.5727672,-58.42525",
      "lat": -34.5727672,
      "lng": -58.42525,
      "source": "osm"
    },
    {
      "id": "m13807541147",
      "nom": "Santuario Diego Armando Maradona",
      "type": "Mosquée",
      "adresse": "",
      "description": "Lieu de prière (OpenStreetMap).",
      "mapsUrl": "https://maps.google.com/?q=-34.6057667,-58.4722243",
      "lat": -34.6057667,
      "lng": -58.4722243,
      "source": "osm"
    },
    {
      "id": "m9472331512",
      "nom": "Al-masyidi At-Tauhid",
      "type": "Mosquée",
      "adresse": "Felipe Vallese, Ciudad Autónoma de Buenos Aires",
      "description": "Lieu de prière (OpenStreetMap).",
      "mapsUrl": "https://maps.google.com/?q=-34.6257795,-58.48152",
      "lat": -34.6257795,
      "lng": -58.48152,
      "source": "osm"
    }
  ],
  "activites": [
    {
      "id": "a1332861812",
      "nom": "Obelisco",
      "categorie": "attraction",
      "description": "",
      "prix": "",
      "duree": "",
      "mapsUrl": "https://maps.google.com/?q=-34.6037093,-58.3816296",
      "lat": -34.6037093,
      "lng": -58.3816296,
      "source": "osm"
    },
    {
      "id": "a767725544",
      "nom": "Bandera de la Ciudad de Buenos Aires",
      "categorie": "attraction",
      "description": "",
      "prix": "",
      "duree": "",
      "mapsUrl": "https://maps.google.com/?q=-34.6041576,-58.381565",
      "lat": -34.6041576,
      "lng": -58.381565,
      "source": "osm"
    },
    {
      "id": "a7726391752",
      "nom": "Escudo Nacional",
      "categorie": "memorial",
      "description": "",
      "prix": "",
      "duree": "",
      "mapsUrl": "https://maps.google.com/?q=-34.6031787,-58.3816212",
      "lat": -34.6031787,
      "lng": -58.3816212,
      "source": "osm"
    },
    {
      "id": "a1332682671",
      "nom": "Jardín vertical BA",
      "categorie": "artwork",
      "description": "",
      "prix": "",
      "duree": "",
      "mapsUrl": "https://maps.google.com/?q=-34.6031561,-58.3815716",
      "lat": -34.6031561,
      "lng": -58.3815716,
      "source": "osm"
    },
    {
      "id": "a6487934284",
      "nom": "Mirador Obelisco",
      "categorie": "viewpoint",
      "description": "",
      "prix": "",
      "duree": "",
      "mapsUrl": "https://maps.google.com/?q=-34.6032779,-58.3824879",
      "lat": -34.6032779,
      "lng": -58.3824879,
      "source": "osm"
    },
    {
      "id": "a10951058075",
      "nom": "Alberto Márquez",
      "categorie": "memorial",
      "description": "",
      "prix": "",
      "duree": "",
      "mapsUrl": "https://maps.google.com/?q=-34.6050346,-58.381145",
      "lat": -34.6050346,
      "lng": -58.381145,
      "source": "osm"
    },
    {
      "id": "a2836404767",
      "nom": "Tango Sidewalk",
      "categorie": "attraction",
      "description": "",
      "prix": "",
      "duree": "",
      "mapsUrl": "https://maps.google.com/?q=-34.6039488,-58.3794861",
      "lat": -34.6039488,
      "lng": -58.3794861,
      "source": "osm"
    },
    {
      "id": "a5888490439",
      "nom": "Placa detenidos desaparecidos",
      "categorie": "memorial",
      "description": "",
      "prix": "",
      "duree": "",
      "mapsUrl": "https://maps.google.com/?q=-34.604156,-58.3837381",
      "lat": -34.604156,
      "lng": -58.3837381,
      "source": "osm"
    },
    {
      "id": "a8189378790",
      "nom": "Pedro Leopoldo Barraza y Carlos Laham",
      "categorie": "memorial",
      "description": "",
      "prix": "",
      "duree": "",
      "mapsUrl": "https://maps.google.com/?q=-34.6025578,-58.3795157",
      "lat": -34.6025578,
      "lng": -58.3795157,
      "source": "osm"
    },
    {
      "id": "a8260661848",
      "nom": "Gran Logia de la Argentina de Libres y Aceptados Masones",
      "categorie": "attraction",
      "description": "",
      "prix": "",
      "duree": "",
      "mapsUrl": "https://maps.google.com/?q=-34.6062625,-58.3828116",
      "lat": -34.6062625,
      "lng": -58.3828116,
      "source": "osm"
    },
    {
      "id": "a23633911",
      "nom": "Teatro Colón",
      "categorie": "attraction",
      "description": "",
      "prix": "",
      "duree": "",
      "mapsUrl": "https://maps.google.com/?q=-34.6010807,-58.3831792",
      "lat": -34.6010807,
      "lng": -58.3831792,
      "source": "osm"
    },
    {
      "id": "a4371621111",
      "nom": "Monumento al General Lavalle",
      "categorie": "monument",
      "description": "",
      "prix": "",
      "duree": "",
      "mapsUrl": "https://maps.google.com/?q=-34.601505,-58.3846199",
      "lat": -34.601505,
      "lng": -58.3846199,
      "source": "osm"
    },
    {
      "id": "a6005398404",
      "nom": "Lisandro de la Torre",
      "categorie": "monument",
      "description": "",
      "prix": "",
      "duree": "",
      "mapsUrl": "https://maps.google.com/?q=-34.6058114,-58.3778063",
      "lat": -34.6058114,
      "lng": -58.3778063,
      "source": "osm"
    },
    {
      "id": "a12240508467",
      "nom": "Manuel Dorrego",
      "categorie": "memorial",
      "description": "",
      "prix": "",
      "duree": "",
      "mapsUrl": "https://maps.google.com/?q=-34.6002495,-58.3793052",
      "lat": -34.6002495,
      "lng": -58.3793052,
      "source": "osm"
    },
    {
      "id": "a4703936003",
      "nom": "Galeno Art",
      "categorie": "gallery",
      "description": "",
      "prix": "",
      "duree": "",
      "mapsUrl": "https://maps.google.com/?q=-34.6047275,-58.3767712",
      "lat": -34.6047275,
      "lng": -58.3767712,
      "source": "osm"
    },
    {
      "id": "a5452358819",
      "nom": "Museo de la Mujer",
      "categorie": "museum",
      "description": "",
      "prix": "",
      "duree": "",
      "mapsUrl": "https://maps.google.com/?q=-34.6068838,-58.3853485",
      "lat": -34.6068838,
      "lng": -58.3853485,
      "source": "osm"
    },
    {
      "id": "a4293917798",
      "nom": "Museo Judío de Buenos Aires",
      "categorie": "museum",
      "description": "",
      "prix": "",
      "duree": "",
      "mapsUrl": "https://maps.google.com/?q=-34.5995877,-58.3837137",
      "lat": -34.5995877,
      "lng": -58.3837137,
      "source": "osm"
    },
    {
      "id": "a11601023174",
      "nom": "Palermo H",
      "categorie": "gallery",
      "description": "",
      "prix": "",
      "duree": "",
      "mapsUrl": "https://maps.google.com/?q=-34.6012167,-58.3769845",
      "lat": -34.6012167,
      "lng": -58.3769845,
      "source": "osm"
    },
    {
      "id": "a4516458359",
      "nom": "La Sabiduría",
      "categorie": "artwork",
      "description": "",
      "prix": "",
      "duree": "",
      "mapsUrl": "https://maps.google.com/?q=-34.6085793,-58.3808927",
      "lat": -34.6085793,
      "lng": -58.3808927,
      "source": "osm"
    },
    {
      "id": "a4516458360",
      "nom": "La Virtud",
      "categorie": "artwork",
      "description": "",
      "prix": "",
      "duree": "",
      "mapsUrl": "https://maps.google.com/?q=-34.6085785,-58.3808483",
      "lat": -34.6085785,
      "lng": -58.3808483,
      "source": "osm"
    },
    {
      "id": "a4516458358",
      "nom": "Andrés Guacurarí y Artigas",
      "categorie": "memorial",
      "description": "",
      "prix": "",
      "duree": "",
      "mapsUrl": "https://maps.google.com/?q=-34.6086306,-58.3817289",
      "lat": -34.6086306,
      "lng": -58.3817289,
      "source": "osm"
    },
    {
      "id": "a455194399",
      "nom": "Cataratas del Iguazú, Misiones",
      "categorie": "attraction",
      "description": "",
      "prix": "",
      "duree": "",
      "mapsUrl": "https://maps.google.com/?q=-34.608771,-58.3808959",
      "lat": -34.608771,
      "lng": -58.3808959,
      "source": "osm"
    },
    {
      "id": "a6438879617",
      "nom": "Instituto Nacional de Estudios De Teatro",
      "categorie": "museum",
      "description": "",
      "prix": "",
      "duree": "",
      "mapsUrl": "https://maps.google.com/?q=-34.598968,-58.3839347",
      "lat": -34.598968,
      "lng": -58.3839347,
      "source": "osm"
    },
    {
      "id": "a455200211",
      "nom": "Los Angelitos",
      "categorie": "artwork",
      "description": "",
      "prix": "",
      "duree": "",
      "mapsUrl": "https://maps.google.com/?q=-34.6088242,-58.3817791",
      "lat": -34.6088242,
      "lng": -58.3817791,
      "source": "osm"
    },
    {
      "id": "a5554504295",
      "nom": "Museo Mundial del Tango",
      "categorie": "museum",
      "description": "",
      "prix": "",
      "duree": "",
      "mapsUrl": "https://maps.google.com/?q=-34.6082955,-58.3784055",
      "lat": -34.6082955,
      "lng": -58.3784055,
      "source": "osm"
    },
    {
      "id": "a11522462176",
      "nom": "Gastón Riva",
      "categorie": "memorial",
      "description": "",
      "prix": "",
      "duree": "",
      "mapsUrl": "https://maps.google.com/?q=-34.6087889,-58.3791013",
      "lat": -34.6087889,
      "lng": -58.3791013,
      "source": "osm"
    },
    {
      "id": "a13738091502",
      "nom": "Museo del Mate",
      "categorie": "museum",
      "description": "",
      "prix": "",
      "duree": "",
      "mapsUrl": "https://maps.google.com/?q=-34.6086979,-58.3785336",
      "lat": -34.6086979,
      "lng": -58.3785336,
      "source": "osm"
    },
    {
      "id": "a2831272224",
      "nom": "El Quijote",
      "categorie": "artwork",
      "description": "",
      "prix": "",
      "duree": "",
      "mapsUrl": "https://maps.google.com/?q=-34.6094562,-58.3817588",
      "lat": -34.6094562,
      "lng": -58.3817588,
      "source": "osm"
    },
    {
      "id": "a11522462178",
      "nom": "Diego Lamagna",
      "categorie": "memorial",
      "description": "",
      "prix": "",
      "duree": "",
      "mapsUrl": "https://maps.google.com/?q=-34.6094926,-58.3808434",
      "lat": -34.6094926,
      "lng": -58.3808434,
      "source": "osm"
    },
    {
      "id": "a11522462177",
      "nom": "Carlos \"Petete\" Almirón",
      "categorie": "memorial",
      "description": "",
      "prix": "",
      "duree": "",
      "mapsUrl": "https://maps.google.com/?q=-34.6095075,-58.3809447",
      "lat": -34.6095075,
      "lng": -58.3809447,
      "source": "osm"
    },
    {
      "id": "a6438930117",
      "nom": "Museo Sadaic 'Vicente López y Planes'",
      "categorie": "museum",
      "description": "",
      "prix": "",
      "duree": "",
      "mapsUrl": "https://maps.google.com/?q=-34.6028503,-58.3886138",
      "lat": -34.6028503,
      "lng": -58.3886138,
      "source": "osm"
    },
    {
      "id": "a204263802",
      "nom": "Museo Mitre",
      "categorie": "museum",
      "description": "",
      "prix": "",
      "duree": "",
      "mapsUrl": "https://maps.google.com/?q=-34.6040767,-58.3741857",
      "lat": -34.6040767,
      "lng": -58.3741857,
      "source": "osm"
    },
    {
      "id": "a7205797985",
      "nom": "Americalatina ahora o nunca",
      "categorie": "artwork",
      "description": "",
      "prix": "",
      "duree": "",
      "mapsUrl": "https://maps.google.com/?q=-34.6093737,-58.3844869",
      "lat": -34.6093737,
      "lng": -58.3844869,
      "source": "osm"
    },
    {
      "id": "a2481986716",
      "nom": "Mirador Galería Güemes",
      "categorie": "viewpoint",
      "description": "",
      "prix": "",
      "duree": "",
      "mapsUrl": "https://maps.google.com/?q=-34.6063874,-58.3747973",
      "lat": -34.6063874,
      "lng": -58.3747973,
      "source": "osm"
    },
    {
      "id": "a12096358973",
      "nom": "Adolfo Alsina",
      "categorie": "memorial",
      "description": "",
      "prix": "",
      "duree": "",
      "mapsUrl": "https://maps.google.com/?q=-34.5974301,-58.3834478",
      "lat": -34.5974301,
      "lng": -58.3834478,
      "source": "osm"
    },
    {
      "id": "a6437146001",
      "nom": "Museo Policial",
      "categorie": "museum",
      "description": "",
      "prix": "",
      "duree": "",
      "mapsUrl": "https://maps.google.com/?q=-34.6038405,-58.3736698",
      "lat": -34.6038405,
      "lng": -58.3736698,
      "source": "osm"
    },
    {
      "id": "a5851525857",
      "nom": "Gustavo Benedetto",
      "categorie": "memorial",
      "description": "",
      "prix": "",
      "duree": "",
      "mapsUrl": "https://maps.google.com/?q=-34.6087886,-58.3765388",
      "lat": -34.6087886,
      "lng": -58.3765388,
      "source": "osm"
    },
    {
      "id": "a11577704269",
      "nom": "La Casa de los azulejos- art nouvear",
      "categorie": "monument",
      "description": "",
      "prix": "",
      "duree": "",
      "mapsUrl": "https://maps.google.com/?q=-34.5982668,-58.3863539",
      "lat": -34.5982668,
      "lng": -58.3863539,
      "source": "osm"
    },
    {
      "id": "a1386044833",
      "nom": "Palacio Barolo",
      "categorie": "attraction",
      "description": "",
      "prix": "",
      "duree": "",
      "mapsUrl": "https://maps.google.com/?q=-34.6096597,-58.3857297",
      "lat": -34.6096597,
      "lng": -58.3857297,
      "source": "osm"
    },
    {
      "id": "a7554662687",
      "nom": "Museo Beatle",
      "categorie": "museum",
      "description": "",
      "prix": "",
      "duree": "",
      "mapsUrl": "https://maps.google.com/?q=-34.6053496,-58.3899918",
      "lat": -34.6053496,
      "lng": -58.3899918,
      "source": "osm"
    },
    {
      "id": "a5852946241",
      "nom": "Museo Nacional de Arte Oriental",
      "categorie": "museum",
      "description": "",
      "prix": "",
      "duree": "",
      "mapsUrl": "https://maps.google.com/?q=-34.5996894,-58.3743531",
      "lat": -34.5996894,
      "lng": -58.3743531,
      "source": "osm"
    },
    {
      "id": "a28263519",
      "nom": "Galerías Pacífico",
      "categorie": "attraction",
      "description": "",
      "prix": "",
      "duree": "",
      "mapsUrl": "https://maps.google.com/?q=-34.5992439,-58.3747417",
      "lat": -34.5992439,
      "lng": -58.3747417,
      "source": "osm"
    },
    {
      "id": "a889073292",
      "nom": "Edificio La Inmobiliaria",
      "categorie": "attraction",
      "description": "",
      "prix": "",
      "duree": "",
      "mapsUrl": "https://maps.google.com/?q=-34.6096376,-58.3867422",
      "lat": -34.6096376,
      "lng": -58.3867422,
      "source": "osm"
    },
    {
      "id": "a4519453507",
      "nom": "José Manuel Estrada",
      "categorie": "memorial",
      "description": "",
      "prix": "",
      "duree": "",
      "mapsUrl": "https://maps.google.com/?q=-34.609211,-58.3876477",
      "lat": -34.609211,
      "lng": -58.3876477,
      "source": "osm"
    },
    {
      "id": "a5981929851",
      "nom": "Museo del Audífono",
      "categorie": "museum",
      "description": "",
      "prix": "",
      "duree": "",
      "mapsUrl": "https://maps.google.com/?q=-34.6065664,-58.3900664",
      "lat": -34.6065664,
      "lng": -58.3900664,
      "source": "osm"
    },
    {
      "id": "a6417122475",
      "nom": "Casa Histórica 'Isaac Fernández Blanco'",
      "categorie": "museum",
      "description": "",
      "prix": "",
      "duree": "",
      "mapsUrl": "https://maps.google.com/?q=-34.6100737,-58.3865096",
      "lat": -34.6100737,
      "lng": -58.3865096,
      "source": "osm"
    },
    {
      "id": "a5851553998",
      "nom": "75 aniversario de la puesta en marcha del primer subterráneo de buenos aires",
      "categorie": "memorial",
      "description": "",
      "prix": "",
      "duree": "",
      "mapsUrl": "https://maps.google.com/?q=-34.6086825,-58.3747078",
      "lat": -34.6086825,
      "lng": -58.3747078,
      "source": "osm"
    },
    {
      "id": "a4519394608",
      "nom": "Mariano Moreno",
      "categorie": "memorial",
      "description": "",
      "prix": "",
      "duree": "",
      "mapsUrl": "https://maps.google.com/?q=-34.6097749,-58.3875952",
      "lat": -34.6097749,
      "lng": -58.3875952,
      "source": "osm"
    },
    {
      "id": "a6439756188",
      "nom": "Archivo y Museo del Banco de la Provincia de Buenos Aires",
      "categorie": "museum",
      "description": "",
      "prix": "",
      "duree": "",
      "mapsUrl": "https://maps.google.com/?q=-34.6042633,-58.3720766",
      "lat": -34.6042633,
      "lng": -58.3720766,
      "source": "osm"
    },
    {
      "id": "a5282565128",
      "nom": "Monumento a la Virgen",
      "categorie": "memorial",
      "description": "",
      "prix": "",
      "duree": "",
      "mapsUrl": "https://maps.google.com/?q=-34.6073126,-58.3900887",
      "lat": -34.6073126,
      "lng": -58.3900887,
      "source": "osm"
    },
    {
      "id": "a6160235679",
      "nom": "Museo de Informática",
      "categorie": "museum",
      "description": "",
      "prix": "",
      "duree": "",
      "mapsUrl": "https://maps.google.com/?q=-34.5964433,-58.3774819",
      "lat": -34.5964433,
      "lng": -58.3774819,
      "source": "osm"
    },
    {
      "id": "a1978877347",
      "nom": "Mausoleo del General San Martín",
      "categorie": "memorial",
      "description": "",
      "prix": "",
      "duree": "",
      "mapsUrl": "https://maps.google.com/?q=-34.6075795,-58.3730267",
      "lat": -34.6075795,
      "lng": -58.3730267,
      "source": "osm"
    },
    {
      "id": "a1957798546",
      "nom": "El Pensador",
      "categorie": "artwork",
      "description": "",
      "prix": "",
      "duree": "",
      "mapsUrl": "https://maps.google.com/?q=-34.6095237,-58.3883681",
      "lat": -34.6095237,
      "lng": -58.3883681,
      "source": "osm"
    },
    {
      "id": "a767690911",
      "nom": "Museo Histórico Nacional del Cabildo y de la Revolución de Mayo",
      "categorie": "museum",
      "description": "",
      "prix": "",
      "duree": "",
      "mapsUrl": "https://maps.google.com/?q=-34.6087695,-58.3738806",
      "lat": -34.6087695,
      "lng": -58.3738806,
      "source": "osm"
    },
    {
      "id": "a4519394607",
      "nom": "Alfredo Palacios",
      "categorie": "artwork",
      "description": "",
      "prix": "",
      "duree": "",
      "mapsUrl": "https://maps.google.com/?q=-34.6095464,-58.3887393",
      "lat": -34.6095464,
      "lng": -58.3887393,
      "source": "osm"
    },
    {
      "id": "a2102028542",
      "nom": "Kilómetro Cero",
      "categorie": "attraction",
      "description": "",
      "prix": "",
      "duree": "",
      "mapsUrl": "https://maps.google.com/?q=-34.6095597,-58.3888344",
      "lat": -34.6095597,
      "lng": -58.3888344,
      "source": "osm"
    },
    {
      "id": "a5287618122",
      "nom": "Alfredo L. Palacios",
      "categorie": "monument",
      "description": "",
      "prix": "",
      "duree": "",
      "mapsUrl": "https://maps.google.com/?q=-34.6099831,-58.3884852",
      "lat": -34.6099831,
      "lng": -58.3884852,
      "source": "osm"
    },
    {
      "id": "a4525190317",
      "nom": "Tritón",
      "categorie": "artwork",
      "description": "",
      "prix": "",
      "duree": "",
      "mapsUrl": "https://maps.google.com/?q=-34.6100015,-58.3746749",
      "lat": -34.6100015,
      "lng": -58.3746749,
      "source": "osm"
    },
    {
      "id": "a1625193970",
      "nom": "Museo de Armas de la Nación",
      "categorie": "museum",
      "description": "",
      "prix": "",
      "duree": "",
      "mapsUrl": "https://maps.google.com/?q=-34.5960316,-58.3771226",
      "lat": -34.5960316,
      "lng": -58.3771226,
      "source": "osm"
    },
    {
      "id": "a6417248982",
      "nom": "Museo de Minerales",
      "categorie": "museum",
      "description": "",
      "prix": "",
      "duree": "",
      "mapsUrl": "https://maps.google.com/?q=-34.6108404,-58.3757084",
      "lat": -34.6108404,
      "lng": -58.3757084,
      "source": "osm"
    },
    {
      "id": "a1485388532",
      "nom": "Julio Argentino Roca",
      "categorie": "memorial",
      "description": "",
      "prix": "",
      "duree": "",
      "mapsUrl": "https://maps.google.com/?q=-34.6103333,-58.3748716",
      "lat": -34.6103333,
      "lng": -58.3748716,
      "source": "osm"
    },
    {
      "id": "a1144740023",
      "nom": "Museo del Holocausto",
      "categorie": "museum",
      "description": "",
      "prix": "",
      "duree": "",
      "mapsUrl": "https://maps.google.com/?q=-34.5980366,-58.3895532",
      "lat": -34.5980366,
      "lng": -58.3895532,
      "source": "osm"
    },
    {
      "id": "a6416664478",
      "nom": "Museo Regina Pacini de Alvear",
      "categorie": "museum",
      "description": "",
      "prix": "",
      "duree": "",
      "mapsUrl": "https://maps.google.com/?q=-34.5954882,-58.3850263",
      "lat": -34.5954882,
      "lng": -58.3850263,
      "source": "osm"
    },
    {
      "id": "a11256661038",
      "nom": "Esteban Echeverría",
      "categorie": "memorial",
      "description": "",
      "prix": "",
      "duree": "",
      "mapsUrl": "https://maps.google.com/?q=-34.5963836,-58.3756922",
      "lat": -34.5963836,
      "lng": -58.3756922,
      "source": "osm"
    },
    {
      "id": "a11548018260",
      "nom": "Plaza de Mayo",
      "categorie": "memorial",
      "description": "",
      "prix": "",
      "duree": "",
      "mapsUrl": "https://maps.google.com/?q=-34.6084134,-58.3722821",
      "lat": -34.6084134,
      "lng": -58.3722821,
      "source": "osm"
    },
    {
      "id": "a4519234990",
      "nom": "Ricardo Balbín",
      "categorie": "memorial",
      "description": "",
      "prix": "",
      "duree": "",
      "mapsUrl": "https://maps.google.com/?q=-34.6099737,-58.3894465",
      "lat": -34.6099737,
      "lng": -58.3894465,
      "source": "osm"
    },
    {
      "id": "a6758084787",
      "nom": "La Industria",
      "categorie": "artwork",
      "description": "",
      "prix": "",
      "duree": "",
      "mapsUrl": "https://maps.google.com/?q=-34.6083898,-58.3721862",
      "lat": -34.6083898,
      "lng": -58.3721862,
      "source": "osm"
    },
    {
      "id": "a6366322686",
      "nom": "El Arranque",
      "categorie": "attraction",
      "description": "",
      "prix": "",
      "duree": "",
      "mapsUrl": "https://maps.google.com/?q=-34.6078739,-58.3913845",
      "lat": -34.6078739,
      "lng": -58.3913845,
      "source": "osm"
    },
    {
      "id": "a6758084788",
      "nom": "La Geografía",
      "categorie": "artwork",
      "description": "",
      "prix": "",
      "duree": "",
      "mapsUrl": "https://maps.google.com/?q=-34.6084248,-58.3721838",
      "lat": -34.6084248,
      "lng": -58.3721838,
      "source": "osm"
    },
    {
      "id": "a720034699",
      "nom": "Pirámide de Mayo",
      "categorie": "attraction",
      "description": "",
      "prix": "",
      "duree": "",
      "mapsUrl": "https://maps.google.com/?q=-34.6084063,-58.3721649",
      "lat": -34.6084063,
      "lng": -58.3721649,
      "source": "osm"
    },
    {
      "id": "a6758084790",
      "nom": "La Astronomía",
      "categorie": "artwork",
      "description": "",
      "prix": "",
      "duree": "",
      "mapsUrl": "https://maps.google.com/?q=-34.6083879,-58.3721461",
      "lat": -34.6083879,
      "lng": -58.3721461,
      "source": "osm"
    },
    {
      "id": "a6439099721",
      "nom": "Museo Histórico y Numismático del Banco de la Nación Argentina",
      "categorie": "museum",
      "description": "",
      "prix": "",
      "duree": "",
      "mapsUrl": "https://maps.google.com/?q=-34.6067226,-58.3711767",
      "lat": -34.6067226,
      "lng": -58.3711767,
      "source": "osm"
    },
    {
      "id": "a6758084789",
      "nom": "La Navegación",
      "categorie": "artwork",
      "description": "",
      "prix": "",
      "duree": "",
      "mapsUrl": "https://maps.google.com/?q=-34.608423,-58.3721437",
      "lat": -34.608423,
      "lng": -58.3721437,
      "source": "osm"
    },
    {
      "id": "a11591941473",
      "nom": "Cristales en la memoria",
      "categorie": "artwork",
      "description": "",
      "prix": "",
      "duree": "",
      "mapsUrl": "https://maps.google.com/?q=-34.6109339,-58.374791",
      "lat": -34.6109339,
      "lng": -58.374791,
      "source": "osm"
    },
    {
      "id": "a11430098969",
      "nom": "Mural Novo do Messi",
      "categorie": "monument",
      "description": "",
      "prix": "",
      "duree": "",
      "mapsUrl": "https://maps.google.com/?q=-34.612899,-58.3807875",
      "lat": -34.612899,
      "lng": -58.3807875,
      "source": "osm"
    },
    {
      "id": "a667772497",
      "nom": "Monumento al General San Martín",
      "categorie": "monument",
      "description": "",
      "prix": "",
      "duree": "",
      "mapsUrl": "https://maps.google.com/?q=-34.594978,-58.3771048",
      "lat": -34.594978,
      "lng": -58.3771048,
      "source": "osm"
    },
    {
      "id": "a3348571875",
      "nom": "La Librería de Avila",
      "categorie": "attraction",
      "description": "",
      "prix": "",
      "duree": "",
      "mapsUrl": "https://maps.google.com/?q=-34.6103267,-58.3733624",
      "lat": -34.6103267,
      "lng": -58.3733624,
      "source": "osm"
    },
    {
      "id": "a4518407864",
      "nom": "Bandera Nacional",
      "categorie": "attraction",
      "description": "",
      "prix": "",
      "duree": "",
      "mapsUrl": "https://maps.google.com/?q=-34.6083653,-58.3713576",
      "lat": -34.6083653,
      "lng": -58.3713576,
      "source": "osm"
    },
    {
      "id": "a185737974",
      "nom": "Monumento a los Dos Congresos",
      "categorie": "memorial",
      "description": "",
      "prix": "",
      "duree": "",
      "mapsUrl": "https://maps.google.com/?q=-34.6097291,-58.3907923",
      "lat": -34.6097291,
      "lng": -58.3907923,
      "source": "osm"
    },
    {
      "id": "a4827968022",
      "nom": "Plaza San Martin",
      "categorie": "monument",
      "description": "",
      "prix": "",
      "duree": "",
      "mapsUrl": "https://maps.google.com/?q=-34.5952467,-58.3758571",
      "lat": -34.5952467,
      "lng": -58.3758571,
      "source": "osm"
    },
    {
      "id": "a13634431755",
      "nom": "Rue des Artisans",
      "categorie": "attraction",
      "description": "",
      "prix": "",
      "duree": "",
      "mapsUrl": "https://maps.google.com/?q=-34.5943748,-58.3849854",
      "lat": -34.5943748,
      "lng": -58.3849854,
      "source": "osm"
    },
    {
      "id": "a4514573921",
      "nom": "Luis Jorge Fontana",
      "categorie": "artwork",
      "description": "",
      "prix": "",
      "duree": "",
      "mapsUrl": "https://maps.google.com/?q=-34.6134022,-58.3806594",
      "lat": -34.6134022,
      "lng": -58.3806594,
      "source": "osm"
    },
    {
      "id": "a720034722",
      "nom": "Monumento al General Manuel Belgrano",
      "categorie": "memorial",
      "description": "",
      "prix": "",
      "duree": "",
      "mapsUrl": "https://maps.google.com/?q=-34.6083543,-58.3711909",
      "lat": -34.6083543,
      "lng": -58.3711909,
      "source": "osm"
    },
    {
      "id": "a6439722697",
      "nom": "Museo Histórico de la ARCA",
      "categorie": "museum",
      "description": "",
      "prix": "",
      "duree": "",
      "mapsUrl": "https://maps.google.com/?q=-34.6090417,-58.3716407",
      "lat": -34.6090417,
      "lng": -58.3716407,
      "source": "osm"
    },
    {
      "id": "a3189361057",
      "nom": "Giuseppe Mazzini",
      "categorie": "memorial",
      "description": "",
      "prix": "",
      "duree": "",
      "mapsUrl": "https://maps.google.com/?q=-34.6012238,-58.3700198",
      "lat": -34.6012238,
      "lng": -58.3700198,
      "source": "osm"
    },
    {
      "id": "a12407562686",
      "nom": "Buenos Aires Museo",
      "categorie": "museum",
      "description": "",
      "prix": "",
      "duree": "",
      "mapsUrl": "https://maps.google.com/?q=-34.6098651,-58.372177",
      "lat": -34.6098651,
      "lng": -58.372177,
      "source": "osm"
    },
    {
      "id": "a6680796741",
      "nom": "Cartero",
      "categorie": "memorial",
      "description": "",
      "prix": "",
      "duree": "",
      "mapsUrl": "https://maps.google.com/?q=-34.6045591,-58.3696049",
      "lat": -34.6045591,
      "lng": -58.3696049,
      "source": "osm"
    },
    {
      "id": "a1490042312",
      "nom": "Juan Bautista de la Salle",
      "categorie": "memorial",
      "description": "",
      "prix": "",
      "duree": "",
      "mapsUrl": "https://maps.google.com/?q=-34.5984272,-58.3918138",
      "lat": -34.5984272,
      "lng": -58.3918138,
      "source": "osm"
    },
    {
      "id": "a1490044720",
      "nom": "Cornelio Saavedra",
      "categorie": "memorial",
      "description": "",
      "prix": "",
      "duree": "",
      "mapsUrl": "https://maps.google.com/?q=-34.5997437,-58.3926621",
      "lat": -34.5997437,
      "lng": -58.3926621,
      "source": "osm"
    },
    {
      "id": "a5981974142",
      "nom": "Museo del Senado de la Nación",
      "categorie": "museum",
      "description": "",
      "prix": "",
      "duree": "",
      "mapsUrl": "https://maps.google.com/?q=-34.6103731,-58.3906449",
      "lat": -34.6103731,
      "lng": -58.3906449,
      "source": "osm"
    },
    {
      "id": "a5982044685",
      "nom": "Museo Parlamentario",
      "categorie": "museum",
      "description": "",
      "prix": "",
      "duree": "",
      "mapsUrl": "https://maps.google.com/?q=-34.610355,-58.3906879",
      "lat": -34.610355,
      "lng": -58.3906879,
      "source": "osm"
    },
    {
      "id": "a102440659",
      "nom": "Edificio Kavanagh",
      "categorie": "attraction",
      "description": "",
      "prix": "",
      "duree": "",
      "mapsUrl": "https://maps.google.com/?q=-34.5954039,-58.3746831",
      "lat": -34.5954039,
      "lng": -58.3746831,
      "source": "osm"
    },
    {
      "id": "a1238251138",
      "nom": "Juan de Garay",
      "categorie": "memorial",
      "description": "",
      "prix": "",
      "duree": "",
      "mapsUrl": "https://maps.google.com/?q=-34.6069238,-58.3699856",
      "lat": -34.6069238,
      "lng": -58.3699856,
      "source": "osm"
    },
    {
      "id": "a6680796742",
      "nom": "Juana Azurduy",
      "categorie": "memorial",
      "description": "",
      "prix": "",
      "duree": "",
      "mapsUrl": "https://maps.google.com/?q=-34.6046584,-58.3693609",
      "lat": -34.6046584,
      "lng": -58.3693609,
      "source": "osm"
    },
    {
      "id": "a1422088910",
      "nom": "Monumento a Juana Azurduy",
      "categorie": "memorial",
      "description": "",
      "prix": "",
      "duree": "",
      "mapsUrl": "https://maps.google.com/?q=-34.604668,-58.3693379",
      "lat": -34.604668,
      "lng": -58.3693379,
      "source": "osm"
    },
    {
      "id": "a708071953",
      "nom": "Confitería El Molino",
      "categorie": "attraction",
      "description": "",
      "prix": "",
      "duree": "",
      "mapsUrl": "https://maps.google.com/?q=-34.6088424,-58.3922391",
      "lat": -34.6088424,
      "lng": -58.3922391,
      "source": "osm"
    },
    {
      "id": "a210441310",
      "nom": "Museo de la Ciudad",
      "categorie": "museum",
      "description": "",
      "prix": "",
      "duree": "",
      "mapsUrl": "https://maps.google.com/?q=-34.6103421,-58.3722644",
      "lat": -34.6103421,
      "lng": -58.3722644,
      "source": "osm"
    },
    {
      "id": "a2892504247",
      "nom": "Antigua Sede del Congreso Nacional",
      "categorie": "attraction",
      "description": "",
      "prix": "",
      "duree": "",
      "mapsUrl": "https://maps.google.com/?q=-34.6091647,-58.3711512",
      "lat": -34.6091647,
      "lng": -58.3711512,
      "source": "osm"
    }
  ],
  "scoreIndicatif": true,
  "osmEnriched": true,
  "osmEnrichedAt": "2026-06-30",
  "description_en": "Buenos Aires may not be a Muslim-majority destination, but it welcomes Muslim travelers with real halal options. You'll find 29 halal restaurants and 7 mosques nearby, plus real-time prayer times and the Qibla direction — everything to explore Buenos Aires, Argentina, with peace of mind.",
  "metaDescription_en": "Halal guide to Buenos Aires: 33 halal restaurants listed, 7 mosques, prayer times and tips for Muslim travelers. Halal Trust Score 3.1/5.",
  "nom_en": "Buenos Aires",
  "boucheries": []
}