{
 "slug": "buenos-aires",
 "nom": "Buenos Aires",
 "pays": "Argentine",
 "pays_slug": "argentine",
 "continent": "Amérique du Sud",
 "region": "Argentine",
 "coordonnees": {
  "lat": -34.6037,
  "lng": -58.3816
 },
 "codeISO": "AR",
 "score_halal": 3.1,
 "halalScore": 6.2,
 "villeNonMusulmane": true,
 "description": "Capitale élégante au charme européen. Centre islamique Roi Fahd et restaurants halal dans la capitale.",
 "metaDescription": "Capitale élégante au charme européen. Centre islamique Roi Fahd et restaurants halal dans la capitale.",
 "image": "https://upload.wikimedia.org/wikipedia/commons/thumb/7/7f/Buenos_Aires_skyline_day.jpg/1920px-Buenos_Aires_skyline_day.jpg",
 "image_hero": "https://upload.wikimedia.org/wikipedia/commons/thumb/7/7f/Buenos_Aires_skyline_day.jpg/1920px-Buenos_Aires_skyline_day.jpg",
 "imageCredit": "Wikimedia Commons",
 "statistiques": {
  "restaurants_halal": 22,
  "mosquees": 5,
  "hotels": 40
 },
 "infoPratique": {
  "transport": "Accessible par avion et transports en commun locaux.",
  "meilleureEpoque": "Printemps et automne (climat tempéré).",
  "conseilHalal": "Ville non-musulmane : repérez les restaurants halal certifiés et les mosquées via l'application avant votre visite."
 },
 "tags": [
  "halal",
  "ville non-musulmane",
  "amérique du sud"
 ],
 "restaurants": [
  {
   "nom": "La Mil y Una Noches",
   "type": "arab",
   "priceRange": "€€",
   "mapsUrl": "https://maps.google.com/?q=-34.6043411,-58.3850318",
   "lat": -34.6043411,
   "lng": -58.3850318,
   "halalConfidence": "likely",
   "source": "osm"
  },
  {
   "nom": "Don Shawarma",
   "type": "turkish",
   "priceRange": "€€",
   "mapsUrl": "https://maps.google.com/?q=-34.6004601,-58.3867145",
   "lat": -34.6004601,
   "lng": -58.3867145,
   "halalConfidence": "likely",
   "source": "osm"
  },
  {
   "nom": "Lo de Amira",
   "type": "kebab",
   "priceRange": "€€",
   "mapsUrl": "https://maps.google.com/?q=-34.6023999,-58.3893915",
   "lat": -34.6023999,
   "lng": -58.3893915,
   "halalConfidence": "likely",
   "source": "osm"
  },
  {
   "nom": "Shami Shawarma",
   "type": "arab",
   "priceRange": "€€",
   "mapsUrl": "https://maps.google.com/?q=-34.5988164,-58.3928281",
   "lat": -34.5988164,
   "lng": -58.3928281,
   "halalConfidence": "likely",
   "source": "osm"
  },
  {
   "nom": "Shawarma Al Nabek",
   "type": "arab, kebab, oriental, persian",
   "priceRange": "€€",
   "mapsUrl": "https://maps.google.com/?q=-34.6148347,-58.3903957",
   "lat": -34.6148347,
   "lng": -58.3903957,
   "halalConfidence": "likely",
   "source": "osm"
  },
  {
   "nom": "Al Arabe",
   "type": "kebab",
   "priceRange": "€€",
   "mapsUrl": "https://maps.google.com/?q=-34.5920139,-58.3901391",
   "lat": -34.5920139,
   "lng": -58.3901391,
   "halalConfidence": "likely",
   "source": "osm"
  },
  {
   "nom": "Jhabibi",
   "type": "arab",
   "priceRange": "€€",
   "mapsUrl": "https://maps.google.com/?q=-34.6206667,-58.373451",
   "lat": -34.6206667,
   "lng": -58.373451,
   "halalConfidence": "likely",
   "source": "osm"
  },
  {
   "nom": "Souriana",
   "type": "kebab",
   "priceRange": "€€",
   "mapsUrl": "https://maps.google.com/?q=-34.5927321,-58.4029087",
   "lat": -34.5927321,
   "lng": -58.4029087,
   "halalConfidence": "likely",
   "source": "osm"
  },
  {
   "nom": "Shami Shawarma",
   "type": "lebanese, mediterranean",
   "priceRange": "€€",
   "mapsUrl": "https://maps.google.com/?q=-34.603934,-58.4092718",
   "lat": -34.603934,
   "lng": -58.4092718,
   "halalConfidence": "likely",
   "source": "osm"
  },
  {
   "nom": "Shawami",
   "type": "shawarma",
   "priceRange": "€€",
   "mapsUrl": "https://maps.google.com/?q=-34.5867773,-58.4132248",
   "lat": -34.5867773,
   "lng": -58.4132248,
   "halalConfidence": "likely",
   "source": "osm"
  },
  {
   "nom": "La Vianda",
   "type": "arab, argentinian",
   "priceRange": "€€",
   "mapsUrl": "https://maps.google.com/?q=-34.6378114,-58.3752869",
   "lat": -34.6378114,
   "lng": -58.3752869,
   "halalConfidence": "likely",
   "source": "osm"
  },
  {
   "nom": "Garbis",
   "type": "arab",
   "priceRange": "€€",
   "mapsUrl": "https://maps.google.com/?q=-34.5982162,-58.4278322",
   "lat": -34.5982162,
   "lng": -58.4278322,
   "halalConfidence": "likely",
   "source": "osm"
  },
  {
   "nom": "Al Shark",
   "type": "arab",
   "priceRange": "€€",
   "mapsUrl": "https://maps.google.com/?q=-34.5917917,-58.4267697",
   "lat": -34.5917917,
   "lng": -58.4267697,
   "halalConfidence": "likely",
   "source": "osm"
  },
  {
   "nom": "Comida Arabe",
   "type": "kebab",
   "priceRange": "€€",
   "mapsUrl": "https://maps.google.com/?q=-34.5826301,-58.4272168",
   "lat": -34.5826301,
   "lng": -58.4272168,
   "halalConfidence": "likely",
   "source": "osm"
  },
  {
   "nom": "Shawarma Honduras",
   "type": "turkish",
   "priceRange": "€€",
   "mapsUrl": "https://maps.google.com/?q=-34.586652,-58.4332999",
   "lat": -34.586652,
   "lng": -58.4332999,
   "halalConfidence": "likely",
   "source": "osm"
  },
  {
   "nom": "Falafelandia",
   "type": "arab, sandwich, tea, turkish",
   "priceRange": "€€",
   "mapsUrl": "https://maps.google.com/?q=-34.5904823,-58.4360455",
   "lat": -34.5904823,
   "lng": -58.4360455,
   "halalConfidence": "likely",
   "source": "osm"
  },
  {
   "nom": "Al Karim",
   "type": "shawarma",
   "priceRange": "€€",
   "mapsUrl": "https://maps.google.com/?q=-34.6162424,-58.4388154",
   "lat": -34.6162424,
   "lng": -58.4388154,
   "halalConfidence": "likely",
   "source": "osm"
  },
  {
   "nom": "Mezze Delicatessen",
   "type": "arab, mediterranean",
   "priceRange": "€€",
   "mapsUrl": "https://maps.google.com/?q=-34.5696397,-58.4417168",
   "lat": -34.5696397,
   "lng": -58.4417168,
   "halalConfidence": "likely",
   "source": "osm"
  },
  {
   "nom": "Al Zein",
   "type": "arab, shawarma",
   "priceRange": "€€",
   "mapsUrl": "https://maps.google.com/?q=-34.5635258,-58.4384811",
   "lat": -34.5635258,
   "lng": -58.4384811,
   "halalConfidence": "likely",
   "source": "osm"
  },
  {
   "nom": "El Armenio",
   "type": "arab",
   "priceRange": "€€",
   "mapsUrl": "https://maps.google.com/?q=-34.578687,-58.4602977",
   "lat": -34.578687,
   "lng": -58.4602977,
   "halalConfidence": "likely",
   "source": "osm"
  },
  {
   "nom": "Shawarma Qatar",
   "type": "shawarma",
   "priceRange": "€€",
   "mapsUrl": "https://maps.google.com/?q=-34.5585547,-58.4482285",
   "lat": -34.5585547,
   "lng": -58.4482285,
   "halalConfidence": "likely",
   "source": "osm"
  },
  {
   "nom": "Al-Amir",
   "type": "arab",
   "priceRange": "€€",
   "mapsUrl": "https://maps.google.com/?q=-34.5576255,-58.4486123",
   "lat": -34.5576255,
   "lng": -58.4486123,
   "halalConfidence": "likely",
   "source": "osm"
  }
 ],
 "hotels": [
  {
   "nom": "Hotel República",
   "categorie": "Hôtel",
   "priceRange": "€€€€",
   "score": 4,
   "mapsUrl": "https://maps.google.com/?q=-34.6042199,-58.3824046",
   "lat": -34.6042199,
   "lng": -58.3824046,
   "halalFriendly": false,
   "bookingUrl": "https://www.globales.com/es/hoteles/argentina/argentina/buenos-aires/globales-republica/",
   "source": "osm"
  },
  {
   "nom": "Obelisco Center Suites",
   "categorie": "Hôtel",
   "priceRange": "€€",
   "mapsUrl": "https://maps.google.com/?q=-34.6040864,-58.3805828",
   "lat": -34.6040864,
   "lng": -58.3805828,
   "halalFriendly": false,
   "bookingUrl": "https://maps.google.com/?q=-34.6040864,-58.3805828",
   "source": "osm"
  },
  {
   "nom": "Park Silver Obelisco Hotel",
   "categorie": "Hôtel",
   "priceRange": "€€€€",
   "score": 4,
   "mapsUrl": "https://maps.google.com/?q=-34.6047206,-58.3823356",
   "lat": -34.6047206,
   "lng": -58.3823356,
   "halalFriendly": false,
   "bookingUrl": "https://parksilverobelisco.com/",
   "source": "osm"
  },
  {
   "nom": "Broadway Hotel & Suites",
   "categorie": "Hôtel",
   "priceRange": "€€€€",
   "score": 4,
   "mapsUrl": "https://maps.google.com/?q=-34.6035706,-58.3831872",
   "lat": -34.6035706,
   "lng": -58.3831872,
   "halalFriendly": false,
   "bookingUrl": "https://www.broadway-suites.com.ar/",
   "source": "osm"
  },
  {
   "nom": "Exe Hotel Colón",
   "categorie": "Hôtel",
   "priceRange": "€€",
   "mapsUrl": "https://maps.google.com/?q=-34.6023098,-58.3808927",
   "lat": -34.6023098,
   "lng": -58.3808927,
   "halalFriendly": false,
   "bookingUrl": "https://www.eurostarshotels.com/exe-hotel-colon.html",
   "source": "osm"
  },
  {
   "nom": "Unique Executive Central",
   "categorie": "Hôtel",
   "priceRange": "€€",
   "mapsUrl": "https://maps.google.com/?q=-34.6030832,-58.3833056",
   "lat": -34.6030832,
   "lng": -58.3833056,
   "halalFriendly": false,
   "bookingUrl": "https://www.hotels-unique.com/unique-executive-central.html",
   "source": "osm"
  },
  {
   "nom": "Hotel Bristol",
   "categorie": "Hôtel",
   "priceRange": "€€",
   "mapsUrl": "https://maps.google.com/?q=-34.6052017,-58.3822929",
   "lat": -34.6052017,
   "lng": -58.3822929,
   "halalFriendly": false,
   "bookingUrl": "https://maps.google.com/?q=-34.6052017,-58.3822929",
   "source": "osm"
  },
  {
   "nom": "Buenos Aires Marriott",
   "categorie": "Hôtel",
   "priceRange": "€€",
   "mapsUrl": "https://maps.google.com/?q=-34.6021542,-58.3806962",
   "lat": -34.6021542,
   "lng": -58.3806962,
   "halalFriendly": false,
   "bookingUrl": "https://maps.google.com/?q=-34.6021542,-58.3806962",
   "source": "osm"
  },
  {
   "nom": "NH Tango",
   "categorie": "Hôtel",
   "priceRange": "€€",
   "mapsUrl": "https://maps.google.com/?q=-34.6021259,-58.3826662",
   "lat": -34.6021259,
   "lng": -58.3826662,
   "halalFriendly": false,
   "bookingUrl": "https://maps.google.com/?q=-34.6021259,-58.3826662",
   "source": "osm"
  },
  {
   "nom": "ART DECO Hotel & Suites ****",
   "categorie": "Hôtel",
   "priceRange": "€€",
   "mapsUrl": "https://maps.google.com/?q=-34.6032952,-58.3838741",
   "lat": -34.6032952,
   "lng": -58.3838741,
   "halalFriendly": false,
   "bookingUrl": "https://maps.google.com/?q=-34.6032952,-58.3838741",
   "source": "osm"
  },
  {
   "nom": "Apart Gran Hotel Libertad",
   "categorie": "Hôtel",
   "priceRange": "€€",
   "mapsUrl": "https://maps.google.com/?q=-34.6050302,-58.3833559",
   "lat": -34.6050302,
   "lng": -58.3833559,
   "halalFriendly": false,
   "bookingUrl": "https://maps.google.com/?q=-34.6050302,-58.3833559",
   "source": "osm"
  },
  {
   "nom": "Suipacha Inn",
   "categorie": "Hôtel",
   "priceRange": "€€",
   "mapsUrl": "https://maps.google.com/?q=-34.6022878,-58.3794174",
   "lat": -34.6022878,
   "lng": -58.3794174,
   "halalFriendly": false,
   "bookingUrl": "https://maps.google.com/?q=-34.6022878,-58.3794174",
   "source": "osm"
  },
  {
   "nom": "Alma Buenos Aires",
   "categorie": "Hôtel",
   "priceRange": "€€",
   "mapsUrl": "https://maps.google.com/?q=-34.602036,-58.379664",
   "lat": -34.602036,
   "lng": -58.379664,
   "halalFriendly": false,
   "bookingUrl": "https://maps.google.com/?q=-34.602036,-58.379664",
   "source": "osm"
  },
  {
   "nom": "Apart Garten Village",
   "categorie": "Hôtel",
   "priceRange": "€€",
   "mapsUrl": "https://maps.google.com/?q=-34.6054378,-58.3794678",
   "lat": -34.6054378,
   "lng": -58.3794678,
   "halalFriendly": false,
   "bookingUrl": "https://maps.google.com/?q=-34.6054378,-58.3794678",
   "source": "osm"
  },
  {
   "nom": "Argentina Tango Hotel",
   "categorie": "Hôtel",
   "priceRange": "€€",
   "mapsUrl": "https://maps.google.com/?q=-34.6018676,-58.3795079",
   "lat": -34.6018676,
   "lng": -58.3795079,
   "halalFriendly": false,
   "bookingUrl": "https://maps.google.com/?q=-34.6018676,-58.3795079",
   "source": "osm"
  },
  {
   "nom": "HR Luxor Hotel Buenos Aires",
   "categorie": "Hôtel",
   "priceRange": "€€",
   "mapsUrl": "https://maps.google.com/?q=-34.6051872,-58.3791151",
   "lat": -34.6051872,
   "lng": -58.3791151,
   "halalFriendly": false,
   "bookingUrl": "https://maps.google.com/?q=-34.6051872,-58.3791151",
   "source": "osm"
  },
  {
   "nom": "Hostal Suites Obelisco",
   "categorie": "Auberge",
   "priceRange": "€€",
   "mapsUrl": "https://maps.google.com/?q=-34.6036768,-58.378463",
   "lat": -34.6036768,
   "lng": -58.378463,
   "halalFriendly": false,
   "bookingUrl": "https://maps.google.com/?q=-34.6036768,-58.378463",
   "source": "osm"
  },
  {
   "nom": "Hoteles de Argentina",
   "categorie": "Hôtel",
   "priceRange": "€€",
   "mapsUrl": "https://maps.google.com/?q=-34.603676,-58.3784003",
   "lat": -34.603676,
   "lng": -58.3784003,
   "halalFriendly": false,
   "bookingUrl": "https://maps.google.com/?q=-34.603676,-58.3784003",
   "source": "osm"
  },
  {
   "nom": "Grand Brizo",
   "categorie": "Hôtel",
   "priceRange": "€€",
   "mapsUrl": "https://maps.google.com/?q=-34.6063068,-58.3822487",
   "lat": -34.6063068,
   "lng": -58.3822487,
   "halalFriendly": false,
   "bookingUrl": "https://maps.google.com/?q=-34.6063068,-58.3822487",
   "source": "osm"
  },
  {
   "nom": "Hotel Las Naciones",
   "categorie": "Hôtel",
   "priceRange": "€€",
   "mapsUrl": "https://maps.google.com/?q=-34.6037276,-58.3782451",
   "lat": -34.6037276,
   "lng": -58.3782451,
   "halalFriendly": false,
   "bookingUrl": "https://maps.google.com/?q=-34.6037276,-58.3782451",
   "source": "osm"
  },
  {
   "nom": "Dome in the Heart of the City",
   "categorie": "Appartement",
   "priceRange": "€€",
   "mapsUrl": "https://maps.google.com/?q=-34.6013707,-58.3794746",
   "lat": -34.6013707,
   "lng": -58.3794746,
   "halalFriendly": false,
   "bookingUrl": "https://airbnb.com/",
   "source": "osm"
  },
  {
   "nom": "NH",
   "categorie": "Hôtel",
   "priceRange": "€€",
   "mapsUrl": "https://maps.google.com/?q=-34.6066387,-58.3822431",
   "lat": -34.6066387,
   "lng": -58.3822431,
   "halalFriendly": false,
   "bookingUrl": "https://maps.google.com/?q=-34.6066387,-58.3822431",
   "source": "osm"
  },
  {
   "nom": "Hotel Regis Orho",
   "categorie": "Hôtel",
   "priceRange": "€€",
   "mapsUrl": "https://maps.google.com/?q=-34.6022596,-58.3784215",
   "lat": -34.6022596,
   "lng": -58.3784215,
   "halalFriendly": false,
   "bookingUrl": "https://maps.google.com/?q=-34.6022596,-58.3784215",
   "source": "osm"
  },
  {
   "nom": "Hotel Micky",
   "categorie": "Hôtel",
   "priceRange": "€€",
   "mapsUrl": "https://maps.google.com/?q=-34.6044921,-58.3851662",
   "lat": -34.6044921,
   "lng": -58.3851662,
   "halalFriendly": false,
   "bookingUrl": "http://hotelmicki.ar.tripod.com/",
   "source": "osm"
  },
  {
   "nom": "Novotel Buenos Aires",
   "categorie": "Hôtel",
   "priceRange": "€€",
   "mapsUrl": "https://maps.google.com/?q=-34.6041034,-58.3856042",
   "lat": -34.6041034,
   "lng": -58.3856042,
   "halalFriendly": false,
   "bookingUrl": "http://www.novotel.com/",
   "source": "osm"
  },
  {
   "nom": "Rochester Classic",
   "categorie": "Hôtel",
   "priceRange": "€€",
   "mapsUrl": "https://maps.google.com/?q=-34.6018023,-58.3782644",
   "lat": -34.6018023,
   "lng": -58.3782644,
   "halalFriendly": false,
   "bookingUrl": "https://maps.google.com/?q=-34.6018023,-58.3782644",
   "source": "osm"
  },
  {
   "nom": "Esmeralda Palace Hotel",
   "categorie": "Hôtel",
   "priceRange": "€€",
   "mapsUrl": "https://maps.google.com/?q=-34.6020308,-58.3780631",
   "lat": -34.6020308,
   "lng": -58.3780631,
   "halalFriendly": false,
   "bookingUrl": "https://maps.google.com/?q=-34.6020308,-58.3780631",
   "source": "osm"
  },
  {
   "nom": "Abh - About Baires Hotel",
   "categorie": "Hôtel",
   "priceRange": "€€",
   "mapsUrl": "https://maps.google.com/?q=-34.6003709,-58.3808414",
   "lat": -34.6003709,
   "lng": -58.3808414,
   "halalFriendly": false,
   "bookingUrl": "https://maps.google.com/?q=-34.6003709,-58.3808414",
   "source": "osm"
  },
  {
   "nom": "Hotel Da Vinci",
   "categorie": "Hôtel",
   "priceRange": "€€€€",
   "score": 4,
   "mapsUrl": "https://maps.google.com/?q=-34.6010689,-58.3789584",
   "lat": -34.6010689,
   "lng": -58.3789584,
   "halalFriendly": false,
   "bookingUrl": "https://www.davincihotel.com.ar",
   "source": "osm"
  },
  {
   "nom": "Conte Hotel",
   "categorie": "Hôtel",
   "priceRange": "€€",
   "mapsUrl": "https://maps.google.com/?q=-34.6070515,-58.3805263",
   "lat": -34.6070515,
   "lng": -58.3805263,
   "halalFriendly": false,
   "bookingUrl": "http://www.conte-hotel.com.ar/",
   "source": "osm"
  },
  {
   "nom": "Hotel Ibis Buenos Aires Obelisco",
   "categorie": "Hôtel",
   "priceRange": "€€",
   "mapsUrl": "https://maps.google.com/?q=-34.6041298,-58.3858207",
   "lat": -34.6041298,
   "lng": -58.3858207,
   "halalFriendly": false,
   "bookingUrl": "https://maps.google.com/?q=-34.6041298,-58.3858207",
   "source": "osm"
  },
  {
   "nom": "Viasui Hotel",
   "categorie": "Hôtel",
   "priceRange": "€€",
   "mapsUrl": "https://maps.google.com/?q=-34.6003142,-58.3805174",
   "lat": -34.6003142,
   "lng": -58.3805174,
   "halalFriendly": false,
   "bookingUrl": "https://maps.google.com/?q=-34.6003142,-58.3805174",
   "source": "osm"
  },
  {
   "nom": "Hotel El Cabildo",
   "categorie": "Hôtel",
   "priceRange": "€€",
   "mapsUrl": "https://maps.google.com/?q=-34.6022829,-58.3774147",
   "lat": -34.6022829,
   "lng": -58.3774147,
   "halalFriendly": false,
   "bookingUrl": "https://maps.google.com/?q=-34.6022829,-58.3774147",
   "source": "osm"
  },
  {
   "nom": "Hotel Majestic",
   "categorie": "Hôtel",
   "priceRange": "€€",
   "mapsUrl": "https://maps.google.com/?q=-34.6071804,-58.3834821",
   "lat": -34.6071804,
   "lng": -58.3834821,
   "halalFriendly": false,
   "bookingUrl": "https://maps.google.com/?q=-34.6071804,-58.3834821",
   "source": "osm"
  },
  {
   "nom": "Hotel La Piedad",
   "categorie": "Hôtel",
   "priceRange": "€€",
   "mapsUrl": "https://maps.google.com/?q=-34.6074849,-58.3829198",
   "lat": -34.6074849,
   "lng": -58.3829198,
   "halalFriendly": false,
   "bookingUrl": "https://maps.google.com/?q=-34.6074849,-58.3829198",
   "source": "osm"
  },
  {
   "nom": "V&S Hostel Club",
   "categorie": "Auberge",
   "priceRange": "€€",
   "mapsUrl": "https://maps.google.com/?q=-34.6000539,-58.379316",
   "lat": -34.6000539,
   "lng": -58.379316,
   "halalFriendly": false,
   "bookingUrl": "https://www.hostelclub.com/",
   "source": "osm"
  },
  {
   "nom": "Hotel Del Sol",
   "categorie": "Hôtel",
   "priceRange": "€€",
   "mapsUrl": "https://maps.google.com/?q=-34.6005727,-58.3781205",
   "lat": -34.6005727,
   "lng": -58.3781205,
   "halalFriendly": false,
   "bookingUrl": "https://maps.google.com/?q=-34.6005727,-58.3781205",
   "source": "osm"
  },
  {
   "nom": "Hotel Viamonte",
   "categorie": "Hôtel",
   "priceRange": "€€",
   "mapsUrl": "https://maps.google.com/?q=-34.600041,-58.3789769",
   "lat": -34.600041,
   "lng": -58.3789769,
   "halalFriendly": false,
   "bookingUrl": "https://maps.google.com/?q=-34.600041,-58.3789769",
   "source": "osm"
  },
  {
   "nom": "Gran Hotel Argentino",
   "categorie": "Hôtel",
   "priceRange": "€€",
   "mapsUrl": "https://maps.google.com/?q=-34.6078811,-58.3805957",
   "lat": -34.6078811,
   "lng": -58.3805957,
   "halalFriendly": false,
   "bookingUrl": "https://maps.google.com/?q=-34.6078811,-58.3805957",
   "source": "osm"
  },
  {
   "nom": "Goya",
   "categorie": "Hôtel",
   "priceRange": "€€",
   "mapsUrl": "https://maps.google.com/?q=-34.5997011,-58.379782",
   "lat": -34.5997011,
   "lng": -58.379782,
   "halalFriendly": false,
   "bookingUrl": "https://maps.google.com/?q=-34.5997011,-58.379782",
   "source": "osm"
  }
 ],
 "mosqueesPrincipales": [
  {
   "id": "m150610054",
   "nom": "Santa Catalina de Siena",
   "type": "Mosquée",
   "adresse": "",
   "description": "Lieu de prière (OpenStreetMap).",
   "mapsUrl": "https://maps.google.com/?q=-34.5995995,-58.3736548",
   "lat": -34.5995995,
   "lng": -58.3736548,
   "source": "osm"
  },
  {
   "id": "m265344159",
   "nom": "Catedral Metropolitana",
   "type": "Mosquée",
   "adresse": "San Martín, Ciudad Autónoma de Buenos Aires",
   "description": "Lieu de prière (OpenStreetMap).",
   "mapsUrl": "https://maps.google.com/?q=-34.607476,-58.3732471",
   "lat": -34.607476,
   "lng": -58.3732471,
   "source": "osm"
  },
  {
   "id": "m672817484",
   "nom": "Catedral ortodoxa rusa de la Santísima Trinidad",
   "type": "Mosquée",
   "adresse": "Avenida Brasil, Ciudad Autónoma de Buenos Aires",
   "description": "Lieu de prière (OpenStreetMap).",
   "mapsUrl": "https://maps.google.com/?q=-34.6251002,-58.3700364",
   "lat": -34.6251002,
   "lng": -58.3700364,
   "source": "osm"
  },
  {
   "id": "m4396847591",
   "nom": "Mezquita Al Ahmad",
   "type": "Mosquée",
   "adresse": "Alberti, Ciudad Autónoma de Buenos Aires",
   "description": "Lieu de prière (OpenStreetMap).",
   "mapsUrl": "https://maps.google.com/?q=-34.6279696,-58.4001494",
   "lat": -34.6279696,
   "lng": -58.4001494,
   "source": "osm"
  },
  {
   "id": "m55595034",
   "nom": "Centro Cultural Islámico Rey Fahd",
   "type": "Mosquée",
   "adresse": "Avenida Intendente Bullrich, Ciudad Autónoma de Buenos Aires",
   "description": "Lieu de prière (OpenStreetMap).",
   "mapsUrl": "https://maps.google.com/?q=-34.5727672,-58.42525",
   "lat": -34.5727672,
   "lng": -58.42525,
   "source": "osm"
  }
 ],
 "activites": [
  {
   "id": "a1332861812",
   "nom": "Obelisco",
   "categorie": "attraction",
   "description": "",
   "prix": "",
   "duree": "",
   "mapsUrl": "https://maps.google.com/?q=-34.6037093,-58.3816296",
   "lat": -34.6037093,
   "lng": -58.3816296,
   "source": "osm"
  },
  {
   "id": "a767725544",
   "nom": "Bandera de la Ciudad de Buenos Aires",
   "categorie": "attraction",
   "description": "",
   "prix": "",
   "duree": "",
   "mapsUrl": "https://maps.google.com/?q=-34.6041576,-58.381565",
   "lat": -34.6041576,
   "lng": -58.381565,
   "source": "osm"
  },
  {
   "id": "a7726391752",
   "nom": "Escudo Nacional",
   "categorie": "memorial",
   "description": "",
   "prix": "",
   "duree": "",
   "mapsUrl": "https://maps.google.com/?q=-34.6031787,-58.3816212",
   "lat": -34.6031787,
   "lng": -58.3816212,
   "source": "osm"
  },
  {
   "id": "a6487934284",
   "nom": "Mirador Obelisco",
   "categorie": "viewpoint",
   "description": "",
   "prix": "",
   "duree": "",
   "mapsUrl": "https://maps.google.com/?q=-34.6032779,-58.3824879",
   "lat": -34.6032779,
   "lng": -58.3824879,
   "source": "osm"
  },
  {
   "id": "a10951058075",
   "nom": "Alberto Márquez",
   "categorie": "memorial",
   "description": "",
   "prix": "",
   "duree": "",
   "mapsUrl": "https://maps.google.com/?q=-34.6050346,-58.381145",
   "lat": -34.6050346,
   "lng": -58.381145,
   "source": "osm"
  },
  {
   "id": "a2836404767",
   "nom": "Tango Sidewalk",
   "categorie": "attraction",
   "description": "",
   "prix": "",
   "duree": "",
   "mapsUrl": "https://maps.google.com/?q=-34.6039488,-58.3794861",
   "lat": -34.6039488,
   "lng": -58.3794861,
   "source": "osm"
  },
  {
   "id": "a5888490439",
   "nom": "Placa detenidos desaparecidos",
   "categorie": "memorial",
   "description": "",
   "prix": "",
   "duree": "",
   "mapsUrl": "https://maps.google.com/?q=-34.604156,-58.3837381",
   "lat": -34.604156,
   "lng": -58.3837381,
   "source": "osm"
  },
  {
   "id": "a8189378790",
   "nom": "Pedro Leopoldo Barraza y Carlos Laham",
   "categorie": "memorial",
   "description": "",
   "prix": "",
   "duree": "",
   "mapsUrl": "https://maps.google.com/?q=-34.6025578,-58.3795157",
   "lat": -34.6025578,
   "lng": -58.3795157,
   "source": "osm"
  },
  {
   "id": "a8260661848",
   "nom": "Gran Logia de la Argentina de Libres y Aceptados Masones",
   "categorie": "attraction",
   "description": "",
   "prix": "",
   "duree": "",
   "mapsUrl": "https://maps.google.com/?q=-34.6062625,-58.3828116",
   "lat": -34.6062625,
   "lng": -58.3828116,
   "source": "osm"
  },
  {
   "id": "a23633911",
   "nom": "Teatro Colón",
   "categorie": "attraction",
   "description": "",
   "prix": "",
   "duree": "",
   "mapsUrl": "https://maps.google.com/?q=-34.6010807,-58.3831792",
   "lat": -34.6010807,
   "lng": -58.3831792,
   "source": "osm"
  },
  {
   "id": "a4371621111",
   "nom": "Monumento al General Lavalle",
   "categorie": "monument",
   "description": "",
   "prix": "",
   "duree": "",
   "mapsUrl": "https://maps.google.com/?q=-34.601505,-58.3846199",
   "lat": -34.601505,
   "lng": -58.3846199,
   "source": "osm"
  },
  {
   "id": "a13290029401",
   "nom": "Gran Logia de la Argentina de Libres y Aceptados Masones",
   "categorie": "attraction",
   "description": "",
   "prix": "",
   "duree": "",
   "mapsUrl": "https://maps.google.com/?q=-34.6063654,-58.3844237",
   "lat": -34.6063654,
   "lng": -58.3844237,
   "source": "osm"
  },
  {
   "id": "a6005398404",
   "nom": "Lisandro de la Torre",
   "categorie": "monument",
   "description": "",
   "prix": "",
   "duree": "",
   "mapsUrl": "https://maps.google.com/?q=-34.6058114,-58.3778063",
   "lat": -34.6058114,
   "lng": -58.3778063,
   "source": "osm"
  },
  {
   "id": "a12240508467",
   "nom": "Manuel Dorrego",
   "categorie": "memorial",
   "description": "",
   "prix": "",
   "duree": "",
   "mapsUrl": "https://maps.google.com/?q=-34.6002495,-58.3793052",
   "lat": -34.6002495,
   "lng": -58.3793052,
   "source": "osm"
  },
  {
   "id": "a4703936003",
   "nom": "Galeno Art",
   "categorie": "gallery",
   "description": "",
   "prix": "",
   "duree": "",
   "mapsUrl": "https://maps.google.com/?q=-34.6047275,-58.3767712",
   "lat": -34.6047275,
   "lng": -58.3767712,
   "source": "osm"
  },
  {
   "id": "a5452358819",
   "nom": "Museo de la Mujer",
   "categorie": "museum",
   "description": "",
   "prix": "",
   "duree": "",
   "mapsUrl": "https://maps.google.com/?q=-34.6068838,-58.3853485",
   "lat": -34.6068838,
   "lng": -58.3853485,
   "source": "osm"
  },
  {
   "id": "a4293917798",
   "nom": "Museo Judío de Buenos Aires",
   "categorie": "museum",
   "description": "",
   "prix": "",
   "duree": "",
   "mapsUrl": "https://maps.google.com/?q=-34.5995877,-58.3837137",
   "lat": -34.5995877,
   "lng": -58.3837137,
   "source": "osm"
  },
  {
   "id": "a11601023174",
   "nom": "Palermo H",
   "categorie": "gallery",
   "description": "",
   "prix": "",
   "duree": "",
   "mapsUrl": "https://maps.google.com/?q=-34.6012167,-58.3769845",
   "lat": -34.6012167,
   "lng": -58.3769845,
   "source": "osm"
  },
  {
   "id": "a4516458358",
   "nom": "Andrés Guacurarí y Artigas",
   "categorie": "memorial",
   "description": "",
   "prix": "",
   "duree": "",
   "mapsUrl": "https://maps.google.com/?q=-34.6086306,-58.3817289",
   "lat": -34.6086306,
   "lng": -58.3817289,
   "source": "osm"
  },
  {
   "id": "a455194399",
   "nom": "Cataratas del Iguazú, Misiones",
   "categorie": "attraction",
   "description": "",
   "prix": "",
   "duree": "",
   "mapsUrl": "https://maps.google.com/?q=-34.608771,-58.3808959",
   "lat": -34.608771,
   "lng": -58.3808959,
   "source": "osm"
  },
  {
   "id": "a6438879617",
   "nom": "Instituto Nacional de Estudios De Teatro",
   "categorie": "museum",
   "description": "",
   "prix": "",
   "duree": "",
   "mapsUrl": "https://maps.google.com/?q=-34.598968,-58.3839347",
   "lat": -34.598968,
   "lng": -58.3839347,
   "source": "osm"
  },
  {
   "id": "a5554504295",
   "nom": "Museo Mundial del Tango",
   "categorie": "museum",
   "description": "",
   "prix": "",
   "duree": "",
   "mapsUrl": "https://maps.google.com/?q=-34.6082955,-58.3784055",
   "lat": -34.6082955,
   "lng": -58.3784055,
   "source": "osm"
  },
  {
   "id": "a11522462176",
   "nom": "Gastón Riva",
   "categorie": "memorial",
   "description": "",
   "prix": "",
   "duree": "",
   "mapsUrl": "https://maps.google.com/?q=-34.6087889,-58.3791013",
   "lat": -34.6087889,
   "lng": -58.3791013,
   "source": "osm"
  },
  {
   "id": "a13738091502",
   "nom": "Museo del Mate",
   "categorie": "museum",
   "description": "",
   "prix": "",
   "duree": "",
   "mapsUrl": "https://maps.google.com/?q=-34.6086979,-58.3785336",
   "lat": -34.6086979,
   "lng": -58.3785336,
   "source": "osm"
  },
  {
   "id": "a11522462178",
   "nom": "Diego Lamagna",
   "categorie": "memorial",
   "description": "",
   "prix": "",
   "duree": "",
   "mapsUrl": "https://maps.google.com/?q=-34.6094926,-58.3808434",
   "lat": -34.6094926,
   "lng": -58.3808434,
   "source": "osm"
  },
  {
   "id": "a11522462177",
   "nom": "Carlos \"Petete\" Almirón",
   "categorie": "memorial",
   "description": "",
   "prix": "",
   "duree": "",
   "mapsUrl": "https://maps.google.com/?q=-34.6095075,-58.3809447",
   "lat": -34.6095075,
   "lng": -58.3809447,
   "source": "osm"
  },
  {
   "id": "a6438930117",
   "nom": "Museo Sadaic 'Vicente López y Planes'",
   "categorie": "museum",
   "description": "",
   "prix": "",
   "duree": "",
   "mapsUrl": "https://maps.google.com/?q=-34.6028503,-58.3886138",
   "lat": -34.6028503,
   "lng": -58.3886138,
   "source": "osm"
  },
  {
   "id": "a204263802",
   "nom": "Museo Mitre",
   "categorie": "museum",
   "description": "",
   "prix": "",
   "duree": "",
   "mapsUrl": "https://maps.google.com/?q=-34.6040767,-58.3741857",
   "lat": -34.6040767,
   "lng": -58.3741857,
   "source": "osm"
  },
  {
   "id": "a2481986716",
   "nom": "Mirador Galería Güemes",
   "categorie": "viewpoint",
   "description": "",
   "prix": "",
   "duree": "",
   "mapsUrl": "https://maps.google.com/?q=-34.6063874,-58.3747973",
   "lat": -34.6063874,
   "lng": -58.3747973,
   "source": "osm"
  },
  {
   "id": "a12096358973",
   "nom": "Adolfo Alsina",
   "categorie": "memorial",
   "description": "",
   "prix": "",
   "duree": "",
   "mapsUrl": "https://maps.google.com/?q=-34.5974301,-58.3834478",
   "lat": -34.5974301,
   "lng": -58.3834478,
   "source": "osm"
  }
 ],
 "scoreIndicatif": true,
 "osmEnriched": true,
 "osmEnrichedAt": "2026-06-30"
}
