{
 "slug": "buenos-aires",
 "nom": "Buenos Aires",
 "pays": "Argentine",
 "pays_slug": "argentine",
 "continent": "Amérique du Sud",
 "region": "Argentine",
 "coordonnees": {
  "lat": -34.6037,
  "lng": -58.3816
 },
 "codeISO": "AR",
 "score_halal": 3.1,
 "halalScore": 6.2,
 "villeNonMusulmane": true,
 "description": "Capitale élégante au charme européen. Centre islamique Roi Fahd et restaurants halal dans la capitale.",
 "metaDescription": "Capitale élégante au charme européen. Centre islamique Roi Fahd et restaurants halal dans la capitale.",
 "image": "https://upload.wikimedia.org/wikipedia/commons/thumb/7/7f/Buenos_Aires_skyline_day.jpg/1920px-Buenos_Aires_skyline_day.jpg",
 "image_hero": "https://upload.wikimedia.org/wikipedia/commons/thumb/7/7f/Buenos_Aires_skyline_day.jpg/1920px-Buenos_Aires_skyline_day.jpg",
 "imageCredit": "Wikimedia Commons",
 "statistiques": {
  "restaurants_halal": 22,
  "mosquees": 5,
  "hotels": 0
 },
 "infoPratique": {
  "transport": "Accessible par avion et transports en commun locaux.",
  "meilleureEpoque": "Printemps et automne (climat tempéré).",
  "conseilHalal": "Ville non-musulmane : repérez les restaurants halal certifiés et les mosquées via l'application avant votre visite."
 },
 "tags": [
  "halal",
  "ville non-musulmane",
  "amérique du sud"
 ],
 "restaurants": [
  {
   "nom": "La Mil y Una Noches",
   "type": "arab",
   "priceRange": "€€",
   "mapsUrl": "https://maps.google.com/?q=-34.6043411,-58.3850318",
   "lat": -34.6043411,
   "lng": -58.3850318,
   "halalConfidence": "likely",
   "source": "osm"
  },
  {
   "nom": "Don Shawarma",
   "type": "turkish",
   "priceRange": "€€",
   "mapsUrl": "https://maps.google.com/?q=-34.6004601,-58.3867145",
   "lat": -34.6004601,
   "lng": -58.3867145,
   "halalConfidence": "likely",
   "source": "osm"
  },
  {
   "nom": "Lo de Amira",
   "type": "kebab",
   "priceRange": "€€",
   "mapsUrl": "https://maps.google.com/?q=-34.6023999,-58.3893915",
   "lat": -34.6023999,
   "lng": -58.3893915,
   "halalConfidence": "likely",
   "source": "osm"
  },
  {
   "nom": "Shami Shawarma",
   "type": "arab",
   "priceRange": "€€",
   "mapsUrl": "https://maps.google.com/?q=-34.5988164,-58.3928281",
   "lat": -34.5988164,
   "lng": -58.3928281,
   "halalConfidence": "likely",
   "source": "osm"
  },
  {
   "nom": "Shawarma Al Nabek",
   "type": "arab, kebab, oriental, persian",
   "priceRange": "€€",
   "mapsUrl": "https://maps.google.com/?q=-34.6148347,-58.3903957",
   "lat": -34.6148347,
   "lng": -58.3903957,
   "halalConfidence": "likely",
   "source": "osm"
  },
  {
   "nom": "Al Arabe",
   "type": "kebab",
   "priceRange": "€€",
   "mapsUrl": "https://maps.google.com/?q=-34.5920139,-58.3901391",
   "lat": -34.5920139,
   "lng": -58.3901391,
   "halalConfidence": "likely",
   "source": "osm"
  },
  {
   "nom": "Jhabibi",
   "type": "arab",
   "priceRange": "€€",
   "mapsUrl": "https://maps.google.com/?q=-34.6206667,-58.373451",
   "lat": -34.6206667,
   "lng": -58.373451,
   "halalConfidence": "likely",
   "source": "osm"
  },
  {
   "nom": "Souriana",
   "type": "kebab",
   "priceRange": "€€",
   "mapsUrl": "https://maps.google.com/?q=-34.5927321,-58.4029087",
   "lat": -34.5927321,
   "lng": -58.4029087,
   "halalConfidence": "likely",
   "source": "osm"
  },
  {
   "nom": "Shami Shawarma",
   "type": "lebanese, mediterranean",
   "priceRange": "€€",
   "mapsUrl": "https://maps.google.com/?q=-34.603934,-58.4092718",
   "lat": -34.603934,
   "lng": -58.4092718,
   "halalConfidence": "likely",
   "source": "osm"
  },
  {
   "nom": "Shawami",
   "type": "shawarma",
   "priceRange": "€€",
   "mapsUrl": "https://maps.google.com/?q=-34.5867773,-58.4132248",
   "lat": -34.5867773,
   "lng": -58.4132248,
   "halalConfidence": "likely",
   "source": "osm"
  },
  {
   "nom": "La Vianda",
   "type": "arab, argentinian",
   "priceRange": "€€",
   "mapsUrl": "https://maps.google.com/?q=-34.6378114,-58.3752869",
   "lat": -34.6378114,
   "lng": -58.3752869,
   "halalConfidence": "likely",
   "source": "osm"
  },
  {
   "nom": "Garbis",
   "type": "arab",
   "priceRange": "€€",
   "mapsUrl": "https://maps.google.com/?q=-34.5982162,-58.4278322",
   "lat": -34.5982162,
   "lng": -58.4278322,
   "halalConfidence": "likely",
   "source": "osm"
  },
  {
   "nom": "Al Shark",
   "type": "arab",
   "priceRange": "€€",
   "mapsUrl": "https://maps.google.com/?q=-34.5917917,-58.4267697",
   "lat": -34.5917917,
   "lng": -58.4267697,
   "halalConfidence": "likely",
   "source": "osm"
  },
  {
   "nom": "Comida Arabe",
   "type": "kebab",
   "priceRange": "€€",
   "mapsUrl": "https://maps.google.com/?q=-34.5826301,-58.4272168",
   "lat": -34.5826301,
   "lng": -58.4272168,
   "halalConfidence": "likely",
   "source": "osm"
  },
  {
   "nom": "Shawarma Honduras",
   "type": "turkish",
   "priceRange": "€€",
   "mapsUrl": "https://maps.google.com/?q=-34.586652,-58.4332999",
   "lat": -34.586652,
   "lng": -58.4332999,
   "halalConfidence": "likely",
   "source": "osm"
  },
  {
   "nom": "Falafelandia",
   "type": "arab, sandwich, tea, turkish",
   "priceRange": "€€",
   "mapsUrl": "https://maps.google.com/?q=-34.5904823,-58.4360455",
   "lat": -34.5904823,
   "lng": -58.4360455,
   "halalConfidence": "likely",
   "source": "osm"
  },
  {
   "nom": "Al Karim",
   "type": "shawarma",
   "priceRange": "€€",
   "mapsUrl": "https://maps.google.com/?q=-34.6162424,-58.4388154",
   "lat": -34.6162424,
   "lng": -58.4388154,
   "halalConfidence": "likely",
   "source": "osm"
  },
  {
   "nom": "Mezze Delicatessen",
   "type": "arab, mediterranean",
   "priceRange": "€€",
   "mapsUrl": "https://maps.google.com/?q=-34.5696397,-58.4417168",
   "lat": -34.5696397,
   "lng": -58.4417168,
   "halalConfidence": "likely",
   "source": "osm"
  },
  {
   "nom": "Al Zein",
   "type": "arab, shawarma",
   "priceRange": "€€",
   "mapsUrl": "https://maps.google.com/?q=-34.5635258,-58.4384811",
   "lat": -34.5635258,
   "lng": -58.4384811,
   "halalConfidence": "likely",
   "source": "osm"
  },
  {
   "nom": "El Armenio",
   "type": "arab",
   "priceRange": "€€",
   "mapsUrl": "https://maps.google.com/?q=-34.578687,-58.4602977",
   "lat": -34.578687,
   "lng": -58.4602977,
   "halalConfidence": "likely",
   "source": "osm"
  },
  {
   "nom": "Shawarma Qatar",
   "type": "shawarma",
   "priceRange": "€€",
   "mapsUrl": "https://maps.google.com/?q=-34.5585547,-58.4482285",
   "lat": -34.5585547,
   "lng": -58.4482285,
   "halalConfidence": "likely",
   "source": "osm"
  },
  {
   "nom": "Al-Amir",
   "type": "arab",
   "priceRange": "€€",
   "mapsUrl": "https://maps.google.com/?q=-34.5576255,-58.4486123",
   "lat": -34.5576255,
   "lng": -58.4486123,
   "halalConfidence": "likely",
   "source": "osm"
  }
 ],
 "hotels": [],
 "mosqueesPrincipales": [
  {
   "id": "m150610054",
   "nom": "Santa Catalina de Siena",
   "type": "Mosquée",
   "adresse": "",
   "description": "Lieu de prière (OpenStreetMap).",
   "mapsUrl": "https://maps.google.com/?q=-34.5995995,-58.3736548",
   "lat": -34.5995995,
   "lng": -58.3736548,
   "source": "osm"
  },
  {
   "id": "m265344159",
   "nom": "Catedral Metropolitana",
   "type": "Mosquée",
   "adresse": "San Martín, Ciudad Autónoma de Buenos Aires",
   "description": "Lieu de prière (OpenStreetMap).",
   "mapsUrl": "https://maps.google.com/?q=-34.607476,-58.3732471",
   "lat": -34.607476,
   "lng": -58.3732471,
   "source": "osm"
  },
  {
   "id": "m672817484",
   "nom": "Catedral ortodoxa rusa de la Santísima Trinidad",
   "type": "Mosquée",
   "adresse": "Avenida Brasil, Ciudad Autónoma de Buenos Aires",
   "description": "Lieu de prière (OpenStreetMap).",
   "mapsUrl": "https://maps.google.com/?q=-34.6251002,-58.3700364",
   "lat": -34.6251002,
   "lng": -58.3700364,
   "source": "osm"
  },
  {
   "id": "m4396847591",
   "nom": "Mezquita Al Ahmad",
   "type": "Mosquée",
   "adresse": "Alberti, Ciudad Autónoma de Buenos Aires",
   "description": "Lieu de prière (OpenStreetMap).",
   "mapsUrl": "https://maps.google.com/?q=-34.6279696,-58.4001494",
   "lat": -34.6279696,
   "lng": -58.4001494,
   "source": "osm"
  },
  {
   "id": "m55595034",
   "nom": "Centro Cultural Islámico Rey Fahd",
   "type": "Mosquée",
   "adresse": "Avenida Intendente Bullrich, Ciudad Autónoma de Buenos Aires",
   "description": "Lieu de prière (OpenStreetMap).",
   "mapsUrl": "https://maps.google.com/?q=-34.5727672,-58.42525",
   "lat": -34.5727672,
   "lng": -58.42525,
   "source": "osm"
  }
 ],
 "activites": [
  {
   "id": "a1332861812",
   "nom": "Obelisco",
   "categorie": "attraction",
   "description": "",
   "prix": "",
   "duree": "",
   "mapsUrl": "https://maps.google.com/?q=-34.6037093,-58.3816296",
   "lat": -34.6037093,
   "lng": -58.3816296,
   "source": "osm"
  },
  {
   "id": "a767725544",
   "nom": "Bandera de la Ciudad de Buenos Aires",
   "categorie": "attraction",
   "description": "",
   "prix": "",
   "duree": "",
   "mapsUrl": "https://maps.google.com/?q=-34.6041576,-58.381565",
   "lat": -34.6041576,
   "lng": -58.381565,
   "source": "osm"
  },
  {
   "id": "a7726391752",
   "nom": "Escudo Nacional",
   "categorie": "memorial",
   "description": "",
   "prix": "",
   "duree": "",
   "mapsUrl": "https://maps.google.com/?q=-34.6031787,-58.3816212",
   "lat": -34.6031787,
   "lng": -58.3816212,
   "source": "osm"
  },
  {
   "id": "a6487934284",
   "nom": "Mirador Obelisco",
   "categorie": "viewpoint",
   "description": "",
   "prix": "",
   "duree": "",
   "mapsUrl": "https://maps.google.com/?q=-34.6032779,-58.3824879",
   "lat": -34.6032779,
   "lng": -58.3824879,
   "source": "osm"
  },
  {
   "id": "a10951058075",
   "nom": "Alberto Márquez",
   "categorie": "memorial",
   "description": "",
   "prix": "",
   "duree": "",
   "mapsUrl": "https://maps.google.com/?q=-34.6050346,-58.381145",
   "lat": -34.6050346,
   "lng": -58.381145,
   "source": "osm"
  },
  {
   "id": "a2836404767",
   "nom": "Tango Sidewalk",
   "categorie": "attraction",
   "description": "",
   "prix": "",
   "duree": "",
   "mapsUrl": "https://maps.google.com/?q=-34.6039488,-58.3794861",
   "lat": -34.6039488,
   "lng": -58.3794861,
   "source": "osm"
  },
  {
   "id": "a5888490439",
   "nom": "Placa detenidos desaparecidos",
   "categorie": "memorial",
   "description": "",
   "prix": "",
   "duree": "",
   "mapsUrl": "https://maps.google.com/?q=-34.604156,-58.3837381",
   "lat": -34.604156,
   "lng": -58.3837381,
   "source": "osm"
  },
  {
   "id": "a8189378790",
   "nom": "Pedro Leopoldo Barraza y Carlos Laham",
   "categorie": "memorial",
   "description": "",
   "prix": "",
   "duree": "",
   "mapsUrl": "https://maps.google.com/?q=-34.6025578,-58.3795157",
   "lat": -34.6025578,
   "lng": -58.3795157,
   "source": "osm"
  },
  {
   "id": "a8260661848",
   "nom": "Gran Logia de la Argentina de Libres y Aceptados Masones",
   "categorie": "attraction",
   "description": "",
   "prix": "",
   "duree": "",
   "mapsUrl": "https://maps.google.com/?q=-34.6062625,-58.3828116",
   "lat": -34.6062625,
   "lng": -58.3828116,
   "source": "osm"
  },
  {
   "id": "a23633911",
   "nom": "Teatro Colón",
   "categorie": "attraction",
   "description": "",
   "prix": "",
   "duree": "",
   "mapsUrl": "https://maps.google.com/?q=-34.6010807,-58.3831792",
   "lat": -34.6010807,
   "lng": -58.3831792,
   "source": "osm"
  },
  {
   "id": "a4371621111",
   "nom": "Monumento al General Lavalle",
   "categorie": "monument",
   "description": "",
   "prix": "",
   "duree": "",
   "mapsUrl": "https://maps.google.com/?q=-34.601505,-58.3846199",
   "lat": -34.601505,
   "lng": -58.3846199,
   "source": "osm"
  },
  {
   "id": "a13290029401",
   "nom": "Gran Logia de la Argentina de Libres y Aceptados Masones",
   "categorie": "attraction",
   "description": "",
   "prix": "",
   "duree": "",
   "mapsUrl": "https://maps.google.com/?q=-34.6063654,-58.3844237",
   "lat": -34.6063654,
   "lng": -58.3844237,
   "source": "osm"
  },
  {
   "id": "a6005398404",
   "nom": "Lisandro de la Torre",
   "categorie": "monument",
   "description": "",
   "prix": "",
   "duree": "",
   "mapsUrl": "https://maps.google.com/?q=-34.6058114,-58.3778063",
   "lat": -34.6058114,
   "lng": -58.3778063,
   "source": "osm"
  },
  {
   "id": "a12240508467",
   "nom": "Manuel Dorrego",
   "categorie": "memorial",
   "description": "",
   "prix": "",
   "duree": "",
   "mapsUrl": "https://maps.google.com/?q=-34.6002495,-58.3793052",
   "lat": -34.6002495,
   "lng": -58.3793052,
   "source": "osm"
  },
  {
   "id": "a4703936003",
   "nom": "Galeno Art",
   "categorie": "gallery",
   "description": "",
   "prix": "",
   "duree": "",
   "mapsUrl": "https://maps.google.com/?q=-34.6047275,-58.3767712",
   "lat": -34.6047275,
   "lng": -58.3767712,
   "source": "osm"
  },
  {
   "id": "a5452358819",
   "nom": "Museo de la Mujer",
   "categorie": "museum",
   "description": "",
   "prix": "",
   "duree": "",
   "mapsUrl": "https://maps.google.com/?q=-34.6068838,-58.3853485",
   "lat": -34.6068838,
   "lng": -58.3853485,
   "source": "osm"
  },
  {
   "id": "a4293917798",
   "nom": "Museo Judío de Buenos Aires",
   "categorie": "museum",
   "description": "",
   "prix": "",
   "duree": "",
   "mapsUrl": "https://maps.google.com/?q=-34.5995877,-58.3837137",
   "lat": -34.5995877,
   "lng": -58.3837137,
   "source": "osm"
  },
  {
   "id": "a11601023174",
   "nom": "Palermo H",
   "categorie": "gallery",
   "description": "",
   "prix": "",
   "duree": "",
   "mapsUrl": "https://maps.google.com/?q=-34.6012167,-58.3769845",
   "lat": -34.6012167,
   "lng": -58.3769845,
   "source": "osm"
  }
 ],
 "scoreIndicatif": true,
 "osmEnriched": true,
 "osmEnrichedAt": "2026-06-30"
}
