{
  "slug": "caracas",
  "nom": "Caracas",
  "pays": "Venezuela",
  "pays_slug": "venezuela",
  "continent": "Amérique du Sud",
  "region": "Venezuela",
  "coordonnees": {
    "lat": 10.4806,
    "lng": -66.9036
  },
  "codeISO": "VE",
  "score_halal": 3.2,
  "halalScore": 6.4,
  "description": "Caracas, Venezuela. Repérez les restaurants halal et les mosquées via l'application.",
  "metaDescription": "Caracas, Venezuela. Repérez les restaurants halal et les mosquées via l'application.",
  "image": "https://upload.wikimedia.org/wikipedia/commons/b/bd/Caracas_desde_el_%C3%A1vila.jpg",
  "image_hero": "https://upload.wikimedia.org/wikipedia/commons/b/bd/Caracas_desde_el_%C3%A1vila.jpg",
  "imageCredit": "Wikimedia Commons",
  "scoreIndicatif": true,
  "statistiques": {
    "restaurants_halal": 15,
    "mosquees": 1,
    "hotels": 120
  },
  "infoPratique": {
    "transport": "Accessible par avion et transports locaux.",
    "meilleureEpoque": "Selon la saison.",
    "conseilHalal": "Repérez restaurants halal et mosquées via l'application."
  },
  "tags": [
    "halal",
    "amérique du sud"
  ],
  "restaurants": [
    {
      "nom": "Pincho Pan",
      "type": "arab",
      "priceRange": "€€",
      "mapsUrl": "https://maps.google.com/?q=10.4851757,-66.8983253",
      "lat": 10.4851757,
      "lng": -66.8983253,
      "halalConfidence": "likely",
      "source": "osm"
    },
    {
      "nom": "Aloushi Baba",
      "type": "lebanese",
      "priceRange": "€€",
      "mapsUrl": "https://maps.google.com/?q=10.5036074,-66.9068973",
      "lat": 10.5036074,
      "lng": -66.9068973,
      "halalConfidence": "likely",
      "source": "osm"
    },
    {
      "nom": "Beirut",
      "type": "lebanese,  arab",
      "priceRange": "€€",
      "mapsUrl": "https://maps.google.com/?q=10.5045548,-66.9103509",
      "lat": 10.5045548,
      "lng": -66.9103509,
      "halalConfidence": "likely",
      "source": "osm"
    },
    {
      "nom": "Restaurant El Arabito",
      "type": "kebab",
      "priceRange": "€€",
      "mapsUrl": "https://maps.google.com/?q=10.4937801,-66.8791596",
      "lat": 10.4937801,
      "lng": -66.8791596,
      "halalConfidence": "likely",
      "source": "osm"
    },
    {
      "nom": "Restaurant El Castillo de Alepo",
      "type": "kebab",
      "priceRange": "€€",
      "mapsUrl": "https://maps.google.com/?q=10.4823999,-66.9386027",
      "lat": 10.4823999,
      "lng": -66.9386027,
      "halalConfidence": "likely",
      "source": "osm"
    },
    {
      "nom": "Restaurant Club del Líbano",
      "type": "lebanese",
      "priceRange": "€€",
      "mapsUrl": "https://maps.google.com/?q=10.4535752,-66.8763144",
      "lat": 10.4535752,
      "lng": -66.8763144,
      "halalConfidence": "likely",
      "source": "osm"
    },
    {
      "nom": "El Príncipe del Shawarma",
      "type": "kebab",
      "priceRange": "€€",
      "mapsUrl": "https://maps.google.com/?q=10.4848254,-66.9426521",
      "lat": 10.4848254,
      "lng": -66.9426521,
      "halalConfidence": "likely",
      "source": "osm"
    },
    {
      "nom": "Restaurante El Arabito",
      "type": "arab",
      "priceRange": "€€",
      "mapsUrl": "https://maps.google.com/?q=10.4840884,-66.8628593",
      "lat": 10.4840884,
      "lng": -66.8628593,
      "halalConfidence": "likely",
      "source": "osm"
    },
    {
      "nom": "Restaurante Shams | HALAL حلال",
      "type": "arab",
      "priceRange": "€€",
      "mapsUrl": "https://maps.google.com/?q=10.4827987,-66.8617899",
      "lat": 10.4827987,
      "lng": -66.8617899,
      "halalConfidence": "likely",
      "source": "osm"
    },
    {
      "nom": "Kafta",
      "type": "kebab",
      "priceRange": "€€",
      "mapsUrl": "https://maps.google.com/?q=10.4814083,-66.8580134",
      "lat": 10.4814083,
      "lng": -66.8580134,
      "halalConfidence": "likely",
      "source": "osm"
    },
    {
      "nom": "Damasco",
      "type": "kebab",
      "priceRange": "€€",
      "mapsUrl": "https://maps.google.com/?q=10.4930881,-66.8577457",
      "lat": 10.4930881,
      "lng": -66.8577457,
      "halalConfidence": "likely",
      "source": "osm"
    },
    {
      "nom": "Dónde Jabibi",
      "type": "lebanese",
      "priceRange": "€€",
      "mapsUrl": "https://maps.google.com/?q=10.495964,-66.8562403",
      "lat": 10.495964,
      "lng": -66.8562403,
      "halalConfidence": "likely",
      "source": "osm"
    },
    {
      "nom": "Restaurant Zeina",
      "type": "kebab",
      "priceRange": "€€",
      "mapsUrl": "https://maps.google.com/?q=10.4958044,-66.8537075",
      "lat": 10.4958044,
      "lng": -66.8537075,
      "halalConfidence": "likely",
      "source": "osm"
    },
    {
      "nom": "El Arabito",
      "type": "kebab",
      "priceRange": "€€",
      "mapsUrl": "https://maps.google.com/?q=10.5139816,-66.9458719",
      "lat": 10.5139816,
      "lng": -66.9458719,
      "halalConfidence": "likely",
      "source": "osm"
    },
    {
      "nom": "Nour",
      "type": "kebab",
      "priceRange": "€€",
      "mapsUrl": "https://maps.google.com/?q=10.5028259,-66.8484569",
      "lat": 10.5028259,
      "lng": -66.8484569,
      "halalConfidence": "likely",
      "source": "osm"
    }
  ],
  "hotels": [
    {
      "nom": "Hotel Mansión",
      "categorie": "Hôtel",
      "priceRange": "€€",
      "mapsUrl": "https://maps.google.com/?q=10.4851969,-66.9083217",
      "lat": 10.4851969,
      "lng": -66.9083217,
      "halalFriendly": false,
      "bookingUrl": "https://maps.google.com/?q=10.4851969,-66.9083217",
      "source": "osm"
    },
    {
      "nom": "Aparta-Hotel Los Ilustres",
      "categorie": "Hôtel",
      "priceRange": "€€",
      "mapsUrl": "https://maps.google.com/?q=10.4764128,-66.8948965",
      "lat": 10.4764128,
      "lng": -66.8948965,
      "halalFriendly": false,
      "bookingUrl": "https://maps.google.com/?q=10.4764128,-66.8948965",
      "source": "osm"
    },
    {
      "nom": "Hotel Venecia",
      "categorie": "Hôtel",
      "priceRange": "€€",
      "mapsUrl": "https://maps.google.com/?q=10.4761519,-66.8949771",
      "lat": 10.4761519,
      "lng": -66.8949771,
      "halalFriendly": false,
      "bookingUrl": "https://maps.google.com/?q=10.4761519,-66.8949771",
      "source": "osm"
    },
    {
      "nom": "Hotel Círculo Militar de Caracas",
      "categorie": "Hôtel",
      "priceRange": "€€",
      "mapsUrl": "https://maps.google.com/?q=10.4689645,-66.8982477",
      "lat": 10.4689645,
      "lng": -66.8982477,
      "halalFriendly": false,
      "bookingUrl": "https://maps.google.com/?q=10.4689645,-66.8982477",
      "source": "osm"
    },
    {
      "nom": "Hotel El Paseo",
      "categorie": "Hôtel",
      "priceRange": "€€",
      "mapsUrl": "https://maps.google.com/?q=10.4865062,-66.8910286",
      "lat": 10.4865062,
      "lng": -66.8910286,
      "halalFriendly": false,
      "bookingUrl": "https://maps.google.com/?q=10.4865062,-66.8910286",
      "source": "osm"
    },
    {
      "nom": "Hotel El Limón",
      "categorie": "Hôtel",
      "priceRange": "€€",
      "mapsUrl": "https://maps.google.com/?q=10.4974451,-66.9007738",
      "lat": 10.4974451,
      "lng": -66.9007738,
      "halalFriendly": false,
      "bookingUrl": "https://maps.google.com/?q=10.4974451,-66.9007738",
      "source": "osm"
    },
    {
      "nom": "Hotel D' Angelo",
      "categorie": "Hôtel",
      "priceRange": "€€",
      "mapsUrl": "https://maps.google.com/?q=10.4967866,-66.9096005",
      "lat": 10.4967866,
      "lng": -66.9096005,
      "halalFriendly": false,
      "bookingUrl": "https://maps.google.com/?q=10.4967866,-66.9096005",
      "source": "osm"
    },
    {
      "nom": "Hotel Nueva Lucía",
      "categorie": "Hôtel",
      "priceRange": "€€",
      "mapsUrl": "https://maps.google.com/?q=10.4970556,-66.9095415",
      "lat": 10.4970556,
      "lng": -66.9095415,
      "halalFriendly": false,
      "bookingUrl": "https://maps.google.com/?q=10.4970556,-66.9095415",
      "source": "osm"
    },
    {
      "nom": "Posada y Restaurant de la Vida",
      "categorie": "Maison d'hôtes",
      "priceRange": "€€",
      "mapsUrl": "https://maps.google.com/?q=10.4866909,-66.8868446",
      "lat": 10.4866909,
      "lng": -66.8868446,
      "halalFriendly": false,
      "bookingUrl": "https://maps.google.com/?q=10.4866909,-66.8868446",
      "source": "osm"
    },
    {
      "nom": "Hotel Bella italia",
      "categorie": "Hôtel",
      "priceRange": "€€",
      "mapsUrl": "https://maps.google.com/?q=10.4976543,-66.9093939",
      "lat": 10.4976543,
      "lng": -66.9093939,
      "halalFriendly": false,
      "bookingUrl": "https://maps.google.com/?q=10.4976543,-66.9093939",
      "source": "osm"
    },
    {
      "nom": "Hotel Ber Mar",
      "categorie": "Hôtel",
      "priceRange": "€€",
      "mapsUrl": "https://maps.google.com/?q=10.4977139,-66.9095743",
      "lat": 10.4977139,
      "lng": -66.9095743,
      "halalFriendly": false,
      "bookingUrl": "https://maps.google.com/?q=10.4977139,-66.9095743",
      "source": "osm"
    },
    {
      "nom": "Hotel ABC",
      "categorie": "Hôtel",
      "priceRange": "€€",
      "mapsUrl": "https://maps.google.com/?q=10.4985975,-66.9068591",
      "lat": 10.4985975,
      "lng": -66.9068591,
      "halalFriendly": false,
      "bookingUrl": "https://maps.google.com/?q=10.4985975,-66.9068591",
      "source": "osm"
    },
    {
      "nom": "Hotel Mayan",
      "categorie": "Hôtel",
      "priceRange": "€€",
      "mapsUrl": "https://maps.google.com/?q=10.4980146,-66.9093857",
      "lat": 10.4980146,
      "lng": -66.9093857,
      "halalFriendly": false,
      "bookingUrl": "https://maps.google.com/?q=10.4980146,-66.9093857",
      "source": "osm"
    },
    {
      "nom": "VENETUR Anauco Suites",
      "categorie": "Hôtel",
      "priceRange": "€€€€",
      "score": 4,
      "mapsUrl": "https://maps.google.com/?q=10.4986885,-66.9000841",
      "lat": 10.4986885,
      "lng": -66.9000841,
      "halalFriendly": false,
      "bookingUrl": "http://www.venetur.gob.ve/",
      "source": "osm"
    },
    {
      "nom": "Hotel Milenio",
      "categorie": "Hôtel",
      "priceRange": "€€",
      "mapsUrl": "https://maps.google.com/?q=10.4862346,-66.8856939",
      "lat": 10.4862346,
      "lng": -66.8856939,
      "halalFriendly": false,
      "bookingUrl": "https://maps.google.com/?q=10.4862346,-66.8856939",
      "source": "osm"
    },
    {
      "nom": "Hotel Horcones",
      "categorie": "Hôtel",
      "priceRange": "€€",
      "mapsUrl": "https://maps.google.com/?q=10.4995044,-66.9072043",
      "lat": 10.4995044,
      "lng": -66.9072043,
      "halalFriendly": false,
      "bookingUrl": "https://maps.google.com/?q=10.4995044,-66.9072043",
      "source": "osm"
    },
    {
      "nom": "Novo Hotel Express",
      "categorie": "Hôtel",
      "priceRange": "€€",
      "mapsUrl": "https://maps.google.com/?q=10.4899703,-66.9210354",
      "lat": 10.4899703,
      "lng": -66.9210354,
      "halalFriendly": false,
      "bookingUrl": "http://www.novohotelexpress.com/",
      "source": "osm"
    },
    {
      "nom": "Hotel Alba Caracas",
      "categorie": "Hôtel",
      "priceRange": "€€€€",
      "score": 5,
      "mapsUrl": "https://maps.google.com/?q=10.4999733,-66.8995519",
      "lat": 10.4999733,
      "lng": -66.8995519,
      "halalFriendly": false,
      "bookingUrl": "http://www.venetur.gob.ve/",
      "source": "osm"
    },
    {
      "nom": "Hotel Ricovigi",
      "categorie": "Hôtel",
      "priceRange": "€€",
      "mapsUrl": "https://maps.google.com/?q=10.498459,-66.9127949",
      "lat": 10.498459,
      "lng": -66.9127949,
      "halalFriendly": false,
      "bookingUrl": "https://maps.google.com/?q=10.498459,-66.9127949",
      "source": "osm"
    },
    {
      "nom": "Hotel Manzoni",
      "categorie": "Hôtel",
      "priceRange": "€€",
      "mapsUrl": "https://maps.google.com/?q=10.4966522,-66.9166355",
      "lat": 10.4966522,
      "lng": -66.9166355,
      "halalFriendly": false,
      "bookingUrl": "https://maps.google.com/?q=10.4966522,-66.9166355",
      "source": "osm"
    },
    {
      "nom": "Hotel 42",
      "categorie": "Hôtel",
      "priceRange": "€€",
      "mapsUrl": "https://maps.google.com/?q=10.4927096,-66.9205572",
      "lat": 10.4927096,
      "lng": -66.9205572,
      "halalFriendly": false,
      "bookingUrl": "https://maps.google.com/?q=10.4927096,-66.9205572",
      "source": "osm"
    },
    {
      "nom": "Hotel Triángulo Dorado",
      "categorie": "Hôtel",
      "priceRange": "€€",
      "mapsUrl": "https://maps.google.com/?q=10.4997219,-66.9115853",
      "lat": 10.4997219,
      "lng": -66.9115853,
      "halalFriendly": false,
      "bookingUrl": "https://maps.google.com/?q=10.4997219,-66.9115853",
      "source": "osm"
    },
    {
      "nom": "Hotel La Gheisha",
      "categorie": "Hôtel",
      "priceRange": "€€",
      "mapsUrl": "https://maps.google.com/?q=10.4978126,-66.9160159",
      "lat": 10.4978126,
      "lng": -66.9160159,
      "halalFriendly": false,
      "bookingUrl": "https://maps.google.com/?q=10.4978126,-66.9160159",
      "source": "osm"
    },
    {
      "nom": "Hotel Los Llanos",
      "categorie": "Hôtel",
      "priceRange": "€€",
      "mapsUrl": "https://maps.google.com/?q=10.4974442,-66.916734",
      "lat": 10.4974442,
      "lng": -66.916734,
      "halalFriendly": false,
      "bookingUrl": "https://maps.google.com/?q=10.4974442,-66.916734",
      "source": "osm"
    },
    {
      "nom": "Hotel Firenze",
      "categorie": "Hôtel",
      "priceRange": "€€",
      "mapsUrl": "https://maps.google.com/?q=10.498978,-66.9146575",
      "lat": 10.498978,
      "lng": -66.9146575,
      "halalFriendly": false,
      "bookingUrl": "https://maps.google.com/?q=10.498978,-66.9146575",
      "source": "osm"
    },
    {
      "nom": "Hotel Plaza Mayor",
      "categorie": "Hôtel",
      "priceRange": "€€",
      "mapsUrl": "https://maps.google.com/?q=10.5019899,-66.9019579",
      "lat": 10.5019899,
      "lng": -66.9019579,
      "halalFriendly": false,
      "bookingUrl": "https://maps.google.com/?q=10.5019899,-66.9019579",
      "source": "osm"
    },
    {
      "nom": "Hotel Victoria",
      "categorie": "Hôtel",
      "priceRange": "€€",
      "mapsUrl": "https://maps.google.com/?q=10.498927,-66.9153167",
      "lat": 10.498927,
      "lng": -66.9153167,
      "halalFriendly": false,
      "bookingUrl": "https://maps.google.com/?q=10.498927,-66.9153167",
      "source": "osm"
    },
    {
      "nom": "Hotel Renovación",
      "categorie": "Hôtel",
      "priceRange": "€€",
      "mapsUrl": "https://maps.google.com/?q=10.5021202,-66.8989605",
      "lat": 10.5021202,
      "lng": -66.8989605,
      "halalFriendly": false,
      "bookingUrl": "https://maps.google.com/?q=10.5021202,-66.8989605",
      "source": "osm"
    },
    {
      "nom": "Hotel Ribot",
      "categorie": "Hôtel",
      "priceRange": "€",
      "score": 1,
      "mapsUrl": "https://maps.google.com/?q=10.5022022,-66.8983217",
      "lat": 10.5022022,
      "lng": -66.8983217,
      "halalFriendly": false,
      "bookingUrl": "https://maps.google.com/?q=10.5022022,-66.8983217",
      "source": "osm"
    },
    {
      "nom": "Hotel Toma",
      "categorie": "Hôtel",
      "priceRange": "€€",
      "mapsUrl": "https://maps.google.com/?q=10.4986106,-66.9175781",
      "lat": 10.4986106,
      "lng": -66.9175781,
      "halalFriendly": false,
      "bookingUrl": "https://maps.google.com/?q=10.4986106,-66.9175781",
      "source": "osm"
    },
    {
      "nom": "Hotel Excélsior",
      "categorie": "Hôtel",
      "priceRange": "€€",
      "mapsUrl": "https://maps.google.com/?q=10.500226,-66.9151257",
      "lat": 10.500226,
      "lng": -66.9151257,
      "halalFriendly": false,
      "bookingUrl": "https://maps.google.com/?q=10.500226,-66.9151257",
      "source": "osm"
    },
    {
      "nom": "Residencias Hotel Venus C.A.",
      "categorie": "Hôtel",
      "priceRange": "€€",
      "mapsUrl": "https://maps.google.com/?q=10.5022129,-66.8963919",
      "lat": 10.5022129,
      "lng": -66.8963919,
      "halalFriendly": false,
      "bookingUrl": "https://maps.google.com/?q=10.5022129,-66.8963919",
      "source": "osm"
    },
    {
      "nom": "Hotel Palas",
      "categorie": "Hôtel",
      "priceRange": "€€",
      "mapsUrl": "https://maps.google.com/?q=10.4987953,-66.9175379",
      "lat": 10.4987953,
      "lng": -66.9175379,
      "halalFriendly": false,
      "bookingUrl": "https://maps.google.com/?q=10.4987953,-66.9175379",
      "source": "osm"
    },
    {
      "nom": "Hotel Líder",
      "categorie": "Hôtel",
      "priceRange": "€€",
      "mapsUrl": "https://maps.google.com/?q=10.4976282,-66.9191407",
      "lat": 10.4976282,
      "lng": -66.9191407,
      "halalFriendly": false,
      "bookingUrl": "https://maps.google.com/?q=10.4976282,-66.9191407",
      "source": "osm"
    },
    {
      "nom": "Hotel La Neve",
      "categorie": "Hôtel",
      "priceRange": "€€",
      "mapsUrl": "https://maps.google.com/?q=10.4987092,-66.9179497",
      "lat": 10.4987092,
      "lng": -66.9179497,
      "halalFriendly": false,
      "bookingUrl": "https://maps.google.com/?q=10.4987092,-66.9179497",
      "source": "osm"
    },
    {
      "nom": "Hotel New Jersey",
      "categorie": "Hôtel",
      "priceRange": "€€",
      "mapsUrl": "https://maps.google.com/?q=10.5032047,-66.8990379",
      "lat": 10.5032047,
      "lng": -66.8990379,
      "halalFriendly": false,
      "bookingUrl": "https://maps.google.com/?q=10.5032047,-66.8990379",
      "source": "osm"
    },
    {
      "nom": "Hotel Peral",
      "categorie": "Hôtel",
      "priceRange": "€€",
      "mapsUrl": "https://maps.google.com/?q=10.5025336,-66.9113233",
      "lat": 10.5025336,
      "lng": -66.9113233,
      "halalFriendly": false,
      "bookingUrl": "https://maps.google.com/?q=10.5025336,-66.9113233",
      "source": "osm"
    },
    {
      "nom": "Hotel Caracol",
      "categorie": "Hôtel",
      "priceRange": "€€",
      "mapsUrl": "https://maps.google.com/?q=10.5027368,-66.911331",
      "lat": 10.5027368,
      "lng": -66.911331,
      "halalFriendly": false,
      "bookingUrl": "https://maps.google.com/?q=10.5027368,-66.911331",
      "source": "osm"
    },
    {
      "nom": "Hotel Harmony",
      "categorie": "Hôtel",
      "priceRange": "€€",
      "mapsUrl": "https://maps.google.com/?q=10.4885609,-66.8809141",
      "lat": 10.4885609,
      "lng": -66.8809141,
      "halalFriendly": false,
      "bookingUrl": "https://maps.google.com/?q=10.4885609,-66.8809141",
      "source": "osm"
    },
    {
      "nom": "Hotel Santiago",
      "categorie": "Hôtel",
      "priceRange": "€€",
      "mapsUrl": "https://maps.google.com/?q=10.4996937,-66.9184672",
      "lat": 10.4996937,
      "lng": -66.9184672,
      "halalFriendly": false,
      "bookingUrl": "https://maps.google.com/?q=10.4996937,-66.9184672",
      "source": "osm"
    },
    {
      "nom": "Hotel El Arroyo",
      "categorie": "Hôtel",
      "priceRange": "€€",
      "mapsUrl": "https://maps.google.com/?q=10.5008854,-66.9168032",
      "lat": 10.5008854,
      "lng": -66.9168032,
      "halalFriendly": false,
      "bookingUrl": "https://maps.google.com/?q=10.5008854,-66.9168032",
      "source": "osm"
    },
    {
      "nom": "Hotel Álex",
      "categorie": "Hôtel",
      "priceRange": "€€€",
      "score": 3,
      "mapsUrl": "https://maps.google.com/?q=10.5046347,-66.9059045",
      "lat": 10.5046347,
      "lng": -66.9059045,
      "halalFriendly": false,
      "bookingUrl": "hotelalex.com.ve",
      "source": "osm"
    },
    {
      "nom": "Waldorf Hotel Boutique",
      "categorie": "Hôtel",
      "priceRange": "€€€",
      "score": 3,
      "mapsUrl": "https://maps.google.com/?q=10.5047196,-66.9025118",
      "lat": 10.5047196,
      "lng": -66.9025118,
      "halalFriendly": false,
      "bookingUrl": "http://www.hotelwaldorf.com.ve/",
      "source": "osm"
    },
    {
      "nom": "Hotel Plaza Venezuela",
      "categorie": "Hôtel",
      "priceRange": "€€",
      "mapsUrl": "https://maps.google.com/?q=10.4982973,-66.8851045",
      "lat": 10.4982973,
      "lng": -66.8851045,
      "halalFriendly": false,
      "bookingUrl": "https://maps.google.com/?q=10.4982973,-66.8851045",
      "source": "osm"
    },
    {
      "nom": "Hotel Tanausu",
      "categorie": "Hôtel",
      "priceRange": "€€",
      "score": 2,
      "mapsUrl": "https://maps.google.com/?q=10.4942523,-66.8816517",
      "lat": 10.4942523,
      "lng": -66.8816517,
      "halalFriendly": false,
      "bookingUrl": "https://maps.google.com/?q=10.4942523,-66.8816517",
      "source": "osm"
    },
    {
      "nom": "Hotel La Naranja",
      "categorie": "Hôtel",
      "priceRange": "€€",
      "score": 2,
      "mapsUrl": "https://maps.google.com/?q=10.4939937,-66.8813916",
      "lat": 10.4939937,
      "lng": -66.8813916,
      "halalFriendly": false,
      "bookingUrl": "https://maps.google.com/?q=10.4939937,-66.8813916",
      "source": "osm"
    },
    {
      "nom": "Hotel Puente Plaza",
      "categorie": "Hôtel",
      "priceRange": "€€",
      "mapsUrl": "https://maps.google.com/?q=10.500324,-66.9203442",
      "lat": 10.500324,
      "lng": -66.9203442,
      "halalFriendly": false,
      "bookingUrl": "https://maps.google.com/?q=10.500324,-66.9203442",
      "source": "osm"
    },
    {
      "nom": "Hotel Hollywood",
      "categorie": "Hôtel",
      "priceRange": "€€",
      "mapsUrl": "https://maps.google.com/?q=10.5057802,-66.9089996",
      "lat": 10.5057802,
      "lng": -66.9089996,
      "halalFriendly": false,
      "bookingUrl": "https://maps.google.com/?q=10.5057802,-66.9089996",
      "source": "osm"
    },
    {
      "nom": "Hotel King",
      "categorie": "Hôtel",
      "priceRange": "€€€",
      "score": 3,
      "mapsUrl": "https://maps.google.com/?q=10.4951402,-66.881907",
      "lat": 10.4951402,
      "lng": -66.881907,
      "halalFriendly": false,
      "bookingUrl": "https://maps.google.com/?q=10.4951402,-66.881907",
      "source": "osm"
    },
    {
      "nom": "Hotel Caracas",
      "categorie": "Hôtel",
      "priceRange": "€€",
      "mapsUrl": "https://maps.google.com/?q=10.4933802,-66.8805585",
      "lat": 10.4933802,
      "lng": -66.8805585,
      "halalFriendly": false,
      "bookingUrl": "https://maps.google.com/?q=10.4933802,-66.8805585",
      "source": "osm"
    },
    {
      "nom": "Eco Inn Tibana Caracas",
      "categorie": "Hôtel",
      "priceRange": "€€",
      "mapsUrl": "https://maps.google.com/?q=10.4982506,-66.8841501",
      "lat": 10.4982506,
      "lng": -66.8841501,
      "halalFriendly": false,
      "bookingUrl": "https://maps.google.com/?q=10.4982506,-66.8841501",
      "source": "osm"
    },
    {
      "nom": "Hotel Mocotíes",
      "categorie": "Hôtel",
      "priceRange": "€€",
      "mapsUrl": "https://maps.google.com/?q=10.4984272,-66.8840977",
      "lat": 10.4984272,
      "lng": -66.8840977,
      "halalFriendly": false,
      "bookingUrl": "https://maps.google.com/?q=10.4984272,-66.8840977",
      "source": "osm"
    },
    {
      "nom": "Hotel Ramo Blanco",
      "categorie": "Hôtel",
      "priceRange": "€€",
      "mapsUrl": "https://maps.google.com/?q=10.4900062,-66.9284749",
      "lat": 10.4900062,
      "lng": -66.9284749,
      "halalFriendly": false,
      "bookingUrl": "https://maps.google.com/?q=10.4900062,-66.9284749",
      "source": "osm"
    },
    {
      "nom": "Hotel Las Mercedes",
      "categorie": "Hôtel",
      "priceRange": "€€",
      "mapsUrl": "https://maps.google.com/?q=10.5066819,-66.900468",
      "lat": 10.5066819,
      "lng": -66.900468,
      "halalFriendly": false,
      "bookingUrl": "https://maps.google.com/?q=10.5066819,-66.900468",
      "source": "osm"
    },
    {
      "nom": "Hotel Lima",
      "categorie": "Hôtel",
      "priceRange": "€€",
      "mapsUrl": "https://maps.google.com/?q=10.5000201,-66.885502",
      "lat": 10.5000201,
      "lng": -66.885502,
      "halalFriendly": false,
      "bookingUrl": "https://maps.google.com/?q=10.5000201,-66.885502",
      "source": "osm"
    },
    {
      "nom": "Hotel City",
      "categorie": "Hôtel",
      "priceRange": "€€",
      "score": 2,
      "mapsUrl": "https://maps.google.com/?q=10.4963251,-66.8816648",
      "lat": 10.4963251,
      "lng": -66.8816648,
      "halalFriendly": false,
      "bookingUrl": "https://maps.google.com/?q=10.4963251,-66.8816648",
      "source": "osm"
    },
    {
      "nom": "Hotel Royal",
      "categorie": "Hôtel",
      "priceRange": "€€",
      "score": 2,
      "mapsUrl": "https://maps.google.com/?q=10.4949406,-66.8805678",
      "lat": 10.4949406,
      "lng": -66.8805678,
      "halalFriendly": false,
      "bookingUrl": "https://maps.google.com/?q=10.4949406,-66.8805678",
      "source": "osm"
    },
    {
      "nom": "Hotel Beethoven",
      "categorie": "Hôtel",
      "priceRange": "€€",
      "mapsUrl": "https://maps.google.com/?q=10.4885936,-66.8773477",
      "lat": 10.4885936,
      "lng": -66.8773477,
      "halalFriendly": false,
      "bookingUrl": "https://maps.google.com/?q=10.4885936,-66.8773477",
      "source": "osm"
    },
    {
      "nom": "Hotel Astro",
      "categorie": "Hôtel",
      "priceRange": "€€",
      "score": 2,
      "mapsUrl": "https://maps.google.com/?q=10.4933187,-66.8792267",
      "lat": 10.4933187,
      "lng": -66.8792267,
      "halalFriendly": false,
      "bookingUrl": "https://maps.google.com/?q=10.4933187,-66.8792267",
      "source": "osm"
    },
    {
      "nom": "Nuestro Hotel",
      "categorie": "Hôtel",
      "priceRange": "€€",
      "score": 2,
      "mapsUrl": "https://maps.google.com/?q=10.4934558,-66.8792213",
      "lat": 10.4934558,
      "lng": -66.8792213,
      "halalFriendly": false,
      "bookingUrl": "https://maps.google.com/?q=10.4934558,-66.8792213",
      "source": "osm"
    },
    {
      "nom": "Hotel Madrigal",
      "categorie": "Hôtel",
      "priceRange": "€€",
      "score": 2,
      "mapsUrl": "https://maps.google.com/?q=10.4936009,-66.8792186",
      "lat": 10.4936009,
      "lng": -66.8792186,
      "halalFriendly": false,
      "bookingUrl": "https://maps.google.com/?q=10.4936009,-66.8792186",
      "source": "osm"
    },
    {
      "nom": "Hotel Inter",
      "categorie": "Hôtel",
      "priceRange": "€€",
      "mapsUrl": "https://maps.google.com/?q=10.507621,-66.9076102",
      "lat": 10.507621,
      "lng": -66.9076102,
      "halalFriendly": false,
      "bookingUrl": "https://maps.google.com/?q=10.507621,-66.9076102",
      "source": "osm"
    },
    {
      "nom": "Hotel Metropol",
      "categorie": "Hôtel",
      "priceRange": "€€",
      "mapsUrl": "https://maps.google.com/?q=10.5074574,-66.9086268",
      "lat": 10.5074574,
      "lng": -66.9086268,
      "halalFriendly": false,
      "bookingUrl": "https://maps.google.com/?q=10.5074574,-66.9086268",
      "source": "osm"
    },
    {
      "nom": "Hotel Tiuna",
      "categorie": "Hôtel",
      "priceRange": "€€",
      "mapsUrl": "https://maps.google.com/?q=10.5069037,-66.9111533",
      "lat": 10.5069037,
      "lng": -66.9111533,
      "halalFriendly": false,
      "bookingUrl": "https://maps.google.com/?q=10.5069037,-66.9111533",
      "source": "osm"
    },
    {
      "nom": "Hotel Ritz",
      "categorie": "Hôtel",
      "priceRange": "€€",
      "score": 2,
      "mapsUrl": "https://maps.google.com/?q=10.4982332,-66.8823067",
      "lat": 10.4982332,
      "lng": -66.8823067,
      "halalFriendly": false,
      "bookingUrl": "https://maps.google.com/?q=10.4982332,-66.8823067",
      "source": "osm"
    },
    {
      "nom": "Hotel Cervantes",
      "categorie": "Hôtel",
      "priceRange": "€€",
      "mapsUrl": "https://maps.google.com/?q=10.5073308,-66.9097667",
      "lat": 10.5073308,
      "lng": -66.9097667,
      "halalFriendly": false,
      "bookingUrl": "https://maps.google.com/?q=10.5073308,-66.9097667",
      "source": "osm"
    },
    {
      "nom": "Hotel El Oeste",
      "categorie": "Hôtel",
      "priceRange": "€€",
      "mapsUrl": "https://maps.google.com/?q=10.5000421,-66.9234401",
      "lat": 10.5000421,
      "lng": -66.9234401,
      "halalFriendly": false,
      "bookingUrl": "https://maps.google.com/?q=10.5000421,-66.9234401",
      "source": "osm"
    },
    {
      "nom": "Hotel Lucas",
      "categorie": "Hôtel",
      "priceRange": "€€",
      "score": 2,
      "mapsUrl": "https://maps.google.com/?q=10.5079913,-66.9005662",
      "lat": 10.5079913,
      "lng": -66.9005662,
      "halalFriendly": false,
      "bookingUrl": "https://maps.google.com/?q=10.5079913,-66.9005662",
      "source": "osm"
    },
    {
      "nom": "Hotel Guaika",
      "categorie": "Hôtel",
      "priceRange": "€€",
      "score": 2,
      "mapsUrl": "https://maps.google.com/?q=10.4933081,-66.8787063",
      "lat": 10.4933081,
      "lng": -66.8787063,
      "halalFriendly": false,
      "bookingUrl": "https://maps.google.com/?q=10.4933081,-66.8787063",
      "source": "osm"
    },
    {
      "nom": "Gran Meliá Caracas",
      "categorie": "Hôtel",
      "priceRange": "€€€€",
      "score": 5,
      "mapsUrl": "https://maps.google.com/?q=10.4922442,-66.8780271",
      "lat": 10.4922442,
      "lng": -66.8780271,
      "halalFriendly": false,
      "bookingUrl": "https://www.melia.com/es/hoteles/venezuela/caracas/gran-melia-caracas/es/index.html",
      "source": "osm"
    },
    {
      "nom": "Hotel La Palmera",
      "categorie": "Hôtel",
      "priceRange": "€€",
      "mapsUrl": "https://maps.google.com/?q=10.5003444,-66.8836765",
      "lat": 10.5003444,
      "lng": -66.8836765,
      "halalFriendly": false,
      "bookingUrl": "https://maps.google.com/?q=10.5003444,-66.8836765",
      "source": "osm"
    },
    {
      "nom": "Hotel Atlántida",
      "categorie": "Hôtel",
      "priceRange": "€€",
      "mapsUrl": "https://maps.google.com/?q=10.5012384,-66.884634",
      "lat": 10.5012384,
      "lng": -66.884634,
      "halalFriendly": false,
      "bookingUrl": "https://maps.google.com/?q=10.5012384,-66.884634",
      "source": "osm"
    },
    {
      "nom": "Hotel Cesar",
      "categorie": "Hôtel",
      "priceRange": "€€",
      "mapsUrl": "https://maps.google.com/?q=10.5017421,-66.8850471",
      "lat": 10.5017421,
      "lng": -66.8850471,
      "halalFriendly": false,
      "bookingUrl": "https://maps.google.com/?q=10.5017421,-66.8850471",
      "source": "osm"
    },
    {
      "nom": "Hotel Cristal",
      "categorie": "Hôtel",
      "priceRange": "€€",
      "score": 2,
      "mapsUrl": "https://maps.google.com/?q=10.4948203,-66.8787169",
      "lat": 10.4948203,
      "lng": -66.8787169,
      "halalFriendly": false,
      "bookingUrl": "https://maps.google.com/?q=10.4948203,-66.8787169",
      "source": "osm"
    },
    {
      "nom": "Hotel Club de la Guardia Nacional",
      "categorie": "Hôtel",
      "priceRange": "€€",
      "score": 2,
      "mapsUrl": "https://maps.google.com/?q=10.4932831,-66.929424",
      "lat": 10.4932831,
      "lng": -66.929424,
      "halalFriendly": false,
      "bookingUrl": "https://maps.google.com/?q=10.4932831,-66.929424",
      "source": "osm"
    },
    {
      "nom": "Hotel Nilson",
      "categorie": "Hôtel",
      "priceRange": "€€",
      "mapsUrl": "https://maps.google.com/?q=10.5020164,-66.884626",
      "lat": 10.5020164,
      "lng": -66.884626,
      "halalFriendly": false,
      "bookingUrl": "https://maps.google.com/?q=10.5020164,-66.884626",
      "source": "osm"
    },
    {
      "nom": "Hotel Jolly Inn",
      "categorie": "Hôtel",
      "priceRange": "€€",
      "score": 2,
      "mapsUrl": "https://maps.google.com/?q=10.4960561,-66.8793313",
      "lat": 10.4960561,
      "lng": -66.8793313,
      "halalFriendly": false,
      "bookingUrl": "https://maps.google.com/?q=10.4960561,-66.8793313",
      "source": "osm"
    },
    {
      "nom": "Hotel Junín",
      "categorie": "Hôtel",
      "priceRange": "€€",
      "mapsUrl": "https://maps.google.com/?q=10.5049491,-66.9185925",
      "lat": 10.5049491,
      "lng": -66.9185925,
      "halalFriendly": false,
      "bookingUrl": "https://maps.google.com/?q=10.5049491,-66.9185925",
      "source": "osm"
    },
    {
      "nom": "Hotel Terepaima",
      "categorie": "Hôtel",
      "priceRange": "€€",
      "mapsUrl": "https://maps.google.com/?q=10.5086865,-66.9084175",
      "lat": 10.5086865,
      "lng": -66.9084175,
      "halalFriendly": false,
      "bookingUrl": "https://maps.google.com/?q=10.5086865,-66.9084175",
      "source": "osm"
    },
    {
      "nom": "Hotel Crillon",
      "categorie": "Hôtel",
      "priceRange": "€€",
      "score": 2,
      "mapsUrl": "https://maps.google.com/?q=10.4978724,-66.8804609",
      "lat": 10.4978724,
      "lng": -66.8804609,
      "halalFriendly": false,
      "bookingUrl": "https://maps.google.com/?q=10.4978724,-66.8804609",
      "source": "osm"
    },
    {
      "nom": "Hotel Tampa",
      "categorie": "Hôtel",
      "priceRange": "€€",
      "score": 2,
      "mapsUrl": "https://maps.google.com/?q=10.496151,-66.8791809",
      "lat": 10.496151,
      "lng": -66.8791809,
      "halalFriendly": false,
      "bookingUrl": "https://maps.google.com/?q=10.496151,-66.8791809",
      "source": "osm"
    },
    {
      "nom": "Hotel El Conde",
      "categorie": "Hôtel",
      "priceRange": "€€",
      "mapsUrl": "https://maps.google.com/?q=10.5065369,-66.9159747",
      "lat": 10.5065369,
      "lng": -66.9159747,
      "halalFriendly": false,
      "bookingUrl": "https://maps.google.com/?q=10.5065369,-66.9159747",
      "source": "osm"
    },
    {
      "nom": "Hotel Capri",
      "categorie": "Hôtel",
      "priceRange": "€€",
      "score": 2,
      "mapsUrl": "https://maps.google.com/?q=10.4971849,-66.8796961",
      "lat": 10.4971849,
      "lng": -66.8796961,
      "halalFriendly": false,
      "bookingUrl": "https://maps.google.com/?q=10.4971849,-66.8796961",
      "source": "osm"
    },
    {
      "nom": "Torre Molino",
      "categorie": "Hôtel",
      "priceRange": "€€",
      "score": 2,
      "mapsUrl": "https://maps.google.com/?q=10.4971374,-66.8795244",
      "lat": 10.4971374,
      "lng": -66.8795244,
      "halalFriendly": false,
      "bookingUrl": "https://maps.google.com/?q=10.4971374,-66.8795244",
      "source": "osm"
    },
    {
      "nom": "Hotel Vistávila Suites",
      "categorie": "Hôtel",
      "priceRange": "€€",
      "score": 2,
      "mapsUrl": "https://maps.google.com/?q=10.4975066,-66.8792911",
      "lat": 10.4975066,
      "lng": -66.8792911,
      "halalFriendly": false,
      "bookingUrl": "https://maps.google.com/?q=10.4975066,-66.8792911",
      "source": "osm"
    },
    {
      "nom": "Hotel Arbet",
      "categorie": "Hôtel",
      "priceRange": "€€",
      "mapsUrl": "https://maps.google.com/?q=10.5061795,-66.9181227",
      "lat": 10.5061795,
      "lng": -66.9181227,
      "halalFriendly": false,
      "bookingUrl": "https://maps.google.com/?q=10.5061795,-66.9181227",
      "source": "osm"
    },
    {
      "nom": "Lincoln Suites",
      "categorie": "Hôtel",
      "priceRange": "€€€",
      "score": 3,
      "mapsUrl": "https://maps.google.com/?q=10.4955445,-66.8778588",
      "lat": 10.4955445,
      "lng": -66.8778588,
      "halalFriendly": false,
      "bookingUrl": "https://www.lincoln-suites.com.ve/",
      "source": "osm"
    },
    {
      "nom": "Hotel Edén",
      "categorie": "Hôtel",
      "priceRange": "€€",
      "mapsUrl": "https://maps.google.com/?q=10.5067903,-66.9175639",
      "lat": 10.5067903,
      "lng": -66.9175639,
      "halalFriendly": false,
      "bookingUrl": "https://maps.google.com/?q=10.5067903,-66.9175639",
      "source": "osm"
    },
    {
      "nom": "Hotel Coliseo",
      "categorie": "Hôtel",
      "priceRange": "€€",
      "mapsUrl": "https://maps.google.com/?q=10.4920582,-66.875674",
      "lat": 10.4920582,
      "lng": -66.875674,
      "halalFriendly": false,
      "bookingUrl": "https://maps.google.com/?q=10.4920582,-66.875674",
      "source": "osm"
    },
    {
      "nom": "Hotel Boulevard Suites",
      "categorie": "Hôtel",
      "priceRange": "€€",
      "score": 2,
      "mapsUrl": "https://maps.google.com/?q=10.4949828,-66.877097",
      "lat": 10.4949828,
      "lng": -66.877097,
      "halalFriendly": false,
      "bookingUrl": "https://maps.google.com/?q=10.4949828,-66.877097",
      "source": "osm"
    },
    {
      "nom": "Residencias Junin",
      "categorie": "Appartement",
      "priceRange": "€€",
      "mapsUrl": "https://maps.google.com/?q=10.4969279,-66.8780244",
      "lat": 10.4969279,
      "lng": -66.8780244,
      "halalFriendly": false,
      "bookingUrl": "https://maps.google.com/?q=10.4969279,-66.8780244",
      "source": "osm"
    },
    {
      "nom": "Español",
      "categorie": "Appartement",
      "priceRange": "€€",
      "mapsUrl": "https://maps.google.com/?q=10.4980987,-66.8785866",
      "lat": 10.4980987,
      "lng": -66.8785866,
      "halalFriendly": false,
      "bookingUrl": "https://maps.google.com/?q=10.4980987,-66.8785866",
      "source": "osm"
    },
    {
      "nom": "Hotel Edward",
      "categorie": "Hôtel",
      "priceRange": "€€",
      "mapsUrl": "https://maps.google.com/?q=10.5072892,-66.9181201",
      "lat": 10.5072892,
      "lng": -66.9181201,
      "halalFriendly": false,
      "bookingUrl": "https://maps.google.com/?q=10.5072892,-66.9181201",
      "source": "osm"
    },
    {
      "nom": "Hotel Naciones Unidas",
      "categorie": "Hôtel",
      "priceRange": "€€",
      "mapsUrl": "https://maps.google.com/?q=10.4897924,-66.9333004",
      "lat": 10.4897924,
      "lng": -66.9333004,
      "halalFriendly": false,
      "bookingUrl": "https://maps.google.com/?q=10.4897924,-66.9333004",
      "source": "osm"
    },
    {
      "nom": "Hotel Los Jazmines",
      "categorie": "Hôtel",
      "priceRange": "€€",
      "mapsUrl": "https://maps.google.com/?q=10.5047536,-66.8832793",
      "lat": 10.5047536,
      "lng": -66.8832793,
      "halalFriendly": false,
      "bookingUrl": "https://maps.google.com/?q=10.5047536,-66.8832793",
      "source": "osm"
    },
    {
      "nom": "Hotel Los Manolos",
      "categorie": "Hôtel",
      "priceRange": "€€",
      "mapsUrl": "https://maps.google.com/?q=10.5049267,-66.8834082",
      "lat": 10.5049267,
      "lng": -66.8834082,
      "halalFriendly": false,
      "bookingUrl": "https://maps.google.com/?q=10.5049267,-66.8834082",
      "source": "osm"
    },
    {
      "nom": "Hotel Ausonia",
      "categorie": "Hôtel",
      "priceRange": "€€",
      "mapsUrl": "https://maps.google.com/?q=10.5088513,-66.9181727",
      "lat": 10.5088513,
      "lng": -66.9181727,
      "halalFriendly": false,
      "bookingUrl": "https://maps.google.com/?q=10.5088513,-66.9181727",
      "source": "osm"
    },
    {
      "nom": "Hotel Yumbo",
      "categorie": "Hôtel",
      "priceRange": "€€",
      "mapsUrl": "https://maps.google.com/?q=10.5024285,-66.8800889",
      "lat": 10.5024285,
      "lng": -66.8800889,
      "halalFriendly": false,
      "bookingUrl": "https://maps.google.com/?q=10.5024285,-66.8800889",
      "source": "osm"
    },
    {
      "nom": "Hotel Mari",
      "categorie": "Hôtel",
      "priceRange": "€€",
      "mapsUrl": "https://maps.google.com/?q=10.4910961,-66.872948",
      "lat": 10.4910961,
      "lng": -66.872948,
      "halalFriendly": false,
      "bookingUrl": "https://maps.google.com/?q=10.4910961,-66.872948",
      "source": "osm"
    },
    {
      "nom": "Hotel Nueva Esparta",
      "categorie": "Hôtel",
      "priceRange": "€€",
      "mapsUrl": "https://maps.google.com/?q=10.4941785,-66.8736291",
      "lat": 10.4941785,
      "lng": -66.8736291,
      "halalFriendly": false,
      "bookingUrl": "https://maps.google.com/?q=10.4941785,-66.8736291",
      "source": "osm"
    },
    {
      "nom": "Hotel El Pinar",
      "categorie": "Hôtel",
      "priceRange": "€€€",
      "score": 3,
      "mapsUrl": "https://maps.google.com/?q=10.48413,-66.9366394",
      "lat": 10.48413,
      "lng": -66.9366394,
      "halalFriendly": false,
      "bookingUrl": "http://www.disponible.com.ve/",
      "source": "osm"
    },
    {
      "nom": "Hotel Niteroy",
      "categorie": "Hôtel",
      "priceRange": "€€",
      "mapsUrl": "https://maps.google.com/?q=10.5112919,-66.916373",
      "lat": 10.5112919,
      "lng": -66.916373,
      "halalFriendly": false,
      "bookingUrl": "https://maps.google.com/?q=10.5112919,-66.916373",
      "source": "osm"
    },
    {
      "nom": "Hotel Grand Galaxy",
      "categorie": "Hôtel",
      "priceRange": "€€",
      "mapsUrl": "https://maps.google.com/?q=10.5116637,-66.9157027",
      "lat": 10.5116637,
      "lng": -66.9157027,
      "halalFriendly": false,
      "bookingUrl": "https://maps.google.com/?q=10.5116637,-66.9157027",
      "source": "osm"
    },
    {
      "nom": "Hotel Montpark",
      "categorie": "Hôtel",
      "priceRange": "€€",
      "mapsUrl": "https://maps.google.com/?q=10.4896482,-66.8709365",
      "lat": 10.4896482,
      "lng": -66.8709365,
      "halalFriendly": false,
      "bookingUrl": "https://maps.google.com/?q=10.4896482,-66.8709365",
      "source": "osm"
    },
    {
      "nom": "Hotel Plaza Palace",
      "categorie": "Hôtel",
      "priceRange": "€€",
      "mapsUrl": "https://maps.google.com/?q=10.4953495,-66.8731358",
      "lat": 10.4953495,
      "lng": -66.8731358,
      "halalFriendly": false,
      "bookingUrl": "https://maps.google.com/?q=10.4953495,-66.8731358",
      "source": "osm"
    },
    {
      "nom": "Hotel Baralt",
      "categorie": "Hôtel",
      "priceRange": "€€",
      "mapsUrl": "https://maps.google.com/?q=10.511648,-66.9163354",
      "lat": 10.511648,
      "lng": -66.9163354,
      "halalFriendly": false,
      "bookingUrl": "https://maps.google.com/?q=10.511648,-66.9163354",
      "source": "osm"
    },
    {
      "nom": "Hotel Madrid",
      "categorie": "Hôtel",
      "priceRange": "€€",
      "mapsUrl": "https://maps.google.com/?q=10.4893046,-66.8707215",
      "lat": 10.4893046,
      "lng": -66.8707215,
      "halalFriendly": false,
      "bookingUrl": "https://maps.google.com/?q=10.4893046,-66.8707215",
      "source": "osm"
    },
    {
      "nom": "Hotel Savoy",
      "categorie": "Hôtel",
      "priceRange": "€€",
      "mapsUrl": "https://maps.google.com/?q=10.4933667,-66.8716885",
      "lat": 10.4933667,
      "lng": -66.8716885,
      "halalFriendly": false,
      "bookingUrl": "https://maps.google.com/?q=10.4933667,-66.8716885",
      "source": "osm"
    },
    {
      "nom": "Hotel Las Américas",
      "categorie": "Hôtel",
      "priceRange": "€€€€",
      "score": 4,
      "mapsUrl": "https://maps.google.com/?q=10.4901487,-66.8705314",
      "lat": 10.4901487,
      "lng": -66.8705314,
      "halalFriendly": false,
      "bookingUrl": "https://maps.google.com/?q=10.4901487,-66.8705314",
      "source": "osm"
    },
    {
      "nom": "Hotel Villa Verde",
      "categorie": "Hôtel",
      "priceRange": "€€",
      "mapsUrl": "https://maps.google.com/?q=10.4928811,-66.871446",
      "lat": 10.4928811,
      "lng": -66.871446,
      "halalFriendly": false,
      "bookingUrl": "https://maps.google.com/?q=10.4928811,-66.871446",
      "source": "osm"
    },
    {
      "nom": "Hotel Miriam",
      "categorie": "Hôtel",
      "priceRange": "€€",
      "mapsUrl": "https://maps.google.com/?q=10.488922,-66.869984",
      "lat": 10.488922,
      "lng": -66.869984,
      "halalFriendly": false,
      "bookingUrl": "https://maps.google.com/?q=10.488922,-66.869984",
      "source": "osm"
    },
    {
      "nom": "Hotel Doral",
      "categorie": "Hôtel",
      "priceRange": "€€",
      "mapsUrl": "https://maps.google.com/?q=10.4942023,-66.8716794",
      "lat": 10.4942023,
      "lng": -66.8716794,
      "halalFriendly": false,
      "bookingUrl": "https://maps.google.com/?q=10.4942023,-66.8716794",
      "source": "osm"
    },
    {
      "nom": "Hotel Lexington Suites",
      "categorie": "Hôtel",
      "priceRange": "€€€",
      "score": 3,
      "mapsUrl": "https://maps.google.com/?q=10.4819318,-66.9383773",
      "lat": 10.4819318,
      "lng": -66.9383773,
      "halalFriendly": false,
      "bookingUrl": "http://www.disponible.com.ve/",
      "source": "osm"
    },
    {
      "nom": "Hotel Edú",
      "categorie": "Hôtel",
      "priceRange": "€€",
      "mapsUrl": "https://maps.google.com/?q=10.4882873,-66.8696812",
      "lat": 10.4882873,
      "lng": -66.8696812,
      "halalFriendly": false,
      "bookingUrl": "https://maps.google.com/?q=10.4882873,-66.8696812",
      "source": "osm"
    },
    {
      "nom": "Hotel Cristina Suites",
      "categorie": "Hôtel",
      "priceRange": "€€",
      "mapsUrl": "https://maps.google.com/?q=10.4895579,-66.8699446",
      "lat": 10.4895579,
      "lng": -66.8699446,
      "halalFriendly": false,
      "bookingUrl": "https://maps.google.com/?q=10.4895579,-66.8699446",
      "source": "osm"
    },
    {
      "nom": "Hotel Cumberland Caracas",
      "categorie": "Hôtel",
      "priceRange": "€€€€",
      "score": 4,
      "mapsUrl": "https://maps.google.com/?q=10.4939756,-66.8714272",
      "lat": 10.4939756,
      "lng": -66.8714272,
      "halalFriendly": false,
      "bookingUrl": "https://maps.google.com/?q=10.4939756,-66.8714272",
      "source": "osm"
    },
    {
      "nom": "Hotel Villa del Este",
      "categorie": "Hôtel",
      "priceRange": "€€",
      "mapsUrl": "https://maps.google.com/?q=10.4921816,-66.8706371",
      "lat": 10.4921816,
      "lng": -66.8706371,
      "halalFriendly": false,
      "bookingUrl": "https://maps.google.com/?q=10.4921816,-66.8706371",
      "source": "osm"
    },
    {
      "nom": "Hotel 2001",
      "categorie": "Hôtel",
      "priceRange": "€€",
      "mapsUrl": "https://maps.google.com/?q=10.4826343,-66.9386088",
      "lat": 10.4826343,
      "lng": -66.9386088,
      "halalFriendly": false,
      "bookingUrl": "https://maps.google.com/?q=10.4826343,-66.9386088",
      "source": "osm"
    },
    {
      "nom": "Hotel Broadway",
      "categorie": "Hôtel",
      "priceRange": "€€",
      "mapsUrl": "https://maps.google.com/?q=10.4900908,-66.869724",
      "lat": 10.4900908,
      "lng": -66.869724,
      "halalFriendly": false,
      "bookingUrl": "https://maps.google.com/?q=10.4900908,-66.869724",
      "source": "osm"
    }
  ],
  "mosqueesPrincipales": [
    {
      "id": "m301800960",
      "nom": "Mezquita Ibrahim Al-lbrahim",
      "type": "Mosquée",
      "adresse": "Bulevar Amador Bendayán, Caracas",
      "description": "Lieu de prière (OpenStreetMap).",
      "mapsUrl": "https://maps.google.com/?q=10.5018365,-66.8954411",
      "lat": 10.5018365,
      "lng": -66.8954411,
      "source": "osm"
    }
  ],
  "activites": [
    {
      "id": "a226645621",
      "nom": "Parque Italo Americano",
      "categorie": "theme park",
      "description": "",
      "prix": "",
      "duree": "",
      "mapsUrl": "https://maps.google.com/?q=10.4764895,-66.8972433",
      "lat": 10.4764895,
      "lng": -66.8972433,
      "source": "osm"
    },
    {
      "id": "a229030887",
      "nom": "Bimbolandia",
      "categorie": "theme park",
      "description": "",
      "prix": "",
      "duree": "",
      "mapsUrl": "https://maps.google.com/?q=10.4815087,-66.8951843",
      "lat": 10.4815087,
      "lng": -66.8951843,
      "source": "osm"
    },
    {
      "id": "a810049446",
      "nom": "Monolito del Los Próceres",
      "categorie": "memorial",
      "description": "",
      "prix": "",
      "duree": "",
      "mapsUrl": "https://maps.google.com/?q=10.4723509,-66.8969695",
      "lat": 10.4723509,
      "lng": -66.8969695,
      "source": "osm"
    },
    {
      "id": "a146011679",
      "nom": "Monolitos de Los Próceres",
      "categorie": "monument",
      "description": "",
      "prix": "",
      "duree": "",
      "mapsUrl": "https://maps.google.com/?q=10.467611,-66.9006921",
      "lat": 10.467611,
      "lng": -66.9006921,
      "source": "osm"
    },
    {
      "id": "a5280175114",
      "nom": "El Dinamismo en 30 grados",
      "categorie": "artwork",
      "description": "",
      "prix": "",
      "duree": "",
      "mapsUrl": "https://maps.google.com/?q=10.490122,-66.8910939",
      "lat": 10.490122,
      "lng": -66.8910939,
      "source": "osm"
    },
    {
      "id": "a4262432790",
      "nom": "Museo Histórico de la Guardia Nacional",
      "categorie": "museum",
      "description": "",
      "prix": "",
      "duree": "",
      "mapsUrl": "https://maps.google.com/?q=10.4907694,-66.916061",
      "lat": 10.4907694,
      "lng": -66.916061,
      "source": "osm"
    },
    {
      "id": "a5280175110",
      "nom": "Pastor de Nubes",
      "categorie": "artwork",
      "description": "",
      "prix": "",
      "duree": "",
      "mapsUrl": "https://maps.google.com/?q=10.4909324,-66.8911227",
      "lat": 10.4909324,
      "lng": -66.8911227,
      "source": "osm"
    },
    {
      "id": "a5280175113",
      "nom": "Maternidad",
      "categorie": "artwork",
      "description": "",
      "prix": "",
      "duree": "",
      "mapsUrl": "https://maps.google.com/?q=10.4905964,-66.8902096",
      "lat": 10.4905964,
      "lng": -66.8902096,
      "source": "osm"
    },
    {
      "id": "a5280175111",
      "nom": "L'Amphion",
      "categorie": "artwork",
      "description": "",
      "prix": "",
      "duree": "",
      "mapsUrl": "https://maps.google.com/?q=10.4913233,-66.8906",
      "lat": 10.4913233,
      "lng": -66.8906,
      "source": "osm"
    },
    {
      "id": "a5280175112",
      "nom": "Escultura \"La cultura\"",
      "categorie": "artwork",
      "description": "",
      "prix": "",
      "duree": "",
      "mapsUrl": "https://maps.google.com/?q=10.4923956,-66.8909815",
      "lat": 10.4923956,
      "lng": -66.8909815,
      "source": "osm"
    },
    {
      "id": "a2581530684",
      "nom": "Torre del Reloj",
      "categorie": "artwork",
      "description": "",
      "prix": "",
      "duree": "",
      "mapsUrl": "https://maps.google.com/?q=10.4924915,-66.8903506",
      "lat": 10.4924915,
      "lng": -66.8903506,
      "source": "osm"
    },
    {
      "id": "a1193088754",
      "nom": "Museo de Arte Contemporáneo de Caracas Armando Reverón",
      "categorie": "museum",
      "description": "",
      "prix": "",
      "duree": "",
      "mapsUrl": "https://maps.google.com/?q=10.4985259,-66.8996398",
      "lat": 10.4985259,
      "lng": -66.8996398,
      "source": "osm"
    },
    {
      "id": "a601162039",
      "nom": "Museo de los Niños",
      "categorie": "museum",
      "description": "",
      "prix": "",
      "duree": "",
      "mapsUrl": "https://maps.google.com/?q=10.499127,-66.9024496",
      "lat": 10.499127,
      "lng": -66.9024496,
      "source": "osm"
    },
    {
      "id": "a7922871799",
      "nom": "El Atleta",
      "categorie": "artwork",
      "description": "",
      "prix": "",
      "duree": "",
      "mapsUrl": "https://maps.google.com/?q=10.4905198,-66.8864152",
      "lat": 10.4905198,
      "lng": -66.8864152,
      "source": "osm"
    },
    {
      "id": "a230383776",
      "nom": "Casa Colonial de la Familia Bolívar",
      "categorie": "museum",
      "description": "",
      "prix": "",
      "duree": "",
      "mapsUrl": "https://maps.google.com/?q=10.4953517,-66.9169279",
      "lat": 10.4953517,
      "lng": -66.9169279,
      "source": "osm"
    },
    {
      "id": "a103256255",
      "nom": "Museo Carlos Cruz Díez",
      "categorie": "museum",
      "description": "",
      "prix": "",
      "duree": "",
      "mapsUrl": "https://maps.google.com/?q=10.5003337,-66.907752",
      "lat": 10.5003337,
      "lng": -66.907752,
      "source": "osm"
    },
    {
      "id": "a103256251",
      "nom": "Galería de Arte Nacional",
      "categorie": "museum",
      "description": "",
      "prix": "",
      "duree": "",
      "mapsUrl": "https://maps.google.com/?q=10.5007561,-66.9026451",
      "lat": 10.5007561,
      "lng": -66.9026451,
      "source": "osm"
    },
    {
      "id": "a226447675",
      "nom": "Museo de Arquitectura",
      "categorie": "museum",
      "description": "",
      "prix": "",
      "duree": "",
      "mapsUrl": "https://maps.google.com/?q=10.5005127,-66.9084582",
      "lat": 10.5005127,
      "lng": -66.9084582,
      "source": "osm"
    },
    {
      "id": "a253794052",
      "nom": "Museo de Bellas Artes de Caracas",
      "categorie": "museum",
      "description": "",
      "prix": "",
      "duree": "",
      "mapsUrl": "https://maps.google.com/?q=10.5003412,-66.8962635",
      "lat": 10.5003412,
      "lng": -66.8962635,
      "source": "osm"
    },
    {
      "id": "a13659600868",
      "nom": "El Efebo de Marathon",
      "categorie": "artwork",
      "description": "",
      "prix": "",
      "duree": "",
      "mapsUrl": "https://maps.google.com/?q=10.5001627,-66.8955396",
      "lat": 10.5001627,
      "lng": -66.8955396,
      "source": "osm"
    },
    {
      "id": "a13659595883",
      "nom": "Elefante Dorado",
      "categorie": "artwork",
      "description": "",
      "prix": "",
      "duree": "",
      "mapsUrl": "https://maps.google.com/?q=10.5001055,-66.8950867",
      "lat": 10.5001055,
      "lng": -66.8950867,
      "source": "osm"
    },
    {
      "id": "a12945561380",
      "nom": "Andrés Eloy Blanco",
      "categorie": "memorial",
      "description": "",
      "prix": "",
      "duree": "",
      "mapsUrl": "https://maps.google.com/?q=10.5017614,-66.8970957",
      "lat": 10.5017614,
      "lng": -66.8970957,
      "source": "osm"
    },
    {
      "id": "a7917378253",
      "nom": "Estatua de María Lionza",
      "categorie": "artwork",
      "description": "",
      "prix": "",
      "duree": "",
      "mapsUrl": "https://maps.google.com/?q=10.4930089,-66.8846892",
      "lat": 10.4930089,
      "lng": -66.8846892,
      "source": "osm"
    },
    {
      "id": "a2415410946",
      "nom": "Abra Solar",
      "categorie": "artwork",
      "description": "",
      "prix": "",
      "duree": "",
      "mapsUrl": "https://maps.google.com/?q=10.4976648,-66.8870648",
      "lat": 10.4976648,
      "lng": -66.8870648,
      "source": "osm"
    },
    {
      "id": "a2258881429",
      "nom": "Museo Boliviano",
      "categorie": "museum",
      "description": "",
      "prix": "",
      "duree": "",
      "mapsUrl": "https://maps.google.com/?q=10.5034048,-66.915736",
      "lat": 10.5034048,
      "lng": -66.915736,
      "source": "osm"
    },
    {
      "id": "a2315900666",
      "nom": "Reloj de Sol de San Jacinto",
      "categorie": "artwork",
      "description": "",
      "prix": "",
      "duree": "",
      "mapsUrl": "https://maps.google.com/?q=10.5048522,-66.9128246",
      "lat": 10.5048522,
      "lng": -66.9128246,
      "source": "osm"
    },
    {
      "id": "a279811731",
      "nom": "Casa Natal del Libertador",
      "categorie": "museum",
      "description": "",
      "prix": "",
      "duree": "",
      "mapsUrl": "https://maps.google.com/?q=10.5046825,-66.913533",
      "lat": 10.5046825,
      "lng": -66.913533,
      "source": "osm"
    },
    {
      "id": "a1364825183",
      "nom": "Casa del Vínculo y del Retorno",
      "categorie": "archaeological site",
      "description": "",
      "prix": "",
      "duree": "",
      "mapsUrl": "https://maps.google.com/?q=10.5053472,-66.9140718",
      "lat": 10.5053472,
      "lng": -66.9140718,
      "source": "osm"
    },
    {
      "id": "a277905408",
      "nom": "Museo Sacro de Caracas",
      "categorie": "museum",
      "description": "",
      "prix": "",
      "duree": "",
      "mapsUrl": "https://maps.google.com/?q=10.5057659,-66.9139035",
      "lat": 10.5057659,
      "lng": -66.9139035,
      "source": "osm"
    },
    {
      "id": "a295080405",
      "nom": "Estatua del Libertador",
      "categorie": "artwork",
      "description": "",
      "prix": "",
      "duree": "",
      "mapsUrl": "https://maps.google.com/?q=10.505996,-66.9146158",
      "lat": 10.505996,
      "lng": -66.9146158,
      "source": "osm"
    },
    {
      "id": "a13950238649",
      "nom": "Fidel Castro",
      "categorie": "memorial",
      "description": "",
      "prix": "",
      "duree": "",
      "mapsUrl": "https://maps.google.com/?q=10.5035341,-66.9193574",
      "lat": 10.5035341,
      "lng": -66.9193574,
      "source": "osm"
    },
    {
      "id": "a207411419",
      "nom": "Casa Amarilla Antonio José de Sucre",
      "categorie": "museum",
      "description": "",
      "prix": "",
      "duree": "",
      "mapsUrl": "https://maps.google.com/?q=10.5063662,-66.9153973",
      "lat": 10.5063662,
      "lng": -66.9153973,
      "source": "osm"
    },
    {
      "id": "a222642367",
      "nom": "Casa de Estudios Históricos Lorenzo Mendoza",
      "categorie": "museum",
      "description": "",
      "prix": "",
      "duree": "",
      "mapsUrl": "https://maps.google.com/?q=10.5083017,-66.9132876",
      "lat": 10.5083017,
      "lng": -66.9132876,
      "source": "osm"
    },
    {
      "id": "a279828447",
      "nom": "Casa de las Primeras Letras Simón Rodríguez",
      "categorie": "museum",
      "description": "",
      "prix": "",
      "duree": "",
      "mapsUrl": "https://maps.google.com/?q=10.5081872,-66.9139803",
      "lat": 10.5081872,
      "lng": -66.9139803,
      "source": "osm"
    },
    {
      "id": "a2163290551",
      "nom": "Escaleras de El Calvario",
      "categorie": "attraction",
      "description": "",
      "prix": "",
      "duree": "",
      "mapsUrl": "https://maps.google.com/?q=10.50514,-66.9201123",
      "lat": 10.50514,
      "lng": -66.9201123,
      "source": "osm"
    },
    {
      "id": "a222642377",
      "nom": "Casa de Martí",
      "categorie": "museum",
      "description": "",
      "prix": "",
      "duree": "",
      "mapsUrl": "https://maps.google.com/?q=10.5083144,-66.9139622",
      "lat": 10.5083144,
      "lng": -66.9139622,
      "source": "osm"
    },
    {
      "id": "a11018669081",
      "nom": "Mafalda",
      "categorie": "artwork",
      "description": "",
      "prix": "",
      "duree": "",
      "mapsUrl": "https://maps.google.com/?q=10.4862107,-66.8729336",
      "lat": 10.4862107,
      "lng": -66.8729336,
      "source": "osm"
    },
    {
      "id": "a2303138554",
      "nom": "Arco de la Federación",
      "categorie": "monument",
      "description": "",
      "prix": "",
      "duree": "",
      "mapsUrl": "https://maps.google.com/?q=10.5060759,-66.921008",
      "lat": 10.5060759,
      "lng": -66.921008,
      "source": "osm"
    },
    {
      "id": "a1369223322",
      "nom": "Casa Nacional de las Letras \"Andrés Bello\"",
      "categorie": "museum",
      "description": "",
      "prix": "",
      "duree": "",
      "mapsUrl": "https://maps.google.com/?q=10.5104967,-66.9144918",
      "lat": 10.5104967,
      "lng": -66.9144918,
      "source": "osm"
    },
    {
      "id": "a12269516598",
      "nom": "Museo de Arte Colonial de Caracas",
      "categorie": "museum",
      "description": "",
      "prix": "",
      "duree": "",
      "mapsUrl": "https://maps.google.com/?q=10.5120683,-66.8992322",
      "lat": 10.5120683,
      "lng": -66.8992322,
      "source": "osm"
    },
    {
      "id": "a451195292",
      "nom": "Casa Teresa de La Parra",
      "categorie": "museum",
      "description": "",
      "prix": "",
      "duree": "",
      "mapsUrl": "https://maps.google.com/?q=10.5130642,-66.9123395",
      "lat": 10.5130642,
      "lng": -66.9123395,
      "source": "osm"
    },
    {
      "id": "a253790141",
      "nom": "Panteón Nacional",
      "categorie": "museum",
      "description": "",
      "prix": "",
      "duree": "",
      "mapsUrl": "https://maps.google.com/?q=10.5131519,-66.9125636",
      "lat": 10.5131519,
      "lng": -66.9125636,
      "source": "osm"
    },
    {
      "id": "a8446522878",
      "nom": "Museo Postal y de la Telegrafía",
      "categorie": "museum",
      "description": "",
      "prix": "",
      "duree": "",
      "mapsUrl": "https://maps.google.com/?q=10.4976759,-66.9332122",
      "lat": 10.4976759,
      "lng": -66.9332122,
      "source": "osm"
    },
    {
      "id": "a9284567908",
      "nom": "Columna de Luz",
      "categorie": "artwork",
      "description": "",
      "prix": "",
      "duree": "",
      "mapsUrl": "https://maps.google.com/?q=10.5048833,-66.9277346",
      "lat": 10.5048833,
      "lng": -66.9277346,
      "source": "osm"
    },
    {
      "id": "a366320332",
      "nom": "Mausoleo al Libertador",
      "categorie": "museum",
      "description": "",
      "prix": "",
      "duree": "",
      "mapsUrl": "https://maps.google.com/?q=10.5137165,-66.9124319",
      "lat": 10.5137165,
      "lng": -66.9124319,
      "source": "osm"
    },
    {
      "id": "a216503320",
      "nom": "Parque Zoológico El Pinar",
      "categorie": "zoo",
      "description": "",
      "prix": "",
      "duree": "",
      "mapsUrl": "https://maps.google.com/?q=10.4806649,-66.9389803",
      "lat": 10.4806649,
      "lng": -66.9389803,
      "source": "osm"
    },
    {
      "id": "a3463460211",
      "nom": "León de Caracas",
      "categorie": "artwork",
      "description": "",
      "prix": "",
      "duree": "",
      "mapsUrl": "https://maps.google.com/?q=10.4502036,-66.9209829",
      "lat": 10.4502036,
      "lng": -66.9209829,
      "source": "osm"
    },
    {
      "id": "a264581659",
      "nom": "Museo Histórico Militar",
      "categorie": "museum",
      "description": "",
      "prix": "",
      "duree": "",
      "mapsUrl": "https://maps.google.com/?q=10.5072574,-66.9267116",
      "lat": 10.5072574,
      "lng": -66.9267116,
      "source": "osm"
    },
    {
      "id": "a237757654",
      "nom": "Cuartel San Carlos",
      "categorie": "museum",
      "description": "",
      "prix": "",
      "duree": "",
      "mapsUrl": "https://maps.google.com/?q=10.5144215,-66.9135753",
      "lat": 10.5144215,
      "lng": -66.9135753,
      "source": "osm"
    },
    {
      "id": "a1040968702",
      "nom": "Casa Museo del Doctor José Gregorio Hernández",
      "categorie": "museum",
      "description": "",
      "prix": "",
      "duree": "",
      "mapsUrl": "https://maps.google.com/?q=10.5136453,-66.9166872",
      "lat": 10.5136453,
      "lng": -66.9166872,
      "source": "osm"
    },
    {
      "id": "a1193003963",
      "nom": "MetroPark",
      "categorie": "theme park",
      "description": "",
      "prix": "",
      "duree": "",
      "mapsUrl": "https://maps.google.com/?q=10.4902668,-66.8668273",
      "lat": 10.4902668,
      "lng": -66.8668273,
      "source": "osm"
    },
    {
      "id": "a7248402348",
      "nom": "Galería Freites",
      "categorie": "gallery",
      "description": "",
      "prix": "",
      "duree": "",
      "mapsUrl": "https://maps.google.com/?q=10.4836596,-66.8653459",
      "lat": 10.4836596,
      "lng": -66.8653459,
      "source": "osm"
    },
    {
      "id": "a7248132012",
      "nom": "Beatríz Gil Galería",
      "categorie": "gallery",
      "description": "",
      "prix": "",
      "duree": "",
      "mapsUrl": "https://maps.google.com/?q=10.4843262,-66.8653787",
      "lat": 10.4843262,
      "lng": -66.8653787,
      "source": "osm"
    },
    {
      "id": "a7097024130",
      "nom": "Nuestra Señora del Pilar",
      "categorie": "artwork",
      "description": "",
      "prix": "",
      "duree": "",
      "mapsUrl": "https://maps.google.com/?q=10.4637261,-66.868366",
      "lat": 10.4637261,
      "lng": -66.868366,
      "source": "osm"
    },
    {
      "id": "a2985091596",
      "nom": "Galerías Alcalá",
      "categorie": "gallery",
      "description": "",
      "prix": "",
      "duree": "",
      "mapsUrl": "https://maps.google.com/?q=10.4835702,-66.8625095",
      "lat": 10.4835702,
      "lng": -66.8625095,
      "source": "osm"
    },
    {
      "id": "a11350547882",
      "nom": "1eu008",
      "categorie": "artwork",
      "description": "",
      "prix": "",
      "duree": "",
      "mapsUrl": "https://maps.google.com/?q=10.4819395,-66.8611673",
      "lat": 10.4819395,
      "lng": -66.8611673,
      "source": "osm"
    },
    {
      "id": "a12919667226",
      "nom": "Brick Canvas Dr. JG.",
      "categorie": "artwork",
      "description": "",
      "prix": "",
      "duree": "",
      "mapsUrl": "https://maps.google.com/?q=10.4794255,-66.8610502",
      "lat": 10.4794255,
      "lng": -66.8610502,
      "source": "osm"
    },
    {
      "id": "a2187673065",
      "nom": "La India",
      "categorie": "artwork",
      "description": "",
      "prix": "",
      "duree": "",
      "mapsUrl": "https://maps.google.com/?q=10.475313,-66.9459522",
      "lat": 10.475313,
      "lng": -66.9459522,
      "source": "osm"
    },
    {
      "id": "a7967111043",
      "nom": "Concordia",
      "categorie": "artwork",
      "description": "",
      "prix": "",
      "duree": "",
      "mapsUrl": "https://maps.google.com/?q=10.4944995,-66.8613736",
      "lat": 10.4944995,
      "lng": -66.8613736,
      "source": "osm"
    },
    {
      "id": "a5139555770",
      "nom": "Puerta de Caracas",
      "categorie": "monument",
      "description": "",
      "prix": "",
      "duree": "",
      "mapsUrl": "https://maps.google.com/?q=10.5221859,-66.9211397",
      "lat": 10.5221859,
      "lng": -66.9211397,
      "source": "osm"
    },
    {
      "id": "a3105400762",
      "nom": "Mirador Boyacá",
      "categorie": "viewpoint",
      "description": "",
      "prix": "",
      "duree": "",
      "mapsUrl": "https://maps.google.com/?q=10.5130271,-66.8696015",
      "lat": 10.5130271,
      "lng": -66.8696015,
      "source": "osm"
    },
    {
      "id": "a2984619131",
      "nom": "Fragmentos de Lluvia para Caracas",
      "categorie": "artwork",
      "description": "",
      "prix": "",
      "duree": "",
      "mapsUrl": "https://maps.google.com/?q=10.4854831,-66.8564597",
      "lat": 10.4854831,
      "lng": -66.8564597,
      "source": "osm"
    },
    {
      "id": "a220776754",
      "nom": "Museo Jacobo Borges",
      "categorie": "museum",
      "description": "",
      "prix": "",
      "duree": "",
      "mapsUrl": "https://maps.google.com/?q=10.5146844,-66.938362",
      "lat": 10.5146844,
      "lng": -66.938362,
      "source": "osm"
    },
    {
      "id": "a7123067958",
      "nom": "Monumento Bolívar y Martí",
      "categorie": "memorial",
      "description": "",
      "prix": "",
      "duree": "",
      "mapsUrl": "https://maps.google.com/?q=10.5266833,-66.9214311",
      "lat": 10.5266833,
      "lng": -66.9214311,
      "source": "osm"
    },
    {
      "id": "a5692972712",
      "nom": "Mirador El Tubo",
      "categorie": "viewpoint",
      "description": "",
      "prix": "",
      "duree": "",
      "mapsUrl": "https://maps.google.com/?q=10.468575,-66.9523847",
      "lat": 10.468575,
      "lng": -66.9523847,
      "source": "osm"
    },
    {
      "id": "a6611079219",
      "nom": "Diverxity",
      "categorie": "theme park",
      "description": "",
      "prix": "",
      "duree": "",
      "mapsUrl": "https://maps.google.com/?q=10.4890514,-66.8539551",
      "lat": 10.4890514,
      "lng": -66.8539551,
      "source": "osm"
    },
    {
      "id": "a8878891961",
      "nom": "Mirador Anauco",
      "categorie": "viewpoint",
      "description": "",
      "prix": "",
      "duree": "",
      "mapsUrl": "https://maps.google.com/?q=10.532213,-66.9018513",
      "lat": 10.532213,
      "lng": -66.9018513,
      "source": "osm"
    },
    {
      "id": "a1328421955",
      "nom": "Monumento a las Víctimas del Genocidio Armenio",
      "categorie": "memorial",
      "description": "",
      "prix": "",
      "duree": "",
      "mapsUrl": "https://maps.google.com/?q=10.4843641,-66.850197",
      "lat": 10.4843641,
      "lng": -66.850197,
      "source": "osm"
    },
    {
      "id": "a191586173",
      "nom": "Museo de Artes Visuales Alejandro Otero",
      "categorie": "museum",
      "description": "",
      "prix": "",
      "duree": "",
      "mapsUrl": "https://maps.google.com/?q=10.4335886,-66.9283071",
      "lat": 10.4335886,
      "lng": -66.9283071,
      "source": "osm"
    },
    {
      "id": "a12431836441",
      "nom": "Cacique Baruta",
      "categorie": "artwork",
      "description": "",
      "prix": "",
      "duree": "",
      "mapsUrl": "https://maps.google.com/?q=10.4355216,-66.8739682",
      "lat": 10.4355216,
      "lng": -66.8739682,
      "source": "osm"
    },
    {
      "id": "a1004004239",
      "nom": "Diversiones Propatria, C.A.",
      "categorie": "theme park",
      "description": "",
      "prix": "",
      "duree": "",
      "mapsUrl": "https://maps.google.com/?q=10.5041345,-66.9528033",
      "lat": 10.5041345,
      "lng": -66.9528033,
      "source": "osm"
    },
    {
      "id": "a431206168",
      "nom": "Museo del Pueblo de Nuestra Señora del Rosario de Baruta",
      "categorie": "museum",
      "description": "",
      "prix": "",
      "duree": "",
      "mapsUrl": "https://maps.google.com/?q=10.4351616,-66.8742596",
      "lat": 10.4351616,
      "lng": -66.8742596,
      "source": "osm"
    },
    {
      "id": "a3617577025",
      "nom": "Apeliotes",
      "categorie": "artwork",
      "description": "",
      "prix": "",
      "duree": "",
      "mapsUrl": "https://maps.google.com/?q=10.4886291,-66.8484643",
      "lat": 10.4886291,
      "lng": -66.8484643,
      "source": "osm"
    },
    {
      "id": "a7257972997",
      "nom": "Yo Amo Chacao",
      "categorie": "artwork",
      "description": "",
      "prix": "",
      "duree": "",
      "mapsUrl": "https://maps.google.com/?q=10.4961609,-66.8488865",
      "lat": 10.4961609,
      "lng": -66.8488865,
      "source": "osm"
    },
    {
      "id": "a1221023817",
      "nom": "Obelisco de la Plaza Francia",
      "categorie": "artwork",
      "description": "",
      "prix": "",
      "duree": "",
      "mapsUrl": "https://maps.google.com/?q=10.4965344,-66.8489082",
      "lat": 10.4965344,
      "lng": -66.8489082,
      "source": "osm"
    },
    {
      "id": "a9263736855",
      "nom": "Busto de Lisandro Alvarado",
      "categorie": "artwork",
      "description": "",
      "prix": "",
      "duree": "",
      "mapsUrl": "https://maps.google.com/?q=10.5038759,-66.9568989",
      "lat": 10.5038759,
      "lng": -66.9568989,
      "source": "osm"
    },
    {
      "id": "a13609715002",
      "nom": "Partidor",
      "categorie": "viewpoint",
      "description": "",
      "prix": "",
      "duree": "",
      "mapsUrl": "https://maps.google.com/?q=10.420195,-66.8914725",
      "lat": 10.420195,
      "lng": -66.8914725,
      "source": "osm"
    },
    {
      "id": "a5252310784",
      "nom": "Flamboyant Galería",
      "categorie": "gallery",
      "description": "",
      "prix": "",
      "duree": "",
      "mapsUrl": "https://maps.google.com/?q=10.5009801,-66.8441033",
      "lat": 10.5009801,
      "lng": -66.8441033,
      "source": "osm"
    },
    {
      "id": "a572725729",
      "nom": "Hacienda Montalbán",
      "categorie": "ruins",
      "description": "",
      "prix": "",
      "duree": "",
      "mapsUrl": "https://maps.google.com/?q=10.4674071,-66.9669444",
      "lat": 10.4674071,
      "lng": -66.9669444,
      "source": "osm"
    },
    {
      "id": "a2640259786",
      "nom": "El Banquito",
      "categorie": "viewpoint",
      "description": "",
      "prix": "",
      "duree": "",
      "mapsUrl": "https://maps.google.com/?q=10.5248045,-66.8568686",
      "lat": 10.5248045,
      "lng": -66.8568686,
      "source": "osm"
    },
    {
      "id": "a791044858",
      "nom": "La Esfera de Soto",
      "categorie": "artwork",
      "description": "",
      "prix": "",
      "duree": "",
      "mapsUrl": "https://maps.google.com/?q=10.4873748,-66.8388373",
      "lat": 10.4873748,
      "lng": -66.8388373,
      "source": "osm"
    },
    {
      "id": "a7394810772",
      "nom": "Transeúnte en el Parque",
      "categorie": "artwork",
      "description": "",
      "prix": "",
      "duree": "",
      "mapsUrl": "https://maps.google.com/?q=10.4951067,-66.8393339",
      "lat": 10.4951067,
      "lng": -66.8393339,
      "source": "osm"
    },
    {
      "id": "a278930857",
      "nom": "Planetario Humboldt",
      "categorie": "museum",
      "description": "",
      "prix": "",
      "duree": "",
      "mapsUrl": "https://maps.google.com/?q=10.4927059,-66.8375616",
      "lat": 10.4927059,
      "lng": -66.8375616,
      "source": "osm"
    },
    {
      "id": "a1489188696",
      "nom": "Brincaeste",
      "categorie": "theme park",
      "description": "",
      "prix": "",
      "duree": "",
      "mapsUrl": "https://maps.google.com/?q=10.4914652,-66.8363201",
      "lat": 10.4914652,
      "lng": -66.8363201,
      "source": "osm"
    },
    {
      "id": "a13730339062",
      "nom": "El Principito",
      "categorie": "artwork",
      "description": "",
      "prix": "",
      "duree": "",
      "mapsUrl": "https://maps.google.com/?q=10.4585493,-66.8381803",
      "lat": 10.4585493,
      "lng": -66.8381803,
      "source": "osm"
    },
    {
      "id": "a9757862104",
      "nom": "La Casona Cultural Aquiles Nazoa",
      "categorie": "gallery",
      "description": "",
      "prix": "",
      "duree": "",
      "mapsUrl": "https://maps.google.com/?q=10.4870602,-66.8342977",
      "lat": 10.4870602,
      "lng": -66.8342977,
      "source": "osm"
    },
    {
      "id": "a243228014",
      "nom": "Museo Nacional del Transporte",
      "categorie": "museum",
      "description": "",
      "prix": "",
      "duree": "",
      "mapsUrl": "https://maps.google.com/?q=10.4930643,-66.8347616",
      "lat": 10.4930643,
      "lng": -66.8347616,
      "source": "osm"
    },
    {
      "id": "a8572308674",
      "nom": "Estatua de Leoncío Martínez",
      "categorie": "artwork",
      "description": "",
      "prix": "",
      "duree": "",
      "mapsUrl": "https://maps.google.com/?q=10.4924194,-66.8328837",
      "lat": 10.4924194,
      "lng": -66.8328837,
      "source": "osm"
    },
    {
      "id": "a13654020601",
      "nom": "Art Killers Gallery",
      "categorie": "museum",
      "description": "",
      "prix": "",
      "duree": "",
      "mapsUrl": "https://maps.google.com/?q=10.5086192,-66.8365286",
      "lat": 10.5086192,
      "lng": -66.8365286,
      "source": "osm"
    },
    {
      "id": "a6373867936",
      "nom": "Estatua de Andrés Bello",
      "categorie": "artwork",
      "description": "",
      "prix": "",
      "duree": "",
      "mapsUrl": "https://maps.google.com/?q=10.4645349,-66.9767738",
      "lat": 10.4645349,
      "lng": -66.9767738,
      "source": "osm"
    },
    {
      "id": "a12494003708",
      "nom": "José Gregorio",
      "categorie": "artwork",
      "description": "",
      "prix": "",
      "duree": "",
      "mapsUrl": "https://maps.google.com/?q=10.4396967,-66.8406219",
      "lat": 10.4396967,
      "lng": -66.8406219,
      "source": "osm"
    },
    {
      "id": "a13482170818",
      "nom": "Cabinet Gallery",
      "categorie": "gallery",
      "description": "",
      "prix": "",
      "duree": "",
      "mapsUrl": "https://maps.google.com/?q=10.5031638,-66.8316796",
      "lat": 10.5031638,
      "lng": -66.8316796,
      "source": "osm"
    },
    {
      "id": "a12431632101",
      "nom": "Parque Infantil Pablo Benavides",
      "categorie": "park",
      "description": "",
      "prix": "",
      "duree": "",
      "mapsUrl": "https://maps.google.com/?q=10.4575826,-66.8308744",
      "lat": 10.4575826,
      "lng": -66.8308744,
      "source": "osm"
    },
    {
      "id": "a7625927566",
      "nom": "Estatua de Simón Bolívar",
      "categorie": "artwork",
      "description": "",
      "prix": "",
      "duree": "",
      "mapsUrl": "https://maps.google.com/?q=10.4082812,-66.8801722",
      "lat": 10.4082812,
      "lng": -66.8801722,
      "source": "osm"
    },
    {
      "id": "a12431629902",
      "nom": "Parque Infantil Ave. El Paují - Los Naranjos",
      "categorie": "park",
      "description": "",
      "prix": "",
      "duree": "",
      "mapsUrl": "https://maps.google.com/?q=10.4402527,-66.8380498",
      "lat": 10.4402527,
      "lng": -66.8380498,
      "source": "osm"
    },
    {
      "id": "a5008011221",
      "nom": "La Silla de Caracas",
      "categorie": "viewpoint",
      "description": "",
      "prix": "",
      "duree": "",
      "mapsUrl": "https://maps.google.com/?q=10.5386512,-66.8501173",
      "lat": 10.5386512,
      "lng": -66.8501173,
      "source": "osm"
    },
    {
      "id": "a507811426",
      "nom": "El Fortín",
      "categorie": "ruins",
      "description": "",
      "prix": "",
      "duree": "",
      "mapsUrl": "https://maps.google.com/?q=10.5434441,-66.9518437",
      "lat": 10.5434441,
      "lng": -66.9518437,
      "source": "osm"
    }
  ],
  "villeNonMusulmane": true,
  "osmEnriched": true,
  "osmEnrichedAt": "2026-06-30"
}