{
  "slug": "chengdu",
  "nom": "Chengdu",
  "pays": "Chine",
  "pays_slug": "chine",
  "continent": "Asie",
  "region": "Chine",
  "coordonnees": {
    "lat": 30.5728,
    "lng": 104.0668
  },
  "codeISO": "CN",
  "score_halal": 3.2,
  "halalScore": 6.4,
  "description": "Chengdu, Chine. Repérez les restaurants halal et les mosquées via l'application.",
  "metaDescription": "Chengdu, Chine. Repérez les restaurants halal et les mosquées via l'application.",
  "image": "https://upload.wikimedia.org/wikipedia/commons/7/74/%E9%9B%AA%E5%B1%B1%E4%B8%8B%E7%9A%84%E6%88%90%E9%83%BD%E5%B8%82%E5%A4%A9%E9%99%85%E7%BA%BF_Chengdu_skyline_with_snow_capped_mountains.jpg",
  "image_hero": "https://upload.wikimedia.org/wikipedia/commons/7/74/%E9%9B%AA%E5%B1%B1%E4%B8%8B%E7%9A%84%E6%88%90%E9%83%BD%E5%B8%82%E5%A4%A9%E9%99%85%E7%BA%BF_Chengdu_skyline_with_snow_capped_mountains.jpg",
  "imageCredit": "Wikimedia Commons",
  "scoreIndicatif": true,
  "statistiques": {
    "restaurants_halal": 8,
    "mosquees": 2,
    "hotels": 120
  },
  "infoPratique": {
    "transport": "Accessible par avion et transports locaux.",
    "meilleureEpoque": "Selon la saison.",
    "conseilHalal": "Repérez restaurants halal et mosquées via l'application."
  },
  "tags": [
    "halal",
    "asie"
  ],
  "restaurants": [
    {
      "nom": "方中山胡辣汤",
      "type": "西北",
      "priceRange": "€€",
      "mapsUrl": "https://maps.google.com/?q=30.5454577,104.0443259",
      "lat": 30.5454577,
      "lng": 104.0443259,
      "halalConfidence": "yes",
      "source": "osm"
    },
    {
      "nom": "燃食记",
      "type": "noodle, dumplings",
      "priceRange": "€€",
      "mapsUrl": "https://maps.google.com/?q=30.6652582,104.0339402",
      "lat": 30.6652582,
      "lng": 104.0339402,
      "halalConfidence": "yes",
      "source": "osm"
    },
    {
      "nom": "九鼎纯汤牛肉面",
      "type": "noodle",
      "priceRange": "€€",
      "mapsUrl": "https://maps.google.com/?q=30.6716274,104.0622559",
      "lat": 30.6716274,
      "lng": 104.0622559,
      "halalConfidence": "yes",
      "source": "osm"
    },
    {
      "nom": "方中山胡辣汤",
      "type": "西北",
      "priceRange": "€€",
      "mapsUrl": "https://maps.google.com/?q=30.6649384,104.0204211",
      "lat": 30.6649384,
      "lng": 104.0204211,
      "halalConfidence": "yes",
      "source": "osm"
    },
    {
      "nom": "穆盛涵兰州牛肉面",
      "type": "noodle",
      "priceRange": "€€",
      "mapsUrl": "https://maps.google.com/?q=30.6734909,104.074651",
      "lat": 30.6734909,
      "lng": 104.074651,
      "halalConfidence": "yes",
      "source": "osm"
    },
    {
      "nom": "兰州拉面",
      "type": "noodle, chinese",
      "priceRange": "€€",
      "mapsUrl": "https://maps.google.com/?q=30.6776028,104.0594378",
      "lat": 30.6776028,
      "lng": 104.0594378,
      "halalConfidence": "yes",
      "source": "osm"
    },
    {
      "nom": "新疆民族团结正宗羊肉串",
      "type": "kebab",
      "priceRange": "€€",
      "mapsUrl": "https://maps.google.com/?q=30.6189543,104.1242866",
      "lat": 30.6189543,
      "lng": 104.1242866,
      "halalConfidence": "likely",
      "source": "osm"
    },
    {
      "nom": "何师烧烤",
      "type": "kebab",
      "priceRange": "€€",
      "mapsUrl": "https://maps.google.com/?q=30.6541163,104.0151338",
      "lat": 30.6541163,
      "lng": 104.0151338,
      "halalConfidence": "likely",
      "source": "osm"
    }
  ],
  "hotels": [
    {
      "nom": "成都环球中心天堂洲际大饭店",
      "categorie": "Hôtel",
      "priceRange": "€€€€",
      "score": 5,
      "mapsUrl": "https://maps.google.com/?q=30.5694475,104.0611478",
      "lat": 30.5694475,
      "lng": 104.0611478,
      "halalFriendly": false,
      "bookingUrl": "https://www.ihg.com/intercontinental/hotels/gb/en/chengdu/ctuic/hoteldetail",
      "source": "osm"
    },
    {
      "nom": "成都世纪城天堂洲际大饭店",
      "categorie": "Hôtel",
      "priceRange": "€€€€",
      "score": 5,
      "mapsUrl": "https://maps.google.com/?q=30.5620773,104.0696903",
      "lat": 30.5620773,
      "lng": 104.0696903,
      "halalFriendly": false,
      "bookingUrl": "https://www.ihg.com/intercontinental/hotels/gb/en/chengdu/ctuha/hoteldetail",
      "source": "osm"
    },
    {
      "nom": "Holiday Inn",
      "categorie": "Hôtel",
      "priceRange": "€€",
      "mapsUrl": "https://maps.google.com/?q=30.5605946,104.0558956",
      "lat": 30.5605946,
      "lng": 104.0558956,
      "halalFriendly": false,
      "bookingUrl": "https://maps.google.com/?q=30.5605946,104.0558956",
      "source": "osm"
    },
    {
      "nom": "成都保利辉盛坊国际公寓",
      "categorie": "Auberge",
      "priceRange": "€€",
      "mapsUrl": "https://maps.google.com/?q=30.5587352,104.0587888",
      "lat": 30.5587352,
      "lng": 104.0587888,
      "halalFriendly": false,
      "bookingUrl": "https://maps.google.com/?q=30.5587352,104.0587888",
      "source": "osm"
    },
    {
      "nom": "成都首座万豪酒店",
      "categorie": "Hôtel",
      "priceRange": "€€",
      "mapsUrl": "https://maps.google.com/?q=30.588917,104.067146",
      "lat": 30.588917,
      "lng": 104.067146,
      "halalFriendly": false,
      "bookingUrl": "https://www.marriott.com.cn/hotels/ctumc-chengdu-marriott-hotel-financial-centre",
      "source": "osm"
    },
    {
      "nom": "成都 W 酒店",
      "categorie": "Hôtel",
      "priceRange": "€€",
      "mapsUrl": "https://maps.google.com/?q=30.5857409,104.0525495",
      "lat": 30.5857409,
      "lng": 104.0525495,
      "halalFriendly": false,
      "bookingUrl": "https://www.marriott.com.cn/hotels/ctuwh-w-chengdu",
      "source": "osm"
    },
    {
      "nom": "成都尧棠公馆",
      "categorie": "Hôtel",
      "priceRange": "€€",
      "mapsUrl": "https://maps.google.com/?q=30.5664159,104.0464274",
      "lat": 30.5664159,
      "lng": 104.0464274,
      "halalFriendly": false,
      "bookingUrl": "https://maps.google.com/?q=30.5664159,104.0464274",
      "source": "osm"
    },
    {
      "nom": "杰恩酒店",
      "categorie": "Hôtel",
      "priceRange": "€€",
      "mapsUrl": "https://maps.google.com/?q=30.5804849,104.0466872",
      "lat": 30.5804849,
      "lng": 104.0466872,
      "halalFriendly": false,
      "bookingUrl": "https://maps.google.com/?q=30.5804849,104.0466872",
      "source": "osm"
    },
    {
      "nom": "环球金融中心 1",
      "categorie": "Hôtel",
      "priceRange": "€€",
      "mapsUrl": "https://maps.google.com/?q=30.5532233,104.0610878",
      "lat": 30.5532233,
      "lng": 104.0610878,
      "halalFriendly": false,
      "bookingUrl": "https://maps.google.com/?q=30.5532233,104.0610878",
      "source": "osm"
    },
    {
      "nom": "成都高新豪生大酒店",
      "categorie": "Hôtel",
      "priceRange": "€€",
      "mapsUrl": "https://maps.google.com/?q=30.5931873,104.0664981",
      "lat": 30.5931873,
      "lng": 104.0664981,
      "halalFriendly": false,
      "bookingUrl": "https://www.wyndhamhotels.com/zh-cn/hojo/chengdu-china/howard-johnson-hi-tech-plaza-chengdu/overview",
      "source": "osm"
    },
    {
      "nom": "成都希尔顿酒店",
      "categorie": "Hôtel",
      "priceRange": "€€",
      "mapsUrl": "https://maps.google.com/?q=30.5519827,104.0656563",
      "lat": 30.5519827,
      "lng": 104.0656563,
      "halalFriendly": false,
      "bookingUrl": "https://www3.hilton.com/en/hotels/china/hilton-chengdu-CTUCCHI/index.html?WT.mc_id=zELWAKN0APAC1HI2DMH3LocalSearch4DGGenericx6CTUCCHI",
      "source": "osm"
    },
    {
      "nom": "成都禧玥酒店",
      "categorie": "Hôtel",
      "priceRange": "€€",
      "mapsUrl": "https://maps.google.com/?q=30.5514431,104.0640669",
      "lat": 30.5514431,
      "lng": 104.0640669,
      "halalFriendly": false,
      "bookingUrl": "https://maps.google.com/?q=30.5514431,104.0640669",
      "source": "osm"
    },
    {
      "nom": "全季酒店",
      "categorie": "Hôtel",
      "priceRange": "€€",
      "mapsUrl": "https://maps.google.com/?q=30.5512048,104.0642927",
      "lat": 30.5512048,
      "lng": 104.0642927,
      "halalFriendly": false,
      "bookingUrl": "https://maps.google.com/?q=30.5512048,104.0642927",
      "source": "osm"
    },
    {
      "nom": "汉韵酒店",
      "categorie": "Hôtel",
      "priceRange": "€€",
      "mapsUrl": "https://maps.google.com/?q=30.5941796,104.0591896",
      "lat": 30.5941796,
      "lng": 104.0591896,
      "halalFriendly": false,
      "bookingUrl": "https://maps.google.com/?q=30.5941796,104.0591896",
      "source": "osm"
    },
    {
      "nom": "成都雍湖荟主题公寓",
      "categorie": "Hôtel",
      "priceRange": "€€",
      "mapsUrl": "https://maps.google.com/?q=30.5531274,104.0513626",
      "lat": 30.5531274,
      "lng": 104.0513626,
      "halalFriendly": false,
      "bookingUrl": "https://maps.google.com/?q=30.5531274,104.0513626",
      "source": "osm"
    },
    {
      "nom": "维也纳国际酒店（环球中心新会展店）",
      "categorie": "Hôtel",
      "priceRange": "€€",
      "mapsUrl": "https://maps.google.com/?q=30.5498411,104.0746779",
      "lat": 30.5498411,
      "lng": 104.0746779,
      "halalFriendly": false,
      "bookingUrl": "https://maps.google.com/?q=30.5498411,104.0746779",
      "source": "osm"
    },
    {
      "nom": "凤凰城一期",
      "categorie": "Appartement",
      "priceRange": "€€",
      "mapsUrl": "https://maps.google.com/?q=30.5541741,104.0489954",
      "lat": 30.5541741,
      "lng": 104.0489954,
      "halalFriendly": false,
      "bookingUrl": "https://maps.google.com/?q=30.5541741,104.0489954",
      "source": "osm"
    },
    {
      "nom": "18步岛别墅",
      "categorie": "Hôtel",
      "priceRange": "€€",
      "mapsUrl": "https://maps.google.com/?q=30.5469297,104.0755651",
      "lat": 30.5469297,
      "lng": 104.0755651,
      "halalFriendly": false,
      "bookingUrl": "www.18budao.com",
      "source": "osm"
    },
    {
      "nom": "路易城堡青桐酒店",
      "categorie": "Hôtel",
      "priceRange": "€€",
      "mapsUrl": "https://maps.google.com/?q=30.598319,104.0450022",
      "lat": 30.598319,
      "lng": 104.0450022,
      "halalFriendly": false,
      "bookingUrl": "https://maps.google.com/?q=30.598319,104.0450022",
      "source": "osm"
    },
    {
      "nom": "新兰天地酒店",
      "categorie": "Hôtel",
      "priceRange": "€€",
      "mapsUrl": "https://maps.google.com/?q=30.6032912,104.0557632",
      "lat": 30.6032912,
      "lng": 104.0557632,
      "halalFriendly": false,
      "bookingUrl": "https://maps.google.com/?q=30.6032912,104.0557632",
      "source": "osm"
    },
    {
      "nom": "君临逸雅酒店",
      "categorie": "Hôtel",
      "priceRange": "€€",
      "mapsUrl": "https://maps.google.com/?q=30.6043818,104.0744447",
      "lat": 30.6043818,
      "lng": 104.0744447,
      "halalFriendly": false,
      "bookingUrl": "https://maps.google.com/?q=30.6043818,104.0744447",
      "source": "osm"
    },
    {
      "nom": "成都高新万枫酒店",
      "categorie": "Hôtel",
      "priceRange": "€€",
      "mapsUrl": "https://maps.google.com/?q=30.5431802,104.0847762",
      "lat": 30.5431802,
      "lng": 104.0847762,
      "halalFriendly": false,
      "bookingUrl": "https://www.marriott.com.cn/hotels/ctufh-fairfield-chengdu-hi-tech-zone",
      "source": "osm"
    },
    {
      "nom": "冬林阳光酒店",
      "categorie": "Hôtel",
      "priceRange": "€€",
      "mapsUrl": "https://maps.google.com/?q=30.5909592,104.0998408",
      "lat": 30.5909592,
      "lng": 104.0998408,
      "halalFriendly": false,
      "bookingUrl": "https://maps.google.com/?q=30.5909592,104.0998408",
      "source": "osm"
    },
    {
      "nom": "康普雷斯国际酒店",
      "categorie": "Hôtel",
      "priceRange": "€€",
      "mapsUrl": "https://maps.google.com/?q=30.6061717,104.0599356",
      "lat": 30.6061717,
      "lng": 104.0599356,
      "halalFriendly": false,
      "bookingUrl": "https://maps.google.com/?q=30.6061717,104.0599356",
      "source": "osm"
    },
    {
      "nom": "馨漫麓星空park公寓",
      "categorie": "Hôtel",
      "priceRange": "€€",
      "mapsUrl": "https://maps.google.com/?q=30.5495762,104.0357656",
      "lat": 30.5495762,
      "lng": 104.0357656,
      "halalFriendly": false,
      "bookingUrl": "https://maps.google.com/?q=30.5495762,104.0357656",
      "source": "osm"
    },
    {
      "nom": "成都梦想家之家公寓(天府三街分店)",
      "categorie": "Hôtel",
      "priceRange": "€€",
      "mapsUrl": "https://maps.google.com/?q=30.5481433,104.0354323",
      "lat": 30.5481433,
      "lng": 104.0354323,
      "halalFriendly": false,
      "bookingUrl": "https://maps.google.com/?q=30.5481433,104.0354323",
      "source": "osm"
    },
    {
      "nom": "怀希酒店",
      "categorie": "Hôtel",
      "priceRange": "€€",
      "mapsUrl": "https://maps.google.com/?q=30.6105125,104.0570708",
      "lat": 30.6105125,
      "lng": 104.0570708,
      "halalFriendly": false,
      "bookingUrl": "https://maps.google.com/?q=30.6105125,104.0570708",
      "source": "osm"
    },
    {
      "nom": "宜必思酒店",
      "categorie": "Hôtel",
      "priceRange": "€€",
      "mapsUrl": "https://maps.google.com/?q=30.6005731,104.0345679",
      "lat": 30.6005731,
      "lng": 104.0345679,
      "halalFriendly": false,
      "bookingUrl": "https://maps.google.com/?q=30.6005731,104.0345679",
      "source": "osm"
    },
    {
      "nom": "幻变艺术酒店",
      "categorie": "Hôtel",
      "priceRange": "€€",
      "mapsUrl": "https://maps.google.com/?q=30.6144817,104.0661847",
      "lat": 30.6144817,
      "lng": 104.0661847,
      "halalFriendly": false,
      "bookingUrl": "https://maps.google.com/?q=30.6144817,104.0661847",
      "source": "osm"
    },
    {
      "nom": "成都逸景假日酒店",
      "categorie": "Hôtel",
      "priceRange": "€€",
      "mapsUrl": "https://maps.google.com/?q=30.590636,104.1106874",
      "lat": 30.590636,
      "lng": 104.1106874,
      "halalFriendly": false,
      "bookingUrl": "https://maps.google.com/?q=30.590636,104.1106874",
      "source": "osm"
    },
    {
      "nom": "成都首座万丽酒店",
      "categorie": "Hôtel",
      "priceRange": "€€",
      "mapsUrl": "https://maps.google.com/?q=30.6147853,104.0640023",
      "lat": 30.6147853,
      "lng": 104.0640023,
      "halalFriendly": false,
      "bookingUrl": "https://maps.google.com/?q=30.6147853,104.0640023",
      "source": "osm"
    },
    {
      "nom": "Cici GH",
      "categorie": "Maison d'hôtes",
      "priceRange": "€€",
      "mapsUrl": "https://maps.google.com/?q=30.6151002,104.0545619",
      "lat": 30.6151002,
      "lng": 104.0545619,
      "halalFriendly": false,
      "bookingUrl": "https://maps.google.com/?q=30.6151002,104.0545619",
      "source": "osm"
    },
    {
      "nom": "九漏鱼青年旅舍",
      "categorie": "Hôtel",
      "priceRange": "€€",
      "mapsUrl": "https://maps.google.com/?q=30.6171857,104.0700749",
      "lat": 30.6171857,
      "lng": 104.0700749,
      "halalFriendly": false,
      "bookingUrl": "https://maps.google.com/?q=30.6171857,104.0700749",
      "source": "osm"
    },
    {
      "nom": "新东方千禧大酒店",
      "categorie": "Hôtel",
      "priceRange": "€€",
      "mapsUrl": "https://maps.google.com/?q=30.6154568,104.0464841",
      "lat": 30.6154568,
      "lng": 104.0464841,
      "halalFriendly": false,
      "bookingUrl": "http://www.millenniumhotels.com.cn/millenniumchengdu/",
      "source": "osm"
    },
    {
      "nom": "7天酒店",
      "categorie": "Hôtel",
      "priceRange": "€€",
      "mapsUrl": "https://maps.google.com/?q=30.620087,104.0741687",
      "lat": 30.620087,
      "lng": 104.0741687,
      "halalFriendly": false,
      "bookingUrl": "https://maps.google.com/?q=30.620087,104.0741687",
      "source": "osm"
    },
    {
      "nom": "宜都宾馆",
      "categorie": "Hôtel",
      "priceRange": "€€",
      "mapsUrl": "https://maps.google.com/?q=30.6175121,104.0462058",
      "lat": 30.6175121,
      "lng": 104.0462058,
      "halalFriendly": false,
      "bookingUrl": "https://maps.google.com/?q=30.6175121,104.0462058",
      "source": "osm"
    },
    {
      "nom": "凯宾斯基酒店",
      "categorie": "Hôtel",
      "priceRange": "€€",
      "mapsUrl": "https://maps.google.com/?q=30.6209675,104.0639366",
      "lat": 30.6209675,
      "lng": 104.0639366,
      "halalFriendly": false,
      "bookingUrl": "https://maps.google.com/?q=30.6209675,104.0639366",
      "source": "osm"
    },
    {
      "nom": "人居东湖长岛",
      "categorie": "Appartement",
      "priceRange": "€€",
      "mapsUrl": "https://maps.google.com/?q=30.6177156,104.0896064",
      "lat": 30.6177156,
      "lng": 104.0896064,
      "halalFriendly": false,
      "bookingUrl": "https://maps.google.com/?q=30.6177156,104.0896064",
      "source": "osm"
    },
    {
      "nom": "紫都酒店",
      "categorie": "Hôtel",
      "priceRange": "€€",
      "mapsUrl": "https://maps.google.com/?q=30.6185896,104.0457714",
      "lat": 30.6185896,
      "lng": 104.0457714,
      "halalFriendly": false,
      "bookingUrl": "https://maps.google.com/?q=30.6185896,104.0457714",
      "source": "osm"
    },
    {
      "nom": "西蜀人家",
      "categorie": "Hôtel",
      "priceRange": "€€",
      "mapsUrl": "https://maps.google.com/?q=30.5298053,104.0361898",
      "lat": 30.5298053,
      "lng": 104.0361898,
      "halalFriendly": false,
      "bookingUrl": "https://maps.google.com/?q=30.5298053,104.0361898",
      "source": "osm"
    },
    {
      "nom": "华纳丽尊酒店",
      "categorie": "Hôtel",
      "priceRange": "€€",
      "mapsUrl": "https://maps.google.com/?q=30.62301,104.0606691",
      "lat": 30.62301,
      "lng": 104.0606691,
      "halalFriendly": false,
      "bookingUrl": "https://maps.google.com/?q=30.62301,104.0606691",
      "source": "osm"
    },
    {
      "nom": "家园国际酒店",
      "categorie": "Hôtel",
      "priceRange": "€€",
      "mapsUrl": "https://maps.google.com/?q=30.5806713,104.0086376",
      "lat": 30.5806713,
      "lng": 104.0086376,
      "halalFriendly": false,
      "bookingUrl": "https://maps.google.com/?q=30.5806713,104.0086376",
      "source": "osm"
    },
    {
      "nom": "成都锦城如家青年旅舍",
      "categorie": "Auberge",
      "priceRange": "€€",
      "mapsUrl": "https://maps.google.com/?q=30.6249276,104.0633592",
      "lat": 30.6249276,
      "lng": 104.0633592,
      "halalFriendly": false,
      "bookingUrl": "https://maps.google.com/?q=30.6249276,104.0633592",
      "source": "osm"
    },
    {
      "nom": "成都天晓商务酒店(锦华万达店)",
      "categorie": "Hôtel",
      "priceRange": "€€",
      "mapsUrl": "https://maps.google.com/?q=30.6198516,104.0969559",
      "lat": 30.6198516,
      "lng": 104.0969559,
      "halalFriendly": false,
      "bookingUrl": "https://maps.google.com/?q=30.6198516,104.0969559",
      "source": "osm"
    },
    {
      "nom": "维也纳国际酒店(成都会展中心天府新区骑龙地铁站店)",
      "categorie": "Hôtel",
      "priceRange": "€€",
      "mapsUrl": "https://maps.google.com/?q=30.5249915,104.0380378",
      "lat": 30.5249915,
      "lng": 104.0380378,
      "halalFriendly": false,
      "bookingUrl": "https://maps.google.com/?q=30.5249915,104.0380378",
      "source": "osm"
    },
    {
      "nom": "Rest Posthouse",
      "categorie": "Hôtel",
      "priceRange": "€€",
      "mapsUrl": "https://maps.google.com/?q=30.6267507,104.0728417",
      "lat": 30.6267507,
      "lng": 104.0728417,
      "halalFriendly": false,
      "bookingUrl": "https://maps.google.com/?q=30.6267507,104.0728417",
      "source": "osm"
    },
    {
      "nom": "速8酒店",
      "categorie": "Hôtel",
      "priceRange": "€€",
      "mapsUrl": "https://maps.google.com/?q=30.6266838,104.0737245",
      "lat": 30.6266838,
      "lng": 104.0737245,
      "halalFriendly": false,
      "bookingUrl": "https://maps.google.com/?q=30.6266838,104.0737245",
      "source": "osm"
    },
    {
      "nom": "桔子酒店",
      "categorie": "Hôtel",
      "priceRange": "€€",
      "mapsUrl": "https://maps.google.com/?q=30.6268587,104.0615606",
      "lat": 30.6268587,
      "lng": 104.0615606,
      "halalFriendly": false,
      "bookingUrl": "https://maps.google.com/?q=30.6268587,104.0615606",
      "source": "osm"
    },
    {
      "nom": "维拉斯汀投影酒店(骑龙地铁站店)",
      "categorie": "Hôtel",
      "priceRange": "€€",
      "mapsUrl": "https://maps.google.com/?q=30.5252087,104.0364477",
      "lat": 30.5252087,
      "lng": 104.0364477,
      "halalFriendly": false,
      "bookingUrl": "https://maps.google.com/?q=30.5252087,104.0364477",
      "source": "osm"
    },
    {
      "nom": "科华苑宾馆",
      "categorie": "Hôtel",
      "priceRange": "€€",
      "mapsUrl": "https://maps.google.com/?q=30.6273714,104.0751447",
      "lat": 30.6273714,
      "lng": 104.0751447,
      "halalFriendly": false,
      "bookingUrl": "https://maps.google.com/?q=30.6273714,104.0751447",
      "source": "osm"
    },
    {
      "nom": "成都十方青年客棧",
      "categorie": "Hôtel",
      "priceRange": "€€",
      "mapsUrl": "https://maps.google.com/?q=30.6278174,104.0731528",
      "lat": 30.6278174,
      "lng": 104.0731528,
      "halalFriendly": false,
      "bookingUrl": "https://maps.google.com/?q=30.6278174,104.0731528",
      "source": "osm"
    },
    {
      "nom": "百花园乡村酒店",
      "categorie": "Hôtel",
      "priceRange": "€€",
      "mapsUrl": "https://maps.google.com/?q=30.5739952,104.1310598",
      "lat": 30.5739952,
      "lng": 104.1310598,
      "halalFriendly": false,
      "bookingUrl": "https://maps.google.com/?q=30.5739952,104.1310598",
      "source": "osm"
    },
    {
      "nom": "南都酒店",
      "categorie": "Hôtel",
      "priceRange": "€€",
      "mapsUrl": "https://maps.google.com/?q=30.6285775,104.0637152",
      "lat": 30.6285775,
      "lng": 104.0637152,
      "halalFriendly": false,
      "bookingUrl": "https://maps.google.com/?q=30.6285775,104.0637152",
      "source": "osm"
    },
    {
      "nom": "如家酒店",
      "categorie": "Hôtel",
      "priceRange": "€€",
      "mapsUrl": "https://maps.google.com/?q=30.6124575,104.1133872",
      "lat": 30.6124575,
      "lng": 104.1133872,
      "halalFriendly": false,
      "bookingUrl": "https://maps.google.com/?q=30.6124575,104.1133872",
      "source": "osm"
    },
    {
      "nom": "成都世外桃源酒店",
      "categorie": "Hôtel",
      "priceRange": "€€",
      "mapsUrl": "https://maps.google.com/?q=30.6319401,104.0753438",
      "lat": 30.6319401,
      "lng": 104.0753438,
      "halalFriendly": false,
      "bookingUrl": "https://maps.google.com/?q=30.6319401,104.0753438",
      "source": "osm"
    },
    {
      "nom": "桃源酒店",
      "categorie": "Hôtel",
      "priceRange": "€€",
      "mapsUrl": "https://maps.google.com/?q=30.6326953,104.0746793",
      "lat": 30.6326953,
      "lng": 104.0746793,
      "halalFriendly": false,
      "bookingUrl": "https://maps.google.com/?q=30.6326953,104.0746793",
      "source": "osm"
    },
    {
      "nom": "小半玉林民宿",
      "categorie": "Auberge",
      "priceRange": "€€",
      "mapsUrl": "https://maps.google.com/?q=30.6322506,104.0545777",
      "lat": 30.6322506,
      "lng": 104.0545777,
      "halalFriendly": false,
      "bookingUrl": "https://maps.google.com/?q=30.6322506,104.0545777",
      "source": "osm"
    },
    {
      "nom": "专家公寓",
      "categorie": "Hôtel",
      "priceRange": "€€",
      "mapsUrl": "https://maps.google.com/?q=30.6338992,104.0722823",
      "lat": 30.6338992,
      "lng": 104.0722823,
      "halalFriendly": false,
      "bookingUrl": "https://maps.google.com/?q=30.6338992,104.0722823",
      "source": "osm"
    },
    {
      "nom": "专家公寓",
      "categorie": "Hôtel",
      "priceRange": "€€",
      "mapsUrl": "https://maps.google.com/?q=30.6341084,104.0722801",
      "lat": 30.6341084,
      "lng": 104.0722801,
      "halalFriendly": false,
      "bookingUrl": "https://maps.google.com/?q=30.6341084,104.0722801",
      "source": "osm"
    },
    {
      "nom": "成都八喜青年旅舍(玉林西路省体育馆地铁站店)",
      "categorie": "Auberge",
      "priceRange": "€€",
      "mapsUrl": "https://maps.google.com/?q=30.6361585,104.0547685",
      "lat": 30.6361585,
      "lng": 104.0547685,
      "halalFriendly": false,
      "bookingUrl": "https://maps.google.com/?q=30.6361585,104.0547685",
      "source": "osm"
    },
    {
      "nom": "美和酒店",
      "categorie": "Hôtel",
      "priceRange": "€€",
      "mapsUrl": "https://maps.google.com/?q=30.5096666,104.0502967",
      "lat": 30.5096666,
      "lng": 104.0502967,
      "halalFriendly": false,
      "bookingUrl": "https://maps.google.com/?q=30.5096666,104.0502967",
      "source": "osm"
    },
    {
      "nom": "滨治酒店",
      "categorie": "Hôtel",
      "priceRange": "€€",
      "mapsUrl": "https://maps.google.com/?q=30.5093488,104.0509715",
      "lat": 30.5093488,
      "lng": 104.0509715,
      "halalFriendly": false,
      "bookingUrl": "https://maps.google.com/?q=30.5093488,104.0509715",
      "source": "osm"
    },
    {
      "nom": "夏姐小屋",
      "categorie": "Maison d'hôtes",
      "priceRange": "€€",
      "mapsUrl": "https://maps.google.com/?q=30.6188249,104.1202013",
      "lat": 30.6188249,
      "lng": 104.1202013,
      "halalFriendly": false,
      "bookingUrl": "https://maps.google.com/?q=30.6188249,104.1202013",
      "source": "osm"
    },
    {
      "nom": "北苑宾馆",
      "categorie": "Hôtel",
      "priceRange": "€€",
      "mapsUrl": "https://maps.google.com/?q=30.6367614,104.081722",
      "lat": 30.6367614,
      "lng": 104.081722,
      "halalFriendly": false,
      "bookingUrl": "https://maps.google.com/?q=30.6367614,104.081722",
      "source": "osm"
    },
    {
      "nom": "成都川师暖心公寓",
      "categorie": "Hôtel",
      "priceRange": "€€",
      "mapsUrl": "https://maps.google.com/?q=30.6169506,104.1232784",
      "lat": 30.6169506,
      "lng": 104.1232784,
      "halalFriendly": false,
      "bookingUrl": "https://maps.google.com/?q=30.6169506,104.1232784",
      "source": "osm"
    },
    {
      "nom": "美湖假日酒店",
      "categorie": "Hôtel",
      "priceRange": "€€",
      "mapsUrl": "https://maps.google.com/?q=30.61568,104.1264191",
      "lat": 30.61568,
      "lng": 104.1264191,
      "halalFriendly": false,
      "bookingUrl": "https://maps.google.com/?q=30.61568,104.1264191",
      "source": "osm"
    },
    {
      "nom": "成都祥宇宾馆",
      "categorie": "Hôtel",
      "priceRange": "€€",
      "mapsUrl": "https://maps.google.com/?q=30.6393949,104.0745394",
      "lat": 30.6393949,
      "lng": 104.0745394,
      "halalFriendly": false,
      "bookingUrl": "https://maps.google.com/?q=30.6393949,104.0745394",
      "source": "osm"
    },
    {
      "nom": "全季酒店",
      "categorie": "Hôtel",
      "priceRange": "€€",
      "mapsUrl": "https://maps.google.com/?q=30.6400442,104.0604889",
      "lat": 30.6400442,
      "lng": 104.0604889,
      "halalFriendly": false,
      "bookingUrl": "https://maps.google.com/?q=30.6400442,104.0604889",
      "source": "osm"
    },
    {
      "nom": "红瓦宾馆",
      "categorie": "Hôtel",
      "priceRange": "€€",
      "mapsUrl": "https://maps.google.com/?q=30.6381465,104.0877969",
      "lat": 30.6381465,
      "lng": 104.0877969,
      "halalFriendly": false,
      "bookingUrl": "https://maps.google.com/?q=30.6381465,104.0877969",
      "source": "osm"
    },
    {
      "nom": "望江宾馆",
      "categorie": "Hôtel",
      "priceRange": "€€",
      "mapsUrl": "https://maps.google.com/?q=30.6293251,104.111117",
      "lat": 30.6293251,
      "lng": 104.111117,
      "halalFriendly": false,
      "bookingUrl": "https://maps.google.com/?q=30.6293251,104.111117",
      "source": "osm"
    },
    {
      "nom": "季风青年旅舍",
      "categorie": "Auberge",
      "priceRange": "€€",
      "mapsUrl": "https://maps.google.com/?q=30.6388715,104.0462988",
      "lat": 30.6388715,
      "lng": 104.0462988,
      "halalFriendly": false,
      "bookingUrl": "https://maps.google.com/?q=30.6388715,104.0462988",
      "source": "osm"
    },
    {
      "nom": "尚公馆·水韵",
      "categorie": "Hôtel",
      "priceRange": "€€",
      "mapsUrl": "https://maps.google.com/?q=30.6249741,104.1185375",
      "lat": 30.6249741,
      "lng": 104.1185375,
      "halalFriendly": false,
      "bookingUrl": "https://maps.google.com/?q=30.6249741,104.1185375",
      "source": "osm"
    },
    {
      "nom": "漫金利酒店(成都川大川音店)",
      "categorie": "Hôtel",
      "priceRange": "€€",
      "mapsUrl": "https://maps.google.com/?q=30.6401773,104.0837512",
      "lat": 30.6401773,
      "lng": 104.0837512,
      "halalFriendly": false,
      "bookingUrl": "https://maps.google.com/?q=30.6401773,104.0837512",
      "source": "osm"
    },
    {
      "nom": "成都悦然民宿",
      "categorie": "Hôtel",
      "priceRange": "€€",
      "mapsUrl": "https://maps.google.com/?q=30.6256217,104.1187406",
      "lat": 30.6256217,
      "lng": 104.1187406,
      "halalFriendly": false,
      "bookingUrl": "https://maps.google.com/?q=30.6256217,104.1187406",
      "source": "osm"
    },
    {
      "nom": "悠家成都锦江店1017公寓(莲桂西路分店)",
      "categorie": "Hôtel",
      "priceRange": "€€",
      "mapsUrl": "https://maps.google.com/?q=30.6382091,104.0933731",
      "lat": 30.6382091,
      "lng": 104.0933731,
      "halalFriendly": false,
      "bookingUrl": "https://maps.google.com/?q=30.6382091,104.0933731",
      "source": "osm"
    },
    {
      "nom": "成都博纳酒店(四川大学望江校区店)",
      "categorie": "Hôtel",
      "priceRange": "€€",
      "mapsUrl": "https://maps.google.com/?q=30.6406325,104.0839299",
      "lat": 30.6406325,
      "lng": 104.0839299,
      "halalFriendly": false,
      "bookingUrl": "https://maps.google.com/?q=30.6406325,104.0839299",
      "source": "osm"
    },
    {
      "nom": "文翰宾馆",
      "categorie": "Hôtel",
      "priceRange": "€€",
      "mapsUrl": "https://maps.google.com/?q=30.6396284,104.0448879",
      "lat": 30.6396284,
      "lng": 104.0448879,
      "halalFriendly": false,
      "bookingUrl": "https://maps.google.com/?q=30.6396284,104.0448879",
      "source": "osm"
    },
    {
      "nom": "成都锦里红牌楼地铁站亚朵酒店",
      "categorie": "Hôtel",
      "priceRange": "€€",
      "mapsUrl": "https://maps.google.com/?q=30.6358146,104.0321506",
      "lat": 30.6358146,
      "lng": 104.0321506,
      "halalFriendly": false,
      "bookingUrl": "https://maps.google.com/?q=30.6358146,104.0321506",
      "source": "osm"
    },
    {
      "nom": "Woke international youth hostel",
      "categorie": "Auberge",
      "priceRange": "€€",
      "mapsUrl": "https://maps.google.com/?q=30.6404462,104.0437078",
      "lat": 30.6404462,
      "lng": 104.0437078,
      "halalFriendly": false,
      "bookingUrl": "https://maps.google.com/?q=30.6404462,104.0437078",
      "source": "osm"
    },
    {
      "nom": "成都校友之家",
      "categorie": "Hôtel",
      "priceRange": "€€",
      "mapsUrl": "https://maps.google.com/?q=30.6421058,104.0505524",
      "lat": 30.6421058,
      "lng": 104.0505524,
      "halalFriendly": false,
      "bookingUrl": "https://maps.google.com/?q=30.6421058,104.0505524",
      "source": "osm"
    },
    {
      "nom": "The Hotel Zen Urban Resort",
      "categorie": "Hôtel",
      "priceRange": "€€",
      "mapsUrl": "https://maps.google.com/?q=30.6439606,104.0744659",
      "lat": 30.6439606,
      "lng": 104.0744659,
      "halalFriendly": false,
      "bookingUrl": "https://maps.google.com/?q=30.6439606,104.0744659",
      "source": "osm"
    },
    {
      "nom": "西农驿站",
      "categorie": "Hôtel",
      "priceRange": "€€",
      "mapsUrl": "https://maps.google.com/?q=30.6432285,104.0503082",
      "lat": 30.6432285,
      "lng": 104.0503082,
      "halalFriendly": false,
      "bookingUrl": "https://maps.google.com/?q=30.6432285,104.0503082",
      "source": "osm"
    },
    {
      "nom": "锦豪城市精品酒店",
      "categorie": "Hôtel",
      "priceRange": "€€",
      "mapsUrl": "https://maps.google.com/?q=30.6055683,104.1419109",
      "lat": 30.6055683,
      "lng": 104.1419109,
      "halalFriendly": false,
      "bookingUrl": "https://maps.google.com/?q=30.6055683,104.1419109",
      "source": "osm"
    },
    {
      "nom": "凉山宾馆",
      "categorie": "Hôtel",
      "priceRange": "€€",
      "mapsUrl": "https://maps.google.com/?q=30.6456981,104.0641839",
      "lat": 30.6456981,
      "lng": 104.0641839,
      "halalFriendly": false,
      "bookingUrl": "https://maps.google.com/?q=30.6456981,104.0641839",
      "source": "osm"
    },
    {
      "nom": "Chengdu Dreams Travel International Youth Hostel",
      "categorie": "Auberge",
      "priceRange": "€€",
      "mapsUrl": "https://maps.google.com/?q=30.6440898,104.0473402",
      "lat": 30.6440898,
      "lng": 104.0473402,
      "halalFriendly": false,
      "bookingUrl": "https://maps.google.com/?q=30.6440898,104.0473402",
      "source": "osm"
    },
    {
      "nom": "Unikue Hotel",
      "categorie": "Hôtel",
      "priceRange": "€€",
      "mapsUrl": "https://maps.google.com/?q=30.6391329,104.0295473",
      "lat": 30.6391329,
      "lng": 104.0295473,
      "halalFriendly": false,
      "bookingUrl": "https://maps.google.com/?q=30.6391329,104.0295473",
      "source": "osm"
    },
    {
      "nom": "Summer Wheat The Past (proper location)",
      "categorie": "Hôtel",
      "priceRange": "€€",
      "mapsUrl": "https://maps.google.com/?q=30.6460816,104.0768217",
      "lat": 30.6460816,
      "lng": 104.0768217,
      "halalFriendly": false,
      "bookingUrl": "https://maps.google.com/?q=30.6460816,104.0768217",
      "source": "osm"
    },
    {
      "nom": "成都香格里拉大酒店",
      "categorie": "Hôtel",
      "priceRange": "€€",
      "mapsUrl": "https://maps.google.com/?q=30.6453863,104.0836134",
      "lat": 30.6453863,
      "lng": 104.0836134,
      "halalFriendly": false,
      "bookingUrl": "https://maps.google.com/?q=30.6453863,104.0836134",
      "source": "osm"
    },
    {
      "nom": "康定酒店",
      "categorie": "Hôtel",
      "priceRange": "€€",
      "mapsUrl": "https://maps.google.com/?q=30.6455185,104.0459673",
      "lat": 30.6455185,
      "lng": 104.0459673,
      "halalFriendly": false,
      "bookingUrl": "https://maps.google.com/?q=30.6455185,104.0459673",
      "source": "osm"
    },
    {
      "nom": "成信招待所",
      "categorie": "Auberge",
      "priceRange": "€€",
      "mapsUrl": "https://maps.google.com/?q=30.5850086,103.9807524",
      "lat": 30.5850086,
      "lng": 103.9807524,
      "halalFriendly": false,
      "bookingUrl": "https://maps.google.com/?q=30.5850086,103.9807524",
      "source": "osm"
    },
    {
      "nom": "成都润泽龙园酒店",
      "categorie": "Hôtel",
      "priceRange": "€€",
      "mapsUrl": "https://maps.google.com/?q=30.5312681,103.9939062",
      "lat": 30.5312681,
      "lng": 103.9939062,
      "halalFriendly": false,
      "bookingUrl": "https://maps.google.com/?q=30.5312681,103.9939062",
      "source": "osm"
    },
    {
      "nom": "锦州之家·宿屿",
      "categorie": "Hôtel",
      "priceRange": "€€",
      "mapsUrl": "https://maps.google.com/?q=30.5834815,103.9800718",
      "lat": 30.5834815,
      "lng": 103.9800718,
      "halalFriendly": false,
      "bookingUrl": "https://maps.google.com/?q=30.5834815,103.9800718",
      "source": "osm"
    },
    {
      "nom": "九龙鼎青年客栈",
      "categorie": "Auberge",
      "priceRange": "€€",
      "mapsUrl": "https://maps.google.com/?q=30.6459212,104.0444267",
      "lat": 30.6459212,
      "lng": 104.0444267,
      "halalFriendly": false,
      "bookingUrl": "https://maps.google.com/?q=30.6459212,104.0444267",
      "source": "osm"
    },
    {
      "nom": "成都盛捷江畔服务公寓",
      "categorie": "Hôtel",
      "priceRange": "€€",
      "mapsUrl": "https://maps.google.com/?q=30.6485092,104.0645426",
      "lat": 30.6485092,
      "lng": 104.0645426,
      "halalFriendly": false,
      "bookingUrl": "https://maps.google.com/?q=30.6485092,104.0645426",
      "source": "osm"
    },
    {
      "nom": "明宇尚雅饭店",
      "categorie": "Hôtel",
      "priceRange": "€€",
      "mapsUrl": "https://maps.google.com/?q=30.6486065,104.0613752",
      "lat": 30.6486065,
      "lng": 104.0613752,
      "halalFriendly": false,
      "bookingUrl": "https://maps.google.com/?q=30.6486065,104.0613752",
      "source": "osm"
    },
    {
      "nom": "云曦公馆公寓(宏顺街分店)",
      "categorie": "Hôtel",
      "priceRange": "€€",
      "mapsUrl": "https://maps.google.com/?q=30.6452063,104.0939361",
      "lat": 30.6452063,
      "lng": 104.0939361,
      "halalFriendly": false,
      "bookingUrl": "https://maps.google.com/?q=30.6452063,104.0939361",
      "source": "osm"
    },
    {
      "nom": "希悦轻居酒店(火车东站西广场店)",
      "categorie": "Hôtel",
      "priceRange": "€€",
      "mapsUrl": "https://maps.google.com/?q=30.6261155,104.1303946",
      "lat": 30.6261155,
      "lng": 104.1303946,
      "halalFriendly": false,
      "bookingUrl": "https://maps.google.com/?q=30.6261155,104.1303946",
      "source": "osm"
    },
    {
      "nom": "汉庭",
      "categorie": "Hôtel",
      "priceRange": "€€",
      "mapsUrl": "https://maps.google.com/?q=30.6454489,104.0391222",
      "lat": 30.6454489,
      "lng": 104.0391222,
      "halalFriendly": false,
      "bookingUrl": "https://maps.google.com/?q=30.6454489,104.0391222",
      "source": "osm"
    },
    {
      "nom": "索菲特泰合大饭店",
      "categorie": "Hôtel",
      "priceRange": "€€",
      "mapsUrl": "https://maps.google.com/?q=30.6498006,104.0662277",
      "lat": 30.6498006,
      "lng": 104.0662277,
      "halalFriendly": false,
      "bookingUrl": "https://maps.google.com/?q=30.6498006,104.0662277",
      "source": "osm"
    },
    {
      "nom": "Howdy Smart Hotel",
      "categorie": "Hôtel",
      "priceRange": "€€",
      "mapsUrl": "https://maps.google.com/?q=30.649645,104.0756487",
      "lat": 30.649645,
      "lng": 104.0756487,
      "halalFriendly": false,
      "bookingUrl": "https://maps.google.com/?q=30.649645,104.0756487",
      "source": "osm"
    },
    {
      "nom": "成都悠泊豪生荟酒店",
      "categorie": "Hôtel",
      "priceRange": "€€",
      "mapsUrl": "https://maps.google.com/?q=30.6067785,103.9860294",
      "lat": 30.6067785,
      "lng": 103.9860294,
      "halalFriendly": false,
      "bookingUrl": "https://www.wyndhamhotels.com/zh-cn/hojo/chengdu-china/howard-johnson-upark-business-club-chengdu/overview",
      "source": "osm"
    },
    {
      "nom": "万爱情侣酒店(成都耍都店)",
      "categorie": "Hôtel",
      "priceRange": "€€",
      "mapsUrl": "https://maps.google.com/?q=30.64956,104.0542509",
      "lat": 30.64956,
      "lng": 104.0542509,
      "halalFriendly": false,
      "bookingUrl": "https://maps.google.com/?q=30.64956,104.0542509",
      "source": "osm"
    },
    {
      "nom": "VALATOMS梵拉图酒店(成都武侯祠锦里店)",
      "categorie": "Hôtel",
      "priceRange": "€€",
      "mapsUrl": "https://maps.google.com/?q=30.6497244,104.0540191",
      "lat": 30.6497244,
      "lng": 104.0540191,
      "halalFriendly": false,
      "bookingUrl": "https://maps.google.com/?q=30.6497244,104.0540191",
      "source": "osm"
    },
    {
      "nom": "Pod Inn (Chengdu Niushikou Subway Station)",
      "categorie": "Hôtel",
      "priceRange": "€€",
      "mapsUrl": "https://maps.google.com/?q=30.6433649,104.1047513",
      "lat": 30.6433649,
      "lng": 104.1047513,
      "halalFriendly": false,
      "bookingUrl": "https://maps.google.com/?q=30.6433649,104.1047513",
      "source": "osm"
    },
    {
      "nom": "成都昌都宾馆",
      "categorie": "Hôtel",
      "priceRange": "€€",
      "mapsUrl": "https://maps.google.com/?q=30.6467033,104.0382897",
      "lat": 30.6467033,
      "lng": 104.0382897,
      "halalFriendly": false,
      "bookingUrl": "https://maps.google.com/?q=30.6467033,104.0382897",
      "source": "osm"
    },
    {
      "nom": "成都一转一回青年旅舍",
      "categorie": "Hôtel",
      "priceRange": "€€",
      "mapsUrl": "https://maps.google.com/?q=30.6498816,104.0801668",
      "lat": 30.6498816,
      "lng": 104.0801668,
      "halalFriendly": false,
      "bookingUrl": "https://maps.google.com/?q=30.6498816,104.0801668",
      "source": "osm"
    },
    {
      "nom": "锦江宾馆",
      "categorie": "Hôtel",
      "priceRange": "€€",
      "mapsUrl": "https://maps.google.com/?q=30.6507295,104.0621831",
      "lat": 30.6507295,
      "lng": 104.0621831,
      "halalFriendly": false,
      "bookingUrl": "https://maps.google.com/?q=30.6507295,104.0621831",
      "source": "osm"
    },
    {
      "nom": "希岸酒店",
      "categorie": "Hôtel",
      "priceRange": "€€",
      "mapsUrl": "https://maps.google.com/?q=30.6272297,104.132111",
      "lat": 30.6272297,
      "lng": 104.132111,
      "halalFriendly": false,
      "bookingUrl": "https://maps.google.com/?q=30.6272297,104.132111",
      "source": "osm"
    },
    {
      "nom": "世代锦江国际酒店",
      "categorie": "Hôtel",
      "priceRange": "€€",
      "mapsUrl": "https://maps.google.com/?q=30.650768,104.059022",
      "lat": 30.650768,
      "lng": 104.059022,
      "halalFriendly": false,
      "bookingUrl": "https://maps.google.com/?q=30.650768,104.059022",
      "source": "osm"
    },
    {
      "nom": "岷山饭店",
      "categorie": "Hôtel",
      "priceRange": "€€",
      "mapsUrl": "https://maps.google.com/?q=30.6511028,104.0645644",
      "lat": 30.6511028,
      "lng": 104.0645644,
      "halalFriendly": false,
      "bookingUrl": "https://maps.google.com/?q=30.6511028,104.0645644",
      "source": "osm"
    },
    {
      "nom": "成都东方广场假日酒店",
      "categorie": "Hôtel",
      "priceRange": "€€",
      "mapsUrl": "https://maps.google.com/?q=30.6500459,104.0865903",
      "lat": 30.6500459,
      "lng": 104.0865903,
      "halalFriendly": false,
      "bookingUrl": "https://maps.google.com/?q=30.6500459,104.0865903",
      "source": "osm"
    },
    {
      "nom": "金科圣嘉酒店(武侯祠红牌楼店)",
      "categorie": "Hôtel",
      "priceRange": "€€",
      "mapsUrl": "https://maps.google.com/?q=30.6432787,104.0248962",
      "lat": 30.6432787,
      "lng": 104.0248962,
      "halalFriendly": false,
      "bookingUrl": "https://maps.google.com/?q=30.6432787,104.0248962",
      "source": "osm"
    },
    {
      "nom": "全季酒店",
      "categorie": "Hôtel",
      "priceRange": "€€",
      "mapsUrl": "https://maps.google.com/?q=30.6520051,104.0598631",
      "lat": 30.6520051,
      "lng": 104.0598631,
      "halalFriendly": false,
      "bookingUrl": "https://maps.google.com/?q=30.6520051,104.0598631",
      "source": "osm"
    },
    {
      "nom": "近未来美术馆旅舍",
      "categorie": "Hôtel",
      "priceRange": "€€",
      "mapsUrl": "https://maps.google.com/?q=30.648428,104.0961378",
      "lat": 30.648428,
      "lng": 104.0961378,
      "halalFriendly": false,
      "bookingUrl": "https://maps.google.com/?q=30.648428,104.0961378",
      "source": "osm"
    },
    {
      "nom": "Chengdu Flipflop Hostel",
      "categorie": "Auberge",
      "priceRange": "€€",
      "mapsUrl": "https://maps.google.com/?q=30.6528977,104.0756088",
      "lat": 30.6528977,
      "lng": 104.0756088,
      "halalFriendly": false,
      "bookingUrl": "http://www.chengduhostel.com/flipflop/",
      "source": "osm"
    },
    {
      "nom": "Rhombus Chengdu Hotel",
      "categorie": "Hôtel",
      "priceRange": "€€",
      "mapsUrl": "https://maps.google.com/?q=30.6525931,104.0795747",
      "lat": 30.6525931,
      "lng": 104.0795747,
      "halalFriendly": false,
      "bookingUrl": "https://maps.google.com/?q=30.6525931,104.0795747",
      "source": "osm"
    },
    {
      "nom": "花香里庭院客栈",
      "categorie": "Maison d'hôtes",
      "priceRange": "€€",
      "mapsUrl": "https://maps.google.com/?q=30.5878168,104.1588246",
      "lat": 30.5878168,
      "lng": 104.1588246,
      "halalFriendly": false,
      "bookingUrl": "https://maps.google.com/?q=30.5878168,104.1588246",
      "source": "osm"
    }
  ],
  "mosqueesPrincipales": [
    {
      "id": "m582845149",
      "nom": "皇城清真寺",
      "type": "Mosquée",
      "adresse": "",
      "description": "Lieu de prière (OpenStreetMap).",
      "mapsUrl": "https://maps.google.com/?q=30.6591715,104.0603829",
      "lat": 30.6591715,
      "lng": 104.0603829,
      "source": "osm"
    },
    {
      "id": "m663125199",
      "nom": "鼓楼南街清真寺",
      "type": "Mosquée",
      "adresse": "",
      "description": "Lieu de prière (OpenStreetMap).",
      "mapsUrl": "https://maps.google.com/?q=30.6655807,104.0693874",
      "lat": 30.6655807,
      "lng": 104.0693874,
      "source": "osm"
    }
  ],
  "activites": [
    {
      "id": "a8636454517",
      "nom": "环球中心",
      "categorie": "attraction",
      "description": "",
      "prix": "",
      "duree": "",
      "mapsUrl": "https://maps.google.com/?q=30.5714638,104.0630834",
      "lat": 30.5714638,
      "lng": 104.0630834,
      "source": "osm"
    },
    {
      "id": "a12054705221",
      "nom": "天府绿道0公里",
      "categorie": "attraction",
      "description": "",
      "prix": "",
      "duree": "",
      "mapsUrl": "https://maps.google.com/?q=30.5672145,104.0661534",
      "lat": 30.5672145,
      "lng": 104.0661534,
      "source": "osm"
    },
    {
      "id": "a13284720902",
      "nom": "桂溪生态公园东区-观景台",
      "categorie": "viewpoint",
      "description": "",
      "prix": "",
      "duree": "",
      "mapsUrl": "https://maps.google.com/?q=30.5661468,104.0687843",
      "lat": 30.5661468,
      "lng": 104.0687843,
      "source": "osm"
    },
    {
      "id": "a11763070428",
      "nom": "大耳机",
      "categorie": "artwork",
      "description": "",
      "prix": "",
      "duree": "",
      "mapsUrl": "https://maps.google.com/?q=30.5658082,104.0606632",
      "lat": 30.5658082,
      "lng": 104.0606632,
      "source": "osm"
    },
    {
      "id": "a657125929",
      "nom": "西蜀廊桥古镇",
      "categorie": "attraction",
      "description": "",
      "prix": "",
      "duree": "",
      "mapsUrl": "https://maps.google.com/?q=30.5610805,104.0706051",
      "lat": 30.5610805,
      "lng": 104.0706051,
      "source": "osm"
    },
    {
      "id": "a12565742847",
      "nom": "灯会水幕电影",
      "categorie": "viewpoint",
      "description": "",
      "prix": "",
      "duree": "",
      "mapsUrl": "https://maps.google.com/?q=30.5571172,104.0802264",
      "lat": 30.5571172,
      "lng": 104.0802264,
      "source": "osm"
    },
    {
      "id": "a13620774371",
      "nom": "成都当代美术馆",
      "categorie": "museum",
      "description": "",
      "prix": "",
      "duree": "",
      "mapsUrl": "https://maps.google.com/?q=30.5441612,104.0680803",
      "lat": 30.5441612,
      "lng": 104.0680803,
      "source": "osm"
    },
    {
      "id": "a1371024505",
      "nom": "天府绿道标志",
      "categorie": "artwork",
      "description": "",
      "prix": "",
      "duree": "",
      "mapsUrl": "https://maps.google.com/?q=30.5730304,104.029533",
      "lat": 30.5730304,
      "lng": 104.029533,
      "source": "osm"
    },
    {
      "id": "a9669303892",
      "nom": "迈克尔·杰克逊雕像",
      "categorie": "artwork",
      "description": "",
      "prix": "",
      "duree": "",
      "mapsUrl": "https://maps.google.com/?q=30.604904,104.0677559",
      "lat": 30.604904,
      "lng": 104.0677559,
      "source": "osm"
    },
    {
      "id": "a5517650721",
      "nom": "中国-欧洲 中心",
      "categorie": "attraction",
      "description": "",
      "prix": "",
      "duree": "",
      "mapsUrl": "https://maps.google.com/?q=30.5392649,104.0681882",
      "lat": 30.5392649,
      "lng": 104.0681882,
      "source": "osm"
    },
    {
      "id": "a12628331562",
      "nom": "三和老爷车博物馆",
      "categorie": "museum",
      "description": "",
      "prix": "",
      "duree": "",
      "mapsUrl": "https://maps.google.com/?q=30.6000359,104.0395193",
      "lat": 30.6000359,
      "lng": 104.0395193,
      "source": "osm"
    },
    {
      "id": "a585012790",
      "nom": "红美术馆",
      "categorie": "gallery",
      "description": "",
      "prix": "",
      "duree": "",
      "mapsUrl": "https://maps.google.com/?q=30.616496,104.0848412",
      "lat": 30.616496,
      "lng": 104.0848412,
      "source": "osm"
    },
    {
      "id": "a1287594070",
      "nom": "成都烈士纪念馆",
      "categorie": "museum",
      "description": "",
      "prix": "",
      "duree": "",
      "mapsUrl": "https://maps.google.com/?q=30.554248,104.1200816",
      "lat": 30.554248,
      "lng": 104.1200816,
      "source": "osm"
    },
    {
      "id": "a1352339731",
      "nom": "中国民主同盟成都史实陈列馆",
      "categorie": "museum",
      "description": "",
      "prix": "",
      "duree": "",
      "mapsUrl": "https://maps.google.com/?q=30.5300074,104.0360383",
      "lat": 30.5300074,
      "lng": 104.0360383,
      "source": "osm"
    },
    {
      "id": "a1266379697",
      "nom": "域上和美艺术馆",
      "categorie": "gallery",
      "description": "",
      "prix": "",
      "duree": "",
      "mapsUrl": "https://maps.google.com/?q=30.6209848,104.0859724",
      "lat": 30.6209848,
      "lng": 104.0859724,
      "source": "osm"
    },
    {
      "id": "a5591333966",
      "nom": "域上和美艺术馆",
      "categorie": "gallery",
      "description": "",
      "prix": "",
      "duree": "",
      "mapsUrl": "https://maps.google.com/?q=30.6209902,104.0860133",
      "lat": 30.6209902,
      "lng": 104.0860133,
      "source": "osm"
    },
    {
      "id": "a1352339730",
      "nom": "西蜀人家红木博览馆",
      "categorie": "museum",
      "description": "",
      "prix": "",
      "duree": "",
      "mapsUrl": "https://maps.google.com/?q=30.5291714,104.0359867",
      "lat": 30.5291714,
      "lng": 104.0359867,
      "source": "osm"
    },
    {
      "id": "a13284720939",
      "nom": "观景台茶园",
      "categorie": "viewpoint",
      "description": "",
      "prix": "",
      "duree": "",
      "mapsUrl": "https://maps.google.com/?q=30.5221023,104.049311",
      "lat": 30.5221023,
      "lng": 104.049311,
      "source": "osm"
    },
    {
      "id": "a12628350163",
      "nom": "熊猫爬墙",
      "categorie": "artwork",
      "description": "",
      "prix": "",
      "duree": "",
      "mapsUrl": "https://maps.google.com/?q=30.6260642,104.0519642",
      "lat": 30.6260642,
      "lng": 104.0519642,
      "source": "osm"
    },
    {
      "id": "a8928765256",
      "nom": "成都直升机博物馆",
      "categorie": "museum",
      "description": "",
      "prix": "",
      "duree": "",
      "mapsUrl": "https://maps.google.com/?q=30.6033745,104.0115289",
      "lat": 30.6033745,
      "lng": 104.0115289,
      "source": "osm"
    },
    {
      "id": "a12898881642",
      "nom": "狮头鱼身",
      "categorie": "artwork",
      "description": "",
      "prix": "",
      "duree": "",
      "mapsUrl": "https://maps.google.com/?q=30.5167736,104.0808812",
      "lat": 30.5167736,
      "lng": 104.0808812,
      "source": "osm"
    },
    {
      "id": "a6588187693",
      "nom": "徐僖院士像",
      "categorie": "artwork",
      "description": "",
      "prix": "",
      "duree": "",
      "mapsUrl": "https://maps.google.com/?q=30.6297899,104.0752733",
      "lat": 30.6297899,
      "lng": 104.0752733,
      "source": "osm"
    },
    {
      "id": "a9868090818",
      "nom": "谷底公园",
      "categorie": "park",
      "description": "",
      "prix": "",
      "duree": "",
      "mapsUrl": "https://maps.google.com/?q=30.6148371,104.1135034",
      "lat": 30.6148371,
      "lng": 104.1135034,
      "source": "osm"
    },
    {
      "id": "a964933218",
      "nom": "孔子",
      "categorie": "monument",
      "description": "",
      "prix": "",
      "duree": "",
      "mapsUrl": "https://maps.google.com/?q=30.6117507,104.1187486",
      "lat": 30.6117507,
      "lng": 104.1187486,
      "source": "osm"
    },
    {
      "id": "a894223192",
      "nom": "幸福梅林",
      "categorie": "attraction",
      "description": "",
      "prix": "",
      "duree": "",
      "mapsUrl": "https://maps.google.com/?q=30.5856162,104.1342863",
      "lat": 30.5856162,
      "lng": 104.1342863,
      "source": "osm"
    },
    {
      "id": "a5759693855",
      "nom": "东篱菊园",
      "categorie": "attraction",
      "description": "",
      "prix": "",
      "duree": "",
      "mapsUrl": "https://maps.google.com/?q=30.5776612,104.1361849",
      "lat": 30.5776612,
      "lng": 104.1361849,
      "source": "osm"
    },
    {
      "id": "a7021511785",
      "nom": "Fangcao Cultural and Creative Block",
      "categorie": "attraction",
      "description": "",
      "prix": "",
      "duree": "",
      "mapsUrl": "https://maps.google.com/?q=30.6318956,104.0528137",
      "lat": 30.6318956,
      "lng": 104.0528137,
      "source": "osm"
    },
    {
      "id": "a6588187725",
      "nom": "鼎",
      "categorie": "artwork",
      "description": "",
      "prix": "",
      "duree": "",
      "mapsUrl": "https://maps.google.com/?q=30.6339239,104.0765941",
      "lat": 30.6339239,
      "lng": 104.0765941,
      "source": "osm"
    },
    {
      "id": "a5612733558",
      "nom": "四川大学革命烈士纪念碑",
      "categorie": "memorial",
      "description": "",
      "prix": "",
      "duree": "",
      "mapsUrl": "https://maps.google.com/?q=30.6323087,104.0873826",
      "lat": 30.6323087,
      "lng": 104.0873826,
      "source": "osm"
    },
    {
      "id": "a5037045625",
      "nom": "毛泽东像",
      "categorie": "memorial",
      "description": "",
      "prix": "",
      "duree": "",
      "mapsUrl": "https://maps.google.com/?q=30.6341408,104.0882823",
      "lat": 30.6341408,
      "lng": 104.0882823,
      "source": "osm"
    },
    {
      "id": "a4693518656",
      "nom": "海棠佳苑",
      "categorie": "park",
      "description": "",
      "prix": "",
      "duree": "",
      "mapsUrl": "https://maps.google.com/?q=30.6044141,104.1319009",
      "lat": 30.6044141,
      "lng": 104.1319009,
      "source": "osm"
    },
    {
      "id": "a8637664629",
      "nom": "江安校区美术馆",
      "categorie": "gallery",
      "description": "",
      "prix": "",
      "duree": "",
      "mapsUrl": "https://maps.google.com/?q=30.5585263,103.9930743",
      "lat": 30.5585263,
      "lng": 103.9930743,
      "source": "osm"
    },
    {
      "id": "a515873230",
      "nom": "校史馆",
      "categorie": "museum",
      "description": "",
      "prix": "",
      "duree": "",
      "mapsUrl": "https://maps.google.com/?q=30.635516,104.0869969",
      "lat": 30.635516,
      "lng": 104.0869969,
      "source": "osm"
    },
    {
      "id": "a4959703727",
      "nom": "观鸟台",
      "categorie": "viewpoint",
      "description": "",
      "prix": "",
      "duree": "",
      "mapsUrl": "https://maps.google.com/?q=30.5704139,104.1430584",
      "lat": 30.5704139,
      "lng": 104.1430584,
      "source": "osm"
    },
    {
      "id": "a9300883777",
      "nom": "国父孙中山",
      "categorie": "artwork",
      "description": "",
      "prix": "",
      "duree": "",
      "mapsUrl": "https://maps.google.com/?q=30.6198455,104.1235888",
      "lat": 30.6198455,
      "lng": 104.1235888,
      "source": "osm"
    },
    {
      "id": "a1357729948",
      "nom": "成都市李劼人故居纪念馆",
      "categorie": "museum",
      "description": "",
      "prix": "",
      "duree": "",
      "mapsUrl": "https://maps.google.com/?q=30.6212605,104.1220302",
      "lat": 30.6212605,
      "lng": 104.1220302,
      "source": "osm"
    },
    {
      "id": "a1357816912",
      "nom": "成都市李劼人故居纪念馆",
      "categorie": "museum",
      "description": "",
      "prix": "",
      "duree": "",
      "mapsUrl": "https://maps.google.com/?q=30.6211848,104.1222163",
      "lat": 30.6211848,
      "lng": 104.1222163,
      "source": "osm"
    },
    {
      "id": "a1357729947",
      "nom": "成都市李劼人故居纪念馆",
      "categorie": "museum",
      "description": "",
      "prix": "",
      "duree": "",
      "mapsUrl": "https://maps.google.com/?q=30.6211374,104.1223636",
      "lat": 30.6211374,
      "lng": 104.1223636,
      "source": "osm"
    },
    {
      "id": "a1357729949",
      "nom": "成都市李劼人故居纪念馆",
      "categorie": "museum",
      "description": "",
      "prix": "",
      "duree": "",
      "mapsUrl": "https://maps.google.com/?q=30.6211705,104.1225815",
      "lat": 30.6211705,
      "lng": 104.1225815,
      "source": "osm"
    },
    {
      "id": "a1357729946",
      "nom": "成都市李劼人故居纪念馆",
      "categorie": "museum",
      "description": "",
      "prix": "",
      "duree": "",
      "mapsUrl": "https://maps.google.com/?q=30.6213985,104.1224578",
      "lat": 30.6213985,
      "lng": 104.1224578,
      "source": "osm"
    },
    {
      "id": "a4786875822",
      "nom": "华西坝",
      "categorie": "attraction",
      "description": "",
      "prix": "",
      "duree": "",
      "mapsUrl": "https://maps.google.com/?q=30.6417937,104.066617",
      "lat": 30.6417937,
      "lng": 104.066617,
      "source": "osm"
    },
    {
      "id": "a12568191199",
      "nom": "华熙LIVE·528·成都时代美术馆",
      "categorie": "gallery",
      "description": "",
      "prix": "",
      "duree": "",
      "mapsUrl": "https://maps.google.com/?q=30.5953654,104.1429429",
      "lat": 30.5953654,
      "lng": 104.1429429,
      "source": "osm"
    },
    {
      "id": "a685389332",
      "nom": "三圣花乡",
      "categorie": "attraction",
      "description": "",
      "prix": "",
      "duree": "",
      "mapsUrl": "https://maps.google.com/?q=30.5780846,104.1477578",
      "lat": 30.5780846,
      "lng": 104.1477578,
      "source": "osm"
    },
    {
      "id": "a3673102089",
      "nom": "南湖梦幻岛",
      "categorie": "park",
      "description": "",
      "prix": "",
      "duree": "",
      "mapsUrl": "https://maps.google.com/?q=30.5041789,104.0512226",
      "lat": 30.5041789,
      "lng": 104.0512226,
      "source": "osm"
    },
    {
      "id": "a1115696149",
      "nom": "跃美术馆",
      "categorie": "gallery",
      "description": "",
      "prix": "",
      "duree": "",
      "mapsUrl": "https://maps.google.com/?q=30.5874684,103.9872159",
      "lat": 30.5874684,
      "lng": 103.9872159,
      "source": "osm"
    },
    {
      "id": "a3390819402",
      "nom": "西南民族博物馆",
      "categorie": "museum",
      "description": "",
      "prix": "",
      "duree": "",
      "mapsUrl": "https://maps.google.com/?q=30.6416536,104.0466857",
      "lat": 30.6416536,
      "lng": 104.0466857,
      "source": "osm"
    },
    {
      "id": "a1091028991",
      "nom": "浓园国际艺术馆",
      "categorie": "gallery",
      "description": "",
      "prix": "",
      "duree": "",
      "mapsUrl": "https://maps.google.com/?q=30.5881868,103.9847089",
      "lat": 30.5881868,
      "lng": 103.9847089,
      "source": "osm"
    },
    {
      "id": "a6349200760",
      "nom": "安顺廊桥",
      "categorie": "attraction",
      "description": "",
      "prix": "",
      "duree": "",
      "mapsUrl": "https://maps.google.com/?q=30.644143,104.0834347",
      "lat": 30.644143,
      "lng": 104.0834347,
      "source": "osm"
    },
    {
      "id": "a3673072697",
      "nom": "南湖梦幻岛",
      "categorie": "park",
      "description": "",
      "prix": "",
      "duree": "",
      "mapsUrl": "https://maps.google.com/?q=30.500886,104.0513312",
      "lat": 30.500886,
      "lng": 104.0513312,
      "source": "osm"
    },
    {
      "id": "a1158118164",
      "nom": "华西口腔健康教育博物馆",
      "categorie": "museum",
      "description": "",
      "prix": "",
      "duree": "",
      "mapsUrl": "https://maps.google.com/?q=30.646048,104.0631167",
      "lat": 30.646048,
      "lng": 104.0631167,
      "source": "osm"
    },
    {
      "id": "a10657722602",
      "nom": "银杏黄",
      "categorie": "viewpoint",
      "description": "",
      "prix": "",
      "duree": "",
      "mapsUrl": "https://maps.google.com/?q=30.5019347,104.0430113",
      "lat": 30.5019347,
      "lng": 104.0430113,
      "source": "osm"
    },
    {
      "id": "a557404497",
      "nom": "四川省防灾减灾教育馆",
      "categorie": "museum",
      "description": "",
      "prix": "",
      "duree": "",
      "mapsUrl": "https://maps.google.com/?q=30.6313285,104.0144675",
      "lat": 30.6313285,
      "lng": 104.0144675,
      "source": "osm"
    },
    {
      "id": "a12788195820",
      "nom": "帆船",
      "categorie": "artwork",
      "description": "",
      "prix": "",
      "duree": "",
      "mapsUrl": "https://maps.google.com/?q=30.6462346,104.0812283",
      "lat": 30.6462346,
      "lng": 104.0812283,
      "source": "osm"
    },
    {
      "id": "a12788195817",
      "nom": "庆龄码头观景台",
      "categorie": "viewpoint",
      "description": "",
      "prix": "",
      "duree": "",
      "mapsUrl": "https://maps.google.com/?q=30.6462428,104.0812599",
      "lat": 30.6462428,
      "lng": 104.0812599,
      "source": "osm"
    },
    {
      "id": "a1295108625",
      "nom": "鲨鱼馆",
      "categorie": "attraction",
      "description": "",
      "prix": "",
      "duree": "",
      "mapsUrl": "https://maps.google.com/?q=30.4981956,104.0718462",
      "lat": 30.4981956,
      "lng": 104.0718462,
      "source": "osm"
    },
    {
      "id": "a1321545900",
      "nom": "萌龟馆",
      "categorie": "attraction",
      "description": "",
      "prix": "",
      "duree": "",
      "mapsUrl": "https://maps.google.com/?q=30.4981042,104.0711767",
      "lat": 30.4981042,
      "lng": 104.0711767,
      "source": "osm"
    },
    {
      "id": "a12229054744",
      "nom": "萌宠星球",
      "categorie": "attraction",
      "description": "",
      "prix": "",
      "duree": "",
      "mapsUrl": "https://maps.google.com/?q=30.4980243,104.0699387",
      "lat": 30.4980243,
      "lng": 104.0699387,
      "source": "osm"
    },
    {
      "id": "a1321545898",
      "nom": "海底世界",
      "categorie": "attraction",
      "description": "",
      "prix": "",
      "duree": "",
      "mapsUrl": "https://maps.google.com/?q=30.4978932,104.0723103",
      "lat": 30.4978932,
      "lng": 104.0723103,
      "source": "osm"
    },
    {
      "id": "a1295108624",
      "nom": "鲸豚馆",
      "categorie": "attraction",
      "description": "",
      "prix": "",
      "duree": "",
      "mapsUrl": "https://maps.google.com/?q=30.4977227,104.070236",
      "lat": 30.4977227,
      "lng": 104.070236,
      "source": "osm"
    },
    {
      "id": "a1321545899",
      "nom": "360°巨幕影院",
      "categorie": "attraction",
      "description": "",
      "prix": "",
      "duree": "",
      "mapsUrl": "https://maps.google.com/?q=30.4977759,104.0718878",
      "lat": 30.4977759,
      "lng": 104.0718878,
      "source": "osm"
    },
    {
      "id": "a1365751783",
      "nom": "中国虎标行艺术馆",
      "categorie": "gallery",
      "description": "",
      "prix": "",
      "duree": "",
      "mapsUrl": "https://maps.google.com/?q=30.5717887,104.1543217",
      "lat": 30.5717887,
      "lng": 104.1543217,
      "source": "osm"
    },
    {
      "id": "a13235149131",
      "nom": "近悦儿童美术馆",
      "categorie": "gallery",
      "description": "",
      "prix": "",
      "duree": "",
      "mapsUrl": "https://maps.google.com/?q=30.6320567,104.0126415",
      "lat": 30.6320567,
      "lng": 104.0126415,
      "source": "osm"
    },
    {
      "id": "a1321545902",
      "nom": "海洋交流广场",
      "categorie": "attraction",
      "description": "",
      "prix": "",
      "duree": "",
      "mapsUrl": "https://maps.google.com/?q=30.4970637,104.0699343",
      "lat": 30.4970637,
      "lng": 104.0699343,
      "source": "osm"
    },
    {
      "id": "a483068129",
      "nom": "成都极地海洋公园",
      "categorie": "theme park",
      "description": "",
      "prix": "",
      "duree": "",
      "mapsUrl": "https://maps.google.com/?q=30.4969291,104.0711065",
      "lat": 30.4969291,
      "lng": 104.0711065,
      "source": "osm"
    },
    {
      "id": "a1356175214",
      "nom": "水井坊博物馆(天仙桥南路店)",
      "categorie": "museum",
      "description": "",
      "prix": "",
      "duree": "",
      "mapsUrl": "https://maps.google.com/?q=30.6474392,104.0835363",
      "lat": 30.6474392,
      "lng": 104.0835363,
      "source": "osm"
    },
    {
      "id": "a475620911",
      "nom": "许燎源现代设计艺术博物馆",
      "categorie": "museum",
      "description": "",
      "prix": "",
      "duree": "",
      "mapsUrl": "https://maps.google.com/?q=30.5850666,104.1539815",
      "lat": 30.5850666,
      "lng": 104.1539815,
      "source": "osm"
    },
    {
      "id": "a12229054818",
      "nom": "海象馆",
      "categorie": "attraction",
      "description": "",
      "prix": "",
      "duree": "",
      "mapsUrl": "https://maps.google.com/?q=30.4967337,104.0702711",
      "lat": 30.4967337,
      "lng": 104.0702711,
      "source": "osm"
    },
    {
      "id": "a12229054937",
      "nom": "4D影院",
      "categorie": "attraction",
      "description": "",
      "prix": "",
      "duree": "",
      "mapsUrl": "https://maps.google.com/?q=30.4964479,104.0708541",
      "lat": 30.4964479,
      "lng": 104.0708541,
      "source": "osm"
    },
    {
      "id": "a12229054819",
      "nom": "北海狮馆",
      "categorie": "attraction",
      "description": "",
      "prix": "",
      "duree": "",
      "mapsUrl": "https://maps.google.com/?q=30.4964198,104.0704707",
      "lat": 30.4964198,
      "lng": 104.0704707,
      "source": "osm"
    },
    {
      "id": "a12229054829",
      "nom": "欢乐剧场",
      "categorie": "attraction",
      "description": "",
      "prix": "",
      "duree": "",
      "mapsUrl": "https://maps.google.com/?q=30.4961718,104.0704191",
      "lat": 30.4961718,
      "lng": 104.0704191,
      "source": "osm"
    },
    {
      "id": "a1321545906",
      "nom": "梦幻水母馆",
      "categorie": "attraction",
      "description": "",
      "prix": "",
      "duree": "",
      "mapsUrl": "https://maps.google.com/?q=30.4961588,104.0713981",
      "lat": 30.4961588,
      "lng": 104.0713981,
      "source": "osm"
    },
    {
      "id": "a1321545913",
      "nom": "北极村",
      "categorie": "attraction",
      "description": "",
      "prix": "",
      "duree": "",
      "mapsUrl": "https://maps.google.com/?q=30.4960837,104.0699235",
      "lat": 30.4960837,
      "lng": 104.0699235,
      "source": "osm"
    },
    {
      "id": "a10081135712",
      "nom": "文保碑",
      "categorie": "memorial",
      "description": "",
      "prix": "",
      "duree": "",
      "mapsUrl": "https://maps.google.com/?q=30.6472951,104.043584",
      "lat": 30.6472951,
      "lng": 104.043584,
      "source": "osm"
    },
    {
      "id": "a1321545918",
      "nom": "企鹅馆",
      "categorie": "attraction",
      "description": "",
      "prix": "",
      "duree": "",
      "mapsUrl": "https://maps.google.com/?q=30.4957313,104.0707588",
      "lat": 30.4957313,
      "lng": 104.0707588,
      "source": "osm"
    },
    {
      "id": "a1321545914",
      "nom": "北极熊馆",
      "categorie": "attraction",
      "description": "",
      "prix": "",
      "duree": "",
      "mapsUrl": "https://maps.google.com/?q=30.4956519,104.0700539",
      "lat": 30.4956519,
      "lng": 104.0700539,
      "source": "osm"
    },
    {
      "id": "a277942162",
      "nom": "武侯祠",
      "categorie": "museum",
      "description": "",
      "prix": "",
      "duree": "",
      "mapsUrl": "https://maps.google.com/?q=30.6483863,104.0454567",
      "lat": 30.6483863,
      "lng": 104.0454567,
      "source": "osm"
    },
    {
      "id": "a653532195",
      "nom": "静远堂",
      "categorie": "attraction",
      "description": "",
      "prix": "",
      "duree": "",
      "mapsUrl": "https://maps.google.com/?q=30.6484071,104.0450221",
      "lat": 30.6484071,
      "lng": 104.0450221,
      "source": "osm"
    },
    {
      "id": "a837197354",
      "nom": "锦里",
      "categorie": "attraction",
      "description": "",
      "prix": "",
      "duree": "",
      "mapsUrl": "https://maps.google.com/?q=30.6488068,104.0469491",
      "lat": 30.6488068,
      "lng": 104.0469491,
      "source": "osm"
    },
    {
      "id": "a5851008379",
      "nom": "孔明苑",
      "categorie": "attraction",
      "description": "",
      "prix": "",
      "duree": "",
      "mapsUrl": "https://maps.google.com/?q=30.6488961,104.0465035",
      "lat": 30.6488961,
      "lng": 104.0465035,
      "source": "osm"
    },
    {
      "id": "a12847122769",
      "nom": "活字模",
      "categorie": "artwork",
      "description": "",
      "prix": "",
      "duree": "",
      "mapsUrl": "https://maps.google.com/?q=30.6504192,104.0791477",
      "lat": 30.6504192,
      "lng": 104.0791477,
      "source": "osm"
    },
    {
      "id": "a12847122771",
      "nom": "哪咤壁画",
      "categorie": "artwork",
      "description": "",
      "prix": "",
      "duree": "",
      "mapsUrl": "https://maps.google.com/?q=30.6512513,104.0773543",
      "lat": 30.6512513,
      "lng": 104.0773543,
      "source": "osm"
    },
    {
      "id": "a3034003188",
      "nom": "木牛流马",
      "categorie": "viewpoint",
      "description": "",
      "prix": "",
      "duree": "",
      "mapsUrl": "https://maps.google.com/?q=30.6500406,104.0475352",
      "lat": 30.6500406,
      "lng": 104.0475352,
      "source": "osm"
    },
    {
      "id": "a1352562987",
      "nom": "四川天府新区明昌博物馆华阳文博馆",
      "categorie": "museum",
      "description": "",
      "prix": "",
      "duree": "",
      "mapsUrl": "https://maps.google.com/?q=30.4968294,104.0412821",
      "lat": 30.4968294,
      "lng": 104.0412821,
      "source": "osm"
    },
    {
      "id": "a1021574470",
      "nom": "鸟语林",
      "categorie": "zoo",
      "description": "",
      "prix": "",
      "duree": "",
      "mapsUrl": "https://maps.google.com/?q=30.6347474,104.1244211",
      "lat": 30.6347474,
      "lng": 104.1244211,
      "source": "osm"
    },
    {
      "id": "a618883899",
      "nom": "武侯祠美术馆（荐馨殿）",
      "categorie": "gallery",
      "description": "",
      "prix": "",
      "duree": "",
      "mapsUrl": "https://maps.google.com/?q=30.6500675,104.0451846",
      "lat": 30.6500675,
      "lng": 104.0451846,
      "source": "osm"
    },
    {
      "id": "a9651750624",
      "nom": "古蜀迷宫",
      "categorie": "attraction",
      "description": "",
      "prix": "",
      "duree": "",
      "mapsUrl": "https://maps.google.com/?q=30.6367142,104.1230367",
      "lat": 30.6367142,
      "lng": 104.1230367,
      "source": "osm"
    },
    {
      "id": "a1010715216",
      "nom": "曼克瑞尔婚礼文创园",
      "categorie": "theme park",
      "description": "",
      "prix": "",
      "duree": "",
      "mapsUrl": "https://maps.google.com/?q=30.5390933,104.1515033",
      "lat": 30.5390933,
      "lng": 104.1515033,
      "source": "osm"
    },
    {
      "id": "a901203243",
      "nom": "花乡农居",
      "categorie": "attraction",
      "description": "",
      "prix": "",
      "duree": "",
      "mapsUrl": "https://maps.google.com/?q=30.5869714,104.1588602",
      "lat": 30.5869714,
      "lng": 104.1588602,
      "source": "osm"
    },
    {
      "id": "a11121889981",
      "nom": "成都十二月市博物馆",
      "categorie": "museum",
      "description": "",
      "prix": "",
      "duree": "",
      "mapsUrl": "https://maps.google.com/?q=30.652107,104.083437",
      "lat": 30.652107,
      "lng": 104.083437,
      "source": "osm"
    },
    {
      "id": "a12553389627",
      "nom": "成都市锦江区第三大街社区美术馆",
      "categorie": "gallery",
      "description": "",
      "prix": "",
      "duree": "",
      "mapsUrl": "https://maps.google.com/?q=30.6496641,104.0960506",
      "lat": 30.6496641,
      "lng": 104.0960506,
      "source": "osm"
    }
  ],
  "villeNonMusulmane": true,
  "osmEnriched": true,
  "osmEnrichedAt": "2026-06-30",
  "description_en": "Chengdu may not be a Muslim-majority destination, but it welcomes Muslim travelers with real halal options. You'll find 8 halal restaurants and 2 mosques nearby, plus real-time prayer times and the Qibla direction — everything to explore Chengdu, China, with peace of mind.",
  "metaDescription_en": "Halal guide to Chengdu: 8+ halal restaurants, 2 mosques, prayer times and tips for Muslim travelers. Halal Trust Score 3.2/5.",
  "nom_en": "Chengdu"
}