{
 "nom": "Chicago",
 "pays": "États-Unis",
 "slug": "chicago",
 "image": "https://images.unsplash.com/photo-1494522855154-9297ac14b55f?w=1400&q=85",
 "image_hero": "https://images.unsplash.com/photo-1494522855154-9297ac14b55f?w=1400&q=85",
 "description": "Chicago, métropole des gratte-ciel sur le lac Michigan, abrite la « Devon Avenue » sud-asiatique et une riche scène halal. Architecture, deep-dish et mosquées historiques.",
 "descriptionLongue": "Berceau du gratte-ciel et capitale du Midwest, Chicago déploie son skyline le long du lac Michigan. La ville accueille l'une des plus anciennes communautés musulmanes des États-Unis. Devon Avenue, artère indo-pakistanaise, et le quartier arabe de Bridgeview offrent restaurants halal, épiceries et pâtisseries. Entre l'architecture audacieuse, le Bean de Millennium Park et les musées de classe mondiale, Chicago est une étape américaine majeure.",
 "halalScore": 7.8,
 "score_halal": 3.9,
 "mosquees": 120,
 "population": "2,7 millions",
 "langue": "Anglais",
 "monnaie": "Dollar US (USD)",
 "fuseau": "UTC-6",
 "meilleureEpoque": "Mai à Octobre",
 "prixMoyenNuit": "150€",
 "continent": "Amérique du Nord",
 "codeISO": "US",
 "pays_slug": "etats-unis",
 "region": "Midwest",
 "meta_title": "Voyage Halal à Chicago — Guide Complet 2026",
 "meta_description": "Restaurants halal signalés, mosquées et guide pratique pour Chicago — Halal Trust Score 7.8/10.",
 "metaDescription": "Restaurants halal signalés, mosquées et guide pratique pour Chicago — Halal Trust Score 7.8/10.",
 "coordonnees": {
  "lat": 41.8781,
  "lng": -87.6298
 },
 "image_alt": "Vue de Chicago, États-Unis",
 "statistiques": {
  "mosquees": 2,
  "restaurants_halal": 58,
  "habitants_musulmans_pct": 8,
  "hotels": 113
 },
 "infos_pratiques": {
  "langue": "Anglais",
  "monnaie": "Dollar US (USD)",
  "meilleure_periode": "Mai à Octobre",
  "appel_priere": "5 fois par jour",
  "nourriture_halal": "Largement disponible",
  "alcool": "Disponible",
  "securite": "Précautions habituelles"
 },
 "infoPratique": {
  "visa": "ESTA obligatoire pour les Français",
  "vaccins": "Aucun obligatoire",
  "transport": "Métro aérien 'L', bus, VTC",
  "priseElectrique": "Type A/B — 120V",
  "decalageHoraire": "-7h par rapport à Paris"
 },
 "restaurants": [
  {
   "nom": "Saffron Street",
   "lat": 41.87964,
   "lng": -87.6300709,
   "type": "indian",
   "halalConfidence": "likely",
   "mapsUrl": "https://maps.google.com/?q=41.87964,-87.6300709",
   "source": "osm"
  },
  {
   "nom": "Bereket",
   "lat": 41.8771998,
   "lng": -87.6350065,
   "type": "turkish",
   "halalConfidence": "likely",
   "mapsUrl": "https://maps.google.com/?q=41.8771998,-87.6350065",
   "source": "osm"
  },
  {
   "nom": "Himalayan Restaurant",
   "lat": 41.8740857,
   "lng": -87.6262217,
   "type": "indian",
   "halalConfidence": "likely",
   "mapsUrl": "https://maps.google.com/?q=41.8740857,-87.6262217",
   "source": "osm"
  },
  {
   "nom": "Chiya Chai",
   "lat": 41.8819871,
   "lng": -87.6248866,
   "type": "tea, indian",
   "halalConfidence": "likely",
   "mapsUrl": "https://maps.google.com/?q=41.8819871,-87.6248866",
   "source": "osm"
  },
  {
   "nom": "Chicago Curry House",
   "lat": 41.8707557,
   "lng": -87.6283739,
   "type": "indian",
   "halalConfidence": "likely",
   "mapsUrl": "https://maps.google.com/?q=41.8707557,-87.6283739",
   "source": "osm"
  },
  {
   "nom": "The Halal Guys",
   "lat": 41.8852188,
   "lng": -87.6264882,
   "type": "chicken, falafel, gyros",
   "halalConfidence": "high",
   "mapsUrl": "https://maps.google.com/?q=41.8852188,-87.6264882",
   "source": "osm"
  },
  {
   "nom": "Crave",
   "lat": 41.8853866,
   "lng": -87.6352431,
   "type": "burger, hot dog",
   "halalConfidence": "high",
   "mapsUrl": "https://maps.google.com/?q=41.8853866,-87.6352431",
   "source": "osm"
  },
  {
   "nom": "Piggie Smalls Gyro Shop",
   "lat": 41.8864466,
   "lng": -87.6341347,
   "type": "kebab",
   "halalConfidence": "likely",
   "mapsUrl": "https://maps.google.com/?q=41.8864466,-87.6341347",
   "source": "osm"
  },
  {
   "nom": "Swadesi Cafe",
   "lat": 41.8772561,
   "lng": -87.6427089,
   "type": "indian",
   "halalConfidence": "likely",
   "mapsUrl": "https://maps.google.com/?q=41.8772561,-87.6427089",
   "source": "osm"
  },
  {
   "nom": "Nepal House",
   "lat": 41.865687,
   "lng": -87.6239148,
   "type": "indian",
   "halalConfidence": "likely",
   "mapsUrl": "https://maps.google.com/?q=41.865687,-87.6239148",
   "source": "osm"
  },
  {
   "nom": "India House",
   "lat": 41.891439,
   "lng": -87.630394,
   "type": "indian",
   "halalConfidence": "likely",
   "mapsUrl": "https://maps.google.com/?q=41.891439,-87.630394",
   "source": "osm"
  },
  {
   "nom": "ROOP",
   "lat": 41.8846356,
   "lng": -87.6471363,
   "type": "indian",
   "halalConfidence": "likely",
   "mapsUrl": "https://maps.google.com/?q=41.8846356,-87.6471363",
   "source": "osm"
  },
  {
   "nom": "Kama Bistro",
   "lat": 41.8846202,
   "lng": -87.648195,
   "type": "indian",
   "halalConfidence": "likely",
   "mapsUrl": "https://maps.google.com/?q=41.8846202,-87.648195",
   "source": "osm"
  },
  {
   "nom": "Beity",
   "lat": 41.8866236,
   "lng": -87.6481327,
   "type": "lebanese",
   "halalConfidence": "likely",
   "mapsUrl": "https://maps.google.com/?q=41.8866236,-87.6481327",
   "source": "osm"
  },
  {
   "nom": "Indian Garden",
   "lat": 41.8932431,
   "lng": -87.6208409,
   "type": "indian",
   "halalConfidence": "likely",
   "mapsUrl": "https://maps.google.com/?q=41.8932431,-87.6208409",
   "source": "osm"
  },
  {
   "nom": "Bombay Wraps",
   "lat": 41.8927994,
   "lng": -87.6186395,
   "type": "indian",
   "halalConfidence": "likely",
   "mapsUrl": "https://maps.google.com/?q=41.8927994,-87.6186395",
   "source": "osm"
  },
  {
   "nom": "Indienne",
   "lat": 41.8945593,
   "lng": -87.6351044,
   "type": "indian",
   "halalConfidence": "likely",
   "mapsUrl": "https://maps.google.com/?q=41.8945593,-87.6351044",
   "source": "osm"
  },
  {
   "nom": "OUD Coffee & Cafe",
   "lat": 41.8953576,
   "lng": -87.6344398,
   "type": "arab",
   "halalConfidence": "likely",
   "mapsUrl": "https://maps.google.com/?q=41.8953576,-87.6344398",
   "source": "osm"
  },
  {
   "nom": "Cairo Kebab",
   "lat": 41.8649119,
   "lng": -87.6463868,
   "type": "egyptian, middle eastern",
   "halalConfidence": "high",
   "mapsUrl": "https://maps.google.com/?q=41.8649119,-87.6463868",
   "source": "osm"
  },
  {
   "nom": "Curry On Fire",
   "lat": 41.869643,
   "lng": -87.6523766,
   "type": "indian",
   "halalConfidence": "likely",
   "mapsUrl": "https://maps.google.com/?q=41.869643,-87.6523766",
   "source": "osm"
  },
  {
   "nom": "the Bite",
   "lat": 41.8696126,
   "lng": -87.6535636,
   "type": "burger, shawarma",
   "halalConfidence": "likely",
   "mapsUrl": "https://maps.google.com/?q=41.8696126,-87.6535636",
   "source": "osm"
  },
  {
   "nom": "Alhambra Palace",
   "lat": 41.8846138,
   "lng": -87.658239,
   "type": "middle eastern",
   "halalConfidence": "high",
   "mapsUrl": "https://maps.google.com/?q=41.8846138,-87.658239",
   "source": "osm"
  },
  {
   "nom": "Mogadishu Restaurant",
   "lat": 41.8998396,
   "lng": -87.63707,
   "type": "somalian",
   "halalConfidence": "high",
   "mapsUrl": "https://maps.google.com/?q=41.8998396,-87.63707",
   "source": "osm"
  },
  {
   "nom": "Eggholic",
   "lat": 41.8960931,
   "lng": -87.6490935,
   "type": "indian, mexican",
   "halalConfidence": "likely",
   "mapsUrl": "https://maps.google.com/?q=41.8960931,-87.6490935",
   "source": "osm"
  },
  {
   "nom": "Adda Indian Cuisine",
   "lat": 41.8695048,
   "lng": -87.6618521,
   "type": "indian",
   "halalConfidence": "likely",
   "mapsUrl": "https://maps.google.com/?q=41.8695048,-87.6618521",
   "source": "osm"
  },
  {
   "nom": "Mr Gyros",
   "lat": 41.9037901,
   "lng": -87.6318764,
   "type": "kebab",
   "halalConfidence": "likely",
   "mapsUrl": "https://maps.google.com/?q=41.9037901,-87.6318764",
   "source": "osm"
  },
  {
   "nom": "Crave Kabob",
   "lat": 41.8812529,
   "lng": -87.6652285,
   "type": "kebab",
   "halalConfidence": "likely",
   "mapsUrl": "https://maps.google.com/?q=41.8812529,-87.6652285",
   "source": "osm"
  },
  {
   "nom": "Tuk Tuk Indian Street Food",
   "lat": 41.8691273,
   "lng": -87.6634026,
   "type": "indian",
   "halalConfidence": "likely",
   "mapsUrl": "https://maps.google.com/?q=41.8691273,-87.6634026",
   "source": "osm"
  },
  {
   "nom": "Old Jerusalem",
   "lat": 41.9080551,
   "lng": -87.6344468,
   "type": "middle eastern",
   "halalConfidence": "high",
   "mapsUrl": "https://maps.google.com/?q=41.9080551,-87.6344468",
   "source": "osm"
  },
  {
   "nom": "Al Halal Zaiqa",
   "lat": 41.9109081,
   "lng": -87.6404856,
   "type": "indian, pakistani",
   "halalConfidence": "high",
   "mapsUrl": "https://maps.google.com/?q=41.9109081,-87.6404856",
   "source": "osm"
  },
  {
   "nom": "Hummus Grill",
   "lat": 41.8954861,
   "lng": -87.6771859,
   "type": "mediterranean",
   "halalConfidence": "high",
   "mapsUrl": "https://maps.google.com/?q=41.8954861,-87.6771859",
   "source": "osm"
  },
  {
   "nom": "Caspian Kabab Fine Persian Cuisine",
   "lat": 41.9074471,
   "lng": -87.6672296,
   "type": "middle eastern",
   "halalConfidence": "high",
   "mapsUrl": "https://maps.google.com/?q=41.9074471,-87.6672296",
   "source": "osm"
  },
  {
   "nom": "Evette's",
   "lat": 41.9184595,
   "lng": -87.6383706,
   "type": "sandwich, lebanese",
   "halalConfidence": "likely",
   "mapsUrl": "https://maps.google.com/?q=41.9184595,-87.6383706",
   "source": "osm"
  },
  {
   "nom": "Cedar Palace",
   "lat": 41.9180485,
   "lng": -87.6456973,
   "type": "middle eastern",
   "halalConfidence": "high",
   "mapsUrl": "https://maps.google.com/?q=41.9180485,-87.6456973",
   "source": "osm"
  },
  {
   "nom": "Shawarma Garden",
   "lat": 41.9029591,
   "lng": -87.6768288,
   "type": "middle eastern",
   "halalConfidence": "high",
   "mapsUrl": "https://maps.google.com/?q=41.9029591,-87.6768288",
   "source": "osm"
  },
  {
   "nom": "Zaytune Mediterranean Grill",
   "lat": 41.8370414,
   "lng": -87.6509912,
   "type": "mediterranean",
   "halalConfidence": "high",
   "mapsUrl": "https://maps.google.com/?q=41.8370414,-87.6509912",
   "source": "osm"
  },
  {
   "nom": "Moti Modern Indian Kitchen",
   "lat": 41.9239848,
   "lng": -87.6469762,
   "type": "pizza, indian, indian",
   "halalConfidence": "likely",
   "mapsUrl": "https://maps.google.com/?q=41.9239848,-87.6469762",
   "source": "osm"
  },
  {
   "nom": "Sultan's Market",
   "lat": 41.9103339,
   "lng": -87.6797489,
   "type": "middle eastern",
   "halalConfidence": "high",
   "mapsUrl": "https://maps.google.com/?q=41.9103339,-87.6797489",
   "source": "osm"
  },
  {
   "nom": "Indian Paradise",
   "lat": 41.9102328,
   "lng": -87.6846094,
   "type": "indian",
   "halalConfidence": "likely",
   "mapsUrl": "https://maps.google.com/?q=41.9102328,-87.6846094",
   "source": "osm"
  },
  {
   "nom": "Rangoli",
   "lat": 41.9101455,
   "lng": -87.6881071,
   "type": "indian",
   "halalConfidence": "likely",
   "mapsUrl": "https://maps.google.com/?q=41.9101455,-87.6881071",
   "source": "osm"
  },
  {
   "nom": "Pars Cove Restaurant",
   "lat": 41.9325966,
   "lng": -87.6408545,
   "type": "middle eastern",
   "halalConfidence": "high",
   "mapsUrl": "https://maps.google.com/?q=41.9325966,-87.6408545",
   "source": "osm"
  },
  {
   "nom": "Mild 2 Spicy",
   "lat": 41.9329015,
   "lng": -87.6472424,
   "type": "indian",
   "halalConfidence": "likely",
   "mapsUrl": "https://maps.google.com/?q=41.9329015,-87.6472424",
   "source": "osm"
  },
  {
   "nom": "Farm & Sea",
   "lat": 41.9337864,
   "lng": -87.6443848,
   "type": "turkish",
   "halalConfidence": "likely",
   "mapsUrl": "https://maps.google.com/?q=41.9337864,-87.6443848",
   "source": "osm"
  },
  {
   "nom": "Troy Mediterranean Grill & Turkish Kitchen",
   "lat": 41.9352464,
   "lng": -87.6444633,
   "type": "turkish",
   "halalConfidence": "likely",
   "mapsUrl": "https://maps.google.com/?q=41.9352464,-87.6444633",
   "source": "osm"
  },
  {
   "nom": "Nicky's Gyros",
   "lat": 41.8169866,
   "lng": -87.6313617,
   "type": "kebab",
   "halalConfidence": "likely",
   "mapsUrl": "https://maps.google.com/?q=41.8169866,-87.6313617",
   "source": "osm"
  },
  {
   "nom": "Momo Factory",
   "lat": 41.940209,
   "lng": -87.6445525,
   "type": "indian, nepalese",
   "halalConfidence": "likely",
   "mapsUrl": "https://maps.google.com/?q=41.940209,-87.6445525",
   "source": "osm"
  },
  {
   "nom": "Royal Indian Grill",
   "lat": 41.9437361,
   "lng": -87.6550672,
   "type": "indian",
   "halalConfidence": "likely",
   "mapsUrl": "https://maps.google.com/?q=41.9437361,-87.6550672",
   "source": "osm"
  },
  {
   "nom": "Namaste Chicago",
   "lat": 41.9271555,
   "lng": -87.6972661,
   "type": "indian",
   "halalConfidence": "likely",
   "mapsUrl": "https://maps.google.com/?q=41.9271555,-87.6972661",
   "source": "osm"
  },
  {
   "nom": "Dhanteraz Indian Fusion",
   "lat": 41.94332,
   "lng": -87.6816617,
   "type": "indian fusion",
   "halalConfidence": "likely",
   "mapsUrl": "https://maps.google.com/?q=41.94332,-87.6816617",
   "source": "osm"
  },
  {
   "nom": "Thattu",
   "lat": 41.938448,
   "lng": -87.6931234,
   "type": "indian",
   "halalConfidence": "likely",
   "mapsUrl": "https://maps.google.com/?q=41.938448,-87.6931234",
   "source": "osm"
  },
  {
   "nom": "Windy City Gyros",
   "lat": 41.9536176,
   "lng": -87.6502932,
   "type": "kebab",
   "halalConfidence": "likely",
   "mapsUrl": "https://maps.google.com/?q=41.9536176,-87.6502932",
   "source": "osm"
  },
  {
   "nom": "Superkhana International",
   "lat": 41.9319096,
   "lng": -87.7048257,
   "type": "indian",
   "halalConfidence": "likely",
   "mapsUrl": "https://maps.google.com/?q=41.9319096,-87.7048257",
   "source": "osm"
  },
  {
   "nom": "Basant",
   "lat": 41.9522513,
   "lng": -87.6777979,
   "type": "indian",
   "halalConfidence": "likely",
   "mapsUrl": "https://maps.google.com/?q=41.9522513,-87.6777979",
   "source": "osm"
  },
  {
   "nom": "Indian Clay Pot",
   "lat": 41.954394,
   "lng": -87.6743451,
   "type": "indian",
   "halalConfidence": "likely",
   "mapsUrl": "https://maps.google.com/?q=41.954394,-87.6743451",
   "source": "osm"
  },
  {
   "nom": "Rajun Cajun",
   "lat": 41.799425,
   "lng": -87.5895057,
   "type": "indian, cajun",
   "halalConfidence": "likely",
   "mapsUrl": "https://maps.google.com/?q=41.799425,-87.5895057",
   "source": "osm"
  },
  {
   "nom": "Alfarsi",
   "lat": 41.9542636,
   "lng": -87.683767,
   "type": "mediterranean, persian",
   "halalConfidence": "high",
   "mapsUrl": "https://maps.google.com/?q=41.9542636,-87.683767",
   "source": "osm"
  },
  {
   "nom": "Nile Restaurant",
   "lat": 41.7951799,
   "lng": -87.5971262,
   "type": "kebab, middle eastern",
   "halalConfidence": "high",
   "mapsUrl": "https://maps.google.com/?q=41.7951799,-87.5971262",
   "source": "osm"
  },
  {
   "nom": "Falafel & Grill",
   "lat": 41.9613085,
   "lng": -87.6665196,
   "type": "mediterranean, middle eastern",
   "halalConfidence": "high",
   "mapsUrl": "https://maps.google.com/?q=41.9613085,-87.6665196",
   "source": "osm"
  }
 ],
 "hotels": [
  {
   "nom": "Union League Club",
   "categorie": "Hôtel",
   "priceRange": "€€",
   "mapsUrl": "https://maps.google.com/?q=41.8778711,-87.6300227",
   "lat": 41.8778711,
   "lng": -87.6300227,
   "halalFriendly": false,
   "bookingUrl": "https://maps.google.com/?q=41.8778711,-87.6300227",
   "source": "osm"
  },
  {
   "nom": "The Standard Club",
   "categorie": "Hôtel",
   "priceRange": "€€",
   "mapsUrl": "https://maps.google.com/?q=41.8776806,-87.6290179",
   "lat": 41.8776806,
   "lng": -87.6290179,
   "halalFriendly": false,
   "bookingUrl": "https://maps.google.com/?q=41.8776806,-87.6290179",
   "source": "osm"
  },
  {
   "nom": "Club Quarters Central Loop Hotel",
   "categorie": "Hôtel",
   "priceRange": "€€",
   "mapsUrl": "https://maps.google.com/?q=41.8793184,-87.631192",
   "lat": 41.8793184,
   "lng": -87.631192,
   "halalFriendly": false,
   "bookingUrl": "https://www.centralloophotel.com/",
   "source": "osm"
  },
  {
   "nom": "Sonder Plymouth",
   "categorie": "Hôtel",
   "priceRange": "€€",
   "mapsUrl": "https://maps.google.com/?q=41.8763387,-87.6289862",
   "lat": 41.8763387,
   "lng": -87.6289862,
   "halalFriendly": false,
   "bookingUrl": "https://maps.google.com/?q=41.8763387,-87.6289862",
   "source": "osm"
  },
  {
   "nom": "Ewing Annex Hotel",
   "categorie": "Hôtel",
   "priceRange": "€€",
   "mapsUrl": "https://maps.google.com/?q=41.8762632,-87.6309095",
   "lat": 41.8762632,
   "lng": -87.6309095,
   "halalFriendly": false,
   "bookingUrl": "https://maps.google.com/?q=41.8762632,-87.6309095",
   "source": "osm"
  },
  {
   "nom": "The LaSalle Chicago",
   "categorie": "Hôtel",
   "priceRange": "€€",
   "mapsUrl": "https://maps.google.com/?q=41.8790843,-87.6324884",
   "lat": 41.8790843,
   "lng": -87.6324884,
   "halalFriendly": false,
   "bookingUrl": "https://www.marriott.com/en-us/hotels/chiad-the-lasalle-chicago-autograph-collection/overview/",
   "source": "osm"
  },
  {
   "nom": "JW Marriott Chicago",
   "categorie": "Hôtel",
   "priceRange": "€€",
   "mapsUrl": "https://maps.google.com/?q=41.879266,-87.6330277",
   "lat": 41.879266,
   "lng": -87.6330277,
   "halalFriendly": false,
   "bookingUrl": "https://maps.google.com/?q=41.879266,-87.6330277",
   "source": "osm"
  },
  {
   "nom": "Wyndham Blake Hotel",
   "categorie": "Hôtel",
   "priceRange": "€€",
   "mapsUrl": "https://maps.google.com/?q=41.875174,-87.6294962",
   "lat": 41.875174,
   "lng": -87.6294962,
   "halalFriendly": false,
   "bookingUrl": "https://www.hotelblake.com/",
   "source": "osm"
  },
  {
   "nom": "Hampton Majestic Chicago Theatre District",
   "categorie": "Hôtel",
   "priceRange": "€€",
   "mapsUrl": "https://maps.google.com/?q=41.8809086,-87.6285779",
   "lat": 41.8809086,
   "lng": -87.6285779,
   "halalFriendly": false,
   "bookingUrl": "https://www.hilton.com/en/hotels/chitdhx-hampton-majestic-chicago-theatre-district/",
   "source": "osm"
  },
  {
   "nom": "THE MIDLAND HOTEL, Chicago, a Tribute Portfolio Hotel",
   "categorie": "Hôtel",
   "priceRange": "€€",
   "mapsUrl": "https://maps.google.com/?q=41.8797527,-87.633144",
   "lat": 41.8797527,
   "lng": -87.633144,
   "halalFriendly": false,
   "bookingUrl": "https://www.marriott.com/en-us/hotels/chibw-the-midland-hotel-chicago-a-tribute-portfolio-hotel/overview/",
   "source": "osm"
  },
  {
   "nom": "Hyatt Centric The Loop Chicago",
   "categorie": "Hôtel",
   "priceRange": "€€",
   "mapsUrl": "https://maps.google.com/?q=41.8809109,-87.6311717",
   "lat": 41.8809109,
   "lng": -87.6311717,
   "halalFriendly": false,
   "bookingUrl": "https://theloopchicago.centric.hyatt.com/en/hotel/home.html",
   "source": "osm"
  },
  {
   "nom": "The Palmer House Hilton",
   "categorie": "Hôtel",
   "priceRange": "€€",
   "mapsUrl": "https://maps.google.com/?q=41.880335,-87.6269524",
   "lat": 41.880335,
   "lng": -87.6269524,
   "halalFriendly": false,
   "bookingUrl": "https://maps.google.com/?q=41.880335,-87.6269524",
   "source": "osm"
  },
  {
   "nom": "The Buckingham Hotel",
   "categorie": "Hôtel",
   "priceRange": "€€",
   "mapsUrl": "https://maps.google.com/?q=41.8758396,-87.6326786",
   "lat": 41.8758396,
   "lng": -87.6326786,
   "halalFriendly": false,
   "bookingUrl": "https://maps.google.com/?q=41.8758396,-87.6326786",
   "source": "osm"
  },
  {
   "nom": "The Kimpton Gray Hotel",
   "categorie": "Hôtel",
   "priceRange": "€€",
   "mapsUrl": "https://maps.google.com/?q=41.88089,-87.6317631",
   "lat": 41.88089,
   "lng": -87.6317631,
   "halalFriendly": false,
   "bookingUrl": "https://maps.google.com/?q=41.88089,-87.6317631",
   "source": "osm"
  },
  {
   "nom": "HI Chicago",
   "categorie": "Auberge",
   "priceRange": "€€",
   "mapsUrl": "https://maps.google.com/?q=41.8758933,-87.6265369",
   "lat": 41.8758933,
   "lng": -87.6265369,
   "halalFriendly": false,
   "bookingUrl": "https://www.hichicago.org/",
   "source": "osm"
  },
  {
   "nom": "Hilton Garden Inn Chicago Central Loop",
   "categorie": "Hôtel",
   "priceRange": "€€",
   "mapsUrl": "https://maps.google.com/?q=41.878431,-87.6348909",
   "lat": 41.878431,
   "lng": -87.6348909,
   "halalFriendly": false,
   "bookingUrl": "https://www.hilton.com/en/hotels/chiwjgi-hilton-garden-inn-chicago-central-loop/",
   "source": "osm"
  },
  {
   "nom": "Residence Inn Chicago Downtown/Loop",
   "categorie": "Hôtel",
   "priceRange": "€€",
   "mapsUrl": "https://maps.google.com/?q=41.8816856,-87.6319511",
   "lat": 41.8816856,
   "lng": -87.6319511,
   "halalFriendly": false,
   "bookingUrl": "https://www.marriott.com/chirl",
   "source": "osm"
  },
  {
   "nom": "Canopy by Hilton Chicago Central Loop",
   "categorie": "Hôtel",
   "priceRange": "€€",
   "mapsUrl": "https://maps.google.com/?q=41.8784445,-87.6350632",
   "lat": 41.8784445,
   "lng": -87.6350632,
   "halalFriendly": false,
   "bookingUrl": "https://maps.google.com/?q=41.8784445,-87.6350632",
   "source": "osm"
  },
  {
   "nom": "Silversmith Hotel Chicago Downtown",
   "categorie": "Hôtel",
   "priceRange": "€€",
   "mapsUrl": "https://maps.google.com/?q=41.8816518,-87.6266547",
   "lat": 41.8816518,
   "lng": -87.6266547,
   "halalFriendly": false,
   "bookingUrl": "https://www.silversmithchicagohotel.com/",
   "source": "osm"
  },
  {
   "nom": "University Club of Chicago",
   "categorie": "Hôtel",
   "priceRange": "€€",
   "mapsUrl": "https://maps.google.com/?q=41.8810047,-87.6249694",
   "lat": 41.8810047,
   "lng": -87.6249694,
   "halalFriendly": false,
   "bookingUrl": "https://www.ucco.com/",
   "source": "osm"
  },
  {
   "nom": "Congress Plaza Hotel",
   "categorie": "Hôtel",
   "priceRange": "€€",
   "mapsUrl": "https://maps.google.com/?q=41.8750746,-87.6248357",
   "lat": 41.8750746,
   "lng": -87.6248357,
   "halalFriendly": false,
   "bookingUrl": "https://www.congressplazahotel.com/",
   "source": "osm"
  },
  {
   "nom": "Travelodge Chicago",
   "categorie": "Hôtel",
   "priceRange": "€€",
   "mapsUrl": "https://maps.google.com/?q=41.8742437,-87.6255038",
   "lat": 41.8742437,
   "lng": -87.6255038,
   "halalFriendly": false,
   "bookingUrl": "https://www.wyndhamhotels.com/travelodge/chicago-illinois/travelodge-hotel-downtown-chicago/overview",
   "source": "osm"
  },
  {
   "nom": "Chicago Athletic Association Hotel",
   "categorie": "Hôtel",
   "priceRange": "€€",
   "mapsUrl": "https://maps.google.com/?q=41.8816698,-87.6249806",
   "lat": 41.8816698,
   "lng": -87.6249806,
   "halalFriendly": false,
   "bookingUrl": "https://www.chicagoathletichotel.com/",
   "source": "osm"
  },
  {
   "nom": "Staypineapple, An Iconic Hotel, The Loop",
   "categorie": "Hôtel",
   "priceRange": "€€",
   "mapsUrl": "https://maps.google.com/?q=41.8830423,-87.6282334",
   "lat": 41.8830423,
   "lng": -87.6282334,
   "halalFriendly": false,
   "bookingUrl": "https://maps.google.com/?q=41.8830423,-87.6282334",
   "source": "osm"
  },
  {
   "nom": "La Quinta Inn & Suites by Wyndham Chicago Downtown",
   "categorie": "Hôtel",
   "priceRange": "€€",
   "mapsUrl": "https://maps.google.com/?q=41.8815738,-87.6349916",
   "lat": 41.8815738,
   "lng": -87.6349916,
   "halalFriendly": false,
   "bookingUrl": "https://www.wyndhamhotels.com/laquinta/chicago-illinois/la-quinta-chicago-downtown/overview",
   "source": "osm"
  },
  {
   "nom": "The Blackstone, Autograph Collection",
   "categorie": "Hôtel",
   "priceRange": "€€",
   "mapsUrl": "https://maps.google.com/?q=41.8733574,-87.6247909",
   "lat": 41.8733574,
   "lng": -87.6247909,
   "halalFriendly": false,
   "bookingUrl": "https://www.marriott.com/en-us/hotels/chiab-the-blackstone-autograph-collection/overview/",
   "source": "osm"
  },
  {
   "nom": "The Marquee at Block 37",
   "categorie": "Hôtel",
   "priceRange": "€€",
   "mapsUrl": "https://maps.google.com/?q=41.8842679,-87.6287786",
   "lat": 41.8842679,
   "lng": -87.6287786,
   "halalFriendly": false,
   "bookingUrl": "https://maps.google.com/?q=41.8842679,-87.6287786",
   "source": "osm"
  },
  {
   "nom": "Hyatt Place Chicago/Downtown - The Loop",
   "categorie": "Hôtel",
   "priceRange": "€€",
   "mapsUrl": "https://maps.google.com/?q=41.8827297,-87.6356562",
   "lat": 41.8827297,
   "lng": -87.6356562,
   "halalFriendly": false,
   "bookingUrl": "https://www.hyatt.com/hyatt-place/en-us/chizp-hyatt-place-chicago-downtown-the-loop",
   "source": "osm"
  },
  {
   "nom": "Cambria Hotel Chicago Loop - Theatre District",
   "categorie": "Hôtel",
   "priceRange": "€€",
   "mapsUrl": "https://maps.google.com/?q=41.8846408,-87.629045",
   "lat": 41.8846408,
   "lng": -87.629045,
   "halalFriendly": false,
   "bookingUrl": "https://www.cambriachicagoloop.com/",
   "source": "osm"
  },
  {
   "nom": "Chicago Hilton & Towers",
   "categorie": "Hôtel",
   "priceRange": "€€",
   "mapsUrl": "https://maps.google.com/?q=41.8725082,-87.6251165",
   "lat": 41.8725082,
   "lng": -87.6251165,
   "halalFriendly": false,
   "bookingUrl": "https://maps.google.com/?q=41.8725082,-87.6251165",
   "source": "osm"
  },
  {
   "nom": "The Allegro Royal Sonesta Hotel Chicago Loop",
   "categorie": "Hôtel",
   "priceRange": "€€",
   "mapsUrl": "https://maps.google.com/?q=41.8841781,-87.6332998",
   "lat": 41.8841781,
   "lng": -87.6332998,
   "halalFriendly": false,
   "bookingUrl": "https://www.sonesta.com/royal-sonesta/il/chicago/allegro-royal-sonesta-hotel-chicago-loop/",
   "source": "osm"
  },
  {
   "nom": "Cambria Chicago Loop - Theatre District",
   "categorie": "Hôtel",
   "priceRange": "€€",
   "mapsUrl": "https://maps.google.com/?q=41.8846765,-87.6288616",
   "lat": 41.8846765,
   "lng": -87.6288616,
   "halalFriendly": false,
   "bookingUrl": "https://maps.google.com/?q=41.8846765,-87.6288616",
   "source": "osm"
  },
  {
   "nom": "Le Méridien Essex",
   "categorie": "Hôtel",
   "priceRange": "€€",
   "mapsUrl": "https://maps.google.com/?q=41.8717019,-87.6247521",
   "lat": 41.8717019,
   "lng": -87.6247521,
   "halalFriendly": false,
   "bookingUrl": "https://maps.google.com/?q=41.8717019,-87.6247521",
   "source": "osm"
  },
  {
   "nom": "Manilow Suites at Millennium Park Plaza",
   "categorie": "Hôtel",
   "priceRange": "€€",
   "mapsUrl": "https://maps.google.com/?q=41.8847362,-87.6241338",
   "lat": 41.8847362,
   "lng": -87.6241338,
   "halalFriendly": false,
   "bookingUrl": "https://maps.google.com/?q=41.8847362,-87.6241338",
   "source": "osm"
  },
  {
   "nom": "Arlo Chicago",
   "categorie": "Hôtel",
   "priceRange": "€€",
   "mapsUrl": "https://maps.google.com/?q=41.8851307,-87.6249779",
   "lat": 41.8851307,
   "lng": -87.6249779,
   "halalFriendly": false,
   "bookingUrl": "https://arlohotels.com/chicago/",
   "source": "osm"
  },
  {
   "nom": "The Wit Hotel",
   "categorie": "Hôtel",
   "priceRange": "€€",
   "mapsUrl": "https://maps.google.com/?q=41.886061,-87.6276222",
   "lat": 41.886061,
   "lng": -87.6276222,
   "halalFriendly": false,
   "bookingUrl": "https://maps.google.com/?q=41.886061,-87.6276222",
   "source": "osm"
  },
  {
   "nom": "Holiday Inn Chicago-Downtown",
   "categorie": "Hôtel",
   "priceRange": "€€",
   "mapsUrl": "https://maps.google.com/?q=41.8748726,-87.6399593",
   "lat": 41.8748726,
   "lng": -87.6399593,
   "halalFriendly": false,
   "bookingUrl": "https://maps.google.com/?q=41.8748726,-87.6399593",
   "source": "osm"
  },
  {
   "nom": "Renaissance Chicago Downtown Hotel",
   "categorie": "Hôtel",
   "priceRange": "€€",
   "mapsUrl": "https://maps.google.com/?q=41.886296,-87.6284886",
   "lat": 41.886296,
   "lng": -87.6284886,
   "halalFriendly": false,
   "bookingUrl": "https://maps.google.com/?q=41.886296,-87.6284886",
   "source": "osm"
  },
  {
   "nom": "Virgin Hotels Chicago",
   "categorie": "Hôtel",
   "priceRange": "€€",
   "mapsUrl": "https://maps.google.com/?q=41.886064,-87.6260286",
   "lat": 41.886064,
   "lng": -87.6260286,
   "halalFriendly": false,
   "bookingUrl": "https://maps.google.com/?q=41.886064,-87.6260286",
   "source": "osm"
  },
  {
   "nom": "Hotel Monaco",
   "categorie": "Hôtel",
   "priceRange": "€€",
   "mapsUrl": "https://maps.google.com/?q=41.8865322,-87.6260077",
   "lat": 41.8865322,
   "lng": -87.6260077,
   "halalFriendly": false,
   "bookingUrl": "https://maps.google.com/?q=41.8865322,-87.6260077",
   "source": "osm"
  },
  {
   "nom": "Pendry Chicago",
   "categorie": "Hôtel",
   "priceRange": "€€",
   "mapsUrl": "https://maps.google.com/?q=41.8865264,-87.6250081",
   "lat": 41.8865264,
   "lng": -87.6250081,
   "halalFriendly": false,
   "bookingUrl": "https://maps.google.com/?q=41.8865264,-87.6250081",
   "source": "osm"
  },
  {
   "nom": "Hilton Garden Inn Chicago / North Loop",
   "categorie": "Hôtel",
   "priceRange": "€€",
   "mapsUrl": "https://maps.google.com/?q=41.8870447,-87.6256187",
   "lat": 41.8870447,
   "lng": -87.6256187,
   "halalFriendly": false,
   "bookingUrl": "https://www.hilton.com/en/hotels/chinlgi-hilton-garden-inn-chicago-downtown-riverwalk/",
   "source": "osm"
  },
  {
   "nom": "Hilton Garden Inn Chicago Downtown South Loop",
   "categorie": "Hôtel",
   "priceRange": "€€",
   "mapsUrl": "https://maps.google.com/?q=41.8691754,-87.6255333",
   "lat": 41.8691754,
   "lng": -87.6255333,
   "halalFriendly": false,
   "bookingUrl": "https://www.hilton.com/en/hotels/chidlgi-hilton-garden-inn-chicago-downtown-south-loop/",
   "source": "osm"
  },
  {
   "nom": "Hampton Inn Chicago Downtown/North Loop",
   "categorie": "Hôtel",
   "priceRange": "€€",
   "mapsUrl": "https://maps.google.com/?q=41.887046,-87.6254458",
   "lat": 41.887046,
   "lng": -87.6254458,
   "halalFriendly": false,
   "bookingUrl": "https://secure3.hilton.com/en_US/hp/reservation/book.htm?execution=e1s1",
   "source": "osm"
  },
  {
   "nom": "Homewood Suites by Hilton - Chicago Downtown South Loop",
   "categorie": "Hôtel",
   "priceRange": "€€",
   "mapsUrl": "https://maps.google.com/?q=41.8691791,-87.6253081",
   "lat": 41.8691791,
   "lng": -87.6253081,
   "halalFriendly": false,
   "bookingUrl": "https://maps.google.com/?q=41.8691791,-87.6253081",
   "source": "osm"
  },
  {
   "nom": "citizenM Chicago",
   "categorie": "Hôtel",
   "priceRange": "€€",
   "mapsUrl": "https://maps.google.com/?q=41.8870795,-87.6250223",
   "lat": 41.8870795,
   "lng": -87.6250223,
   "halalFriendly": false,
   "bookingUrl": "https://maps.google.com/?q=41.8870795,-87.6250223",
   "source": "osm"
  },
  {
   "nom": "Best Western Grant Park Hotel",
   "categorie": "Hôtel",
   "priceRange": "€€",
   "mapsUrl": "https://maps.google.com/?q=41.8691033,-87.6246903",
   "lat": 41.8691033,
   "lng": -87.6246903,
   "halalFriendly": false,
   "bookingUrl": "https://www.bestwestern.com/en_US/book/hotels-in-chicago/best-western-grant-park-hotel/propertyCode.14120.html",
   "source": "osm"
  },
  {
   "nom": "The Royal Sonesta Chicago Downtown",
   "categorie": "Hôtel",
   "priceRange": "€€",
   "mapsUrl": "https://maps.google.com/?q=41.8873859,-87.6256742",
   "lat": 41.8873859,
   "lng": -87.6256742,
   "halalFriendly": false,
   "bookingUrl": "https://www.sonesta.com/us/illinois/chicago/royal-sonesta-chicago-downtown",
   "source": "osm"
  },
  {
   "nom": "Club Quarters Hotel, Wacker at Michigan",
   "categorie": "Hôtel",
   "priceRange": "€€",
   "mapsUrl": "https://maps.google.com/?q=41.8876164,-87.6254422",
   "lat": 41.8876164,
   "lng": -87.6254422,
   "halalFriendly": false,
   "bookingUrl": "https://maps.google.com/?q=41.8876164,-87.6254422",
   "source": "osm"
  },
  {
   "nom": "The River Hotel",
   "categorie": "Hôtel",
   "priceRange": "€€",
   "mapsUrl": "https://maps.google.com/?q=41.8876583,-87.6255595",
   "lat": 41.8876583,
   "lng": -87.6255595,
   "halalFriendly": false,
   "bookingUrl": "https://maps.google.com/?q=41.8876583,-87.6255595",
   "source": "osm"
  },
  {
   "nom": "The Westin Chicago River North",
   "categorie": "Hôtel",
   "priceRange": "€€",
   "mapsUrl": "https://maps.google.com/?q=41.8881686,-87.6300447",
   "lat": 41.8881686,
   "lng": -87.6300447,
   "halalFriendly": false,
   "bookingUrl": "https://maps.google.com/?q=41.8881686,-87.6300447",
   "source": "osm"
  },
  {
   "nom": "London House Chicago",
   "categorie": "Hôtel",
   "priceRange": "€€",
   "mapsUrl": "https://maps.google.com/?q=41.8877548,-87.625305",
   "lat": 41.8877548,
   "lng": -87.625305,
   "halalFriendly": false,
   "bookingUrl": "https://londonhousechicago.com",
   "source": "osm"
  },
  {
   "nom": "Fairmont Hotel Chicago",
   "categorie": "Hôtel",
   "priceRange": "€€",
   "mapsUrl": "https://maps.google.com/?q=41.886094,-87.6211527",
   "lat": 41.886094,
   "lng": -87.6211527,
   "halalFriendly": false,
   "bookingUrl": "https://maps.google.com/?q=41.886094,-87.6211527",
   "source": "osm"
  },
  {
   "nom": "Hotel Chicago Downtown, Autograph Collection",
   "categorie": "Hôtel",
   "priceRange": "€€",
   "mapsUrl": "https://maps.google.com/?q=41.8886727,-87.6288489",
   "lat": 41.8886727,
   "lng": -87.6288489,
   "halalFriendly": false,
   "bookingUrl": "https://maps.google.com/?q=41.8886727,-87.6288489",
   "source": "osm"
  },
  {
   "nom": "Hyatt Regency Chicago",
   "categorie": "Hôtel",
   "priceRange": "€€",
   "mapsUrl": "https://maps.google.com/?q=41.8874924,-87.6222342",
   "lat": 41.8874924,
   "lng": -87.6222342,
   "halalFriendly": false,
   "bookingUrl": "https://chicago.regency.hyatt.com/",
   "source": "osm"
  },
  {
   "nom": "Trump International Hotel & Tower Chicago",
   "categorie": "Hôtel",
   "priceRange": "€€",
   "mapsUrl": "https://maps.google.com/?q=41.8888728,-87.6264574",
   "lat": 41.8888728,
   "lng": -87.6264574,
   "halalFriendly": false,
   "bookingUrl": "https://www.trumphotels.com/chicago",
   "source": "osm"
  },
  {
   "nom": "Hampton Inn Chicago West Loop Fulton Market Area",
   "categorie": "Hôtel",
   "priceRange": "€€",
   "mapsUrl": "https://maps.google.com/?q=41.8836291,-87.643003",
   "lat": 41.8836291,
   "lng": -87.643003,
   "halalFriendly": false,
   "bookingUrl": "https://hamptoninn3.hilton.com/en/hotels/illinois/hampton-inn-chicago-downtown-west-loop-CHIWXHX/index.html",
   "source": "osm"
  },
  {
   "nom": "Homewood Suites West Loop Fulton Market Area",
   "categorie": "Hôtel",
   "priceRange": "€€",
   "mapsUrl": "https://maps.google.com/?q=41.8837678,-87.6430103",
   "lat": 41.8837678,
   "lng": -87.6430103,
   "halalFriendly": false,
   "bookingUrl": "https://www.hilton.com/en/hotels/chiwwhw-homewood-suites-chicago-west-loop-fulton-market-area/",
   "source": "osm"
  },
  {
   "nom": "Kinzie Hotel",
   "categorie": "Hôtel",
   "priceRange": "€€",
   "mapsUrl": "https://maps.google.com/?q=41.8894889,-87.6289094",
   "lat": 41.8894889,
   "lng": -87.6289094,
   "halalFriendly": false,
   "bookingUrl": "https://maps.google.com/?q=41.8894889,-87.6289094",
   "source": "osm"
  },
  {
   "nom": "Residence Inn Chicago Downtown/River North",
   "categorie": "Hôtel",
   "priceRange": "€€",
   "mapsUrl": "https://maps.google.com/?q=41.8895221,-87.6298273",
   "lat": 41.8895221,
   "lng": -87.6298273,
   "halalFriendly": false,
   "bookingUrl": "https://www.marriott.com/chirn",
   "source": "osm"
  },
  {
   "nom": "SpringHill Suites Chicago Downtown/River North",
   "categorie": "Hôtel",
   "priceRange": "€€",
   "mapsUrl": "https://maps.google.com/?q=41.8896644,-87.6298061",
   "lat": 41.8896644,
   "lng": -87.6298061,
   "halalFriendly": false,
   "bookingUrl": "https://www.marriott.com/chinr",
   "source": "osm"
  },
  {
   "nom": "Holiday Inn Chicago Mart Plaza",
   "categorie": "Hôtel",
   "priceRange": "€€",
   "mapsUrl": "https://maps.google.com/?q=41.8881356,-87.6378473",
   "lat": 41.8881356,
   "lng": -87.6378473,
   "halalFriendly": false,
   "bookingUrl": "https://maps.google.com/?q=41.8881356,-87.6378473",
   "source": "osm"
  },
  {
   "nom": "Swissotel Chicago",
   "categorie": "Hôtel",
   "priceRange": "€€",
   "mapsUrl": "https://maps.google.com/?q=41.887361,-87.619528",
   "lat": 41.887361,
   "lng": -87.619528,
   "halalFriendly": false,
   "bookingUrl": "https://www.swissotel.com/hotels/chicago/",
   "source": "osm"
  },
  {
   "nom": "Courtyard Chicago Downtown/River North",
   "categorie": "Hôtel",
   "priceRange": "€€",
   "mapsUrl": "https://maps.google.com/?q=41.8902477,-87.62768",
   "lat": 41.8902477,
   "lng": -87.62768,
   "halalFriendly": false,
   "bookingUrl": "https://www.marriott.com/hotels/travel/chiwb-courtyard-chicago-downtown-river-north/",
   "source": "osm"
  },
  {
   "nom": "Hampton Inn & Suites Chicago - Downtown",
   "categorie": "Hôtel",
   "priceRange": "€€",
   "mapsUrl": "https://maps.google.com/?q=41.8906192,-87.6291976",
   "lat": 41.8906192,
   "lng": -87.6291976,
   "halalFriendly": false,
   "bookingUrl": "https://www.hilton.com/en/hotels/chihshx-hampton-suites-chicago-downtown/",
   "source": "osm"
  },
  {
   "nom": "Crowne Plaza Chicago West Loop",
   "categorie": "Hôtel",
   "priceRange": "€€",
   "mapsUrl": "https://maps.google.com/?q=41.8808004,-87.6468508",
   "lat": 41.8808004,
   "lng": -87.6468508,
   "halalFriendly": false,
   "bookingUrl": "https://maps.google.com/?q=41.8808004,-87.6468508",
   "source": "osm"
  },
  {
   "nom": "State and Grand by BridgeStreet",
   "categorie": "Hôtel",
   "priceRange": "€€",
   "mapsUrl": "https://maps.google.com/?q=41.8910054,-87.6277533",
   "lat": 41.8910054,
   "lng": -87.6277533,
   "halalFriendly": false,
   "bookingUrl": "https://maps.google.com/?q=41.8910054,-87.6277533",
   "source": "osm"
  },
  {
   "nom": "Fairfield Inn & Suites Chicago Downtown/River North",
   "categorie": "Hôtel",
   "priceRange": "€€",
   "mapsUrl": "https://maps.google.com/?q=41.8911139,-87.6299853",
   "lat": 41.8911139,
   "lng": -87.6299853,
   "halalFriendly": false,
   "bookingUrl": "https://www.marriott.com/chift",
   "source": "osm"
  },
  {
   "nom": "Hyatt Place Chicago / River North",
   "categorie": "Hôtel",
   "priceRange": "€€",
   "mapsUrl": "https://maps.google.com/?q=41.8911872,-87.6309174",
   "lat": 41.8911872,
   "lng": -87.6309174,
   "halalFriendly": false,
   "bookingUrl": "https://www.hyatt.com/en-us/hotel/illinois/hyatt-place-chicago-river-north/chizd",
   "source": "osm"
  },
  {
   "nom": "The Royal Sonesta Chicago River North",
   "categorie": "Hôtel",
   "priceRange": "€€",
   "mapsUrl": "https://maps.google.com/?q=41.8911493,-87.6278016",
   "lat": 41.8911493,
   "lng": -87.6278016,
   "halalFriendly": false,
   "bookingUrl": "https://www.sonesta.com/royal-sonesta/il/chicago/royal-sonesta-chicago-river-north/",
   "source": "osm"
  },
  {
   "nom": "Chicago Parthenon Hostel",
   "categorie": "Auberge",
   "priceRange": "€€",
   "mapsUrl": "https://maps.google.com/?q=41.8775059,-87.6475178",
   "lat": 41.8775059,
   "lng": -87.6475178,
   "halalFriendly": false,
   "bookingUrl": "https://www.chicagoparthenonhostel.com/",
   "source": "osm"
  },
  {
   "nom": "Sonder Greektown",
   "categorie": "Hôtel",
   "priceRange": "€€",
   "mapsUrl": "https://maps.google.com/?q=41.877401,-87.6475113",
   "lat": 41.877401,
   "lng": -87.6475113,
   "halalFriendly": false,
   "bookingUrl": "https://www.sonder.com/destinations/chicago/CHI-S-HALS314/c31439",
   "source": "osm"
  },
  {
   "nom": "Aloft Chicago City Center",
   "categorie": "Hôtel",
   "priceRange": "€€",
   "mapsUrl": "https://maps.google.com/?q=41.8914658,-87.6308226",
   "lat": 41.8914658,
   "lng": -87.6308226,
   "halalFriendly": false,
   "bookingUrl": "https://maps.google.com/?q=41.8914658,-87.6308226",
   "source": "osm"
  },
  {
   "nom": "Sheraton Grand Chicago",
   "categorie": "Hôtel",
   "priceRange": "€€",
   "mapsUrl": "https://maps.google.com/?q=41.8891529,-87.6194818",
   "lat": 41.8891529,
   "lng": -87.6194818,
   "halalFriendly": false,
   "bookingUrl": "http://www.sheratonchicago.com/",
   "source": "osm"
  },
  {
   "nom": "Hotel BnB",
   "categorie": "Hôtel",
   "priceRange": "€€",
   "mapsUrl": "https://maps.google.com/?q=41.8652258,-87.6243448",
   "lat": 41.8652258,
   "lng": -87.6243448,
   "halalFriendly": false,
   "bookingUrl": "https://maps.google.com/?q=41.8652258,-87.6243448",
   "source": "osm"
  },
  {
   "nom": "The Gwen",
   "categorie": "Hôtel",
   "priceRange": "€€",
   "mapsUrl": "https://maps.google.com/?q=41.8912803,-87.6251877",
   "lat": 41.8912803,
   "lng": -87.6251877,
   "halalFriendly": false,
   "bookingUrl": "https://maps.google.com/?q=41.8912803,-87.6251877",
   "source": "osm"
  },
  {
   "nom": "Grand Plaza",
   "categorie": "Hôtel",
   "priceRange": "€€",
   "mapsUrl": "https://maps.google.com/?q=41.8919091,-87.6284859",
   "lat": 41.8919091,
   "lng": -87.6284859,
   "halalFriendly": false,
   "bookingUrl": "https://www.grandplazapenthouse.com/",
   "source": "osm"
  },
  {
   "nom": "Moxy Chicago Downtown",
   "categorie": "Hôtel",
   "priceRange": "€€",
   "mapsUrl": "https://maps.google.com/?q=41.891847,-87.6329822",
   "lat": 41.891847,
   "lng": -87.6329822,
   "halalFriendly": false,
   "bookingUrl": "https://www.marriott.com/en-us/hotels/chiox-moxy-chicago-downtown/overview/",
   "source": "osm"
  },
  {
   "nom": "Manilow Suites at The Grand Plaza",
   "categorie": "Hôtel",
   "priceRange": "€€",
   "mapsUrl": "https://maps.google.com/?q=41.8920935,-87.6292964",
   "lat": 41.8920935,
   "lng": -87.6292964,
   "halalFriendly": false,
   "bookingUrl": "https://maps.google.com/?q=41.8920935,-87.6292964",
   "source": "osm"
  },
  {
   "nom": "InterContinental Chicago Hotel",
   "categorie": "Hôtel",
   "priceRange": "€€",
   "mapsUrl": "https://maps.google.com/?q=41.8913494,-87.6235459",
   "lat": 41.8913494,
   "lng": -87.6235459,
   "halalFriendly": false,
   "bookingUrl": "https://www.ihg.com/intercontinental/hotels/us/en/chicago/ordha/hoteldetail",
   "source": "osm"
  },
  {
   "nom": "Homewood Suites by Hilton Chicago Downtown",
   "categorie": "Hôtel",
   "priceRange": "€€",
   "mapsUrl": "https://maps.google.com/?q=41.8918953,-87.6262464",
   "lat": 41.8918953,
   "lng": -87.6262464,
   "halalFriendly": false,
   "bookingUrl": "https://www.hilton.com/en/hotels/chihwhw-homewood-suites-chicago-downtown/",
   "source": "osm"
  },
  {
   "nom": "Hilton Garden Inn Chicago Downtown/Magnificent Mile",
   "categorie": "Hôtel",
   "priceRange": "€€",
   "mapsUrl": "https://maps.google.com/?q=41.8920728,-87.6277635",
   "lat": 41.8920728,
   "lng": -87.6277635,
   "halalFriendly": false,
   "bookingUrl": "https://www.hilton.com/en/hotels/chidngi-hilton-garden-inn-chicago-downtown-magnificent-mile/",
   "source": "osm"
  },
  {
   "nom": "Best Western River North",
   "categorie": "Hôtel",
   "priceRange": "€€",
   "mapsUrl": "https://maps.google.com/?q=41.8921742,-87.631986",
   "lat": 41.8921742,
   "lng": -87.631986,
   "halalFriendly": false,
   "bookingUrl": "https://www.bestwestern.com/en_US/book/hotels-in-chicago/best-western-river-north-hotel/propertyCode.14112.html",
   "source": "osm"
  },
  {
   "nom": "Loews Chicago Downtown",
   "categorie": "Hôtel",
   "priceRange": "€€",
   "mapsUrl": "https://maps.google.com/?q=41.8898641,-87.6190926",
   "lat": 41.8898641,
   "lng": -87.6190926,
   "halalFriendly": false,
   "bookingUrl": "https://maps.google.com/?q=41.8898641,-87.6190926",
   "source": "osm"
  },
  {
   "nom": "ACME Hotel Company",
   "categorie": "Hôtel",
   "priceRange": "€€",
   "mapsUrl": "https://maps.google.com/?q=41.8922395,-87.6274985",
   "lat": 41.8922395,
   "lng": -87.6274985,
   "halalFriendly": false,
   "bookingUrl": "https://www.acmehotelcompany.com/",
   "source": "osm"
  },
  {
   "nom": "Freehand Chicago",
   "categorie": "Hôtel",
   "priceRange": "€€",
   "mapsUrl": "https://maps.google.com/?q=41.8922495,-87.6273063",
   "lat": 41.8922495,
   "lng": -87.6273063,
   "halalFriendly": false,
   "bookingUrl": "https://maps.google.com/?q=41.8922495,-87.6273063",
   "source": "osm"
  },
  {
   "nom": "Chicago Marriott Downtown Magnificent Mile",
   "categorie": "Hôtel",
   "priceRange": "€€",
   "mapsUrl": "https://maps.google.com/?q=41.892129,-87.62487",
   "lat": 41.892129,
   "lng": -87.62487,
   "halalFriendly": false,
   "bookingUrl": "https://maps.google.com/?q=41.892129,-87.62487",
   "source": "osm"
  },
  {
   "nom": "Embassy Suites by Hilton Chicago Downtown",
   "categorie": "Hôtel",
   "priceRange": "€€",
   "mapsUrl": "https://maps.google.com/?q=41.8928719,-87.6285763",
   "lat": 41.8928719,
   "lng": -87.6285763,
   "halalFriendly": false,
   "bookingUrl": "https://www.hilton.com/en/hotels/chidwes-embassy-suites-chicago-downtown-river-north/",
   "source": "osm"
  },
  {
   "nom": "Hotel 55 Chicago Downtown",
   "categorie": "Hôtel",
   "priceRange": "€€",
   "mapsUrl": "https://maps.google.com/?q=41.8930577,-87.6257935",
   "lat": 41.8930577,
   "lng": -87.6257935,
   "halalFriendly": false,
   "bookingUrl": "https://www.marriott.com/en-us/hotels/chidb-hotel-55-chicago-downtown/overview/",
   "source": "osm"
  },
  {
   "nom": "Embassy Suites by Hilton Chicago Downtown Magnificent Mile",
   "categorie": "Hôtel",
   "priceRange": "€€",
   "mapsUrl": "https://maps.google.com/?q=41.8914142,-87.6196657",
   "lat": 41.8914142,
   "lng": -87.6196657,
   "halalFriendly": false,
   "bookingUrl": "https://www.hilton.com/en/hotels/chirees-embassy-suites-chicago-downtown-magnificent-mile/",
   "source": "osm"
  },
  {
   "nom": "Inn of Chicago Magnificent Mile, an Ascend Collection hotel",
   "categorie": "Hôtel",
   "priceRange": "€€",
   "mapsUrl": "https://maps.google.com/?q=41.8927983,-87.6230284",
   "lat": 41.8927983,
   "lng": -87.6230284,
   "halalFriendly": false,
   "bookingUrl": "https://www.theinnofchicago.com/",
   "source": "osm"
  },
  {
   "nom": "AC Hotel Chicago Downtown",
   "categorie": "Hôtel",
   "priceRange": "€€",
   "mapsUrl": "https://maps.google.com/?q=41.8936097,-87.6261028",
   "lat": 41.8936097,
   "lng": -87.6261028,
   "halalFriendly": false,
   "bookingUrl": "https://maps.google.com/?q=41.8936097,-87.6261028",
   "source": "osm"
  },
  {
   "nom": "Holiday Inn Express Chicago - Magnificent Mile",
   "categorie": "Hôtel",
   "priceRange": "€€",
   "mapsUrl": "https://maps.google.com/?q=41.8937619,-87.6270869",
   "lat": 41.8937619,
   "lng": -87.6270869,
   "halalFriendly": false,
   "bookingUrl": "https://www.ihg.com/holidayinnexpress/hotels/de/de/chicago/chimm/hoteldetail",
   "source": "osm"
  },
  {
   "nom": "Courtyard Chicago Downtown/Magnificent Mile",
   "categorie": "Hôtel",
   "priceRange": "€€",
   "mapsUrl": "https://maps.google.com/?q=41.8931183,-87.6231006",
   "lat": 41.8931183,
   "lng": -87.6231006,
   "halalFriendly": false,
   "bookingUrl": "https://www.marriott.com/chimm",
   "source": "osm"
  },
  {
   "nom": "Nobu Hotel",
   "categorie": "Hôtel",
   "priceRange": "€€",
   "mapsUrl": "https://maps.google.com/?q=41.8847442,-87.6494527",
   "lat": 41.8847442,
   "lng": -87.6494527,
   "halalFriendly": false,
   "bookingUrl": "https://chicago.nobuhotels.com",
   "source": "osm"
  },
  {
   "nom": "Residence Inn Chicago Downtown Magnificent Mile",
   "categorie": "Hôtel",
   "priceRange": "€€",
   "mapsUrl": "https://maps.google.com/?q=41.8938252,-87.625051",
   "lat": 41.8938252,
   "lng": -87.625051,
   "halalFriendly": false,
   "bookingUrl": "https://www.marriott.com/en-us/hotels/chigr-residence-inn-chicago-downtown-magnificent-mile/overview/",
   "source": "osm"
  },
  {
   "nom": "Hotel Riu Plaza Chicago",
   "categorie": "Hôtel",
   "priceRange": "€€€€",
   "score": 4,
   "mapsUrl": "https://maps.google.com/?q=41.8935944,-87.6232845",
   "lat": 41.8935944,
   "lng": -87.6232845,
   "halalFriendly": false,
   "bookingUrl": "https://www.riu.com/en/hotel/usa/chicago/hotel-riu-plaza-chicago/",
   "source": "osm"
  },
  {
   "nom": "Eurostars Magnificent Mile",
   "categorie": "Hôtel",
   "priceRange": "€€",
   "mapsUrl": "https://maps.google.com/?q=41.8943161,-87.6284301",
   "lat": 41.8943161,
   "lng": -87.6284301,
   "halalFriendly": false,
   "bookingUrl": "https://www.eurostarshotels.com/eurostars-magnificent-mile.html",
   "source": "osm"
  },
  {
   "nom": "Ivy Hotel",
   "categorie": "Hôtel",
   "priceRange": "€€",
   "mapsUrl": "https://maps.google.com/?q=41.893115,-87.6213951",
   "lat": 41.893115,
   "lng": -87.6213951,
   "halalFriendly": false,
   "bookingUrl": "https://maps.google.com/?q=41.893115,-87.6213951",
   "source": "osm"
  },
  {
   "nom": "The St. Clair Hotel",
   "categorie": "Hôtel",
   "priceRange": "€€",
   "mapsUrl": "https://maps.google.com/?q=41.8936029,-87.6229595",
   "lat": 41.8936029,
   "lng": -87.6229595,
   "halalFriendly": false,
   "bookingUrl": "https://www.thestclairmagnificentmile.com/",
   "source": "osm"
  },
  {
   "nom": "Aloft Chicago - Magnificent Mile",
   "categorie": "Hôtel",
   "priceRange": "€€",
   "mapsUrl": "https://maps.google.com/?q=41.8931202,-87.6211313",
   "lat": 41.8931202,
   "lng": -87.6211313,
   "halalFriendly": false,
   "bookingUrl": "https://maps.google.com/?q=41.8931202,-87.6211313",
   "source": "osm"
  },
  {
   "nom": "Hoxton Hotel",
   "categorie": "Hôtel",
   "priceRange": "€€",
   "mapsUrl": "https://maps.google.com/?q=41.8858899,-87.6491367",
   "lat": 41.8858899,
   "lng": -87.6491367,
   "halalFriendly": false,
   "bookingUrl": "https://maps.google.com/?q=41.8858899,-87.6491367",
   "source": "osm"
  },
  {
   "nom": "DoubleTree Hotel Chicago - Magnificent Mile",
   "categorie": "Hôtel",
   "priceRange": "€€",
   "mapsUrl": "https://maps.google.com/?q=41.8928119,-87.6199576",
   "lat": 41.8928119,
   "lng": -87.6199576,
   "halalFriendly": false,
   "bookingUrl": "https://www.hilton.com/en/hotels/chimmdt-doubletree-chicago-magnificent-mile/",
   "source": "osm"
  },
  {
   "nom": "Hilton Grand Vacations Club Chicago Magnificent Mile",
   "categorie": "Hôtel",
   "priceRange": "€€",
   "mapsUrl": "https://maps.google.com/?q=41.8928126,-87.6198122",
   "lat": 41.8928126,
   "lng": -87.6198122,
   "halalFriendly": false,
   "bookingUrl": "https://www.hilton.com/en/hotels/chigvgv-hilton-grand-vacations-club-chicago-magnificent-mile/",
   "source": "osm"
  },
  {
   "nom": "The Godfrey Hotel Chicago",
   "categorie": "Hôtel",
   "priceRange": "€€",
   "mapsUrl": "https://maps.google.com/?q=41.8945777,-87.6321416",
   "lat": 41.8945777,
   "lng": -87.6321416,
   "halalFriendly": false,
   "bookingUrl": "https://maps.google.com/?q=41.8945777,-87.6321416",
   "source": "osm"
  },
  {
   "nom": "Hotel Felix",
   "categorie": "Hôtel",
   "priceRange": "€€",
   "mapsUrl": "https://maps.google.com/?q=41.8946309,-87.6315488",
   "lat": 41.8946309,
   "lng": -87.6315488,
   "halalFriendly": false,
   "bookingUrl": "https://maps.google.com/?q=41.8946309,-87.6315488",
   "source": "osm"
  },
  {
   "nom": "Fairfield Inn & Suites Chicago Downtown/Magnificent Mile",
   "categorie": "Hôtel",
   "priceRange": "€€",
   "mapsUrl": "https://maps.google.com/?q=41.8936498,-87.6219312",
   "lat": 41.8936498,
   "lng": -87.6219312,
   "halalFriendly": false,
   "bookingUrl": "https://www.marriott.com/chifd",
   "source": "osm"
  },
  {
   "nom": "Hotel EMC2",
   "categorie": "Hôtel",
   "priceRange": "€€",
   "mapsUrl": "https://maps.google.com/?q=41.8935645,-87.6216316",
   "lat": 41.8935645,
   "lng": -87.6216316,
   "halalFriendly": false,
   "bookingUrl": "https://maps.google.com/?q=41.8935645,-87.6216316",
   "source": "osm"
  },
  {
   "nom": "Hyatt Centric Chicago Magnificent Mile",
   "categorie": "Hôtel",
   "priceRange": "€€",
   "mapsUrl": "https://maps.google.com/?q=41.8937766,-87.6222411",
   "lat": 41.8937766,
   "lng": -87.6222411,
   "halalFriendly": false,
   "bookingUrl": "https://maps.google.com/?q=41.8937766,-87.6222411",
   "source": "osm"
  },
  {
   "nom": "Omni Chicago Hotel",
   "categorie": "Hôtel",
   "priceRange": "€€",
   "mapsUrl": "https://maps.google.com/?q=41.894724,-87.62493",
   "lat": 41.894724,
   "lng": -87.62493,
   "halalFriendly": false,
   "bookingUrl": "https://maps.google.com/?q=41.894724,-87.62493",
   "source": "osm"
  },
  {
   "nom": "Home2 Suites by Hilton Chicago River North",
   "categorie": "Hôtel",
   "priceRange": "€€",
   "mapsUrl": "https://maps.google.com/?q=41.8950648,-87.6315672",
   "lat": 41.8950648,
   "lng": -87.6315672,
   "halalFriendly": false,
   "bookingUrl": "https://www.hilton.com/en/hotels/chirnht-home2-suites-chicago-river-north/",
   "source": "osm"
  },
  {
   "nom": "Warwick Allerton Hotel Chicago",
   "categorie": "Hôtel",
   "priceRange": "€€",
   "mapsUrl": "https://maps.google.com/?q=41.8952049,-87.6237617",
   "lat": 41.8952049,
   "lng": -87.6237617,
   "halalFriendly": false,
   "bookingUrl": "https://www.warwickhotels.com/allerton-hotel-chicago",
   "source": "osm"
  },
  {
   "nom": "Homewood Suites by Hilton Chicago Downtown/Magnificent Mile",
   "categorie": "Hôtel",
   "priceRange": "€€",
   "mapsUrl": "https://maps.google.com/?q=41.8952458,-87.6233239",
   "lat": 41.8952458,
   "lng": -87.6233239,
   "halalFriendly": false,
   "bookingUrl": "https://maps.google.com/?q=41.8952458,-87.6233239",
   "source": "osm"
  }
 ],
 "activites": [
  {
   "nom": "The Town-Ho's Story",
   "lat": 41.878034,
   "lng": -87.6305857,
   "coordonnees": {
    "lat": 41.878034,
    "lng": -87.6305857
   },
   "categorie": "À voir",
   "mapsUrl": "https://maps.google.com/?q=41.878034,-87.6305857",
   "source": "osm"
  },
  {
   "nom": "Flamingo",
   "lat": 41.8788065,
   "lng": -87.6296809,
   "coordonnees": {
    "lat": 41.8788065,
    "lng": -87.6296809
   },
   "categorie": "À voir",
   "mapsUrl": "https://maps.google.com/?q=41.8788065,-87.6296809",
   "source": "osm"
  },
  {
   "nom": "Chicago Board of Trade Building Museum",
   "lat": 41.8779887,
   "lng": -87.6320684,
   "coordonnees": {
    "lat": 41.8779887,
    "lng": -87.6320684
   },
   "categorie": "Culture",
   "mapsUrl": "https://maps.google.com/?q=41.8779887,-87.6320684",
   "source": "osm"
  },
  {
   "nom": "Mayor Harold Washington",
   "lat": 41.8763486,
   "lng": -87.6279058,
   "coordonnees": {
    "lat": 41.8763486,
    "lng": -87.6279058
   },
   "categorie": "À voir",
   "mapsUrl": "https://maps.google.com/?q=41.8763486,-87.6279058",
   "source": "osm"
  },
  {
   "nom": "Home Insurance Building Site",
   "lat": 41.8797637,
   "lng": -87.6318848,
   "coordonnees": {
    "lat": 41.8797637,
    "lng": -87.6318848
   },
   "categorie": "Histoire",
   "mapsUrl": "https://maps.google.com/?q=41.8797637,-87.6318848",
   "source": "osm"
  },
  {
   "nom": "All Roads Lead Back to the Loop",
   "lat": 41.8758545,
   "lng": -87.6289818,
   "coordonnees": {
    "lat": 41.8758545,
    "lng": -87.6289818
   },
   "categorie": "À voir",
   "mapsUrl": "https://maps.google.com/?q=41.8758545,-87.6289818",
   "source": "osm"
  },
  {
   "nom": "Weather Bell",
   "lat": 41.8806113,
   "lng": -87.6307011,
   "coordonnees": {
    "lat": 41.8806113,
    "lng": -87.6307011
   },
   "categorie": "À voir",
   "mapsUrl": "https://maps.google.com/?q=41.8806113,-87.6307011",
   "source": "osm"
  },
  {
   "nom": "San Marco II",
   "lat": 41.875953,
   "lng": -87.6327146,
   "coordonnees": {
    "lat": 41.875953,
    "lng": -87.6327146
   },
   "categorie": "À voir",
   "mapsUrl": "https://maps.google.com/?q=41.875953,-87.6327146",
   "source": "osm"
  },
  {
   "nom": "Begin Route 66",
   "lat": 41.8796145,
   "lng": -87.6246298,
   "coordonnees": {
    "lat": 41.8796145,
    "lng": -87.6246298
   },
   "categorie": "À voir",
   "mapsUrl": "https://maps.google.com/?q=41.8796145,-87.6246298",
   "source": "osm"
  },
  {
   "nom": "Hector Guimard Metro entrance",
   "lat": 41.8769513,
   "lng": -87.6238806,
   "coordonnees": {
    "lat": 41.8769513,
    "lng": -87.6238806
   },
   "categorie": "À voir",
   "mapsUrl": "https://maps.google.com/?q=41.8769513,-87.6238806",
   "source": "osm"
  },
  {
   "nom": "Pritzker Military Museum & Library",
   "lat": 41.8806197,
   "lng": -87.6246632,
   "coordonnees": {
    "lat": 41.8806197,
    "lng": -87.6246632
   },
   "categorie": "Culture",
   "mapsUrl": "https://maps.google.com/?q=41.8806197,-87.6246632",
   "source": "osm"
  },
  {
   "nom": "Sir Georg Solti Bust",
   "lat": 41.8778676,
   "lng": -87.6236335,
   "coordonnees": {
    "lat": 41.8778676,
    "lng": -87.6236335
   },
   "categorie": "À voir",
   "mapsUrl": "https://maps.google.com/?q=41.8778676,-87.6236335",
   "source": "osm"
  },
  {
   "nom": "Magdalene",
   "lat": 41.8757319,
   "lng": -87.6238785,
   "coordonnees": {
    "lat": 41.8757319,
    "lng": -87.6238785
   },
   "categorie": "À voir",
   "mapsUrl": "https://maps.google.com/?q=41.8757319,-87.6238785",
   "source": "osm"
  },
  {
   "nom": "Oscar O. D'Angelo Park",
   "lat": 41.8746513,
   "lng": -87.6349002,
   "coordonnees": {
    "lat": 41.8746513,
    "lng": -87.6349002
   },
   "categorie": "Histoire",
   "mapsUrl": "https://maps.google.com/?q=41.8746513,-87.6349002",
   "source": "osm"
  },
  {
   "nom": "Chicago Picasso Braille Model",
   "lat": 41.8833774,
   "lng": -87.629829,
   "coordonnees": {
    "lat": 41.8833774,
    "lng": -87.629829
   },
   "categorie": "À voir",
   "mapsUrl": "https://maps.google.com/?q=41.8833774,-87.629829",
   "source": "osm"
  },
  {
   "nom": "Museum of Illusions",
   "lat": 41.8830605,
   "lng": -87.626843,
   "coordonnees": {
    "lat": 41.8830605,
    "lng": -87.626843
   },
   "categorie": "Culture",
   "mapsUrl": "https://maps.google.com/?q=41.8830605,-87.626843",
   "source": "osm"
  },
  {
   "nom": "The Museum of Contemporary Photography",
   "lat": 41.8742073,
   "lng": -87.6245139,
   "coordonnees": {
    "lat": 41.8742073,
    "lng": -87.6245139
   },
   "categorie": "Culture",
   "mapsUrl": "https://maps.google.com/?q=41.8742073,-87.6245139",
   "source": "osm"
  },
  {
   "nom": "Interconnected",
   "lat": 41.8814854,
   "lng": -87.6233816,
   "coordonnees": {
    "lat": 41.8814854,
    "lng": -87.6233816
   },
   "categorie": "À voir",
   "mapsUrl": "https://maps.google.com/?q=41.8814854,-87.6233816",
   "source": "osm"
  },
  {
   "nom": "Cow",
   "lat": 41.8833571,
   "lng": -87.6248187,
   "coordonnees": {
    "lat": 41.8833571,
    "lng": -87.6248187
   },
   "categorie": "À voir",
   "mapsUrl": "https://maps.google.com/?q=41.8833571,-87.6248187",
   "source": "osm"
  },
  {
   "nom": "In Celebration of the 200th Anniversary of the Founding of the Republic",
   "lat": 41.8795919,
   "lng": -87.6210468,
   "coordonnees": {
    "lat": 41.8795919,
    "lng": -87.6210468
   },
   "categorie": "À voir",
   "mapsUrl": "https://maps.google.com/?q=41.8795919,-87.6210468",
   "source": "osm"
  },
  {
   "nom": "Conrad Hilton",
   "lat": 41.8725035,
   "lng": -87.6245839,
   "coordonnees": {
    "lat": 41.8725035,
    "lng": -87.6245839
   },
   "categorie": "À voir",
   "mapsUrl": "https://maps.google.com/?q=41.8725035,-87.6245839",
   "source": "osm"
  },
  {
   "nom": "Lilies",
   "lat": 41.8752389,
   "lng": -87.6214946,
   "coordonnees": {
    "lat": 41.8752389,
    "lng": -87.6214946
   },
   "categorie": "À voir",
   "mapsUrl": "https://maps.google.com/?q=41.8752389,-87.6214946",
   "source": "osm"
  },
  {
   "nom": "We Will Chicago",
   "lat": 41.8844231,
   "lng": -87.6254658,
   "coordonnees": {
    "lat": 41.8844231,
    "lng": -87.6254658
   },
   "categorie": "À voir",
   "mapsUrl": "https://maps.google.com/?q=41.8844231,-87.6254658",
   "source": "osm"
  },
  {
   "nom": "Alchemy—Birds and Stone",
   "lat": 41.8708087,
   "lng": -87.6291563,
   "coordonnees": {
    "lat": 41.8708087,
    "lng": -87.6291563
   },
   "categorie": "À voir",
   "mapsUrl": "https://maps.google.com/?q=41.8708087,-87.6291563",
   "source": "osm"
  },
  {
   "nom": "American Writers Museum",
   "lat": 41.8855608,
   "lng": -87.6249909,
   "coordonnees": {
    "lat": 41.8855608,
    "lng": -87.6249909
   },
   "categorie": "Culture",
   "mapsUrl": "https://maps.google.com/?q=41.8855608,-87.6249909",
   "source": "osm"
  },
  {
   "nom": "Reading Cones",
   "lat": 41.8806061,
   "lng": -87.6190914,
   "coordonnees": {
    "lat": 41.8806061,
    "lng": -87.6190914
   },
   "categorie": "À voir",
   "mapsUrl": "https://maps.google.com/?q=41.8806061,-87.6190914",
   "source": "osm"
  },
  {
   "nom": "Eastland Disaster Memorial",
   "lat": 41.8870384,
   "lng": -87.6321938,
   "coordonnees": {
    "lat": 41.8870384,
    "lng": -87.6321938
   },
   "categorie": "Histoire",
   "mapsUrl": "https://maps.google.com/?q=41.8870384,-87.6321938",
   "source": "osm"
  },
  {
   "nom": "Site of the Sauganash Hotel/Wigwam",
   "lat": 41.8856021,
   "lng": -87.6368786,
   "coordonnees": {
    "lat": 41.8856021,
    "lng": -87.6368786
   },
   "categorie": "Histoire",
   "mapsUrl": "https://maps.google.com/?q=41.8856021,-87.6368786",
   "source": "osm"
  },
  {
   "nom": "Vietnam Veterans Memorial",
   "lat": 41.8870664,
   "lng": -87.6271551,
   "coordonnees": {
    "lat": 41.8870664,
    "lng": -87.6271551
   },
   "categorie": "Histoire",
   "mapsUrl": "https://maps.google.com/?q=41.8870664,-87.6271551",
   "source": "osm"
  },
  {
   "nom": "Glass Curtain Gallery",
   "lat": 41.8689142,
   "lng": -87.6261147,
   "coordonnees": {
    "lat": 41.8689142,
    "lng": -87.6261147
   },
   "categorie": "Culture",
   "mapsUrl": "https://maps.google.com/?q=41.8689142,-87.6261147",
   "source": "osm"
  },
  {
   "nom": "Museum of Broadcast Communications",
   "lat": 41.8846038,
   "lng": -87.6393207,
   "coordonnees": {
    "lat": 41.8846038,
    "lng": -87.6393207
   },
   "categorie": "Culture",
   "mapsUrl": "https://maps.google.com/?q=41.8846038,-87.6393207",
   "source": "osm"
  },
  {
   "nom": "First Bridge at North Dearborn Street",
   "lat": 41.887909,
   "lng": -87.6293976,
   "coordonnees": {
    "lat": 41.887909,
    "lng": -87.6293976
   },
   "categorie": "Histoire",
   "mapsUrl": "https://maps.google.com/?q=41.887909,-87.6293976",
   "source": "osm"
  },
  {
   "nom": "Aaron Ward Montgomery Bust",
   "lat": 41.8693261,
   "lng": -87.6235963,
   "coordonnees": {
    "lat": 41.8693261,
    "lng": -87.6235963
   },
   "categorie": "À voir",
   "mapsUrl": "https://maps.google.com/?q=41.8693261,-87.6235963",
   "source": "osm"
  },
  {
   "nom": "Irv Kupcinet",
   "lat": 41.8877011,
   "lng": -87.6262319,
   "coordonnees": {
    "lat": 41.8877011,
    "lng": -87.6262319
   },
   "categorie": "À voir",
   "mapsUrl": "https://maps.google.com/?q=41.8877011,-87.6262319",
   "source": "osm"
  },
  {
   "nom": "Magma",
   "lat": 41.8744894,
   "lng": -87.6168011,
   "coordonnees": {
    "lat": 41.8744894,
    "lng": -87.6168011
   },
   "categorie": "À voir",
   "mapsUrl": "https://maps.google.com/?q=41.8744894,-87.6168011",
   "source": "osm"
  },
  {
   "nom": "Gerardo M",
   "lat": 41.8734228,
   "lng": -87.617217,
   "coordonnees": {
    "lat": 41.8734228,
    "lng": -87.617217
   },
   "categorie": "Histoire",
   "mapsUrl": "https://maps.google.com/?q=41.8734228,-87.617217",
   "source": "osm"
  },
  {
   "nom": "Robert E. Wood",
   "lat": 41.8878637,
   "lng": -87.634946,
   "coordonnees": {
    "lat": 41.8878637,
    "lng": -87.634946
   },
   "categorie": "À voir",
   "mapsUrl": "https://maps.google.com/?q=41.8878637,-87.634946",
   "source": "osm"
  },
  {
   "nom": "Gráinne",
   "lat": 41.8794533,
   "lng": -87.6437937,
   "coordonnees": {
    "lat": 41.8794533,
    "lng": -87.6437937
   },
   "categorie": "À voir",
   "mapsUrl": "https://maps.google.com/?q=41.8794533,-87.6437937",
   "source": "osm"
  },
  {
   "nom": "Batcolumn",
   "lat": 41.8819687,
   "lng": -87.643123,
   "coordonnees": {
    "lat": 41.8819687,
    "lng": -87.643123
   },
   "categorie": "Histoire",
   "mapsUrl": "https://maps.google.com/?q=41.8819687,-87.643123",
   "source": "osm"
  },
  {
   "nom": "Ludwig Mies van der Rohe",
   "lat": 41.8885993,
   "lng": -87.627395,
   "coordonnees": {
    "lat": 41.8885993,
    "lng": -87.627395
   },
   "categorie": "À voir",
   "mapsUrl": "https://maps.google.com/?q=41.8885993,-87.627395",
   "source": "osm"
  },
  {
   "nom": "The Radiance of Being",
   "lat": 41.8883313,
   "lng": -87.6255224,
   "coordonnees": {
    "lat": 41.8883313,
    "lng": -87.6255224
   },
   "categorie": "À voir",
   "mapsUrl": "https://maps.google.com/?q=41.8883313,-87.6255224",
   "source": "osm"
  },
  {
   "nom": "Chicago Architecture Center",
   "lat": 41.8880131,
   "lng": -87.6236228,
   "coordonnees": {
    "lat": 41.8880131,
    "lng": -87.6236228
   },
   "categorie": "Culture",
   "mapsUrl": "https://maps.google.com/?q=41.8880131,-87.6236228",
   "source": "osm"
  },
  {
   "nom": "Federal Building Columns",
   "lat": 41.8841912,
   "lng": -87.6175286,
   "coordonnees": {
    "lat": 41.8841912,
    "lng": -87.6175286
   },
   "categorie": "Histoire",
   "mapsUrl": "https://maps.google.com/?q=41.8841912,-87.6175286",
   "source": "osm"
  },
  {
   "nom": "Central Station",
   "lat": 41.8679977,
   "lng": -87.6227404,
   "coordonnees": {
    "lat": 41.8679977,
    "lng": -87.6227404
   },
   "categorie": "Histoire",
   "mapsUrl": "https://maps.google.com/?q=41.8679977,-87.6227404",
   "source": "osm"
  },
  {
   "nom": "Wendella Tours - Michigan Avenue",
   "lat": 41.8892215,
   "lng": -87.6246397,
   "coordonnees": {
    "lat": 41.8892215,
    "lng": -87.6246397
   },
   "categorie": "À voir",
   "mapsUrl": "https://maps.google.com/?q=41.8892215,-87.6246397",
   "source": "osm"
  }
 ],
 "mosqueesPrincipales": [
  {
   "nom": "Masjid Al Ihsan",
   "lat": 41.8236977,
   "lng": -87.6183976,
   "coordonnees": {
    "lat": 41.8236977,
    "lng": -87.6183976
   },
   "adresse": "East Pershing Road, Chicago",
   "mapsUrl": "https://maps.google.com/?q=41.8236977,-87.6183976",
   "source": "osm"
  },
  {
   "nom": "The Nigerian Islamic Center of Chicago",
   "lat": 41.9528225,
   "lng": -87.6534959,
   "coordonnees": {
    "lat": 41.9528225,
    "lng": -87.6534959
   },
   "adresse": "West Sheridan Road, Chicago",
   "mapsUrl": "https://maps.google.com/?q=41.9528225,-87.6534959",
   "source": "osm"
  }
 ],
 "tags": [
  "gratte-ciel",
  "devon-avenue",
  "architecture",
  "lac-michigan",
  "famille",
  "culture"
 ],
 "description_en": "Chicago, in the United States, is a halal-friendly destination with a Halal Trust Score of 3.9/5. Muslim travelers will find 73 halal restaurants listed, 120 mosques, real-time prayer times and the Qibla direction — a complete guide to travel with peace of mind.",
 "metaDescription_en": "Halal guide to Chicago: 73 halal restaurants listed, 120 mosques, prayer times and tips for Muslim travelers. Halal Trust Score 3.9/5.",
 "nom_en": "Chicago",
 "boucheries": [],
 "infos_pratiques_en": {
  "langue": "English",
  "monnaie": "Dollar US (USD)",
  "meilleure_periode": "May to October",
  "appel_priere": "5 times a day",
  "nourriture_halal": "Largement disponible",
  "alcool": "Available"
 },
 "dataPurgedAt": "2026-07-15"
}