{
 "slug": "chiraz",
 "nom": "Chiraz",
 "pays": "Iran",
 "pays_slug": "iran",
 "continent": "Asie",
 "region": "Iran",
 "coordonnees": {
  "lat": 29.5918,
  "lng": 52.5837
 },
 "codeISO": "",
 "score_halal": 4.6,
 "halalScore": 9.2,
 "description": "Ville des poètes et des roses, Chiraz séduit par la mosquée Nasir-ol-Molk aux vitraux colorés et sa proximité avec Persépolis.",
 "image": "https://upload.wikimedia.org/wikipedia/commons/thumb/1/11/20101229_Naqsh_e_Rostam_Shiraz_Iran_more_Panoramic.jpg/1920px-20101229_Naqsh_e_Rostam_Shiraz_Iran_more_Panoramic.jpg",
 "image_hero": "https://upload.wikimedia.org/wikipedia/commons/thumb/1/11/20101229_Naqsh_e_Rostam_Shiraz_Iran_more_Panoramic.jpg/1920px-20101229_Naqsh_e_Rostam_Shiraz_Iran_more_Panoramic.jpg",
 "metaDescription": "Ville des poètes et des roses, Chiraz séduit par la mosquée Nasir-ol-Molk aux vitraux colorés et sa proximité avec Persépolis.",
 "statistiques": {
  "restaurants_halal": 26,
  "mosquees": 1,
  "hotels": 30
 },
 "infoPratique": {
  "transport": "Accessible par avion / transports locaux.",
  "meilleureEpoque": "Printemps et automne."
 },
 "tags": [
  "halal"
 ],
 "restaurants": [
  {
   "nom": "رستوران باباطاهر",
   "type": "regional, chicken, kebab, salad",
   "priceRange": "€€",
   "mapsUrl": "https://maps.google.com/?q=29.6190381,52.5519686",
   "lat": 29.6190381,
   "lng": 52.5519686,
   "halalConfidence": "yes",
   "source": "osm"
  },
  {
   "nom": "رویال برگر شیراز",
   "type": "burger, hot dog, fries, roasted mushroom, roasted beef",
   "priceRange": "€€",
   "mapsUrl": "https://maps.google.com/?q=29.6274178,52.5551339",
   "lat": 29.6274178,
   "lng": 52.5551339,
   "halalConfidence": "yes",
   "source": "osm"
  },
  {
   "nom": "بیرون بر وصال",
   "type": "persian",
   "priceRange": "€€",
   "mapsUrl": "https://maps.google.com/?q=29.6093532,52.5321917",
   "lat": 29.6093532,
   "lng": 52.5321917,
   "halalConfidence": "yes",
   "source": "osm"
  },
  {
   "nom": "بیرون بر امین علی",
   "type": "persian",
   "priceRange": "€€",
   "mapsUrl": "https://maps.google.com/?q=29.5813389,52.5737253",
   "lat": 29.5813389,
   "lng": 52.5737253,
   "halalConfidence": "likely",
   "source": "osm"
  },
  {
   "nom": "کباب سرای مجید",
   "type": "kebab",
   "priceRange": "€€",
   "mapsUrl": "https://maps.google.com/?q=29.5788729,52.56409",
   "lat": 29.5788729,
   "lng": 52.56409,
   "halalConfidence": "likely",
   "source": "osm"
  },
  {
   "nom": "کباب دربار",
   "type": "kebab",
   "priceRange": "€€",
   "mapsUrl": "https://maps.google.com/?q=29.5870539,52.542431",
   "lat": 29.5870539,
   "lng": 52.542431,
   "halalConfidence": "likely",
   "source": "osm"
  },
  {
   "nom": "لقمه کباب ایران ۶۳",
   "type": "kebab",
   "priceRange": "€€",
   "mapsUrl": "https://maps.google.com/?q=29.6274104,52.5639515",
   "lat": 29.6274104,
   "lng": 52.5639515,
   "halalConfidence": "likely",
   "source": "osm"
  },
  {
   "nom": "سالن غذاخوری میلاد",
   "type": "kebab",
   "priceRange": "€€",
   "mapsUrl": "https://maps.google.com/?q=29.6110675,52.5431313",
   "lat": 29.6110675,
   "lng": 52.5431313,
   "halalConfidence": "likely",
   "source": "osm"
  },
  {
   "nom": "رستوران عمارت فتح الملوکی",
   "type": "persian",
   "priceRange": "€€",
   "mapsUrl": "https://maps.google.com/?q=29.6200528,52.5466396",
   "lat": 29.6200528,
   "lng": 52.5466396,
   "halalConfidence": "likely",
   "source": "osm"
  },
  {
   "nom": "سفره خانه شب های شیراز",
   "type": "persian",
   "priceRange": "€€",
   "mapsUrl": "https://maps.google.com/?q=29.6296719,52.5574994",
   "lat": 29.6296719,
   "lng": 52.5574994,
   "halalConfidence": "likely",
   "source": "osm"
  },
  {
   "nom": "کباب زعفرانی",
   "type": "kebab",
   "priceRange": "€€",
   "mapsUrl": "https://maps.google.com/?q=29.6333353,52.5583875",
   "lat": 29.6333353,
   "lng": 52.5583875,
   "halalConfidence": "likely",
   "source": "osm"
  },
  {
   "nom": "خوراک حبیب",
   "type": "persian",
   "priceRange": "€€",
   "mapsUrl": "https://maps.google.com/?q=29.6196355,52.5399977",
   "lat": 29.6196355,
   "lng": 52.5399977,
   "halalConfidence": "likely",
   "source": "osm"
  },
  {
   "nom": "کافه رستوران باغ ایرونی",
   "type": "kebab",
   "priceRange": "€€",
   "mapsUrl": "https://maps.google.com/?q=29.6336915,52.5581222",
   "lat": 29.6336915,
   "lng": 52.5581222,
   "halalConfidence": "likely",
   "source": "osm"
  },
  {
   "nom": "کباب سلطان",
   "type": "kebab",
   "priceRange": "€€",
   "mapsUrl": "https://maps.google.com/?q=29.6321109,52.5543884",
   "lat": 29.6321109,
   "lng": 52.5543884,
   "halalConfidence": "likely",
   "source": "osm"
  },
  {
   "nom": "نان و کباب گلپایگانی",
   "type": "kebab",
   "priceRange": "€€",
   "mapsUrl": "https://maps.google.com/?q=29.6321585,52.554475",
   "lat": 29.6321585,
   "lng": 52.554475,
   "halalConfidence": "likely",
   "source": "osm"
  },
  {
   "nom": "رستوران شاندیز",
   "type": "persian",
   "priceRange": "€€",
   "mapsUrl": "https://maps.google.com/?q=29.6357598,52.5568235",
   "lat": 29.6357598,
   "lng": 52.5568235,
   "halalConfidence": "likely",
   "source": "osm"
  },
  {
   "nom": "رستوران سنتی حاجی بابا",
   "type": "persian",
   "priceRange": "€€",
   "mapsUrl": "https://maps.google.com/?q=29.620739,52.5370784",
   "lat": 29.620739,
   "lng": 52.5370784,
   "halalConfidence": "likely",
   "source": "osm"
  },
  {
   "nom": "شاور لند",
   "type": "shawarma",
   "priceRange": "€€",
   "mapsUrl": "https://maps.google.com/?q=29.6189944,52.5309983",
   "lat": 29.6189944,
   "lng": 52.5309983,
   "halalConfidence": "likely",
   "source": "osm"
  },
  {
   "nom": "غذای ایرانی",
   "type": "persian",
   "priceRange": "€€",
   "mapsUrl": "https://maps.google.com/?q=29.6288563,52.5365223",
   "lat": 29.6288563,
   "lng": 52.5365223,
   "halalConfidence": "likely",
   "source": "osm"
  },
  {
   "nom": "کباب شیراز قدیم حاجی زاده",
   "type": "kebab",
   "priceRange": "€€",
   "mapsUrl": "https://maps.google.com/?q=29.6193043,52.5282969",
   "lat": 29.6193043,
   "lng": 52.5282969,
   "halalConfidence": "likely",
   "source": "osm"
  },
  {
   "nom": "فست فود میچکا",
   "type": "kebab",
   "priceRange": "€€",
   "mapsUrl": "https://maps.google.com/?q=29.6192038,52.5282179",
   "lat": 29.6192038,
   "lng": 52.5282179,
   "halalConfidence": "likely",
   "source": "osm"
  },
  {
   "nom": "ترکلند دونر",
   "type": "kebab",
   "priceRange": "€€",
   "mapsUrl": "https://maps.google.com/?q=29.6321374,52.5394515",
   "lat": 29.6321374,
   "lng": 52.5394515,
   "halalConfidence": "likely",
   "source": "osm"
  },
  {
   "nom": "کبابی شاطرمحمد",
   "type": "persian",
   "priceRange": "€€",
   "mapsUrl": "https://maps.google.com/?q=29.6321812,52.539255",
   "lat": 29.6321812,
   "lng": 52.539255,
   "halalConfidence": "likely",
   "source": "osm"
  },
  {
   "nom": "بیرون بر بزرگ ابریشمی",
   "type": "kebab, seafood, salad",
   "priceRange": "€€",
   "mapsUrl": "https://maps.google.com/?q=29.634735,52.5402284",
   "lat": 29.634735,
   "lng": 52.5402284,
   "halalConfidence": "likely",
   "source": "osm"
  },
  {
   "nom": "شهر کباب",
   "type": "kebab",
   "priceRange": "€€",
   "mapsUrl": "https://maps.google.com/?q=29.5871665,52.5080216",
   "lat": 29.5871665,
   "lng": 52.5080216,
   "halalConfidence": "likely",
   "source": "osm"
  },
  {
   "nom": "فلافلی. فست فود سلف سرویس فلی خپلو",
   "type": "arab, indian, persian",
   "priceRange": "€€",
   "mapsUrl": "https://maps.google.com/?q=29.5891658,52.5057436",
   "lat": 29.5891658,
   "lng": 52.5057436,
   "halalConfidence": "likely",
   "source": "osm"
  }
 ],
 "hotels": [
  {
   "nom": "ساختمان نیایش",
   "categorie": "Appartement",
   "priceRange": "€€",
   "mapsUrl": "https://maps.google.com/?q=29.5884664,52.5871215",
   "lat": 29.5884664,
   "lng": 52.5871215,
   "halalFriendly": false,
   "bookingUrl": "https://maps.google.com/?q=29.5884664,52.5871215",
   "source": "osm"
  },
  {
   "nom": "حاج محمد زارع",
   "categorie": "Appartement",
   "priceRange": "€€",
   "mapsUrl": "https://maps.google.com/?q=29.595837,52.5985762",
   "lat": 29.595837,
   "lng": 52.5985762,
   "halalFriendly": false,
   "bookingUrl": "https://maps.google.com/?q=29.595837,52.5985762",
   "source": "osm"
  },
  {
   "nom": "Grandma Guesthouse",
   "categorie": "Auberge",
   "priceRange": "€€",
   "mapsUrl": "https://maps.google.com/?q=29.5740916,52.5973855",
   "lat": 29.5740916,
   "lng": 52.5973855,
   "halalFriendly": false,
   "bookingUrl": "https://maps.google.com/?q=29.5740916,52.5973855",
   "source": "osm"
  },
  {
   "nom": "ITTIC",
   "categorie": "Hôtel",
   "priceRange": "€€",
   "mapsUrl": "https://maps.google.com/?q=29.611346,52.5717793",
   "lat": 29.611346,
   "lng": 52.5717793,
   "halalFriendly": false,
   "bookingUrl": "https://maps.google.com/?q=29.611346,52.5717793",
   "source": "osm"
  },
  {
   "nom": "هتل جهانگردی",
   "categorie": "Hôtel",
   "priceRange": "€€",
   "mapsUrl": "https://maps.google.com/?q=29.611883,52.5719832",
   "lat": 29.611883,
   "lng": 52.5719832,
   "halalFriendly": false,
   "bookingUrl": "https://maps.google.com/?q=29.611883,52.5719832",
   "source": "osm"
  },
  {
   "nom": "۱",
   "categorie": "Appartement",
   "priceRange": "€€",
   "mapsUrl": "https://maps.google.com/?q=29.5874223,52.5555526",
   "lat": 29.5874223,
   "lng": 52.5555526,
   "halalFriendly": false,
   "bookingUrl": "https://maps.google.com/?q=29.5874223,52.5555526",
   "source": "osm"
  },
  {
   "nom": "آناهیتا",
   "categorie": "Hôtel",
   "priceRange": "€€",
   "mapsUrl": "https://maps.google.com/?q=29.6087061,52.5592451",
   "lat": 29.6087061,
   "lng": 52.5592451,
   "halalFriendly": false,
   "bookingUrl": "https://maps.google.com/?q=29.6087061,52.5592451",
   "source": "osm"
  },
  {
   "nom": "Friendly Hostel",
   "categorie": "Maison d'hôtes",
   "priceRange": "€€",
   "mapsUrl": "https://maps.google.com/?q=29.5841142,52.5521694",
   "lat": 29.5841142,
   "lng": 52.5521694,
   "halalFriendly": false,
   "bookingUrl": "http://www.friendlyhostelshiraz.com",
   "source": "osm"
  },
  {
   "nom": "مهمانسرای انقلاب",
   "categorie": "Maison d'hôtes",
   "priceRange": "€€",
   "mapsUrl": "https://maps.google.com/?q=29.5620721,52.5891741",
   "lat": 29.5620721,
   "lng": 52.5891741,
   "halalFriendly": false,
   "bookingUrl": "https://maps.google.com/?q=29.5620721,52.5891741",
   "source": "osm"
  },
  {
   "nom": "اقامتگاه سنتی سرای همایونی شیراز",
   "categorie": "Hôtel",
   "priceRange": "€€",
   "mapsUrl": "https://maps.google.com/?q=29.6078254,52.5543604",
   "lat": 29.6078254,
   "lng": 52.5543604,
   "halalFriendly": false,
   "bookingUrl": "https://maps.google.com/?q=29.6078254,52.5543604",
   "source": "osm"
  },
  {
   "nom": "هتل سرو آزاد",
   "categorie": "Hôtel",
   "priceRange": "€€",
   "mapsUrl": "https://maps.google.com/?q=29.6193511,52.5696069",
   "lat": 29.6193511,
   "lng": 52.5696069,
   "halalFriendly": false,
   "bookingUrl": "https://maps.google.com/?q=29.6193511,52.5696069",
   "source": "osm"
  },
  {
   "nom": "هتل لطفعلی خان",
   "categorie": "Hôtel",
   "priceRange": "€€",
   "mapsUrl": "https://maps.google.com/?q=29.6067282,52.5533999",
   "lat": 29.6067282,
   "lng": 52.5533999,
   "halalFriendly": false,
   "bookingUrl": "https://maps.google.com/?q=29.6067282,52.5533999",
   "source": "osm"
  },
  {
   "nom": "اقامتگاه بومگردی لوتوس",
   "categorie": "Maison d'hôtes",
   "priceRange": "€€",
   "mapsUrl": "https://maps.google.com/?q=29.6078004,52.5541015",
   "lat": 29.6078004,
   "lng": 52.5541015,
   "halalFriendly": false,
   "bookingUrl": "https://maps.google.com/?q=29.6078004,52.5541015",
   "source": "osm"
  },
  {
   "nom": "مجموعه اقامتی هتل دی",
   "categorie": "Hôtel",
   "priceRange": "€€",
   "mapsUrl": "https://maps.google.com/?q=29.6221135,52.5794302",
   "lat": 29.6221135,
   "lng": 52.5794302,
   "halalFriendly": false,
   "bookingUrl": "https://maps.google.com/?q=29.6221135,52.5794302",
   "source": "osm"
  },
  {
   "nom": "مهمانسرای هلال احمر شیراز",
   "categorie": "Maison d'hôtes",
   "priceRange": "€€",
   "mapsUrl": "https://maps.google.com/?q=29.5975344,52.548528",
   "lat": 29.5975344,
   "lng": 52.548528,
   "halalFriendly": false,
   "bookingUrl": "https://maps.google.com/?q=29.5975344,52.548528",
   "source": "osm"
  },
  {
   "nom": "بوم گردی توتی",
   "categorie": "Auberge",
   "priceRange": "€€",
   "mapsUrl": "https://maps.google.com/?q=29.6090813,52.5535346",
   "lat": 29.6090813,
   "lng": 52.5535346,
   "halalFriendly": false,
   "bookingUrl": "https://www.instagram.com/tutihostel/",
   "source": "osm"
  },
  {
   "nom": "اقامتگاه سنتی عمارت صوفیراز",
   "categorie": "Maison d'hôtes",
   "priceRange": "€€",
   "mapsUrl": "https://maps.google.com/?q=29.6062869,52.5512597",
   "lat": 29.6062869,
   "lng": 52.5512597,
   "halalFriendly": false,
   "bookingUrl": "https://maps.google.com/?q=29.6062869,52.5512597",
   "source": "osm"
  },
  {
   "nom": "هتل ماه سلطان",
   "categorie": "Maison d'hôtes",
   "priceRange": "€€",
   "mapsUrl": "https://maps.google.com/?q=29.6095131,52.5533198",
   "lat": 29.6095131,
   "lng": 52.5533198,
   "halalFriendly": false,
   "bookingUrl": "https://maps.google.com/?q=29.6095131,52.5533198",
   "source": "osm"
  },
  {
   "nom": "هتل سووشون",
   "categorie": "Hôtel",
   "priceRange": "€€",
   "mapsUrl": "https://maps.google.com/?q=29.6089592,52.5528666",
   "lat": 29.6089592,
   "lng": 52.5528666,
   "halalFriendly": false,
   "bookingUrl": "https://souvashun.info/",
   "source": "osm"
  },
  {
   "nom": "هتل ترنجستان",
   "categorie": "Hôtel",
   "priceRange": "€€",
   "mapsUrl": "https://maps.google.com/?q=29.6088337,52.5526466",
   "lat": 29.6088337,
   "lng": 52.5526466,
   "halalFriendly": false,
   "bookingUrl": "https://maps.google.com/?q=29.6088337,52.5526466",
   "source": "osm"
  },
  {
   "nom": "اقامتگاه سنتی ماه منیر",
   "categorie": "Hôtel",
   "priceRange": "€€",
   "mapsUrl": "https://maps.google.com/?q=29.6100328,52.5532426",
   "lat": 29.6100328,
   "lng": 52.5532426,
   "halalFriendly": false,
   "bookingUrl": "https://mahmonirhouse.ir",
   "source": "osm"
  },
  {
   "nom": "هتل لارن",
   "categorie": "Hôtel",
   "priceRange": "€€",
   "mapsUrl": "https://maps.google.com/?q=29.6129573,52.5557238",
   "lat": 29.6129573,
   "lng": 52.5557238,
   "halalFriendly": false,
   "bookingUrl": "https://maps.google.com/?q=29.6129573,52.5557238",
   "source": "osm"
  },
  {
   "nom": "بوتیک هتل روزبهان",
   "categorie": "Hôtel",
   "priceRange": "€€",
   "mapsUrl": "https://maps.google.com/?q=29.6067319,52.5500784",
   "lat": 29.6067319,
   "lng": 52.5500784,
   "halalFriendly": false,
   "bookingUrl": "https://maps.google.com/?q=29.6067319,52.5500784",
   "source": "osm"
  },
  {
   "nom": "هتل سنتی آنا",
   "categorie": "Hôtel",
   "priceRange": "€€",
   "mapsUrl": "https://maps.google.com/?q=29.608176,52.5499467",
   "lat": 29.608176,
   "lng": 52.5499467,
   "halalFriendly": false,
   "bookingUrl": "https://ana-house.com/",
   "source": "osm"
  },
  {
   "nom": "خانه تاریخی راشدی",
   "categorie": "Hôtel",
   "priceRange": "€€",
   "mapsUrl": "https://maps.google.com/?q=29.6064896,52.5485606",
   "lat": 29.6064896,
   "lng": 52.5485606,
   "halalFriendly": false,
   "bookingUrl": "http://shirazboutiquehotel.com/",
   "source": "osm"
  },
  {
   "nom": "نارنجستان",
   "categorie": "Hôtel",
   "priceRange": "€€",
   "mapsUrl": "https://maps.google.com/?q=29.6088083,52.5499699",
   "lat": 29.6088083,
   "lng": 52.5499699,
   "halalFriendly": false,
   "bookingUrl": "https://maps.google.com/?q=29.6088083,52.5499699",
   "source": "osm"
  },
  {
   "nom": "هتل عمارت سران",
   "categorie": "Hôtel",
   "priceRange": "€€",
   "mapsUrl": "https://maps.google.com/?q=29.6093169,52.5498162",
   "lat": 29.6093169,
   "lng": 52.5498162,
   "halalFriendly": false,
   "bookingUrl": "https://maps.google.com/?q=29.6093169,52.5498162",
   "source": "osm"
  },
  {
   "nom": "بوتیک هتل ورتاج",
   "categorie": "Hôtel",
   "priceRange": "€€",
   "mapsUrl": "https://maps.google.com/?q=29.6113271,52.5508124",
   "lat": 29.6113271,
   "lng": 52.5508124,
   "halalFriendly": false,
   "bookingUrl": "https://maps.google.com/?q=29.6113271,52.5508124",
   "source": "osm"
  },
  {
   "nom": "خانه سنتی والاد",
   "categorie": "Hôtel",
   "priceRange": "€€",
   "mapsUrl": "https://maps.google.com/?q=29.6099993,52.5493146",
   "lat": 29.6099993,
   "lng": 52.5493146,
   "halalFriendly": false,
   "bookingUrl": "https://maps.google.com/?q=29.6099993,52.5493146",
   "source": "osm"
  },
  {
   "nom": "عمارت فیل",
   "categorie": "Hôtel",
   "priceRange": "€€",
   "mapsUrl": "https://maps.google.com/?q=29.6113036,52.5502272",
   "lat": 29.6113036,
   "lng": 52.5502272,
   "halalFriendly": false,
   "bookingUrl": "https://maps.google.com/?q=29.6113036,52.5502272",
   "source": "osm"
  }
 ],
 "mosqueesPrincipales": [
  {
   "id": "m1",
   "nom": "Grande Mosquée de Chiraz",
   "type": "Mosquée",
   "adresse": "Centre-ville, Chiraz",
   "description": "Mosquée principale de la ville.",
   "note": 5,
   "acces_non_musulmans": false,
   "mapsUrl": "https://maps.google.com/?q=Mosque%20Chiraz%20Chiraz"
  }
 ],
 "activites": [
  {
   "id": "a1",
   "nom": "Mosquée Nasir-ol-Molk",
   "categorie": "Spirituel",
   "description": "La 'mosquée rose' illuminée de vitraux au lever du soleil.",
   "prix": "Payant",
   "duree": "",
   "mapsUrl": "https://maps.google.com/?q=Mosqu%C3%A9e%20Nasir-ol-Molk%20Chiraz"
  },
  {
   "id": "a2",
   "nom": "Mausolée de Shah Cheragh",
   "categorie": "Spirituel",
   "description": "Sanctuaire aux miroirs étincelants.",
   "prix": "Gratuit",
   "duree": "",
   "mapsUrl": "https://maps.google.com/?q=Mausol%C3%A9e%20de%20Shah%20Cheragh%20Chiraz"
  },
  {
   "id": "a3",
   "nom": "Persépolis (UNESCO)",
   "categorie": "Histoire",
   "description": "Capitale de l'empire perse antique, à proximité.",
   "prix": "Payant",
   "duree": "",
   "mapsUrl": "https://maps.google.com/?q=Pers%C3%A9polis%20%28UNESCO%29%20Chiraz"
  }
 ],
 "imageCredit": "Wikimedia Commons",
 "osmEnriched": true,
 "osmEnrichedAt": "2026-06-30"
}
