{
  "slug": "chiraz",
  "nom": "Chiraz",
  "pays": "Iran",
  "pays_slug": "iran",
  "continent": "Asie",
  "region": "Iran",
  "coordonnees": {
    "lat": 29.5918,
    "lng": 52.5837
  },
  "codeISO": "",
  "score_halal": 4.6,
  "halalScore": 9.2,
  "description": "Ville des poètes et des roses, Chiraz séduit par la mosquée Nasir-ol-Molk aux vitraux colorés et sa proximité avec Persépolis.",
  "image": "https://upload.wikimedia.org/wikipedia/commons/thumb/1/11/20101229_Naqsh_e_Rostam_Shiraz_Iran_more_Panoramic.jpg/1920px-20101229_Naqsh_e_Rostam_Shiraz_Iran_more_Panoramic.jpg",
  "image_hero": "https://upload.wikimedia.org/wikipedia/commons/thumb/1/11/20101229_Naqsh_e_Rostam_Shiraz_Iran_more_Panoramic.jpg/1920px-20101229_Naqsh_e_Rostam_Shiraz_Iran_more_Panoramic.jpg",
  "metaDescription": "Ville des poètes et des roses, Chiraz séduit par la mosquée Nasir-ol-Molk aux vitraux colorés et sa proximité avec Persépolis.",
  "statistiques": {
    "restaurants_halal": 38,
    "mosquees": 1,
    "hotels": 120
  },
  "infoPratique": {
    "transport": "Accessible par avion / transports locaux.",
    "meilleureEpoque": "Printemps et automne."
  },
  "tags": [
    "halal"
  ],
  "restaurants": [
    {
      "nom": "رستوران باباطاهر",
      "type": "regional, chicken, kebab, salad",
      "priceRange": "€€",
      "mapsUrl": "https://maps.google.com/?q=29.6190381,52.5519686",
      "lat": 29.6190381,
      "lng": 52.5519686,
      "halalConfidence": "yes",
      "source": "osm"
    },
    {
      "nom": "رویال برگر شیراز",
      "type": "burger, hot dog, fries, roasted mushroom, roasted beef",
      "priceRange": "€€",
      "mapsUrl": "https://maps.google.com/?q=29.6274178,52.5551339",
      "lat": 29.6274178,
      "lng": 52.5551339,
      "halalConfidence": "yes",
      "source": "osm"
    },
    {
      "nom": "بیرون بر وصال",
      "type": "persian",
      "priceRange": "€€",
      "mapsUrl": "https://maps.google.com/?q=29.6093532,52.5321917",
      "lat": 29.6093532,
      "lng": 52.5321917,
      "halalConfidence": "yes",
      "source": "osm"
    },
    {
      "nom": "کافیتریا روتی رول",
      "type": "indian, arab",
      "priceRange": "€€",
      "mapsUrl": "https://maps.google.com/?q=29.6278553,52.5077609",
      "lat": 29.6278553,
      "lng": 52.5077609,
      "halalConfidence": "yes",
      "source": "osm"
    },
    {
      "nom": "سیب ذر (دنیای کتلت عابدی۲)",
      "type": "potato",
      "priceRange": "€€",
      "mapsUrl": "https://maps.google.com/?q=29.6290471,52.4987849",
      "lat": 29.6290471,
      "lng": 52.4987849,
      "halalConfidence": "yes",
      "source": "osm"
    },
    {
      "nom": "بیرون بر امین علی",
      "type": "persian",
      "priceRange": "€€",
      "mapsUrl": "https://maps.google.com/?q=29.5813389,52.5737253",
      "lat": 29.5813389,
      "lng": 52.5737253,
      "halalConfidence": "likely",
      "source": "osm"
    },
    {
      "nom": "کباب سرای مجید",
      "type": "kebab",
      "priceRange": "€€",
      "mapsUrl": "https://maps.google.com/?q=29.5788729,52.56409",
      "lat": 29.5788729,
      "lng": 52.56409,
      "halalConfidence": "likely",
      "source": "osm"
    },
    {
      "nom": "کباب دربار",
      "type": "kebab",
      "priceRange": "€€",
      "mapsUrl": "https://maps.google.com/?q=29.5870539,52.542431",
      "lat": 29.5870539,
      "lng": 52.542431,
      "halalConfidence": "likely",
      "source": "osm"
    },
    {
      "nom": "لقمه کباب ایران ۶۳",
      "type": "kebab",
      "priceRange": "€€",
      "mapsUrl": "https://maps.google.com/?q=29.6274104,52.5639515",
      "lat": 29.6274104,
      "lng": 52.5639515,
      "halalConfidence": "likely",
      "source": "osm"
    },
    {
      "nom": "سالن غذاخوری میلاد",
      "type": "kebab",
      "priceRange": "€€",
      "mapsUrl": "https://maps.google.com/?q=29.6110675,52.5431313",
      "lat": 29.6110675,
      "lng": 52.5431313,
      "halalConfidence": "likely",
      "source": "osm"
    },
    {
      "nom": "رستوران عمارت فتح الملوکی",
      "type": "persian",
      "priceRange": "€€",
      "mapsUrl": "https://maps.google.com/?q=29.6200528,52.5466396",
      "lat": 29.6200528,
      "lng": 52.5466396,
      "halalConfidence": "likely",
      "source": "osm"
    },
    {
      "nom": "سفره خانه شب های شیراز",
      "type": "persian",
      "priceRange": "€€",
      "mapsUrl": "https://maps.google.com/?q=29.6296719,52.5574994",
      "lat": 29.6296719,
      "lng": 52.5574994,
      "halalConfidence": "likely",
      "source": "osm"
    },
    {
      "nom": "کباب زعفرانی",
      "type": "kebab",
      "priceRange": "€€",
      "mapsUrl": "https://maps.google.com/?q=29.6333353,52.5583875",
      "lat": 29.6333353,
      "lng": 52.5583875,
      "halalConfidence": "likely",
      "source": "osm"
    },
    {
      "nom": "خوراک حبیب",
      "type": "persian",
      "priceRange": "€€",
      "mapsUrl": "https://maps.google.com/?q=29.6196355,52.5399977",
      "lat": 29.6196355,
      "lng": 52.5399977,
      "halalConfidence": "likely",
      "source": "osm"
    },
    {
      "nom": "کافه رستوران باغ ایرونی",
      "type": "kebab",
      "priceRange": "€€",
      "mapsUrl": "https://maps.google.com/?q=29.6336915,52.5581222",
      "lat": 29.6336915,
      "lng": 52.5581222,
      "halalConfidence": "likely",
      "source": "osm"
    },
    {
      "nom": "کباب سلطان",
      "type": "kebab",
      "priceRange": "€€",
      "mapsUrl": "https://maps.google.com/?q=29.6321109,52.5543884",
      "lat": 29.6321109,
      "lng": 52.5543884,
      "halalConfidence": "likely",
      "source": "osm"
    },
    {
      "nom": "نان و کباب گلپایگانی",
      "type": "kebab",
      "priceRange": "€€",
      "mapsUrl": "https://maps.google.com/?q=29.6321585,52.554475",
      "lat": 29.6321585,
      "lng": 52.554475,
      "halalConfidence": "likely",
      "source": "osm"
    },
    {
      "nom": "رستوران شاندیز",
      "type": "persian",
      "priceRange": "€€",
      "mapsUrl": "https://maps.google.com/?q=29.6357598,52.5568235",
      "lat": 29.6357598,
      "lng": 52.5568235,
      "halalConfidence": "likely",
      "source": "osm"
    },
    {
      "nom": "رستوران سنتی حاجی بابا",
      "type": "persian",
      "priceRange": "€€",
      "mapsUrl": "https://maps.google.com/?q=29.620739,52.5370784",
      "lat": 29.620739,
      "lng": 52.5370784,
      "halalConfidence": "likely",
      "source": "osm"
    },
    {
      "nom": "شاور لند",
      "type": "shawarma",
      "priceRange": "€€",
      "mapsUrl": "https://maps.google.com/?q=29.6189944,52.5309983",
      "lat": 29.6189944,
      "lng": 52.5309983,
      "halalConfidence": "likely",
      "source": "osm"
    },
    {
      "nom": "غذای ایرانی",
      "type": "persian",
      "priceRange": "€€",
      "mapsUrl": "https://maps.google.com/?q=29.6288563,52.5365223",
      "lat": 29.6288563,
      "lng": 52.5365223,
      "halalConfidence": "likely",
      "source": "osm"
    },
    {
      "nom": "کباب شیراز قدیم حاجی زاده",
      "type": "kebab",
      "priceRange": "€€",
      "mapsUrl": "https://maps.google.com/?q=29.6193043,52.5282969",
      "lat": 29.6193043,
      "lng": 52.5282969,
      "halalConfidence": "likely",
      "source": "osm"
    },
    {
      "nom": "فست فود میچکا",
      "type": "kebab",
      "priceRange": "€€",
      "mapsUrl": "https://maps.google.com/?q=29.6192038,52.5282179",
      "lat": 29.6192038,
      "lng": 52.5282179,
      "halalConfidence": "likely",
      "source": "osm"
    },
    {
      "nom": "ترکلند دونر",
      "type": "kebab",
      "priceRange": "€€",
      "mapsUrl": "https://maps.google.com/?q=29.6321374,52.5394515",
      "lat": 29.6321374,
      "lng": 52.5394515,
      "halalConfidence": "likely",
      "source": "osm"
    },
    {
      "nom": "کبابی شاطرمحمد",
      "type": "persian",
      "priceRange": "€€",
      "mapsUrl": "https://maps.google.com/?q=29.6321812,52.539255",
      "lat": 29.6321812,
      "lng": 52.539255,
      "halalConfidence": "likely",
      "source": "osm"
    },
    {
      "nom": "بیرون بر بزرگ ابریشمی",
      "type": "kebab, seafood, salad",
      "priceRange": "€€",
      "mapsUrl": "https://maps.google.com/?q=29.634735,52.5402284",
      "lat": 29.634735,
      "lng": 52.5402284,
      "halalConfidence": "likely",
      "source": "osm"
    },
    {
      "nom": "شهر کباب",
      "type": "kebab",
      "priceRange": "€€",
      "mapsUrl": "https://maps.google.com/?q=29.5871665,52.5080216",
      "lat": 29.5871665,
      "lng": 52.5080216,
      "halalConfidence": "likely",
      "source": "osm"
    },
    {
      "nom": "فلافلی. فست فود سلف سرویس فلی خپلو",
      "type": "arab, indian, persian",
      "priceRange": "€€",
      "mapsUrl": "https://maps.google.com/?q=29.5891658,52.5057436",
      "lat": 29.5891658,
      "lng": 52.5057436,
      "halalConfidence": "likely",
      "source": "osm"
    },
    {
      "nom": "کبابی",
      "type": "kebab",
      "priceRange": "€€",
      "mapsUrl": "https://maps.google.com/?q=29.6003674,52.498897",
      "lat": 29.6003674,
      "lng": 52.498897,
      "halalConfidence": "likely",
      "source": "osm"
    },
    {
      "nom": "مجموعه صوفی عفیف آباد",
      "type": "persian, kebab",
      "priceRange": "€€",
      "mapsUrl": "https://maps.google.com/?q=29.6273048,52.5058981",
      "lat": 29.6273048,
      "lng": 52.5058981,
      "halalConfidence": "likely",
      "source": "osm"
    },
    {
      "nom": "بیرون بر پلوپک",
      "type": "persian",
      "priceRange": "€€",
      "mapsUrl": "https://maps.google.com/?q=29.6268415,52.5050421",
      "lat": 29.6268415,
      "lng": 52.5050421,
      "halalConfidence": "likely",
      "source": "osm"
    },
    {
      "nom": "کبابی لرستان",
      "type": "kebab",
      "priceRange": "€€",
      "mapsUrl": "https://maps.google.com/?q=29.6165015,52.4964575",
      "lat": 29.6165015,
      "lng": 52.4964575,
      "halalConfidence": "likely",
      "source": "osm"
    },
    {
      "nom": "کباب فانوس",
      "type": "kebab",
      "priceRange": "€€",
      "mapsUrl": "https://maps.google.com/?q=29.5713501,52.4868872",
      "lat": 29.5713501,
      "lng": 52.4868872,
      "halalConfidence": "likely",
      "source": "osm"
    },
    {
      "nom": "رستوران صوفی",
      "type": "persian",
      "priceRange": "€€",
      "mapsUrl": "https://maps.google.com/?q=29.6309953,52.494285",
      "lat": 29.6309953,
      "lng": 52.494285,
      "halalConfidence": "likely",
      "source": "osm"
    },
    {
      "nom": "مستر دونر",
      "type": "kebab",
      "priceRange": "€€",
      "mapsUrl": "https://maps.google.com/?q=29.6216105,52.4888429",
      "lat": 29.6216105,
      "lng": 52.4888429,
      "halalConfidence": "likely",
      "source": "osm"
    },
    {
      "nom": "تاکسین",
      "type": "kebab",
      "priceRange": "€€",
      "mapsUrl": "https://maps.google.com/?q=29.6330502,52.4939176",
      "lat": 29.6330502,
      "lng": 52.4939176,
      "halalConfidence": "likely",
      "source": "osm"
    },
    {
      "nom": "بنیز",
      "type": "persian",
      "priceRange": "€€",
      "mapsUrl": "https://maps.google.com/?q=29.6330478,52.4937433",
      "lat": 29.6330478,
      "lng": 52.4937433,
      "halalConfidence": "likely",
      "source": "osm"
    },
    {
      "nom": "کباب ترنج بهمارستان",
      "type": "kebab",
      "priceRange": "€€",
      "mapsUrl": "https://maps.google.com/?q=29.5761333,52.4778433",
      "lat": 29.5761333,
      "lng": 52.4778433,
      "halalConfidence": "likely",
      "source": "osm"
    },
    {
      "nom": "کافه مشیر",
      "lat": 29.6133663,
      "lng": 52.5459038,
      "type": "tea, coffee shop, persian",
      "halalConfidence": "likely",
      "mapsUrl": "https://maps.google.com/?q=29.6133663,52.5459038",
      "source": "osm"
    },
    {
      "nom": "Syrah cafe gallery",
      "lat": 29.6108921,
      "lng": 52.5378976,
      "type": "coffee shop, local, persian",
      "halalConfidence": "likely",
      "mapsUrl": "https://maps.google.com/?q=29.6108921,52.5378976",
      "source": "osm"
    },
    {
      "nom": "کیوسک بهار",
      "lat": 29.6083638,
      "lng": 52.5230377,
      "type": "african, asian, cake, coffee shop, persian",
      "halalConfidence": "likely",
      "mapsUrl": "https://maps.google.com/?q=29.6083638,52.5230377",
      "source": "osm"
    },
    {
      "nom": "Dakouma Street Cafe",
      "lat": 29.6240546,
      "lng": 52.4995189,
      "type": "regional, pizza, international, persian, cafe, salad, sandwich",
      "halalConfidence": "likely",
      "mapsUrl": "https://maps.google.com/?q=29.6240546,52.4995189",
      "source": "osm"
    }
  ],
  "hotels": [
    {
      "nom": "ساختمان نیایش",
      "categorie": "Appartement",
      "priceRange": "€€",
      "mapsUrl": "https://maps.google.com/?q=29.5884664,52.5871215",
      "lat": 29.5884664,
      "lng": 52.5871215,
      "halalFriendly": false,
      "bookingUrl": "https://maps.google.com/?q=29.5884664,52.5871215",
      "source": "osm"
    },
    {
      "nom": "حاج محمد زارع",
      "categorie": "Appartement",
      "priceRange": "€€",
      "mapsUrl": "https://maps.google.com/?q=29.595837,52.5985762",
      "lat": 29.595837,
      "lng": 52.5985762,
      "halalFriendly": false,
      "bookingUrl": "https://maps.google.com/?q=29.595837,52.5985762",
      "source": "osm"
    },
    {
      "nom": "Grandma Guesthouse",
      "categorie": "Auberge",
      "priceRange": "€€",
      "mapsUrl": "https://maps.google.com/?q=29.5740916,52.5973855",
      "lat": 29.5740916,
      "lng": 52.5973855,
      "halalFriendly": false,
      "bookingUrl": "https://maps.google.com/?q=29.5740916,52.5973855",
      "source": "osm"
    },
    {
      "nom": "ITTIC",
      "categorie": "Hôtel",
      "priceRange": "€€",
      "mapsUrl": "https://maps.google.com/?q=29.611346,52.5717793",
      "lat": 29.611346,
      "lng": 52.5717793,
      "halalFriendly": false,
      "bookingUrl": "https://maps.google.com/?q=29.611346,52.5717793",
      "source": "osm"
    },
    {
      "nom": "هتل جهانگردی",
      "categorie": "Hôtel",
      "priceRange": "€€",
      "mapsUrl": "https://maps.google.com/?q=29.611883,52.5719832",
      "lat": 29.611883,
      "lng": 52.5719832,
      "halalFriendly": false,
      "bookingUrl": "https://maps.google.com/?q=29.611883,52.5719832",
      "source": "osm"
    },
    {
      "nom": "۱",
      "categorie": "Appartement",
      "priceRange": "€€",
      "mapsUrl": "https://maps.google.com/?q=29.5874223,52.5555526",
      "lat": 29.5874223,
      "lng": 52.5555526,
      "halalFriendly": false,
      "bookingUrl": "https://maps.google.com/?q=29.5874223,52.5555526",
      "source": "osm"
    },
    {
      "nom": "آناهیتا",
      "categorie": "Hôtel",
      "priceRange": "€€",
      "mapsUrl": "https://maps.google.com/?q=29.6087061,52.5592451",
      "lat": 29.6087061,
      "lng": 52.5592451,
      "halalFriendly": false,
      "bookingUrl": "https://maps.google.com/?q=29.6087061,52.5592451",
      "source": "osm"
    },
    {
      "nom": "Friendly Hostel",
      "categorie": "Maison d'hôtes",
      "priceRange": "€€",
      "mapsUrl": "https://maps.google.com/?q=29.5841142,52.5521694",
      "lat": 29.5841142,
      "lng": 52.5521694,
      "halalFriendly": false,
      "bookingUrl": "http://www.friendlyhostelshiraz.com",
      "source": "osm"
    },
    {
      "nom": "مهمانسرای انقلاب",
      "categorie": "Maison d'hôtes",
      "priceRange": "€€",
      "mapsUrl": "https://maps.google.com/?q=29.5620721,52.5891741",
      "lat": 29.5620721,
      "lng": 52.5891741,
      "halalFriendly": false,
      "bookingUrl": "https://maps.google.com/?q=29.5620721,52.5891741",
      "source": "osm"
    },
    {
      "nom": "اقامتگاه سنتی سرای همایونی شیراز",
      "categorie": "Hôtel",
      "priceRange": "€€",
      "mapsUrl": "https://maps.google.com/?q=29.6078254,52.5543604",
      "lat": 29.6078254,
      "lng": 52.5543604,
      "halalFriendly": false,
      "bookingUrl": "https://maps.google.com/?q=29.6078254,52.5543604",
      "source": "osm"
    },
    {
      "nom": "هتل سرو آزاد",
      "categorie": "Hôtel",
      "priceRange": "€€",
      "mapsUrl": "https://maps.google.com/?q=29.6193511,52.5696069",
      "lat": 29.6193511,
      "lng": 52.5696069,
      "halalFriendly": false,
      "bookingUrl": "https://maps.google.com/?q=29.6193511,52.5696069",
      "source": "osm"
    },
    {
      "nom": "هتل لطفعلی خان",
      "categorie": "Hôtel",
      "priceRange": "€€",
      "mapsUrl": "https://maps.google.com/?q=29.6067282,52.5533999",
      "lat": 29.6067282,
      "lng": 52.5533999,
      "halalFriendly": false,
      "bookingUrl": "https://maps.google.com/?q=29.6067282,52.5533999",
      "source": "osm"
    },
    {
      "nom": "اقامتگاه بومگردی لوتوس",
      "categorie": "Maison d'hôtes",
      "priceRange": "€€",
      "mapsUrl": "https://maps.google.com/?q=29.6078004,52.5541015",
      "lat": 29.6078004,
      "lng": 52.5541015,
      "halalFriendly": false,
      "bookingUrl": "https://maps.google.com/?q=29.6078004,52.5541015",
      "source": "osm"
    },
    {
      "nom": "مجموعه اقامتی هتل دی",
      "categorie": "Hôtel",
      "priceRange": "€€",
      "mapsUrl": "https://maps.google.com/?q=29.6221135,52.5794302",
      "lat": 29.6221135,
      "lng": 52.5794302,
      "halalFriendly": false,
      "bookingUrl": "https://maps.google.com/?q=29.6221135,52.5794302",
      "source": "osm"
    },
    {
      "nom": "مهمانسرای هلال احمر شیراز",
      "categorie": "Maison d'hôtes",
      "priceRange": "€€",
      "mapsUrl": "https://maps.google.com/?q=29.5975344,52.548528",
      "lat": 29.5975344,
      "lng": 52.548528,
      "halalFriendly": false,
      "bookingUrl": "https://maps.google.com/?q=29.5975344,52.548528",
      "source": "osm"
    },
    {
      "nom": "بوم گردی توتی",
      "categorie": "Auberge",
      "priceRange": "€€",
      "mapsUrl": "https://maps.google.com/?q=29.6090813,52.5535346",
      "lat": 29.6090813,
      "lng": 52.5535346,
      "halalFriendly": false,
      "bookingUrl": "https://www.instagram.com/tutihostel/",
      "source": "osm"
    },
    {
      "nom": "اقامتگاه سنتی عمارت صوفیراز",
      "categorie": "Maison d'hôtes",
      "priceRange": "€€",
      "mapsUrl": "https://maps.google.com/?q=29.6062869,52.5512597",
      "lat": 29.6062869,
      "lng": 52.5512597,
      "halalFriendly": false,
      "bookingUrl": "https://maps.google.com/?q=29.6062869,52.5512597",
      "source": "osm"
    },
    {
      "nom": "هتل ماه سلطان",
      "categorie": "Maison d'hôtes",
      "priceRange": "€€",
      "mapsUrl": "https://maps.google.com/?q=29.6095131,52.5533198",
      "lat": 29.6095131,
      "lng": 52.5533198,
      "halalFriendly": false,
      "bookingUrl": "https://maps.google.com/?q=29.6095131,52.5533198",
      "source": "osm"
    },
    {
      "nom": "هتل سووشون",
      "categorie": "Hôtel",
      "priceRange": "€€",
      "mapsUrl": "https://maps.google.com/?q=29.6089592,52.5528666",
      "lat": 29.6089592,
      "lng": 52.5528666,
      "halalFriendly": false,
      "bookingUrl": "https://souvashun.info/",
      "source": "osm"
    },
    {
      "nom": "هتل ترنجستان",
      "categorie": "Hôtel",
      "priceRange": "€€",
      "mapsUrl": "https://maps.google.com/?q=29.6088337,52.5526466",
      "lat": 29.6088337,
      "lng": 52.5526466,
      "halalFriendly": false,
      "bookingUrl": "https://maps.google.com/?q=29.6088337,52.5526466",
      "source": "osm"
    },
    {
      "nom": "اقامتگاه سنتی ماه منیر",
      "categorie": "Hôtel",
      "priceRange": "€€",
      "mapsUrl": "https://maps.google.com/?q=29.6100328,52.5532426",
      "lat": 29.6100328,
      "lng": 52.5532426,
      "halalFriendly": false,
      "bookingUrl": "https://mahmonirhouse.ir",
      "source": "osm"
    },
    {
      "nom": "هتل لارن",
      "categorie": "Hôtel",
      "priceRange": "€€",
      "mapsUrl": "https://maps.google.com/?q=29.6129573,52.5557238",
      "lat": 29.6129573,
      "lng": 52.5557238,
      "halalFriendly": false,
      "bookingUrl": "https://maps.google.com/?q=29.6129573,52.5557238",
      "source": "osm"
    },
    {
      "nom": "بوتیک هتل روزبهان",
      "categorie": "Hôtel",
      "priceRange": "€€",
      "mapsUrl": "https://maps.google.com/?q=29.6067319,52.5500784",
      "lat": 29.6067319,
      "lng": 52.5500784,
      "halalFriendly": false,
      "bookingUrl": "https://maps.google.com/?q=29.6067319,52.5500784",
      "source": "osm"
    },
    {
      "nom": "هتل سنتی آنا",
      "categorie": "Hôtel",
      "priceRange": "€€",
      "mapsUrl": "https://maps.google.com/?q=29.608176,52.5499467",
      "lat": 29.608176,
      "lng": 52.5499467,
      "halalFriendly": false,
      "bookingUrl": "https://ana-house.com/",
      "source": "osm"
    },
    {
      "nom": "خانه تاریخی راشدی",
      "categorie": "Hôtel",
      "priceRange": "€€",
      "mapsUrl": "https://maps.google.com/?q=29.6064896,52.5485606",
      "lat": 29.6064896,
      "lng": 52.5485606,
      "halalFriendly": false,
      "bookingUrl": "http://shirazboutiquehotel.com/",
      "source": "osm"
    },
    {
      "nom": "نارنجستان",
      "categorie": "Hôtel",
      "priceRange": "€€",
      "mapsUrl": "https://maps.google.com/?q=29.6088083,52.5499699",
      "lat": 29.6088083,
      "lng": 52.5499699,
      "halalFriendly": false,
      "bookingUrl": "https://maps.google.com/?q=29.6088083,52.5499699",
      "source": "osm"
    },
    {
      "nom": "هتل عمارت سران",
      "categorie": "Hôtel",
      "priceRange": "€€",
      "mapsUrl": "https://maps.google.com/?q=29.6093169,52.5498162",
      "lat": 29.6093169,
      "lng": 52.5498162,
      "halalFriendly": false,
      "bookingUrl": "https://maps.google.com/?q=29.6093169,52.5498162",
      "source": "osm"
    },
    {
      "nom": "بوتیک هتل ورتاج",
      "categorie": "Hôtel",
      "priceRange": "€€",
      "mapsUrl": "https://maps.google.com/?q=29.6113271,52.5508124",
      "lat": 29.6113271,
      "lng": 52.5508124,
      "halalFriendly": false,
      "bookingUrl": "https://maps.google.com/?q=29.6113271,52.5508124",
      "source": "osm"
    },
    {
      "nom": "خانه سنتی والاد",
      "categorie": "Hôtel",
      "priceRange": "€€",
      "mapsUrl": "https://maps.google.com/?q=29.6099993,52.5493146",
      "lat": 29.6099993,
      "lng": 52.5493146,
      "halalFriendly": false,
      "bookingUrl": "https://maps.google.com/?q=29.6099993,52.5493146",
      "source": "osm"
    },
    {
      "nom": "عمارت فیل",
      "categorie": "Hôtel",
      "priceRange": "€€",
      "mapsUrl": "https://maps.google.com/?q=29.6113036,52.5502272",
      "lat": 29.6113036,
      "lng": 52.5502272,
      "halalFriendly": false,
      "bookingUrl": "https://maps.google.com/?q=29.6113036,52.5502272",
      "source": "osm"
    },
    {
      "nom": "هتل حیدری",
      "categorie": "Hôtel",
      "priceRange": "€€",
      "mapsUrl": "https://maps.google.com/?q=29.6094247,52.5487283",
      "lat": 29.6094247,
      "lng": 52.5487283,
      "halalFriendly": false,
      "bookingUrl": "https://maps.google.com/?q=29.6094247,52.5487283",
      "source": "osm"
    },
    {
      "nom": "هتل پیرسوک",
      "categorie": "Hôtel",
      "priceRange": "€€",
      "mapsUrl": "https://maps.google.com/?q=29.6045996,52.545864",
      "lat": 29.6045996,
      "lng": 52.545864,
      "halalFriendly": false,
      "bookingUrl": "https://maps.google.com/?q=29.6045996,52.545864",
      "source": "osm"
    },
    {
      "nom": "هتل بین‌ الحرمین",
      "categorie": "Hôtel",
      "priceRange": "€€",
      "mapsUrl": "https://maps.google.com/?q=29.6057909,52.5463058",
      "lat": 29.6057909,
      "lng": 52.5463058,
      "halalFriendly": false,
      "bookingUrl": "https://maps.google.com/?q=29.6057909,52.5463058",
      "source": "osm"
    },
    {
      "nom": "هتل آلان",
      "categorie": "Hôtel",
      "priceRange": "€€",
      "mapsUrl": "https://maps.google.com/?q=29.6103363,52.5488761",
      "lat": 29.6103363,
      "lng": 52.5488761,
      "halalFriendly": false,
      "bookingUrl": "https://maps.google.com/?q=29.6103363,52.5488761",
      "source": "osm"
    },
    {
      "nom": "خانه سنتی ملک",
      "categorie": "Hôtel",
      "priceRange": "€€",
      "mapsUrl": "https://maps.google.com/?q=29.6105592,52.5489402",
      "lat": 29.6105592,
      "lng": 52.5489402,
      "halalFriendly": false,
      "bookingUrl": "https://maps.google.com/?q=29.6105592,52.5489402",
      "source": "osm"
    },
    {
      "nom": "بوتیک هتل راد",
      "categorie": "Hôtel",
      "priceRange": "€€",
      "mapsUrl": "https://maps.google.com/?q=29.6109163,52.5491822",
      "lat": 29.6109163,
      "lng": 52.5491822,
      "halalFriendly": false,
      "bookingUrl": "http://radhotel.ir/",
      "source": "osm"
    },
    {
      "nom": "خانه سنتی راز",
      "categorie": "Hôtel",
      "priceRange": "€€",
      "mapsUrl": "https://maps.google.com/?q=29.6109591,52.5490303",
      "lat": 29.6109591,
      "lng": 52.5490303,
      "halalFriendly": false,
      "bookingUrl": "https://www.raz-hotel-shiraz.com/",
      "source": "osm"
    },
    {
      "nom": "خانه سنتی پرهامی",
      "categorie": "Auberge",
      "priceRange": "€€",
      "mapsUrl": "https://maps.google.com/?q=29.6105134,52.5485747",
      "lat": 29.6105134,
      "lng": 52.5485747,
      "halalFriendly": false,
      "bookingUrl": "https://www.parhamihouse.com/",
      "source": "osm"
    },
    {
      "nom": "هتل هفت رنگ",
      "categorie": "Hôtel",
      "priceRange": "€€",
      "mapsUrl": "https://maps.google.com/?q=29.6051912,52.5453903",
      "lat": 29.6051912,
      "lng": 52.5453903,
      "halalFriendly": false,
      "bookingUrl": "https://maps.google.com/?q=29.6051912,52.5453903",
      "source": "osm"
    },
    {
      "nom": "اقامتگاه سنتی گلشن",
      "categorie": "Hôtel",
      "priceRange": "€€",
      "mapsUrl": "https://maps.google.com/?q=29.6105966,52.5484587",
      "lat": 29.6105966,
      "lng": 52.5484587,
      "halalFriendly": false,
      "bookingUrl": "https://maps.google.com/?q=29.6105966,52.5484587",
      "source": "osm"
    },
    {
      "nom": "هتل سنتی گلشن",
      "categorie": "Auberge",
      "priceRange": "€€",
      "mapsUrl": "https://maps.google.com/?q=29.6110222,52.5483298",
      "lat": 29.6110222,
      "lng": 52.5483298,
      "halalFriendly": false,
      "bookingUrl": "https://maps.google.com/?q=29.6110222,52.5483298",
      "source": "osm"
    },
    {
      "nom": "هتل عمارت قاجاریه",
      "categorie": "Hôtel",
      "priceRange": "€€",
      "mapsUrl": "https://maps.google.com/?q=29.6081116,52.5459069",
      "lat": 29.6081116,
      "lng": 52.5459069,
      "halalFriendly": false,
      "bookingUrl": "https://www.hotelghajarieh.com/",
      "source": "osm"
    },
    {
      "nom": "خانه اجاره",
      "categorie": "Maison d'hôtes",
      "priceRange": "€€",
      "mapsUrl": "https://maps.google.com/?q=29.6248085,52.5648641",
      "lat": 29.6248085,
      "lng": 52.5648641,
      "halalFriendly": false,
      "bookingUrl": "https://maps.google.com/?q=29.6248085,52.5648641",
      "source": "osm"
    },
    {
      "nom": "هتل هشت گنج",
      "categorie": "Hôtel",
      "priceRange": "€€",
      "mapsUrl": "https://maps.google.com/?q=29.6156304,52.5508808",
      "lat": 29.6156304,
      "lng": 52.5508808,
      "halalFriendly": false,
      "bookingUrl": "https://hashtganj.com",
      "source": "osm"
    },
    {
      "nom": "هتل سنتی عمارت امیریه",
      "categorie": "Hôtel",
      "priceRange": "€€",
      "mapsUrl": "https://maps.google.com/?q=29.6149409,52.5498851",
      "lat": 29.6149409,
      "lng": 52.5498851,
      "halalFriendly": false,
      "bookingUrl": "https://maps.google.com/?q=29.6149409,52.5498851",
      "source": "osm"
    },
    {
      "nom": "مهمانپذیر ولیعصر عج",
      "categorie": "Hôtel",
      "priceRange": "€€",
      "mapsUrl": "https://maps.google.com/?q=29.6185176,52.5533451",
      "lat": 29.6185176,
      "lng": 52.5533451,
      "halalFriendly": false,
      "bookingUrl": "https://maps.google.com/?q=29.6185176,52.5533451",
      "source": "osm"
    },
    {
      "nom": "هتل پری دخت",
      "categorie": "Hôtel",
      "priceRange": "€€",
      "mapsUrl": "https://maps.google.com/?q=29.614466,52.5492516",
      "lat": 29.614466,
      "lng": 52.5492516,
      "halalFriendly": false,
      "bookingUrl": "https://maps.google.com/?q=29.614466,52.5492516",
      "source": "osm"
    },
    {
      "nom": "هتل قیصریه",
      "categorie": "Hôtel",
      "priceRange": "€€",
      "mapsUrl": "https://maps.google.com/?q=29.6148844,52.5495698",
      "lat": 29.6148844,
      "lng": 52.5495698,
      "halalFriendly": false,
      "bookingUrl": "https://maps.google.com/?q=29.6148844,52.5495698",
      "source": "osm"
    },
    {
      "nom": "هتل بوتیک درب شازده",
      "categorie": "Hôtel",
      "priceRange": "€€",
      "mapsUrl": "https://maps.google.com/?q=29.6165,52.5505518",
      "lat": 29.6165,
      "lng": 52.5505518,
      "halalFriendly": false,
      "bookingUrl": "https://www.darbeshazdeh.com",
      "source": "osm"
    },
    {
      "nom": "هتل ارگ",
      "categorie": "Hôtel",
      "priceRange": "€€",
      "mapsUrl": "https://maps.google.com/?q=29.6185974,52.5527535",
      "lat": 29.6185974,
      "lng": 52.5527535,
      "halalFriendly": false,
      "bookingUrl": "https://maps.google.com/?q=29.6185974,52.5527535",
      "source": "osm"
    },
    {
      "nom": "خانه مسافر شیراز",
      "categorie": "Maison d'hôtes",
      "priceRange": "€€",
      "mapsUrl": "https://maps.google.com/?q=29.6255894,52.5636524",
      "lat": 29.6255894,
      "lng": 52.5636524,
      "halalFriendly": false,
      "bookingUrl": "https://maps.google.com/?q=29.6255894,52.5636524",
      "source": "osm"
    },
    {
      "nom": "بوتیک هتل خانه زیبا",
      "categorie": "Hôtel",
      "priceRange": "€€",
      "mapsUrl": "https://maps.google.com/?q=29.6131736,52.5469503",
      "lat": 29.6131736,
      "lng": 52.5469503,
      "halalFriendly": false,
      "bookingUrl": "https://www.zibahome.ir",
      "source": "osm"
    },
    {
      "nom": "بوتیک هتل اسکرو",
      "categorie": "Hôtel",
      "priceRange": "€€",
      "mapsUrl": "https://maps.google.com/?q=29.6157275,52.5487522",
      "lat": 29.6157275,
      "lng": 52.5487522,
      "halalFriendly": false,
      "bookingUrl": "https://maps.google.com/?q=29.6157275,52.5487522",
      "source": "osm"
    },
    {
      "nom": "اقامتگاه سنتی ایران مهر",
      "categorie": "Hôtel",
      "priceRange": "€€",
      "mapsUrl": "https://maps.google.com/?q=29.6142075,52.5468305",
      "lat": 29.6142075,
      "lng": 52.5468305,
      "halalFriendly": false,
      "bookingUrl": "https://iranmehrhotel.com/",
      "source": "osm"
    },
    {
      "nom": "سرای آناهیتا",
      "categorie": "Hôtel",
      "priceRange": "€€",
      "mapsUrl": "https://maps.google.com/?q=29.6145903,52.5470537",
      "lat": 29.6145903,
      "lng": 52.5470537,
      "halalFriendly": false,
      "bookingUrl": "https://maps.google.com/?q=29.6145903,52.5470537",
      "source": "osm"
    },
    {
      "nom": "بوتیک هتل ایراندخت",
      "categorie": "Hôtel",
      "priceRange": "€€",
      "mapsUrl": "https://maps.google.com/?q=29.6068506,52.5420807",
      "lat": 29.6068506,
      "lng": 52.5420807,
      "halalFriendly": false,
      "bookingUrl": "https://maps.google.com/?q=29.6068506,52.5420807",
      "source": "osm"
    },
    {
      "nom": "هتل شمس",
      "categorie": "Hôtel",
      "priceRange": "€€",
      "mapsUrl": "https://maps.google.com/?q=29.6200098,52.5512626",
      "lat": 29.6200098,
      "lng": 52.5512626,
      "halalFriendly": false,
      "bookingUrl": "https://maps.google.com/?q=29.6200098,52.5512626",
      "source": "osm"
    },
    {
      "nom": "مهمانپذیر والفجر",
      "categorie": "Maison d'hôtes",
      "priceRange": "€€",
      "mapsUrl": "https://maps.google.com/?q=29.6072534,52.5413847",
      "lat": 29.6072534,
      "lng": 52.5413847,
      "halalFriendly": false,
      "bookingUrl": "https://maps.google.com/?q=29.6072534,52.5413847",
      "source": "osm"
    },
    {
      "nom": "مهمانپذیر تخت طاووس",
      "categorie": "Hôtel",
      "priceRange": "€€",
      "mapsUrl": "https://maps.google.com/?q=29.620022,52.550698",
      "lat": 29.620022,
      "lng": 52.550698,
      "halalFriendly": false,
      "bookingUrl": "https://maps.google.com/?q=29.620022,52.550698",
      "source": "osm"
    },
    {
      "nom": "مهمانپذیر میلاد",
      "categorie": "Maison d'hôtes",
      "priceRange": "€€",
      "mapsUrl": "https://maps.google.com/?q=29.6111314,52.5430517",
      "lat": 29.6111314,
      "lng": 52.5430517,
      "halalFriendly": false,
      "bookingUrl": "https://maps.google.com/?q=29.6111314,52.5430517",
      "source": "osm"
    },
    {
      "nom": "هتل نوید",
      "categorie": "Hôtel",
      "priceRange": "€€",
      "mapsUrl": "https://maps.google.com/?q=29.6198221,52.549566",
      "lat": 29.6198221,
      "lng": 52.549566,
      "halalFriendly": false,
      "bookingUrl": "https://maps.google.com/?q=29.6198221,52.549566",
      "source": "osm"
    },
    {
      "nom": "هتل گل افرا",
      "categorie": "Hôtel",
      "priceRange": "€€",
      "mapsUrl": "https://maps.google.com/?q=29.6088414,52.5410035",
      "lat": 29.6088414,
      "lng": 52.5410035,
      "halalFriendly": false,
      "bookingUrl": "https://maps.google.com/?q=29.6088414,52.5410035",
      "source": "osm"
    },
    {
      "nom": "مهمانپذیر اردیبهشت",
      "categorie": "Maison d'hôtes",
      "priceRange": "€€",
      "mapsUrl": "https://maps.google.com/?q=29.612981,52.543465",
      "lat": 29.612981,
      "lng": 52.543465,
      "halalFriendly": false,
      "bookingUrl": "https://maps.google.com/?q=29.612981,52.543465",
      "source": "osm"
    },
    {
      "nom": "مهمانپذیر عباسی",
      "categorie": "Hôtel",
      "priceRange": "€€",
      "mapsUrl": "https://maps.google.com/?q=29.620055,52.5496185",
      "lat": 29.620055,
      "lng": 52.5496185,
      "halalFriendly": false,
      "bookingUrl": "https://maps.google.com/?q=29.620055,52.5496185",
      "source": "osm"
    },
    {
      "nom": "مهمانپذیر نقش جهان",
      "categorie": "Maison d'hôtes",
      "priceRange": "€€",
      "mapsUrl": "https://maps.google.com/?q=29.6133648,52.5435943",
      "lat": 29.6133648,
      "lng": 52.5435943,
      "halalFriendly": false,
      "bookingUrl": "https://maps.google.com/?q=29.6133648,52.5435943",
      "source": "osm"
    },
    {
      "nom": "مهمانپذیر آبادان",
      "categorie": "Maison d'hôtes",
      "priceRange": "€€",
      "mapsUrl": "https://maps.google.com/?q=29.6134855,52.5436733",
      "lat": 29.6134855,
      "lng": 52.5436733,
      "halalFriendly": false,
      "bookingUrl": "https://maps.google.com/?q=29.6134855,52.5436733",
      "source": "osm"
    },
    {
      "nom": "هتل پیشرو طلایی",
      "categorie": "Hôtel",
      "priceRange": "€€",
      "mapsUrl": "https://maps.google.com/?q=29.6198204,52.5492229",
      "lat": 29.6198204,
      "lng": 52.5492229,
      "halalFriendly": false,
      "bookingUrl": "https://maps.google.com/?q=29.6198204,52.5492229",
      "source": "osm"
    },
    {
      "nom": "مهمانپذیر گیتی",
      "categorie": "Hôtel",
      "priceRange": "€€",
      "mapsUrl": "https://maps.google.com/?q=29.6201155,52.5494732",
      "lat": 29.6201155,
      "lng": 52.5494732,
      "halalFriendly": false,
      "bookingUrl": "https://maps.google.com/?q=29.6201155,52.5494732",
      "source": "osm"
    },
    {
      "nom": "هتل نصیرالملک",
      "categorie": "Hôtel",
      "priceRange": "€€",
      "mapsUrl": "https://maps.google.com/?q=29.6042664,52.5385753",
      "lat": 29.6042664,
      "lng": 52.5385753,
      "halalFriendly": false,
      "bookingUrl": "https://maps.google.com/?q=29.6042664,52.5385753",
      "source": "osm"
    },
    {
      "nom": "مهمانپذیر آفرینش",
      "categorie": "Hôtel",
      "priceRange": "€€",
      "mapsUrl": "https://maps.google.com/?q=29.6095178,52.5406944",
      "lat": 29.6095178,
      "lng": 52.5406944,
      "halalFriendly": false,
      "bookingUrl": "https://maps.google.com/?q=29.6095178,52.5406944",
      "source": "osm"
    },
    {
      "nom": "اقمتگاه سنتی پنج دری",
      "categorie": "Hôtel",
      "priceRange": "€€",
      "mapsUrl": "https://maps.google.com/?q=29.6090452,52.5403326",
      "lat": 29.6090452,
      "lng": 52.5403326,
      "halalFriendly": false,
      "bookingUrl": "https://www.hotel5dari.com/",
      "source": "osm"
    },
    {
      "nom": "هتل بین‌المللی پارسه",
      "categorie": "Hôtel",
      "priceRange": "€€",
      "mapsUrl": "https://maps.google.com/?q=29.6185587,52.5471119",
      "lat": 29.6185587,
      "lng": 52.5471119,
      "halalFriendly": false,
      "bookingUrl": "https://maps.google.com/?q=29.6185587,52.5471119",
      "source": "osm"
    },
    {
      "nom": "اقامتگاه سنتی یاس",
      "categorie": "Auberge",
      "priceRange": "€€",
      "mapsUrl": "https://maps.google.com/?q=29.6088061,52.5400616",
      "lat": 29.6088061,
      "lng": 52.5400616,
      "halalFriendly": false,
      "bookingUrl": "https://maps.google.com/?q=29.6088061,52.5400616",
      "source": "osm"
    },
    {
      "nom": "هتل قوام",
      "categorie": "Hôtel",
      "priceRange": "€€",
      "mapsUrl": "https://maps.google.com/?q=29.6215522,52.5501448",
      "lat": 29.6215522,
      "lng": 52.5501448,
      "halalFriendly": false,
      "bookingUrl": "https://maps.google.com/?q=29.6215522,52.5501448",
      "source": "osm"
    },
    {
      "nom": "مهمانپذیر پیام",
      "categorie": "Hôtel",
      "priceRange": "€€",
      "mapsUrl": "https://maps.google.com/?q=29.6187871,52.5469104",
      "lat": 29.6187871,
      "lng": 52.5469104,
      "halalFriendly": false,
      "bookingUrl": "https://maps.google.com/?q=29.6187871,52.5469104",
      "source": "osm"
    },
    {
      "nom": "خوابگاه آموزشکده شهید رجایی شیراز",
      "categorie": "Hôtel",
      "priceRange": "€€",
      "mapsUrl": "https://maps.google.com/?q=29.6233581,52.5519569",
      "lat": 29.6233581,
      "lng": 52.5519569,
      "halalFriendly": false,
      "bookingUrl": "https://maps.google.com/?q=29.6233581,52.5519569",
      "source": "osm"
    },
    {
      "nom": "هتل بوتیک عمارت شمس الملوک",
      "categorie": "Hôtel",
      "priceRange": "€€",
      "mapsUrl": "https://maps.google.com/?q=29.6087104,52.5394354",
      "lat": 29.6087104,
      "lng": 52.5394354,
      "halalFriendly": false,
      "bookingUrl": "https://shamsbh.ir/",
      "source": "osm"
    },
    {
      "nom": "هتل کیوان",
      "categorie": "Hôtel",
      "priceRange": "€€",
      "mapsUrl": "https://maps.google.com/?q=29.6180172,52.5457386",
      "lat": 29.6180172,
      "lng": 52.5457386,
      "halalFriendly": false,
      "bookingUrl": "https://maps.google.com/?q=29.6180172,52.5457386",
      "source": "osm"
    },
    {
      "nom": "هال بوتیک راوی",
      "categorie": "Hôtel",
      "priceRange": "€€",
      "mapsUrl": "https://maps.google.com/?q=29.6082529,52.5387895",
      "lat": 29.6082529,
      "lng": 52.5387895,
      "halalFriendly": false,
      "bookingUrl": "https://www.ravihotel.com/",
      "source": "osm"
    },
    {
      "nom": "هتل شکوه",
      "categorie": "Hôtel",
      "priceRange": "€€",
      "mapsUrl": "https://maps.google.com/?q=29.6203646,52.547656",
      "lat": 29.6203646,
      "lng": 52.547656,
      "halalFriendly": false,
      "bookingUrl": "https://maps.google.com/?q=29.6203646,52.547656",
      "source": "osm"
    },
    {
      "nom": "هتل یورد",
      "categorie": "Hôtel",
      "priceRange": "€€",
      "mapsUrl": "https://maps.google.com/?q=29.6211026,52.5482797",
      "lat": 29.6211026,
      "lng": 52.5482797,
      "halalFriendly": false,
      "bookingUrl": "https://maps.google.com/?q=29.6211026,52.5482797",
      "source": "osm"
    },
    {
      "nom": "مهمانپذیر شکوه",
      "categorie": "Auberge",
      "priceRange": "€€",
      "mapsUrl": "https://maps.google.com/?q=29.6203291,52.5473395",
      "lat": 29.6203291,
      "lng": 52.5473395,
      "halalFriendly": false,
      "bookingUrl": "https://maps.google.com/?q=29.6203291,52.5473395",
      "source": "osm"
    },
    {
      "nom": "مسافر خانه زیبا",
      "categorie": "Maison d'hôtes",
      "priceRange": "€€",
      "mapsUrl": "https://maps.google.com/?q=29.6136848,52.5414827",
      "lat": 29.6136848,
      "lng": 52.5414827,
      "halalFriendly": false,
      "bookingUrl": "https://maps.google.com/?q=29.6136848,52.5414827",
      "source": "osm"
    },
    {
      "nom": "مسافرخانه حامد",
      "categorie": "Auberge",
      "priceRange": "€€",
      "mapsUrl": "https://maps.google.com/?q=29.6203227,52.5469874",
      "lat": 29.6203227,
      "lng": 52.5469874,
      "halalFriendly": false,
      "bookingUrl": "https://maps.google.com/?q=29.6203227,52.5469874",
      "source": "osm"
    },
    {
      "nom": "هتل حافظ",
      "categorie": "Hôtel",
      "priceRange": "€€",
      "mapsUrl": "https://maps.google.com/?q=29.6198905,52.5464753",
      "lat": 29.6198905,
      "lng": 52.5464753,
      "halalFriendly": false,
      "bookingUrl": "https://maps.google.com/?q=29.6198905,52.5464753",
      "source": "osm"
    },
    {
      "nom": "مهمانپذیر عماد",
      "categorie": "Auberge",
      "priceRange": "€€",
      "mapsUrl": "https://maps.google.com/?q=29.6206424,52.547215",
      "lat": 29.6206424,
      "lng": 52.547215,
      "halalFriendly": false,
      "bookingUrl": "https://maps.google.com/?q=29.6206424,52.547215",
      "source": "osm"
    },
    {
      "nom": "مهمانپذیر دشتی",
      "categorie": "Hôtel",
      "priceRange": "€€",
      "mapsUrl": "https://maps.google.com/?q=29.6142634,52.5414829",
      "lat": 29.6142634,
      "lng": 52.5414829,
      "halalFriendly": false,
      "bookingUrl": "https://maps.google.com/?q=29.6142634,52.5414829",
      "source": "osm"
    },
    {
      "nom": "مهمانپذير انتظار",
      "categorie": "Auberge",
      "priceRange": "€€",
      "mapsUrl": "https://maps.google.com/?q=29.6205519,52.5468152",
      "lat": 29.6205519,
      "lng": 52.5468152,
      "halalFriendly": false,
      "bookingUrl": "https://maps.google.com/?q=29.6205519,52.5468152",
      "source": "osm"
    },
    {
      "nom": "هتل ریتون",
      "categorie": "Hôtel",
      "priceRange": "€€",
      "mapsUrl": "https://maps.google.com/?q=29.6124361,52.5401801",
      "lat": 29.6124361,
      "lng": 52.5401801,
      "halalFriendly": false,
      "bookingUrl": "http://hotelrhyton.ir/",
      "source": "osm"
    },
    {
      "nom": "هتل سعيد",
      "categorie": "Hôtel",
      "priceRange": "€€",
      "mapsUrl": "https://maps.google.com/?q=29.61399,52.5411088",
      "lat": 29.61399,
      "lng": 52.5411088,
      "halalFriendly": false,
      "bookingUrl": "https://maps.google.com/?q=29.61399,52.5411088",
      "source": "osm"
    },
    {
      "nom": "هتل آقاباباخان",
      "categorie": "Hôtel",
      "priceRange": "€€",
      "mapsUrl": "https://maps.google.com/?q=29.5892549,52.5340733",
      "lat": 29.5892549,
      "lng": 52.5340733,
      "halalFriendly": false,
      "bookingUrl": "https://maps.google.com/?q=29.5892549,52.5340733",
      "source": "osm"
    },
    {
      "nom": "عمارت هفت دری",
      "categorie": "Hôtel",
      "priceRange": "€€",
      "mapsUrl": "https://maps.google.com/?q=29.6138947,52.5408295",
      "lat": 29.6138947,
      "lng": 52.5408295,
      "halalFriendly": false,
      "bookingUrl": "https://maps.google.com/?q=29.6138947,52.5408295",
      "source": "osm"
    },
    {
      "nom": "هتل سپید",
      "categorie": "Hôtel",
      "priceRange": "€€",
      "mapsUrl": "https://maps.google.com/?q=29.6152729,52.5417619",
      "lat": 29.6152729,
      "lng": 52.5417619,
      "halalFriendly": false,
      "bookingUrl": "https://maps.google.com/?q=29.6152729,52.5417619",
      "source": "osm"
    },
    {
      "nom": "هتل سعد",
      "categorie": "Hôtel",
      "priceRange": "€€",
      "mapsUrl": "https://maps.google.com/?q=29.6150411,52.5413849",
      "lat": 29.6150411,
      "lng": 52.5413849,
      "halalFriendly": false,
      "bookingUrl": "https://maps.google.com/?q=29.6150411,52.5413849",
      "source": "osm"
    },
    {
      "nom": "هتل سنتی درباری",
      "categorie": "Hôtel",
      "priceRange": "€€",
      "mapsUrl": "https://maps.google.com/?q=29.6126332,52.5397396",
      "lat": 29.6126332,
      "lng": 52.5397396,
      "halalFriendly": false,
      "bookingUrl": "https://maps.google.com/?q=29.6126332,52.5397396",
      "source": "osm"
    },
    {
      "nom": "هتل پارمیس",
      "categorie": "Hôtel",
      "priceRange": "€€",
      "mapsUrl": "https://maps.google.com/?q=29.6161473,52.5420821",
      "lat": 29.6161473,
      "lng": 52.5420821,
      "halalFriendly": false,
      "bookingUrl": "https://maps.google.com/?q=29.6161473,52.5420821",
      "source": "osm"
    },
    {
      "nom": "اقامتگاه بومگردی یادمان",
      "categorie": "Hôtel",
      "priceRange": "€€",
      "mapsUrl": "https://maps.google.com/?q=29.609092,52.5375639",
      "lat": 29.609092,
      "lng": 52.5375639,
      "halalFriendly": false,
      "bookingUrl": "https://maps.google.com/?q=29.609092,52.5375639",
      "source": "osm"
    },
    {
      "nom": "هتل سنتی نیایش",
      "categorie": "Hôtel",
      "priceRange": "€€",
      "mapsUrl": "https://maps.google.com/?q=29.6122859,52.539305",
      "lat": 29.6122859,
      "lng": 52.539305,
      "halalFriendly": false,
      "bookingUrl": "https://niayeshboutiquehotel.com/",
      "source": "osm"
    },
    {
      "nom": "بوتیک هتل سنتی ماه گیسو",
      "categorie": "Hôtel",
      "priceRange": "€€",
      "mapsUrl": "https://maps.google.com/?q=29.6167135,52.5422044",
      "lat": 29.6167135,
      "lng": 52.5422044,
      "halalFriendly": false,
      "bookingUrl": "https://maps.google.com/?q=29.6167135,52.5422044",
      "source": "osm"
    },
    {
      "nom": "خانه سنتی سپهر",
      "categorie": "Hôtel",
      "priceRange": "€€",
      "mapsUrl": "https://maps.google.com/?q=29.6128831,52.5394276",
      "lat": 29.6128831,
      "lng": 52.5394276,
      "halalFriendly": false,
      "bookingUrl": "https://maps.google.com/?q=29.6128831,52.5394276",
      "source": "osm"
    },
    {
      "nom": "هتل فارس",
      "categorie": "Hôtel",
      "priceRange": "€€",
      "mapsUrl": "https://maps.google.com/?q=29.6143914,52.540399",
      "lat": 29.6143914,
      "lng": 52.540399,
      "halalFriendly": false,
      "bookingUrl": "https://maps.google.com/?q=29.6143914,52.540399",
      "source": "osm"
    },
    {
      "nom": "بوتیک هتل داروش",
      "categorie": "Hôtel",
      "priceRange": "€€",
      "mapsUrl": "https://maps.google.com/?q=29.6112037,52.5383656",
      "lat": 29.6112037,
      "lng": 52.5383656,
      "halalFriendly": false,
      "bookingUrl": "https://maps.google.com/?q=29.6112037,52.5383656",
      "source": "osm"
    },
    {
      "nom": "جهان نما",
      "categorie": "Hôtel",
      "priceRange": "€€",
      "mapsUrl": "https://maps.google.com/?q=29.625569,52.5513099",
      "lat": 29.625569,
      "lng": 52.5513099,
      "halalFriendly": false,
      "bookingUrl": "https://maps.google.com/?q=29.625569,52.5513099",
      "source": "osm"
    },
    {
      "nom": "هتل زندیه",
      "categorie": "Hôtel",
      "priceRange": "€€",
      "mapsUrl": "https://maps.google.com/?q=29.619836,52.5447017",
      "lat": 29.619836,
      "lng": 52.5447017,
      "halalFriendly": false,
      "bookingUrl": "https://www.zandiyehhotel.com",
      "source": "osm"
    },
    {
      "nom": "هتل تابش",
      "categorie": "Hôtel",
      "priceRange": "€€",
      "mapsUrl": "https://maps.google.com/?q=29.6138877,52.5398055",
      "lat": 29.6138877,
      "lng": 52.5398055,
      "halalFriendly": false,
      "bookingUrl": "https://tabeshhotel.com/",
      "source": "osm"
    },
    {
      "nom": "هتل وکیل",
      "categorie": "Hôtel",
      "priceRange": "€€",
      "mapsUrl": "https://maps.google.com/?q=29.6143836,52.5399713",
      "lat": 29.6143836,
      "lng": 52.5399713,
      "halalFriendly": false,
      "bookingUrl": "https://maps.google.com/?q=29.6143836,52.5399713",
      "source": "osm"
    },
    {
      "nom": "هتل خانه شیراز",
      "categorie": "Hôtel",
      "priceRange": "€€",
      "mapsUrl": "https://maps.google.com/?q=29.6105869,52.5376041",
      "lat": 29.6105869,
      "lng": 52.5376041,
      "halalFriendly": false,
      "bookingUrl": "https://maps.google.com/?q=29.6105869,52.5376041",
      "source": "osm"
    },
    {
      "nom": "هتل پرسپولیس",
      "categorie": "Hôtel",
      "priceRange": "€€",
      "mapsUrl": "https://maps.google.com/?q=29.6279711,52.5543244",
      "lat": 29.6279711,
      "lng": 52.5543244,
      "halalFriendly": false,
      "bookingUrl": "https://persepolis-hotel.com",
      "source": "osm"
    },
    {
      "nom": "هتل گل بهار",
      "categorie": "Hôtel",
      "priceRange": "€€",
      "mapsUrl": "https://maps.google.com/?q=29.609832,52.5370053",
      "lat": 29.609832,
      "lng": 52.5370053,
      "halalFriendly": false,
      "bookingUrl": "https://maps.google.com/?q=29.609832,52.5370053",
      "source": "osm"
    },
    {
      "nom": "هتل زند",
      "categorie": "Hôtel",
      "priceRange": "€€",
      "mapsUrl": "https://maps.google.com/?q=29.6172674,52.5417327",
      "lat": 29.6172674,
      "lng": 52.5417327,
      "halalFriendly": false,
      "bookingUrl": "https://maps.google.com/?q=29.6172674,52.5417327",
      "source": "osm"
    },
    {
      "nom": "هتل پارک",
      "categorie": "Hôtel",
      "priceRange": "€€",
      "mapsUrl": "https://maps.google.com/?q=29.6191599,52.543273",
      "lat": 29.6191599,
      "lng": 52.543273,
      "halalFriendly": false,
      "bookingUrl": "https://maps.google.com/?q=29.6191599,52.543273",
      "source": "osm"
    },
    {
      "nom": "اقامتگاه سنتی بی بی",
      "categorie": "Hôtel",
      "priceRange": "€€",
      "mapsUrl": "https://maps.google.com/?q=29.613124,52.5386727",
      "lat": 29.613124,
      "lng": 52.5386727,
      "halalFriendly": false,
      "bookingUrl": "https://maps.google.com/?q=29.613124,52.5386727",
      "source": "osm"
    },
    {
      "nom": "هتل آرنیکا",
      "categorie": "Hôtel",
      "priceRange": "€€",
      "mapsUrl": "https://maps.google.com/?q=29.6259543,52.5505954",
      "lat": 29.6259543,
      "lng": 52.5505954,
      "halalFriendly": false,
      "bookingUrl": "https://maps.google.com/?q=29.6259543,52.5505954",
      "source": "osm"
    },
    {
      "nom": "هتل پارک سعدی",
      "categorie": "Hôtel",
      "priceRange": "€€",
      "mapsUrl": "https://maps.google.com/?q=29.6303216,52.5575692",
      "lat": 29.6303216,
      "lng": 52.5575692,
      "halalFriendly": false,
      "bookingUrl": "https://parksaadihotel.com/",
      "source": "osm"
    },
    {
      "nom": "مسافرخانه سیرا",
      "categorie": "Auberge",
      "priceRange": "€€",
      "mapsUrl": "https://maps.google.com/?q=29.6134587,52.5386237",
      "lat": 29.6134587,
      "lng": 52.5386237,
      "halalFriendly": false,
      "bookingUrl": "http://sirahhostel.com",
      "source": "osm"
    },
    {
      "nom": "مهمانپذیر هورمزد",
      "categorie": "Hôtel",
      "priceRange": "€€",
      "mapsUrl": "https://maps.google.com/?q=29.6185758,52.5423731",
      "lat": 29.6185758,
      "lng": 52.5423731,
      "halalFriendly": false,
      "bookingUrl": "https://maps.google.com/?q=29.6185758,52.5423731",
      "source": "osm"
    },
    {
      "nom": "اقامتگاه زیبا",
      "categorie": "Auberge",
      "priceRange": "€€",
      "mapsUrl": "https://maps.google.com/?q=29.6096028,52.5363685",
      "lat": 29.6096028,
      "lng": 52.5363685,
      "halalFriendly": false,
      "bookingUrl": "http://www.iranianhostel.com/",
      "source": "osm"
    },
    {
      "nom": "مهمانسرای طاها",
      "categorie": "Auberge",
      "priceRange": "€€",
      "mapsUrl": "https://maps.google.com/?q=29.611342,52.5372788",
      "lat": 29.611342,
      "lng": 52.5372788,
      "halalFriendly": false,
      "bookingUrl": "https://iranianhostel.com/en//hotel-taha-boutique-hotel-in-shiraz-2",
      "source": "osm"
    },
    {
      "nom": "اقامتگاه بومگردی سنتی ستایش",
      "categorie": "Maison d'hôtes",
      "priceRange": "€€",
      "mapsUrl": "https://maps.google.com/?q=29.6124053,52.5376974",
      "lat": 29.6124053,
      "lng": 52.5376974,
      "halalFriendly": false,
      "bookingUrl": "https://setayeshhouse.com/",
      "source": "osm"
    }
  ],
  "mosqueesPrincipales": [
    {
      "id": "m1",
      "nom": "Grande Mosquée de Chiraz",
      "type": "Mosquée",
      "adresse": "Centre-ville, Chiraz",
      "description": "Mosquée principale de la ville.",
      "note": 5,
      "acces_non_musulmans": false,
      "mapsUrl": "https://maps.google.com/?q=Mosque%20Chiraz%20Chiraz"
    },
    {
      "nom": "مسجد امام حسن",
      "lat": 29.5948781,
      "lng": 52.5782452,
      "coordonnees": {
        "lat": 29.5948781,
        "lng": 52.5782452
      },
      "mapsUrl": "https://maps.google.com/?q=29.5948781,52.5782452",
      "source": "osm"
    },
    {
      "nom": "مسجد الرضا",
      "lat": 29.5979086,
      "lng": 52.5744518,
      "coordonnees": {
        "lat": 29.5979086,
        "lng": 52.5744518
      },
      "mapsUrl": "https://maps.google.com/?q=29.5979086,52.5744518",
      "source": "osm"
    },
    {
      "nom": "مسجد رسول اعظم",
      "lat": 29.5961222,
      "lng": 52.5686571,
      "coordonnees": {
        "lat": 29.5961222,
        "lng": 52.5686571
      },
      "adresse": "بلوار فضیلت جنوبی",
      "mapsUrl": "https://maps.google.com/?q=29.5961222,52.5686571",
      "source": "osm"
    },
    {
      "nom": "مسجد الزهرا",
      "lat": 29.5795724,
      "lng": 52.5762516,
      "coordonnees": {
        "lat": 29.5795724,
        "lng": 52.5762516
      },
      "mapsUrl": "https://maps.google.com/?q=29.5795724,52.5762516",
      "source": "osm"
    },
    {
      "nom": "حسینه علی ابن حسین",
      "lat": 29.5861784,
      "lng": 52.5682814,
      "coordonnees": {
        "lat": 29.5861784,
        "lng": 52.5682814
      },
      "mapsUrl": "https://maps.google.com/?q=29.5861784,52.5682814",
      "source": "osm"
    },
    {
      "nom": "نمازخانه",
      "lat": 29.5820261,
      "lng": 52.5698615,
      "coordonnees": {
        "lat": 29.5820261,
        "lng": 52.5698615
      },
      "mapsUrl": "https://maps.google.com/?q=29.5820261,52.5698615",
      "source": "osm"
    },
    {
      "nom": "حسینیه سیدالشهدا",
      "lat": 29.5747437,
      "lng": 52.5772118,
      "coordonnees": {
        "lat": 29.5747437,
        "lng": 52.5772118
      },
      "mapsUrl": "https://maps.google.com/?q=29.5747437,52.5772118",
      "source": "osm"
    },
    {
      "nom": "مسجد الزینب",
      "lat": 29.5760548,
      "lng": 52.5707531,
      "coordonnees": {
        "lat": 29.5760548,
        "lng": 52.5707531
      },
      "mapsUrl": "https://maps.google.com/?q=29.5760548,52.5707531",
      "source": "osm"
    },
    {
      "nom": "مسجد حضرت ابوالفضل",
      "lat": 29.6112513,
      "lng": 52.5747091,
      "coordonnees": {
        "lat": 29.6112513,
        "lng": 52.5747091
      },
      "mapsUrl": "https://maps.google.com/?q=29.6112513,52.5747091",
      "source": "osm"
    },
    {
      "nom": "حسینیه صاحب الزمان",
      "lat": 29.5962005,
      "lng": 52.5582687,
      "coordonnees": {
        "lat": 29.5962005,
        "lng": 52.5582687
      },
      "adresse": "بلوار الزهرا",
      "mapsUrl": "https://maps.google.com/?q=29.5962005,52.5582687",
      "source": "osm"
    },
    {
      "nom": "مسجد محمد رسول الله",
      "lat": 29.5905388,
      "lng": 52.6097365,
      "coordonnees": {
        "lat": 29.5905388,
        "lng": 52.6097365
      },
      "mapsUrl": "https://maps.google.com/?q=29.5905388,52.6097365",
      "source": "osm"
    },
    {
      "nom": "مسجد امام رضا",
      "lat": 29.5958524,
      "lng": 52.5512946,
      "coordonnees": {
        "lat": 29.5958524,
        "lng": 52.5512946
      },
      "mapsUrl": "https://maps.google.com/?q=29.5958524,52.5512946",
      "source": "osm"
    },
    {
      "nom": "مسجد صاحب الزمان عج",
      "lat": 29.5563734,
      "lng": 52.5880029,
      "coordonnees": {
        "lat": 29.5563734,
        "lng": 52.5880029
      },
      "mapsUrl": "https://maps.google.com/?q=29.5563734,52.5880029",
      "source": "osm"
    },
    {
      "nom": "مسجد امام جعفر صادق",
      "lat": 29.6234175,
      "lng": 52.5627479,
      "coordonnees": {
        "lat": 29.6234175,
        "lng": 52.5627479
      },
      "mapsUrl": "https://maps.google.com/?q=29.6234175,52.5627479",
      "source": "osm"
    },
    {
      "nom": "بنای مقدس بنی فاطمه(س)شیراز",
      "lat": 29.6172682,
      "lng": 52.5514326,
      "coordonnees": {
        "lat": 29.6172682,
        "lng": 52.5514326
      },
      "mapsUrl": "https://maps.google.com/?q=29.6172682,52.5514326",
      "source": "osm"
    },
    {
      "nom": "مسجد جوادالأئمه",
      "lat": 29.6274495,
      "lng": 52.5650928,
      "coordonnees": {
        "lat": 29.6274495,
        "lng": 52.5650928
      },
      "adresse": "کوچه ۲۱, شیراز",
      "mapsUrl": "https://maps.google.com/?q=29.6274495,52.5650928",
      "source": "osm"
    },
    {
      "nom": "بنای مقدس فاطمیه شیراز",
      "lat": 29.6117447,
      "lng": 52.5448595,
      "coordonnees": {
        "lat": 29.6117447,
        "lng": 52.5448595
      },
      "mapsUrl": "https://maps.google.com/?q=29.6117447,52.5448595",
      "source": "osm"
    },
    {
      "nom": "مسجد فاموری",
      "lat": 29.6041979,
      "lng": 52.5389997,
      "coordonnees": {
        "lat": 29.6041979,
        "lng": 52.5389997
      },
      "mapsUrl": "https://maps.google.com/?q=29.6041979,52.5389997",
      "source": "osm"
    },
    {
      "nom": "امامزاده سید محمد",
      "lat": 29.553967,
      "lng": 52.6039769,
      "coordonnees": {
        "lat": 29.553967,
        "lng": 52.6039769
      },
      "mapsUrl": "https://maps.google.com/?q=29.553967,52.6039769",
      "source": "osm"
    },
    {
      "nom": "مسجد الرضا",
      "lat": 29.5968297,
      "lng": 52.5338528,
      "coordonnees": {
        "lat": 29.5968297,
        "lng": 52.5338528
      },
      "mapsUrl": "https://maps.google.com/?q=29.5968297,52.5338528",
      "source": "osm"
    },
    {
      "nom": "مسجد ساجدین",
      "lat": 29.6072781,
      "lng": 52.5350131,
      "coordonnees": {
        "lat": 29.6072781,
        "lng": 52.5350131
      },
      "mapsUrl": "https://maps.google.com/?q=29.6072781,52.5350131",
      "source": "osm"
    },
    {
      "nom": "حرم مطهر بی بی زینبیه دختر موسی بن جعفر",
      "lat": 29.6157075,
      "lng": 52.5382172,
      "coordonnees": {
        "lat": 29.6157075,
        "lng": 52.5382172
      },
      "adresse": "خیابان لطفعلی خان زند, شیراز",
      "mapsUrl": "https://maps.google.com/?q=29.6157075,52.5382172",
      "source": "osm"
    },
    {
      "nom": "مسجد امامزاده عبدالله",
      "lat": 29.6079884,
      "lng": 52.5331585,
      "coordonnees": {
        "lat": 29.6079884,
        "lng": 52.5331585
      },
      "mapsUrl": "https://maps.google.com/?q=29.6079884,52.5331585",
      "source": "osm"
    },
    {
      "nom": "مسجد فیضیه",
      "lat": 29.6320301,
      "lng": 52.5559427,
      "coordonnees": {
        "lat": 29.6320301,
        "lng": 52.5559427
      },
      "mapsUrl": "https://maps.google.com/?q=29.6320301,52.5559427",
      "source": "osm"
    },
    {
      "nom": "مهدیه شیراز",
      "lat": 29.6247406,
      "lng": 52.5349316,
      "coordonnees": {
        "lat": 29.6247406,
        "lng": 52.5349316
      },
      "mapsUrl": "https://maps.google.com/?q=29.6247406,52.5349316",
      "source": "osm"
    },
    {
      "nom": "مسجد امام حسین",
      "lat": 29.5689817,
      "lng": 52.5213691,
      "coordonnees": {
        "lat": 29.5689817,
        "lng": 52.5213691
      },
      "mapsUrl": "https://maps.google.com/?q=29.5689817,52.5213691",
      "source": "osm"
    },
    {
      "nom": "مسجد امام حسین",
      "lat": 29.6062431,
      "lng": 52.5152489,
      "coordonnees": {
        "lat": 29.6062431,
        "lng": 52.5152489
      },
      "adresse": "بهشتی45",
      "mapsUrl": "https://maps.google.com/?q=29.6062431,52.5152489",
      "source": "osm"
    },
    {
      "nom": "امامزاده ابوطالب",
      "lat": 29.5363983,
      "lng": 52.6233559,
      "coordonnees": {
        "lat": 29.5363983,
        "lng": 52.6233559
      },
      "mapsUrl": "https://maps.google.com/?q=29.5363983,52.6233559",
      "source": "osm"
    },
    {
      "nom": "الزهرا",
      "lat": 29.6324592,
      "lng": 52.5226226,
      "coordonnees": {
        "lat": 29.6324592,
        "lng": 52.5226226
      },
      "mapsUrl": "https://maps.google.com/?q=29.6324592,52.5226226",
      "source": "osm"
    },
    {
      "nom": "نمازخانه",
      "lat": 29.6350975,
      "lng": 52.5244902,
      "coordonnees": {
        "lat": 29.6350975,
        "lng": 52.5244902
      },
      "mapsUrl": "https://maps.google.com/?q=29.6350975,52.5244902",
      "source": "osm"
    },
    {
      "nom": "مسجد فاطمیه",
      "lat": 29.570073,
      "lng": 52.509172,
      "coordonnees": {
        "lat": 29.570073,
        "lng": 52.509172
      },
      "mapsUrl": "https://maps.google.com/?q=29.570073,52.509172",
      "source": "osm"
    },
    {
      "nom": "مسجد دانشگاه شیراز",
      "lat": 29.6395703,
      "lng": 52.5256767,
      "coordonnees": {
        "lat": 29.6395703,
        "lng": 52.5256767
      },
      "mapsUrl": "https://maps.google.com/?q=29.6395703,52.5256767",
      "source": "osm"
    },
    {
      "nom": "مسجد امام محمد باقر",
      "lat": 29.6605387,
      "lng": 52.5627756,
      "coordonnees": {
        "lat": 29.6605387,
        "lng": 52.5627756
      },
      "mapsUrl": "https://maps.google.com/?q=29.6605387,52.5627756",
      "source": "osm"
    },
    {
      "nom": "مسجد صاحب الامر",
      "lat": 29.6038197,
      "lng": 52.5013764,
      "coordonnees": {
        "lat": 29.6038197,
        "lng": 52.5013764
      },
      "mapsUrl": "https://maps.google.com/?q=29.6038197,52.5013764",
      "source": "osm"
    },
    {
      "nom": "مسجد فاطمه الزهرا",
      "lat": 29.6088909,
      "lng": 52.5016706,
      "coordonnees": {
        "lat": 29.6088909,
        "lng": 52.5016706
      },
      "adresse": "۱۰ بلوار امیرکبیر",
      "mapsUrl": "https://maps.google.com/?q=29.6088909,52.5016706",
      "source": "osm"
    },
    {
      "nom": "مسجد امتیاز نو",
      "lat": 29.6155301,
      "lng": 52.5020614,
      "coordonnees": {
        "lat": 29.6155301,
        "lng": 52.5020614
      },
      "mapsUrl": "https://maps.google.com/?q=29.6155301,52.5020614",
      "source": "osm"
    },
    {
      "nom": "مسجد نبی اکرم",
      "lat": 29.5879521,
      "lng": 52.4961984,
      "coordonnees": {
        "lat": 29.5879521,
        "lng": 52.4961984
      },
      "mapsUrl": "https://maps.google.com/?q=29.5879521,52.4961984",
      "source": "osm"
    },
    {
      "nom": "هیئت مذهبی منتظران ظهور",
      "lat": 29.6263738,
      "lng": 52.5011049,
      "coordonnees": {
        "lat": 29.6263738,
        "lng": 52.5011049
      },
      "mapsUrl": "https://maps.google.com/?q=29.6263738,52.5011049",
      "source": "osm"
    },
    {
      "nom": "مسجد و حسینیه قائم آل محمد",
      "lat": 29.5709593,
      "lng": 52.4878255,
      "coordonnees": {
        "lat": 29.5709593,
        "lng": 52.4878255
      },
      "mapsUrl": "https://maps.google.com/?q=29.5709593,52.4878255",
      "source": "osm"
    }
  ],
  "activites": [
    {
      "id": "a1",
      "nom": "Mosquée Nasir-ol-Molk",
      "categorie": "Spirituel",
      "description": "La 'mosquée rose' illuminée de vitraux au lever du soleil.",
      "prix": "Payant",
      "duree": "",
      "mapsUrl": "https://maps.google.com/?q=Mosqu%C3%A9e%20Nasir-ol-Molk%20Chiraz"
    },
    {
      "id": "a2",
      "nom": "Mausolée de Shah Cheragh",
      "categorie": "Spirituel",
      "description": "Sanctuaire aux miroirs étincelants.",
      "prix": "Gratuit",
      "duree": "",
      "mapsUrl": "https://maps.google.com/?q=Mausol%C3%A9e%20de%20Shah%20Cheragh%20Chiraz"
    },
    {
      "id": "a3",
      "nom": "Persépolis (UNESCO)",
      "categorie": "Histoire",
      "description": "Capitale de l'empire perse antique, à proximité.",
      "prix": "Payant",
      "duree": "",
      "mapsUrl": "https://maps.google.com/?q=Pers%C3%A9polis%20%28UNESCO%29%20Chiraz"
    },
    {
      "nom": "خانه هفتنان شيراز ساختمان محمد",
      "lat": 29.606283,
      "lng": 52.5876024,
      "coordonnees": {
        "lat": 29.606283,
        "lng": 52.5876024
      },
      "categorie": "À voir",
      "mapsUrl": "https://maps.google.com/?q=29.606283,52.5876024",
      "source": "osm"
    },
    {
      "nom": "آرامگاه ابش خاتون",
      "lat": 29.5971449,
      "lng": 52.5520003,
      "coordonnees": {
        "lat": 29.5971449,
        "lng": 52.5520003
      },
      "categorie": "Histoire",
      "mapsUrl": "https://maps.google.com/?q=29.5971449,52.5520003",
      "source": "osm"
    },
    {
      "nom": "کوچه قهر و آشتی",
      "lat": 29.6029725,
      "lng": 52.5535961,
      "coordonnees": {
        "lat": 29.6029725,
        "lng": 52.5535961
      },
      "categorie": "À voir",
      "mapsUrl": "https://maps.google.com/?q=29.6029725,52.5535961",
      "source": "osm"
    },
    {
      "nom": "سعدی",
      "lat": 29.6224825,
      "lng": 52.5831179,
      "coordonnees": {
        "lat": 29.6224825,
        "lng": 52.5831179
      },
      "categorie": "Histoire",
      "mapsUrl": "https://maps.google.com/?q=29.6224825,52.5831179",
      "source": "osm"
    },
    {
      "nom": "موزه نارنجستان",
      "lat": 29.608117,
      "lng": 52.5529396,
      "coordonnees": {
        "lat": 29.608117,
        "lng": 52.5529396
      },
      "categorie": "Culture",
      "mapsUrl": "https://maps.google.com/?q=29.608117,52.5529396",
      "source": "osm"
    },
    {
      "nom": "قالی و قالی باف",
      "lat": 29.6093523,
      "lng": 52.5533767,
      "coordonnees": {
        "lat": 29.6093523,
        "lng": 52.5533767
      },
      "categorie": "À voir",
      "mapsUrl": "https://maps.google.com/?q=29.6093523,52.5533767",
      "source": "osm"
    },
    {
      "nom": "موزه خانه قصرالدشتی",
      "lat": 29.6081748,
      "lng": 52.5518401,
      "coordonnees": {
        "lat": 29.6081748,
        "lng": 52.5518401
      },
      "categorie": "Culture",
      "mapsUrl": "https://maps.google.com/?q=29.6081748,52.5518401",
      "source": "osm"
    },
    {
      "nom": "بیت دروازه قرآن شیراز",
      "lat": 29.6241117,
      "lng": 52.5770174,
      "coordonnees": {
        "lat": 29.6241117,
        "lng": 52.5770174
      },
      "categorie": "À voir",
      "mapsUrl": "https://maps.google.com/?q=29.6241117,52.5770174",
      "source": "osm"
    },
    {
      "nom": "رنگینه",
      "lat": 29.6149819,
      "lng": 52.5459621,
      "coordonnees": {
        "lat": 29.6149819,
        "lng": 52.5459621
      },
      "categorie": "À voir",
      "mapsUrl": "https://maps.google.com/?q=29.6149819,52.5459621",
      "source": "osm"
    },
    {
      "nom": "منزل عطاالدوله",
      "lat": 29.6129105,
      "lng": 52.5443004,
      "coordonnees": {
        "lat": 29.6129105,
        "lng": 52.5443004
      },
      "categorie": "À voir",
      "mapsUrl": "https://maps.google.com/?q=29.6129105,52.5443004",
      "source": "osm"
    },
    {
      "nom": "چاه مرتاض علی",
      "lat": 29.6315722,
      "lng": 52.5723959,
      "coordonnees": {
        "lat": 29.6315722,
        "lng": 52.5723959
      },
      "categorie": "À voir",
      "mapsUrl": "https://maps.google.com/?q=29.6315722,52.5723959",
      "source": "osm"
    },
    {
      "nom": "چهل تنان",
      "lat": 29.627896,
      "lng": 52.560587,
      "coordonnees": {
        "lat": 29.627896,
        "lng": 52.560587
      },
      "categorie": "À voir",
      "mapsUrl": "https://maps.google.com/?q=29.627896,52.560587",
      "source": "osm"
    },
    {
      "nom": "موزه پارس",
      "lat": 29.6159484,
      "lng": 52.5450216,
      "coordonnees": {
        "lat": 29.6159484,
        "lng": 52.5450216
      },
      "categorie": "Culture",
      "mapsUrl": "https://maps.google.com/?q=29.6159484,52.5450216",
      "source": "osm"
    },
    {
      "nom": "موزه هنرهای اسلامی",
      "lat": 29.6109689,
      "lng": 52.540757,
      "coordonnees": {
        "lat": 29.6109689,
        "lng": 52.540757
      },
      "categorie": "Culture",
      "mapsUrl": "https://maps.google.com/?q=29.6109689,52.540757",
      "source": "osm"
    },
    {
      "nom": "دروازه اصلی ورودی",
      "lat": 29.6172694,
      "lng": 52.5452075,
      "coordonnees": {
        "lat": 29.6172694,
        "lng": 52.5452075
      },
      "categorie": "Histoire",
      "mapsUrl": "https://maps.google.com/?q=29.6172694,52.5452075",
      "source": "osm"
    },
    {
      "nom": "کافه موزه مهر و دوستی",
      "lat": 29.6105598,
      "lng": 52.5379857,
      "coordonnees": {
        "lat": 29.6105598,
        "lng": 52.5379857
      },
      "categorie": "Culture",
      "mapsUrl": "https://maps.google.com/?q=29.6105598,52.5379857",
      "source": "osm"
    },
    {
      "nom": "گهواره دید",
      "lat": 29.6336185,
      "lng": 52.5643557,
      "coordonnees": {
        "lat": 29.6336185,
        "lng": 52.5643557
      },
      "categorie": "Histoire",
      "mapsUrl": "https://maps.google.com/?q=29.6336185,52.5643557",
      "source": "osm"
    },
    {
      "nom": "مطب دکتر اسحاق زینلی",
      "lat": 29.6269473,
      "lng": 52.5500469,
      "coordonnees": {
        "lat": 29.6269473,
        "lng": 52.5500469
      },
      "categorie": "À voir",
      "mapsUrl": "https://maps.google.com/?q=29.6269473,52.5500469",
      "source": "osm"
    },
    {
      "nom": "طاووس",
      "lat": 29.6342123,
      "lng": 52.5614193,
      "coordonnees": {
        "lat": 29.6342123,
        "lng": 52.5614193
      },
      "categorie": "Histoire",
      "mapsUrl": "https://maps.google.com/?q=29.6342123,52.5614193",
      "source": "osm"
    },
    {
      "nom": "حمام شاهزاده محمد",
      "lat": 29.607958,
      "lng": 52.533276,
      "coordonnees": {
        "lat": 29.607958,
        "lng": 52.533276
      },
      "categorie": "À voir",
      "mapsUrl": "https://maps.google.com/?q=29.607958,52.533276",
      "source": "osm"
    },
    {
      "nom": "غار خواجوی کرمانی",
      "lat": 29.6354114,
      "lng": 52.5612255,
      "coordonnees": {
        "lat": 29.6354114,
        "lng": 52.5612255
      },
      "categorie": "À voir",
      "mapsUrl": "https://maps.google.com/?q=29.6354114,52.5612255",
      "source": "osm"
    },
    {
      "nom": "موتور کراس ماشین",
      "lat": 29.6346647,
      "lng": 52.5589089,
      "coordonnees": {
        "lat": 29.6346647,
        "lng": 52.5589089
      },
      "categorie": "À voir",
      "mapsUrl": "https://maps.google.com/?q=29.6346647,52.5589089",
      "source": "osm"
    },
    {
      "nom": "مقبره خواجوی کرمانی",
      "lat": 29.6364649,
      "lng": 52.5618162,
      "coordonnees": {
        "lat": 29.6364649,
        "lng": 52.5618162
      },
      "categorie": "Histoire",
      "mapsUrl": "https://maps.google.com/?q=29.6364649,52.5618162",
      "source": "osm"
    },
    {
      "nom": "بوستر",
      "lat": 29.6353384,
      "lng": 52.5582276,
      "coordonnees": {
        "lat": 29.6353384,
        "lng": 52.5582276
      },
      "categorie": "À voir",
      "mapsUrl": "https://maps.google.com/?q=29.6353384,52.5582276",
      "source": "osm"
    },
    {
      "nom": "امیر کبیر",
      "lat": 29.6046517,
      "lng": 52.5147834,
      "coordonnees": {
        "lat": 29.6046517,
        "lng": 52.5147834
      },
      "categorie": "À voir",
      "mapsUrl": "https://maps.google.com/?q=29.6046517,52.5147834",
      "source": "osm"
    },
    {
      "nom": "سنگ نگاره برم دلک",
      "lat": 29.585384,
      "lng": 52.6540248,
      "coordonnees": {
        "lat": 29.585384,
        "lng": 52.6540248
      },
      "categorie": "À voir",
      "mapsUrl": "https://maps.google.com/?q=29.585384,52.6540248",
      "source": "osm"
    },
    {
      "nom": "سه راه اصلاح نژاد",
      "lat": 29.6130416,
      "lng": 52.5162419,
      "coordonnees": {
        "lat": 29.6130416,
        "lng": 52.5162419
      },
      "categorie": "À voir",
      "mapsUrl": "https://maps.google.com/?q=29.6130416,52.5162419",
      "source": "osm"
    },
    {
      "nom": "سرامیک هیوا",
      "lat": 29.613682,
      "lng": 52.5137691,
      "coordonnees": {
        "lat": 29.613682,
        "lng": 52.5137691
      },
      "categorie": "À voir",
      "mapsUrl": "https://maps.google.com/?q=29.613682,52.5137691",
      "source": "osm"
    },
    {
      "nom": "زمین بسکتبال",
      "lat": 29.6140968,
      "lng": 52.5021252,
      "coordonnees": {
        "lat": 29.6140968,
        "lng": 52.5021252
      },
      "categorie": "Nature",
      "mapsUrl": "https://maps.google.com/?q=29.6140968,52.5021252",
      "source": "osm"
    },
    {
      "nom": "سفال هیوا",
      "lat": 29.6137865,
      "lng": 52.501159,
      "coordonnees": {
        "lat": 29.6137865,
        "lng": 52.501159
      },
      "categorie": "À voir",
      "mapsUrl": "https://maps.google.com/?q=29.6137865,52.501159",
      "source": "osm"
    },
    {
      "nom": "نگارخانه",
      "lat": 29.6127657,
      "lng": 52.5003336,
      "coordonnees": {
        "lat": 29.6127657,
        "lng": 52.5003336
      },
      "categorie": "À voir",
      "mapsUrl": "https://maps.google.com/?q=29.6127657,52.5003336",
      "source": "osm"
    },
    {
      "nom": "استخر انقلاب",
      "lat": 29.6360227,
      "lng": 52.5130849,
      "coordonnees": {
        "lat": 29.6360227,
        "lng": 52.5130849
      },
      "categorie": "Panorama",
      "mapsUrl": "https://maps.google.com/?q=29.6360227,52.5130849",
      "source": "osm"
    },
    {
      "nom": "مجتمع اداری تجاری امیرکبیر",
      "lat": 29.6129019,
      "lng": 52.4853123,
      "coordonnees": {
        "lat": 29.6129019,
        "lng": 52.4853123
      },
      "categorie": "Histoire",
      "mapsUrl": "https://maps.google.com/?q=29.6129019,52.4853123",
      "source": "osm"
    },
    {
      "nom": "خانه",
      "lat": 29.6357205,
      "lng": 52.4650797,
      "coordonnees": {
        "lat": 29.6357205,
        "lng": 52.4650797
      },
      "categorie": "Panorama",
      "mapsUrl": "https://maps.google.com/?q=29.6357205,52.4650797",
      "source": "osm"
    },
    {
      "nom": "بام سبز شیراز",
      "lat": 29.6930338,
      "lng": 52.512947,
      "coordonnees": {
        "lat": 29.6930338,
        "lng": 52.512947
      },
      "categorie": "Nature",
      "mapsUrl": "https://maps.google.com/?q=29.6930338,52.512947",
      "source": "osm"
    },
    {
      "nom": "شقه شيراز جديده",
      "lat": 29.6887505,
      "lng": 52.4636565,
      "coordonnees": {
        "lat": 29.6887505,
        "lng": 52.4636565
      },
      "categorie": "Panorama",
      "mapsUrl": "https://maps.google.com/?q=29.6887505,52.4636565",
      "source": "osm"
    },
    {
      "nom": "بند انحرافی چنار راهدار",
      "lat": 29.6196733,
      "lng": 52.4158417,
      "coordonnees": {
        "lat": 29.6196733,
        "lng": 52.4158417
      },
      "categorie": "À voir",
      "mapsUrl": "https://maps.google.com/?q=29.6196733,52.4158417",
      "source": "osm"
    },
    {
      "nom": "نهالستان مهندس ذبیحی",
      "lat": 29.451098,
      "lng": 52.6524389,
      "coordonnees": {
        "lat": 29.451098,
        "lng": 52.6524389
      },
      "categorie": "Nature",
      "mapsUrl": "https://maps.google.com/?q=29.451098,52.6524389",
      "source": "osm"
    },
    {
      "nom": "باغ پرندگان",
      "lat": 29.7047716,
      "lng": 52.4593381,
      "coordonnees": {
        "lat": 29.7047716,
        "lng": 52.4593381
      },
      "categorie": "Nature",
      "mapsUrl": "https://maps.google.com/?q=29.7047716,52.4593381",
      "source": "osm"
    },
    {
      "nom": "باشگاه سوارکاری ژینو",
      "lat": 29.7133791,
      "lng": 52.4686381,
      "coordonnees": {
        "lat": 29.7133791,
        "lng": 52.4686381
      },
      "categorie": "Famille",
      "mapsUrl": "https://maps.google.com/?q=29.7133791,52.4686381",
      "source": "osm"
    },
    {
      "nom": "تاکستان حاج مهدی جمال آبادی",
      "lat": 29.4366792,
      "lng": 52.5466274,
      "coordonnees": {
        "lat": 29.4366792,
        "lng": 52.5466274
      },
      "categorie": "Nature",
      "mapsUrl": "https://maps.google.com/?q=29.4366792,52.5466274",
      "source": "osm"
    }
  ],
  "imageCredit": "Wikimedia Commons",
  "osmEnriched": true,
  "osmEnrichedAt": "2026-06-30",
  "description_en": "Chiraz, in Iran, is a halal-friendly destination with a Halal Trust Score of 4.6/5. Muslim travelers will find 38 halal restaurants, 1 mosques, real-time prayer times and the Qibla direction — a complete guide to travel with peace of mind.",
  "metaDescription_en": "Halal guide to Chiraz: 38+ halal restaurants, 1 mosques, prayer times and tips for Muslim travelers. Halal Trust Score 4.6/5.",
  "nom_en": "Chiraz",
  "boucheries": []
}