{
  "slug": "colombo",
  "nom": "Colombo",
  "pays": "Sri Lanka",
  "pays_slug": "sri-lanka",
  "continent": "Asie",
  "region": "Sri Lanka",
  "coordonnees": {
    "lat": 6.9271,
    "lng": 79.8612
  },
  "codeISO": "LK",
  "score_halal": 3.8,
  "halalScore": 7.6,
  "villeNonMusulmane": true,
  "description": "Capitale économique insulaire. Communauté musulmane importante, nombreuses mosquées et large offre halal.",
  "metaDescription": "Capitale économique insulaire. Communauté musulmane importante, nombreuses mosquées et large offre halal.",
  "image": "https://upload.wikimedia.org/wikipedia/commons/6/62/Colombo_city_skyline_at_night.png",
  "image_hero": "https://upload.wikimedia.org/wikipedia/commons/6/62/Colombo_city_skyline_at_night.png",
  "imageCredit": "Wikimedia Commons",
  "statistiques": {
    "restaurants_halal": 21,
    "mosquees": 47,
    "hotels": 120
  },
  "infoPratique": {
    "transport": "Accessible par avion et transports en commun locaux.",
    "meilleureEpoque": "Printemps et automne (climat tempéré).",
    "conseilHalal": "Ville non-musulmane : repérez les restaurants halal certifiés et les mosquées via l'application avant votre visite."
  },
  "tags": [
    "halal",
    "ville non-musulmane",
    "asie"
  ],
  "restaurants": [
    {
      "nom": "Graze Kitchen",
      "type": "international, italian, chinese, indian, asian",
      "priceRange": "€€",
      "mapsUrl": "https://maps.google.com/?q=6.9320689,79.8448456",
      "lat": 6.9320689,
      "lng": 79.8448456,
      "halalConfidence": "yes",
      "source": "osm"
    },
    {
      "nom": "Hotel De Plaza",
      "type": "local, indian",
      "priceRange": "€€",
      "mapsUrl": "https://maps.google.com/?q=6.9065129,79.851439",
      "lat": 6.9065129,
      "lng": 79.851439,
      "halalConfidence": "yes",
      "source": "osm"
    },
    {
      "nom": "Elite Indian Restaurant",
      "type": "fish, ice cream, tea, seafood, coffee shop, asian, chinese, diner, chicken, indian, curry",
      "priceRange": "€€",
      "mapsUrl": "https://maps.google.com/?q=6.8960482,79.8577791",
      "lat": 6.8960482,
      "lng": 79.8577791,
      "halalConfidence": "yes",
      "source": "osm"
    },
    {
      "nom": "Big Plate",
      "type": "indian, chinese, burger, sandwich",
      "priceRange": "€€",
      "mapsUrl": "https://maps.google.com/?q=6.8965728,79.8524163",
      "lat": 6.8965728,
      "lng": 79.8524163,
      "halalConfidence": "yes",
      "source": "osm"
    },
    {
      "nom": "Pizza Hut",
      "type": "pizza",
      "priceRange": "€€",
      "mapsUrl": "https://maps.google.com/?q=6.8903673,79.8659795",
      "lat": 6.8903673,
      "lng": 79.8659795,
      "halalConfidence": "yes",
      "source": "osm"
    },
    {
      "nom": "Street Burger",
      "type": "burger",
      "priceRange": "€€",
      "mapsUrl": "https://maps.google.com/?q=6.8892515,79.8543697",
      "lat": 6.8892515,
      "lng": 79.8543697,
      "halalConfidence": "yes",
      "source": "osm"
    },
    {
      "nom": "Dindigul Thalappakatti Restaurant",
      "type": "indian",
      "priceRange": "€€",
      "mapsUrl": "https://maps.google.com/?q=6.8884429,79.8584166",
      "lat": 6.8884429,
      "lng": 79.8584166,
      "halalConfidence": "yes",
      "source": "osm"
    },
    {
      "nom": "Colombo Steak House",
      "type": "steak house",
      "priceRange": "€€",
      "mapsUrl": "https://maps.google.com/?q=6.882908,79.8673904",
      "lat": 6.882908,
      "lng": 79.8673904,
      "halalConfidence": "yes",
      "source": "osm"
    },
    {
      "nom": "Marine Grill",
      "type": "indian, chinese, burger",
      "priceRange": "€€",
      "mapsUrl": "https://maps.google.com/?q=6.8764256,79.8575269",
      "lat": 6.8764256,
      "lng": 79.8575269,
      "halalConfidence": "yes",
      "source": "osm"
    },
    {
      "nom": "Juice Junction",
      "type": "juice, burger, sandwich, bubble tea",
      "priceRange": "€€",
      "mapsUrl": "https://maps.google.com/?q=6.8665594,79.8780977",
      "lat": 6.8665594,
      "lng": 79.8780977,
      "halalConfidence": "yes",
      "source": "osm"
    },
    {
      "nom": "Burger King",
      "type": "burger",
      "priceRange": "€€",
      "mapsUrl": "https://maps.google.com/?q=6.8421829,79.8666388",
      "lat": 6.8421829,
      "lng": 79.8666388,
      "halalConfidence": "yes",
      "source": "osm"
    },
    {
      "nom": "Taco Bell",
      "type": "tex-mex",
      "priceRange": "€€",
      "mapsUrl": "https://maps.google.com/?q=6.8295734,79.8683375",
      "lat": 6.8295734,
      "lng": 79.8683375,
      "halalConfidence": "yes",
      "source": "osm"
    },
    {
      "nom": "Sulthan Palace",
      "type": "arabic, indian, chinese",
      "priceRange": "€€",
      "mapsUrl": "https://maps.google.com/?q=6.9145883,79.8649784",
      "lat": 6.9145883,
      "lng": 79.8649784,
      "halalConfidence": "likely",
      "source": "osm"
    },
    {
      "nom": "HAZARI'S",
      "type": "arab",
      "priceRange": "€€",
      "mapsUrl": "https://maps.google.com/?q=6.901052,79.8511736",
      "lat": 6.901052,
      "lng": 79.8511736,
      "halalConfidence": "likely",
      "source": "osm"
    },
    {
      "nom": "The Hummus Bar",
      "type": "lebanese, mediterranean",
      "priceRange": "€€",
      "mapsUrl": "https://maps.google.com/?q=6.9139724,79.892796",
      "lat": 6.9139724,
      "lng": 79.892796,
      "halalConfidence": "likely",
      "source": "osm"
    },
    {
      "nom": "D&D Döner & Dürüm",
      "type": "turkish",
      "priceRange": "€€",
      "mapsUrl": "https://maps.google.com/?q=6.8912674,79.8674348",
      "lat": 6.8912674,
      "lng": 79.8674348,
      "halalConfidence": "likely",
      "source": "osm"
    },
    {
      "nom": "Hazari's -The Arabic Restaurant",
      "type": "arab",
      "priceRange": "€€",
      "mapsUrl": "https://maps.google.com/?q=6.8914067,79.8686729",
      "lat": 6.8914067,
      "lng": 79.8686729,
      "halalConfidence": "likely",
      "source": "osm"
    },
    {
      "nom": "Al Reem",
      "type": "arab, indian",
      "priceRange": "€€",
      "mapsUrl": "https://maps.google.com/?q=6.9065948,79.894904",
      "lat": 6.9065948,
      "lng": 79.894904,
      "halalConfidence": "likely",
      "source": "osm"
    },
    {
      "nom": "Al Maas Indian Family Restaurant",
      "type": "indian, chinese, pakistani",
      "priceRange": "€€",
      "mapsUrl": "https://maps.google.com/?q=6.8799176,79.8565822",
      "lat": 6.8799176,
      "lng": 79.8565822,
      "halalConfidence": "likely",
      "source": "osm"
    },
    {
      "nom": "Fayaz Arabic Shawarma",
      "type": "shawarma",
      "priceRange": "€€",
      "mapsUrl": "https://maps.google.com/?q=6.8630344,79.8661954",
      "lat": 6.8630344,
      "lng": 79.8661954,
      "halalConfidence": "likely",
      "source": "osm"
    },
    {
      "nom": "Dinemore",
      "lat": 6.918475,
      "lng": 79.8563467,
      "type": "burger, pizza, indian, sandwich",
      "halalConfidence": "likely",
      "mapsUrl": "https://maps.google.com/?q=6.918475,79.8563467",
      "source": "osm"
    },
    {
      "nom": "Mughlabar",
      "lat": 6.9174551,
      "lng": 79.85523,
      "type": "indian",
      "halalConfidence": "likely",
      "mapsUrl": "https://maps.google.com/?q=6.9174551,79.85523",
      "source": "osm"
    },
    {
      "nom": "A one cafe",
      "lat": 6.9238413,
      "lng": 79.8501316,
      "type": "indian",
      "halalConfidence": "likely",
      "mapsUrl": "https://maps.google.com/?q=6.9238413,79.8501316",
      "source": "osm"
    },
    {
      "nom": "Arunthathee Vihaar Vegetarian Restaurant",
      "lat": 6.9390251,
      "lng": 79.8537592,
      "type": "indian",
      "halalConfidence": "likely",
      "mapsUrl": "https://maps.google.com/?q=6.9390251,79.8537592",
      "source": "osm"
    },
    {
      "nom": "Makrin Colombo",
      "lat": 6.9340158,
      "lng": 79.8483186,
      "type": "indian",
      "halalConfidence": "likely",
      "mapsUrl": "https://maps.google.com/?q=6.9340158,79.8483186",
      "source": "osm"
    },
    {
      "nom": "Peshawri",
      "lat": 6.9258535,
      "lng": 79.845624,
      "type": "north indian, indian",
      "halalConfidence": "likely",
      "mapsUrl": "https://maps.google.com/?q=6.9258535,79.845624",
      "source": "osm"
    },
    {
      "nom": "Isso Prawn Crazy",
      "lat": 6.9120659,
      "lng": 79.8546393,
      "type": "indian, curry, fish, hot dog",
      "halalConfidence": "likely",
      "mapsUrl": "https://maps.google.com/?q=6.9120659,79.8546393",
      "source": "osm"
    },
    {
      "nom": "Masala Island",
      "lat": 6.9334211,
      "lng": 79.8435711,
      "type": "indian",
      "halalConfidence": "likely",
      "mapsUrl": "https://maps.google.com/?q=6.9334211,79.8435711",
      "source": "osm"
    },
    {
      "nom": "Urban Green",
      "lat": 6.9091848,
      "lng": 79.8554007,
      "type": "local, italian pizza, indian, international, curry, burger, sandwich, chicken, mediterranean",
      "halalConfidence": "likely",
      "mapsUrl": "https://maps.google.com/?q=6.9091848,79.8554007",
      "source": "osm"
    },
    {
      "nom": "Ananda Bhawan Pure Vegetarian Hotel",
      "lat": 6.9143183,
      "lng": 79.8773725,
      "type": "indian",
      "halalConfidence": "likely",
      "mapsUrl": "https://maps.google.com/?q=6.9143183,79.8773725",
      "source": "osm"
    },
    {
      "nom": "Amaravathi",
      "lat": 6.9088902,
      "lng": 79.8510495,
      "type": "indian",
      "halalConfidence": "likely",
      "mapsUrl": "https://maps.google.com/?q=6.9088902,79.8510495",
      "source": "osm"
    },
    {
      "nom": "Maharaja Palace",
      "lat": 6.9057394,
      "lng": 79.8601442,
      "type": "indian",
      "halalConfidence": "likely",
      "mapsUrl": "https://maps.google.com/?q=6.9057394,79.8601442",
      "source": "osm"
    },
    {
      "nom": "Sri Vihar",
      "lat": 6.8969008,
      "lng": 79.8600096,
      "type": "indian",
      "halalConfidence": "likely",
      "mapsUrl": "https://maps.google.com/?q=6.8969008,79.8600096",
      "source": "osm"
    },
    {
      "nom": "J's EATing",
      "lat": 6.8988615,
      "lng": 79.8756832,
      "type": "indian",
      "halalConfidence": "likely",
      "mapsUrl": "https://maps.google.com/?q=6.8988615,79.8756832",
      "source": "osm"
    },
    {
      "nom": "Al-maas Premium Indian Restaurant",
      "lat": 6.8952819,
      "lng": 79.8553736,
      "type": "indian",
      "halalConfidence": "likely",
      "mapsUrl": "https://maps.google.com/?q=6.8952819,79.8553736",
      "source": "osm"
    },
    {
      "nom": "Ananda Bhavan",
      "lat": 6.8909286,
      "lng": 79.8636861,
      "type": "indian",
      "halalConfidence": "likely",
      "mapsUrl": "https://maps.google.com/?q=6.8909286,79.8636861",
      "source": "osm"
    },
    {
      "nom": "Hotel New Amirthaa",
      "lat": 6.8909699,
      "lng": 79.8564912,
      "type": "indian",
      "halalConfidence": "likely",
      "mapsUrl": "https://maps.google.com/?q=6.8909699,79.8564912",
      "source": "osm"
    },
    {
      "nom": "Café Lan Tao",
      "lat": 6.8907954,
      "lng": 79.8653811,
      "type": "sri lankan, indian, western",
      "halalConfidence": "likely",
      "mapsUrl": "https://maps.google.com/?q=6.8907954,79.8653811",
      "source": "osm"
    },
    {
      "nom": "Senthoor Lodge Pure Vegetarian",
      "lat": 6.8923293,
      "lng": 79.8763335,
      "type": "indian",
      "halalConfidence": "likely",
      "mapsUrl": "https://maps.google.com/?q=6.8923293,79.8763335",
      "source": "osm"
    },
    {
      "nom": "Thalis",
      "lat": 6.8870861,
      "lng": 79.8718277,
      "type": "indian",
      "halalConfidence": "likely",
      "mapsUrl": "https://maps.google.com/?q=6.8870861,79.8718277",
      "source": "osm"
    },
    {
      "nom": "Guru Dosai",
      "lat": 6.9098896,
      "lng": 79.9067246,
      "type": "indian",
      "halalConfidence": "likely",
      "mapsUrl": "https://maps.google.com/?q=6.9098896,79.9067246",
      "source": "osm"
    },
    {
      "nom": "Kandoori",
      "lat": 6.8784951,
      "lng": 79.8581156,
      "type": "indian",
      "halalConfidence": "likely",
      "mapsUrl": "https://maps.google.com/?q=6.8784951,79.8581156",
      "source": "osm"
    },
    {
      "nom": "Curry Leaves Indian",
      "lat": 6.8761141,
      "lng": 79.8641442,
      "type": "indian",
      "halalConfidence": "likely",
      "mapsUrl": "https://maps.google.com/?q=6.8761141,79.8641442",
      "source": "osm"
    },
    {
      "nom": "Chana's",
      "lat": 6.8759358,
      "lng": 79.8633389,
      "type": "indian",
      "halalConfidence": "likely",
      "mapsUrl": "https://maps.google.com/?q=6.8759358,79.8633389",
      "source": "osm"
    },
    {
      "nom": "Rishi Foods",
      "lat": 6.8752567,
      "lng": 79.8611671,
      "type": "indian",
      "halalConfidence": "likely",
      "mapsUrl": "https://maps.google.com/?q=6.8752567,79.8611671",
      "source": "osm"
    },
    {
      "nom": "Gandhi Lodge Vegetarian",
      "lat": 6.8724161,
      "lng": 79.8615722,
      "type": "indian",
      "halalConfidence": "likely",
      "mapsUrl": "https://maps.google.com/?q=6.8724161,79.8615722",
      "source": "osm"
    },
    {
      "nom": "Chola AuthenticIndian Restaurant -Wellawatta",
      "lat": 6.8720246,
      "lng": 79.8583512,
      "type": "indian",
      "halalConfidence": "likely",
      "mapsUrl": "https://maps.google.com/?q=6.8720246,79.8583512",
      "source": "osm"
    },
    {
      "nom": "Food Waves",
      "lat": 6.8788306,
      "lng": 79.8895561,
      "type": "indian",
      "halalConfidence": "likely",
      "mapsUrl": "https://maps.google.com/?q=6.8788306,79.8895561",
      "source": "osm"
    },
    {
      "nom": "Arusuvai",
      "lat": 6.8683792,
      "lng": 79.862324,
      "type": "indian",
      "halalConfidence": "likely",
      "mapsUrl": "https://maps.google.com/?q=6.8683792,79.862324",
      "source": "osm"
    },
    {
      "nom": "The Mango Tree",
      "lat": 6.867661,
      "lng": 79.8625043,
      "type": "indian",
      "halalConfidence": "likely",
      "mapsUrl": "https://maps.google.com/?q=6.867661,79.8625043",
      "source": "osm"
    },
    {
      "nom": "Sri Vihar Kelaniya",
      "lat": 6.9531605,
      "lng": 79.9178945,
      "type": "indian",
      "halalConfidence": "likely",
      "mapsUrl": "https://maps.google.com/?q=6.9531605,79.9178945",
      "source": "osm"
    },
    {
      "nom": "Shanmugas",
      "lat": 6.8648597,
      "lng": 79.8603213,
      "type": "indian",
      "halalConfidence": "likely",
      "mapsUrl": "https://maps.google.com/?q=6.8648597,79.8603213",
      "source": "osm"
    },
    {
      "nom": "Bilal Restaurant",
      "lat": 6.8628776,
      "lng": 79.8652535,
      "type": "indian",
      "halalConfidence": "likely",
      "mapsUrl": "https://maps.google.com/?q=6.8628776,79.8652535",
      "source": "osm"
    },
    {
      "nom": "Pan Restaurant",
      "lat": 6.9878677,
      "lng": 79.8929237,
      "type": "asian, indian, chinese",
      "halalConfidence": "likely",
      "mapsUrl": "https://maps.google.com/?q=6.9878677,79.8929237",
      "source": "osm"
    },
    {
      "nom": "Taj Mahal Palace",
      "lat": 6.8949027,
      "lng": 79.9240467,
      "type": "indian",
      "halalConfidence": "likely",
      "mapsUrl": "https://maps.google.com/?q=6.8949027,79.9240467",
      "source": "osm"
    },
    {
      "nom": "Elite Family Restaurant",
      "lat": 6.8933393,
      "lng": 79.9265094,
      "type": "indian",
      "halalConfidence": "likely",
      "mapsUrl": "https://maps.google.com/?q=6.8933393,79.9265094",
      "source": "osm"
    },
    {
      "nom": "Tashila Food Centre",
      "lat": 6.8911703,
      "lng": 79.9282968,
      "type": "sri lankan, indian, chinese",
      "halalConfidence": "likely",
      "mapsUrl": "https://maps.google.com/?q=6.8911703,79.9282968",
      "source": "osm"
    },
    {
      "nom": "Sanuki",
      "lat": 6.8746381,
      "lng": 79.9330702,
      "type": "sri lankan, indian, chinese",
      "halalConfidence": "likely",
      "mapsUrl": "https://maps.google.com/?q=6.8746381,79.9330702",
      "source": "osm"
    },
    {
      "nom": "Sri Bhavan",
      "lat": 6.8751448,
      "lng": 79.9340535,
      "type": "indian",
      "halalConfidence": "likely",
      "mapsUrl": "https://maps.google.com/?q=6.8751448,79.9340535",
      "source": "osm"
    }
  ],
  "hotels": [
    {
      "nom": "Shalimar Hotel",
      "categorie": "Hôtel",
      "priceRange": "€€",
      "mapsUrl": "https://maps.google.com/?q=6.9304715,79.8651588",
      "lat": 6.9304715,
      "lng": 79.8651588,
      "halalFriendly": false,
      "bookingUrl": "https://maps.google.com/?q=6.9304715,79.8651588",
      "source": "osm"
    },
    {
      "nom": "Booker Banquet Hall",
      "categorie": "Hôtel",
      "priceRange": "€€",
      "mapsUrl": "https://maps.google.com/?q=6.9215411,79.864628",
      "lat": 6.9215411,
      "lng": 79.864628,
      "halalFriendly": false,
      "bookingUrl": "https://maps.google.com/?q=6.9215411,79.864628",
      "source": "osm"
    },
    {
      "nom": "Benchmark Holidays",
      "categorie": "Hôtel",
      "priceRange": "€€",
      "mapsUrl": "https://maps.google.com/?q=6.9311621,79.855306",
      "lat": 6.9311621,
      "lng": 79.855306,
      "halalFriendly": false,
      "bookingUrl": "https://maps.google.com/?q=6.9311621,79.855306",
      "source": "osm"
    },
    {
      "nom": "onThree20",
      "categorie": "Appartement",
      "priceRange": "€€",
      "mapsUrl": "https://maps.google.com/?q=6.9196541,79.8592353",
      "lat": 6.9196541,
      "lng": 79.8592353,
      "halalFriendly": false,
      "bookingUrl": "https://maps.google.com/?q=6.9196541,79.8592353",
      "source": "osm"
    },
    {
      "nom": "Trizen",
      "categorie": "Appartement",
      "priceRange": "€€",
      "mapsUrl": "https://maps.google.com/?q=6.9198506,79.8585311",
      "lat": 6.9198506,
      "lng": 79.8585311,
      "halalFriendly": false,
      "bookingUrl": "https://maps.google.com/?q=6.9198506,79.8585311",
      "source": "osm"
    },
    {
      "nom": "YWCA",
      "categorie": "Auberge",
      "priceRange": "€€",
      "mapsUrl": "https://maps.google.com/?q=6.9192482,79.8600393",
      "lat": 6.9192482,
      "lng": 79.8600393,
      "halalFriendly": false,
      "bookingUrl": "https://maps.google.com/?q=6.9192482,79.8600393",
      "source": "osm"
    },
    {
      "nom": "Zak Rezidence",
      "categorie": "Appartement",
      "priceRange": "€€",
      "mapsUrl": "https://maps.google.com/?q=6.9216846,79.8552464",
      "lat": 6.9216846,
      "lng": 79.8552464,
      "halalFriendly": false,
      "bookingUrl": "https://maps.google.com/?q=6.9216846,79.8552464",
      "source": "osm"
    },
    {
      "nom": "Hilton Colombo Residences",
      "categorie": "Hôtel",
      "priceRange": "€€€€",
      "score": 5,
      "mapsUrl": "https://maps.google.com/?q=6.9206639,79.8562983",
      "lat": 6.9206639,
      "lng": 79.8562983,
      "halalFriendly": false,
      "bookingUrl": "https://www.hilton.com/en/hotels/coljttw-hilton-colombo-residences/",
      "source": "osm"
    },
    {
      "nom": "Jan Rich",
      "categorie": "Hôtel",
      "priceRange": "€€",
      "mapsUrl": "https://maps.google.com/?q=6.9226113,79.853847",
      "lat": 6.9226113,
      "lng": 79.853847,
      "halalFriendly": false,
      "bookingUrl": "https://maps.google.com/?q=6.9226113,79.853847",
      "source": "osm"
    },
    {
      "nom": "Thilhara Days Inn",
      "categorie": "Hôtel",
      "priceRange": "€€",
      "mapsUrl": "https://maps.google.com/?q=6.9223793,79.8539816",
      "lat": 6.9223793,
      "lng": 79.8539816,
      "halalFriendly": false,
      "bookingUrl": "https://maps.google.com/?q=6.9223793,79.8539816",
      "source": "osm"
    },
    {
      "nom": "Haven Fort Hostel",
      "categorie": "Auberge",
      "priceRange": "€€",
      "mapsUrl": "https://maps.google.com/?q=6.9236437,79.8532034",
      "lat": 6.9236437,
      "lng": 79.8532034,
      "halalFriendly": false,
      "bookingUrl": "https://maps.google.com/?q=6.9236437,79.8532034",
      "source": "osm"
    },
    {
      "nom": "Ananda College Hostel",
      "categorie": "Auberge",
      "priceRange": "€€",
      "mapsUrl": "https://maps.google.com/?q=6.9249354,79.8697021",
      "lat": 6.9249354,
      "lng": 79.8697021,
      "halalFriendly": false,
      "bookingUrl": "https://maps.google.com/?q=6.9249354,79.8697021",
      "source": "osm"
    },
    {
      "nom": "Asine hotel",
      "categorie": "Hôtel",
      "priceRange": "€€",
      "mapsUrl": "https://maps.google.com/?q=6.9227909,79.8532068",
      "lat": 6.9227909,
      "lng": 79.8532068,
      "halalFriendly": false,
      "bookingUrl": "https://maps.google.com/?q=6.9227909,79.8532068",
      "source": "osm"
    },
    {
      "nom": "Jan rich hotel",
      "categorie": "Hôtel",
      "priceRange": "€€",
      "mapsUrl": "https://maps.google.com/?q=6.9226857,79.8532476",
      "lat": 6.9226857,
      "lng": 79.8532476,
      "halalFriendly": false,
      "bookingUrl": "https://maps.google.com/?q=6.9226857,79.8532476",
      "source": "osm"
    },
    {
      "nom": "City Hotel Colombo 2",
      "categorie": "Hôtel",
      "priceRange": "€€",
      "mapsUrl": "https://maps.google.com/?q=6.9211524,79.8542916",
      "lat": 6.9211524,
      "lng": 79.8542916,
      "halalFriendly": false,
      "bookingUrl": "https://maps.google.com/?q=6.9211524,79.8542916",
      "source": "osm"
    },
    {
      "nom": "Colomba Gedara",
      "categorie": "Maison d'hôtes",
      "priceRange": "€€",
      "mapsUrl": "https://maps.google.com/?q=6.9330669,79.8539138",
      "lat": 6.9330669,
      "lng": 79.8539138,
      "halalFriendly": false,
      "bookingUrl": "https://maps.google.com/?q=6.9330669,79.8539138",
      "source": "osm"
    },
    {
      "nom": "Salvation Army Hostel",
      "categorie": "Auberge",
      "priceRange": "€€",
      "mapsUrl": "https://maps.google.com/?q=6.9219164,79.8531783",
      "lat": 6.9219164,
      "lng": 79.8531783,
      "halalFriendly": false,
      "bookingUrl": "https://maps.google.com/?q=6.9219164,79.8531783",
      "source": "osm"
    },
    {
      "nom": "Bismillah lodge",
      "categorie": "Hôtel",
      "priceRange": "€€",
      "mapsUrl": "https://maps.google.com/?q=6.9232471,79.8699722",
      "lat": 6.9232471,
      "lng": 79.8699722,
      "halalFriendly": false,
      "bookingUrl": "https://maps.google.com/?q=6.9232471,79.8699722",
      "source": "osm"
    },
    {
      "nom": "Colombo City Jumbo Hostel",
      "categorie": "Auberge",
      "priceRange": "€€",
      "mapsUrl": "https://maps.google.com/?q=6.9225063,79.8697434",
      "lat": 6.9225063,
      "lng": 79.8697434,
      "halalFriendly": false,
      "bookingUrl": "https://maps.google.com/?q=6.9225063,79.8697434",
      "source": "osm"
    },
    {
      "nom": "Residence by Uga Escapes",
      "categorie": "Hôtel",
      "priceRange": "€€",
      "mapsUrl": "https://maps.google.com/?q=6.9173938,79.8585264",
      "lat": 6.9173938,
      "lng": 79.8585264,
      "halalFriendly": false,
      "bookingUrl": "https://maps.google.com/?q=6.9173938,79.8585264",
      "source": "osm"
    },
    {
      "nom": "Residence on Park Street",
      "categorie": "Hôtel",
      "priceRange": "€€",
      "mapsUrl": "https://maps.google.com/?q=6.9172364,79.8582344",
      "lat": 6.9172364,
      "lng": 79.8582344,
      "halalFriendly": false,
      "bookingUrl": "https://www.residenceonparkstreet.com/",
      "source": "osm"
    },
    {
      "nom": "Pradeepa Hall",
      "categorie": "Hôtel",
      "priceRange": "€€",
      "mapsUrl": "https://maps.google.com/?q=6.9327253,79.8699193",
      "lat": 6.9327253,
      "lng": 79.8699193,
      "halalFriendly": false,
      "bookingUrl": "https://maps.google.com/?q=6.9327253,79.8699193",
      "source": "osm"
    },
    {
      "nom": "Metro City",
      "categorie": "Hôtel",
      "priceRange": "€€",
      "mapsUrl": "https://maps.google.com/?q=6.923703,79.8510897",
      "lat": 6.923703,
      "lng": 79.8510897,
      "halalFriendly": false,
      "bookingUrl": "https://www.metrocityhotel.com/",
      "source": "osm"
    },
    {
      "nom": "Courtyard by Marriott Colombo",
      "categorie": "Hôtel",
      "priceRange": "€€",
      "mapsUrl": "https://maps.google.com/?q=6.9176898,79.8557649",
      "lat": 6.9176898,
      "lng": 79.8557649,
      "halalFriendly": false,
      "bookingUrl": "https://maps.google.com/?q=6.9176898,79.8557649",
      "source": "osm"
    },
    {
      "nom": "Chinese",
      "categorie": "Appartement",
      "priceRange": "€€",
      "mapsUrl": "https://maps.google.com/?q=6.9229574,79.8509008",
      "lat": 6.9229574,
      "lng": 79.8509008,
      "halalFriendly": false,
      "bookingUrl": "https://maps.google.com/?q=6.9229574,79.8509008",
      "source": "osm"
    },
    {
      "nom": "Iddawela Residence",
      "categorie": "Appartement",
      "priceRange": "€€",
      "mapsUrl": "https://maps.google.com/?q=6.9157684,79.8588039",
      "lat": 6.9157684,
      "lng": 79.8588039,
      "halalFriendly": false,
      "bookingUrl": "https://maps.google.com/?q=6.9157684,79.8588039",
      "source": "osm"
    },
    {
      "nom": "Opulence Colombo",
      "categorie": "Hôtel",
      "priceRange": "€€",
      "mapsUrl": "https://maps.google.com/?q=6.9386821,79.8594962",
      "lat": 6.9386821,
      "lng": 79.8594962,
      "halalFriendly": false,
      "bookingUrl": "https://maps.google.com/?q=6.9386821,79.8594962",
      "source": "osm"
    },
    {
      "nom": "Cinnamon Lakeside Hotel",
      "categorie": "Hôtel",
      "priceRange": "€€€€",
      "score": 5,
      "mapsUrl": "https://maps.google.com/?q=6.9291227,79.8493786",
      "lat": 6.9291227,
      "lng": 79.8493786,
      "halalFriendly": false,
      "bookingUrl": "https://www.cinnamonhotels.com/cinnamonlakesidecolombo",
      "source": "osm"
    },
    {
      "nom": "Steps Backpackers Hostel",
      "categorie": "Hôtel",
      "priceRange": "€€",
      "mapsUrl": "https://maps.google.com/?q=6.926099,79.8735632",
      "lat": 6.926099,
      "lng": 79.8735632,
      "halalFriendly": false,
      "bookingUrl": "https://maps.google.com/?q=6.926099,79.8735632",
      "source": "osm"
    },
    {
      "nom": "Rosmead Place Boutique Hotel",
      "categorie": "Hôtel",
      "priceRange": "€€",
      "mapsUrl": "https://maps.google.com/?q=6.9155255,79.8667955",
      "lat": 6.9155255,
      "lng": 79.8667955,
      "halalFriendly": false,
      "bookingUrl": "https://rosmeadplacecolombo7.com/",
      "source": "osm"
    },
    {
      "nom": "Cinnamon Life at City of Dreams",
      "categorie": "Hôtel",
      "priceRange": "€€",
      "mapsUrl": "https://maps.google.com/?q=6.9251571,79.8477704",
      "lat": 6.9251571,
      "lng": 79.8477704,
      "halalFriendly": false,
      "bookingUrl": "https://cinnamonhotels.com/cinnamonlife",
      "source": "osm"
    },
    {
      "nom": "Charter  house",
      "categorie": "Maison d'hôtes",
      "priceRange": "€€",
      "mapsUrl": "https://maps.google.com/?q=6.9307015,79.8478926",
      "lat": 6.9307015,
      "lng": 79.8478926,
      "halalFriendly": false,
      "bookingUrl": "https://maps.google.com/?q=6.9307015,79.8478926",
      "source": "osm"
    },
    {
      "nom": "Jetwing Colombo Seven",
      "categorie": "Hôtel",
      "priceRange": "€€",
      "mapsUrl": "https://maps.google.com/?q=6.9165826,79.8702801",
      "lat": 6.9165826,
      "lng": 79.8702801,
      "halalFriendly": false,
      "bookingUrl": "https://maps.google.com/?q=6.9165826,79.8702801",
      "source": "osm"
    },
    {
      "nom": "55 Fort Train Hostel",
      "categorie": "Auberge",
      "priceRange": "€€",
      "mapsUrl": "https://maps.google.com/?q=6.935606,79.8501628",
      "lat": 6.935606,
      "lng": 79.8501628,
      "halalFriendly": false,
      "bookingUrl": "https://maps.google.com/?q=6.935606,79.8501628",
      "source": "osm"
    },
    {
      "nom": "Beira house",
      "categorie": "Maison d'hôtes",
      "priceRange": "€€",
      "mapsUrl": "https://maps.google.com/?q=6.9162894,79.8523819",
      "lat": 6.9162894,
      "lng": 79.8523819,
      "halalFriendly": false,
      "bookingUrl": "https://maps.google.com/?q=6.9162894,79.8523819",
      "source": "osm"
    },
    {
      "nom": "Lake Lodge",
      "categorie": "Hôtel",
      "priceRange": "€€",
      "mapsUrl": "https://maps.google.com/?q=6.9150324,79.8542302",
      "lat": 6.9150324,
      "lng": 79.8542302,
      "halalFriendly": false,
      "bookingUrl": "https://maps.google.com/?q=6.9150324,79.8542302",
      "source": "osm"
    },
    {
      "nom": "Black Cat B&B",
      "categorie": "Hôtel",
      "priceRange": "€€",
      "mapsUrl": "https://maps.google.com/?q=6.915641,79.869255",
      "lat": 6.915641,
      "lng": 79.869255,
      "halalFriendly": false,
      "bookingUrl": "https://maps.google.com/?q=6.915641,79.869255",
      "source": "osm"
    },
    {
      "nom": "De Saram House",
      "categorie": "Maison d'hôtes",
      "priceRange": "€€",
      "mapsUrl": "https://maps.google.com/?q=6.9167137,79.8708312",
      "lat": 6.9167137,
      "lng": 79.8708312,
      "halalFriendly": false,
      "bookingUrl": "https://geoffreybawa.com/de-saram-house",
      "source": "osm"
    },
    {
      "nom": "Nalanda College Hostel complex",
      "categorie": "Auberge",
      "priceRange": "€€",
      "mapsUrl": "https://maps.google.com/?q=6.9247138,79.8755815",
      "lat": 6.9247138,
      "lng": 79.8755815,
      "halalFriendly": false,
      "bookingUrl": "https://maps.google.com/?q=6.9247138,79.8755815",
      "source": "osm"
    },
    {
      "nom": "Lost & Found",
      "categorie": "Maison d'hôtes",
      "priceRange": "€€",
      "mapsUrl": "https://maps.google.com/?q=6.9138003,79.85536",
      "lat": 6.9138003,
      "lng": 79.85536,
      "halalFriendly": false,
      "bookingUrl": "https://www.lostandfoundsrilanka.com/colombo",
      "source": "osm"
    },
    {
      "nom": "Brighten Rest",
      "categorie": "Hôtel",
      "priceRange": "€€",
      "mapsUrl": "https://maps.google.com/?q=6.9414589,79.864045",
      "lat": 6.9414589,
      "lng": 79.864045,
      "halalFriendly": false,
      "bookingUrl": "https://maps.google.com/?q=6.9414589,79.864045",
      "source": "osm"
    },
    {
      "nom": "Ramada Colombo",
      "categorie": "Hôtel",
      "priceRange": "€€",
      "mapsUrl": "https://maps.google.com/?q=6.9211657,79.8476483",
      "lat": 6.9211657,
      "lng": 79.8476483,
      "halalFriendly": false,
      "bookingUrl": "https://maps.google.com/?q=6.9211657,79.8476483",
      "source": "osm"
    },
    {
      "nom": "Hotel Tintagel Colombo",
      "categorie": "Hôtel",
      "priceRange": "€€",
      "mapsUrl": "https://maps.google.com/?q=6.9151515,79.869985",
      "lat": 6.9151515,
      "lng": 79.869985,
      "halalFriendly": false,
      "bookingUrl": "https://maps.google.com/?q=6.9151515,79.869985",
      "source": "osm"
    },
    {
      "nom": "Cinnamon Garden Residences",
      "categorie": "Appartement",
      "priceRange": "€€",
      "mapsUrl": "https://maps.google.com/?q=6.9163173,79.8716034",
      "lat": 6.9163173,
      "lng": 79.8716034,
      "halalFriendly": false,
      "bookingUrl": "https://maps.google.com/?q=6.9163173,79.8716034",
      "source": "osm"
    },
    {
      "nom": "Lavonca Boutique Hotel",
      "categorie": "Maison d'hôtes",
      "priceRange": "€€",
      "mapsUrl": "https://maps.google.com/?q=6.9137319,79.8544602",
      "lat": 6.9137319,
      "lng": 79.8544602,
      "halalFriendly": false,
      "bookingUrl": "https://www.lavonca.com/",
      "source": "osm"
    },
    {
      "nom": "Hostel at Galle Terrace ",
      "categorie": "Auberge",
      "priceRange": "€€",
      "mapsUrl": "https://maps.google.com/?q=6.920766,79.8475385",
      "lat": 6.920766,
      "lng": 79.8475385,
      "halalFriendly": false,
      "bookingUrl": "https://maps.google.com/?q=6.920766,79.8475385",
      "source": "osm"
    },
    {
      "nom": "Premier Suite",
      "categorie": "Hôtel",
      "priceRange": "€€",
      "mapsUrl": "https://maps.google.com/?q=6.912514,79.857759",
      "lat": 6.912514,
      "lng": 79.857759,
      "halalFriendly": false,
      "bookingUrl": "https://maps.google.com/?q=6.912514,79.857759",
      "source": "osm"
    },
    {
      "nom": "Hostel Inn Colombo 7",
      "categorie": "Auberge",
      "priceRange": "€€",
      "mapsUrl": "https://maps.google.com/?q=6.9128236,79.8562594",
      "lat": 6.9128236,
      "lng": 79.8562594,
      "halalFriendly": false,
      "bookingUrl": "https://maps.google.com/?q=6.9128236,79.8562594",
      "source": "osm"
    },
    {
      "nom": "Taj Samudra Hotel",
      "categorie": "Hôtel",
      "priceRange": "€€",
      "mapsUrl": "https://maps.google.com/?q=6.9225931,79.8466816",
      "lat": 6.9225931,
      "lng": 79.8466816,
      "halalFriendly": false,
      "bookingUrl": "https://www.tajhotels.com/en-in/taj/taj-samudra-colombo/",
      "source": "osm"
    },
    {
      "nom": "Cinnamon Grand Colombo",
      "categorie": "Hôtel",
      "priceRange": "€€",
      "mapsUrl": "https://maps.google.com/?q=6.9181716,79.848783",
      "lat": 6.9181716,
      "lng": 79.848783,
      "halalFriendly": false,
      "bookingUrl": "https://www.cinnamonhotels.com/cinnamongrandcolombo",
      "source": "osm"
    },
    {
      "nom": "City Beds - The Regent",
      "categorie": "Hôtel",
      "priceRange": "€€",
      "mapsUrl": "https://maps.google.com/?q=6.9320693,79.8466171",
      "lat": 6.9320693,
      "lng": 79.8466171,
      "halalFriendly": false,
      "bookingUrl": "https://citybedssrilanka.com/",
      "source": "osm"
    },
    {
      "nom": "M.P.S. LODGE",
      "categorie": "Hôtel",
      "priceRange": "€€",
      "mapsUrl": "https://maps.google.com/?q=6.9420218,79.8572082",
      "lat": 6.9420218,
      "lng": 79.8572082,
      "halalFriendly": false,
      "bookingUrl": "https://maps.google.com/?q=6.9420218,79.8572082",
      "source": "osm"
    },
    {
      "nom": "Colombo Downtown Monkey",
      "categorie": "Auberge",
      "priceRange": "€€",
      "mapsUrl": "https://maps.google.com/?q=6.9319239,79.8462894",
      "lat": 6.9319239,
      "lng": 79.8462894,
      "halalFriendly": false,
      "bookingUrl": "https://maps.google.com/?q=6.9319239,79.8462894",
      "source": "osm"
    },
    {
      "nom": "Regent Residencies -Colombo",
      "categorie": "Hôtel",
      "priceRange": "€€",
      "mapsUrl": "https://maps.google.com/?q=6.9319502,79.8462974",
      "lat": 6.9319502,
      "lng": 79.8462974,
      "halalFriendly": false,
      "bookingUrl": "https://maps.google.com/?q=6.9319502,79.8462974",
      "source": "osm"
    },
    {
      "nom": "Green Lodge",
      "categorie": "Maison d'hôtes",
      "priceRange": "€€",
      "mapsUrl": "https://maps.google.com/?q=6.9214567,79.8759245",
      "lat": 6.9214567,
      "lng": 79.8759245,
      "halalFriendly": false,
      "bookingUrl": "https://maps.google.com/?q=6.9214567,79.8759245",
      "source": "osm"
    },
    {
      "nom": "Monkey downtown",
      "categorie": "Auberge",
      "priceRange": "€€",
      "mapsUrl": "https://maps.google.com/?q=6.9311913,79.8458982",
      "lat": 6.9311913,
      "lng": 79.8458982,
      "halalFriendly": false,
      "bookingUrl": "https://maps.google.com/?q=6.9311913,79.8458982",
      "source": "osm"
    },
    {
      "nom": "ITC Ratnadipa Colombo",
      "categorie": "Hôtel",
      "priceRange": "€€€€",
      "score": 5,
      "mapsUrl": "https://maps.google.com/?q=6.9253013,79.8453837",
      "lat": 6.9253013,
      "lng": 79.8453837,
      "halalFriendly": false,
      "bookingUrl": "https://maps.google.com/?q=6.9253013,79.8453837",
      "source": "osm"
    },
    {
      "nom": "YWCA National Headquarters",
      "categorie": "Auberge",
      "priceRange": "€€",
      "mapsUrl": "https://maps.google.com/?q=6.9164526,79.8493303",
      "lat": 6.9164526,
      "lng": 79.8493303,
      "halalFriendly": false,
      "bookingUrl": "https://maps.google.com/?q=6.9164526,79.8493303",
      "source": "osm"
    },
    {
      "nom": "Cinnamon Red",
      "categorie": "Hôtel",
      "priceRange": "€€",
      "mapsUrl": "https://maps.google.com/?q=6.9121909,79.8552029",
      "lat": 6.9121909,
      "lng": 79.8552029,
      "halalFriendly": false,
      "bookingUrl": "https://www.cinnamonhotels.com/cinnamonredcolombo",
      "source": "osm"
    },
    {
      "nom": "Tract",
      "categorie": "Hôtel",
      "priceRange": "€€",
      "mapsUrl": "https://maps.google.com/?q=6.9249487,79.8773286",
      "lat": 6.9249487,
      "lng": 79.8773286,
      "halalFriendly": false,
      "bookingUrl": "https://maps.google.com/?q=6.9249487,79.8773286",
      "source": "osm"
    },
    {
      "nom": "Miracle City Inn Hostel",
      "categorie": "Auberge",
      "priceRange": "€€",
      "mapsUrl": "https://maps.google.com/?q=6.914321,79.8508753",
      "lat": 6.914321,
      "lng": 79.8508753,
      "halalFriendly": false,
      "bookingUrl": "https://www.miraclecityinn.com/",
      "source": "osm"
    },
    {
      "nom": "Samudra Hotel",
      "categorie": "Hôtel",
      "priceRange": "€€",
      "mapsUrl": "https://maps.google.com/?q=6.9181678,79.8473204",
      "lat": 6.9181678,
      "lng": 79.8473204,
      "halalFriendly": false,
      "bookingUrl": "https://maps.google.com/?q=6.9181678,79.8473204",
      "source": "osm"
    },
    {
      "nom": "Galle Face Hotel",
      "categorie": "Hôtel",
      "priceRange": "€€",
      "mapsUrl": "https://maps.google.com/?q=6.9201213,79.8461345",
      "lat": 6.9201213,
      "lng": 79.8461345,
      "halalFriendly": false,
      "bookingUrl": "https://www.gallefacehotel.com/",
      "source": "osm"
    },
    {
      "nom": "Shangri-La Hotel Colombo",
      "categorie": "Hôtel",
      "priceRange": "€€€€",
      "score": 5,
      "mapsUrl": "https://maps.google.com/?q=6.9284818,79.8444322",
      "lat": 6.9284818,
      "lng": 79.8444322,
      "halalFriendly": false,
      "bookingUrl": "https://www.shangri-la.com/colombo/shangrila/",
      "source": "osm"
    },
    {
      "nom": "Parisare (Homestay)",
      "categorie": "Maison d'hôtes",
      "priceRange": "€€",
      "mapsUrl": "https://maps.google.com/?q=6.9145614,79.8725832",
      "lat": 6.9145614,
      "lng": 79.8725832,
      "halalFriendly": false,
      "bookingUrl": "https://maps.google.com/?q=6.9145614,79.8725832",
      "source": "osm"
    },
    {
      "nom": "Hilton Colombo",
      "categorie": "Hôtel",
      "priceRange": "€€€€",
      "score": 5,
      "mapsUrl": "https://maps.google.com/?q=6.9321682,79.8449265",
      "lat": 6.9321682,
      "lng": 79.8449265,
      "halalFriendly": false,
      "bookingUrl": "https://www.hilton.com/en/hotels/colhitw-hilton-colombo/?WT.mc_id=zELWAKN0APAC1HI2DMH3LocalSearch4DGGenericx6COLHITW",
      "source": "osm"
    },
    {
      "nom": "Y.M.C.A.",
      "categorie": "Auberge",
      "priceRange": "€€",
      "mapsUrl": "https://maps.google.com/?q=6.9346855,79.8457208",
      "lat": 6.9346855,
      "lng": 79.8457208,
      "halalFriendly": false,
      "bookingUrl": "http://www.srilanka-ymca.org/Colombo_ymca.htm",
      "source": "osm"
    },
    {
      "nom": "Ranmuthu Hotel",
      "categorie": "Hôtel",
      "priceRange": "€€",
      "mapsUrl": "https://maps.google.com/?q=6.9155325,79.8480881",
      "lat": 6.9155325,
      "lng": 79.8480881,
      "halalFriendly": false,
      "bookingUrl": "https://maps.google.com/?q=6.9155325,79.8480881",
      "source": "osm"
    },
    {
      "nom": "Ceylon StayZ",
      "categorie": "Auberge",
      "priceRange": "€€",
      "mapsUrl": "https://maps.google.com/?q=6.9096127,79.8632451",
      "lat": 6.9096127,
      "lng": 79.8632451,
      "halalFriendly": false,
      "bookingUrl": "https://maps.google.com/?q=6.9096127,79.8632451",
      "source": "osm"
    },
    {
      "nom": "Grand Hyatt Colombo",
      "categorie": "Hôtel",
      "priceRange": "€€€€",
      "score": 5,
      "mapsUrl": "https://maps.google.com/?q=6.9157831,79.8475625",
      "lat": 6.9157831,
      "lng": 79.8475625,
      "halalFriendly": false,
      "bookingUrl": "https://maps.google.com/?q=6.9157831,79.8475625",
      "source": "osm"
    },
    {
      "nom": "The Little Townhouse",
      "categorie": "Maison d'hôtes",
      "priceRange": "€€",
      "mapsUrl": "https://maps.google.com/?q=6.9102888,79.8553492",
      "lat": 6.9102888,
      "lng": 79.8553492,
      "halalFriendly": false,
      "bookingUrl": "https://maps.google.com/?q=6.9102888,79.8553492",
      "source": "osm"
    },
    {
      "nom": "Colombo City Hotel",
      "categorie": "Hôtel",
      "priceRange": "€€",
      "mapsUrl": "https://maps.google.com/?q=6.9334836,79.8441263",
      "lat": 6.9334836,
      "lng": 79.8441263,
      "halalFriendly": false,
      "bookingUrl": "https://maps.google.com/?q=6.9334836,79.8441263",
      "source": "osm"
    },
    {
      "nom": "City Rest Fort",
      "categorie": "Hôtel",
      "priceRange": "€€",
      "mapsUrl": "https://maps.google.com/?q=6.9337998,79.8441932",
      "lat": 6.9337998,
      "lng": 79.8441932,
      "halalFriendly": false,
      "bookingUrl": "https://maps.google.com/?q=6.9337998,79.8441932",
      "source": "osm"
    },
    {
      "nom": "Backpack Lanka",
      "categorie": "Auberge",
      "priceRange": "€€",
      "mapsUrl": "https://maps.google.com/?q=6.9112603,79.8520085",
      "lat": 6.9112603,
      "lng": 79.8520085,
      "halalFriendly": false,
      "bookingUrl": "https://www.backpacklanka.com/",
      "source": "osm"
    },
    {
      "nom": "ZMAX",
      "categorie": "Maison d'hôtes",
      "priceRange": "€€",
      "mapsUrl": "https://maps.google.com/?q=6.9333187,79.8437769",
      "lat": 6.9333187,
      "lng": 79.8437769,
      "halalFriendly": false,
      "bookingUrl": "https://maps.google.com/?q=6.9333187,79.8437769",
      "source": "osm"
    },
    {
      "nom": "ZMAX FAIRWAY",
      "categorie": "Maison d'hôtes",
      "priceRange": "€€",
      "mapsUrl": "https://maps.google.com/?q=6.9337687,79.8438864",
      "lat": 6.9337687,
      "lng": 79.8438864,
      "halalFriendly": false,
      "bookingUrl": "https://maps.google.com/?q=6.9337687,79.8438864",
      "source": "osm"
    },
    {
      "nom": "Galadari Hotel",
      "categorie": "Hôtel",
      "priceRange": "€€",
      "mapsUrl": "https://maps.google.com/?q=6.9316905,79.8431359",
      "lat": 6.9316905,
      "lng": 79.8431359,
      "halalFriendly": false,
      "bookingUrl": "https://www.galadarihotel.lk/",
      "source": "osm"
    },
    {
      "nom": "C1 Colombo Fort Hotel",
      "categorie": "Hôtel",
      "priceRange": "€€",
      "mapsUrl": "https://maps.google.com/?q=6.9354352,79.8445066",
      "lat": 6.9354352,
      "lng": 79.8445066,
      "halalFriendly": false,
      "bookingUrl": "https://maps.google.com/?q=6.9354352,79.8445066",
      "source": "osm"
    },
    {
      "nom": "Fairway Colombo",
      "categorie": "Hôtel",
      "priceRange": "€€€€",
      "score": 4,
      "mapsUrl": "https://maps.google.com/?q=6.9341378,79.8438924",
      "lat": 6.9341378,
      "lng": 79.8438924,
      "halalFriendly": false,
      "bookingUrl": "https://www.fairwaycolombo.com/",
      "source": "osm"
    },
    {
      "nom": "Srilax",
      "categorie": "Maison d'hôtes",
      "priceRange": "€€",
      "mapsUrl": "https://maps.google.com/?q=6.9109974,79.8705671",
      "lat": 6.9109974,
      "lng": 79.8705671,
      "halalFriendly": false,
      "bookingUrl": "https://maps.google.com/?q=6.9109974,79.8705671",
      "source": "osm"
    },
    {
      "nom": "Wonder",
      "categorie": "Hôtel",
      "priceRange": "€€",
      "mapsUrl": "https://maps.google.com/?q=6.9125087,79.8494923",
      "lat": 6.9125087,
      "lng": 79.8494923,
      "halalFriendly": false,
      "bookingUrl": "https://maps.google.com/?q=6.9125087,79.8494923",
      "source": "osm"
    },
    {
      "nom": "Mövenpick Hotel Colombo",
      "categorie": "Hôtel",
      "priceRange": "€€",
      "mapsUrl": "https://maps.google.com/?q=6.9115163,79.8508457",
      "lat": 6.9115163,
      "lng": 79.8508457,
      "halalFriendly": false,
      "bookingUrl": "https://maps.google.com/?q=6.9115163,79.8508457",
      "source": "osm"
    },
    {
      "nom": "Heritage Villa Colombo",
      "categorie": "Maison d'hôtes",
      "priceRange": "€€",
      "mapsUrl": "https://maps.google.com/?q=6.9091317,79.8666987",
      "lat": 6.9091317,
      "lng": 79.8666987,
      "halalFriendly": false,
      "bookingUrl": "https://maps.google.com/?q=6.9091317,79.8666987",
      "source": "osm"
    },
    {
      "nom": "The Steuart BY Citrus n Co pub",
      "categorie": "Hôtel",
      "priceRange": "€€",
      "mapsUrl": "https://maps.google.com/?q=6.9339339,79.8433808",
      "lat": 6.9339339,
      "lng": 79.8433808,
      "halalFriendly": false,
      "bookingUrl": "https://maps.google.com/?q=6.9339339,79.8433808",
      "source": "osm"
    },
    {
      "nom": "Grand Oriental Hotel",
      "categorie": "Hôtel",
      "priceRange": "€€",
      "mapsUrl": "https://maps.google.com/?q=6.937363,79.8449394",
      "lat": 6.937363,
      "lng": 79.8449394,
      "halalFriendly": false,
      "bookingUrl": "https://maps.google.com/?q=6.937363,79.8449394",
      "source": "osm"
    },
    {
      "nom": "The Steuart",
      "categorie": "Hôtel",
      "priceRange": "€€",
      "mapsUrl": "https://maps.google.com/?q=6.9341735,79.8431183",
      "lat": 6.9341735,
      "lng": 79.8431183,
      "halalFriendly": false,
      "bookingUrl": "https://www.citrusleisure.com/thesteuart/",
      "source": "osm"
    },
    {
      "nom": "Star Anise",
      "categorie": "Hôtel",
      "priceRange": "€€",
      "mapsUrl": "https://maps.google.com/?q=6.9356545,79.8437614",
      "lat": 6.9356545,
      "lng": 79.8437614,
      "halalFriendly": false,
      "bookingUrl": "https://maps.google.com/?q=6.9356545,79.8437614",
      "source": "osm"
    },
    {
      "nom": "Colombo Villa",
      "categorie": "Hôtel",
      "priceRange": "€€",
      "mapsUrl": "https://maps.google.com/?q=6.9077455,79.8597619",
      "lat": 6.9077455,
      "lng": 79.8597619,
      "halalFriendly": false,
      "bookingUrl": "https://maps.google.com/?q=6.9077455,79.8597619",
      "source": "osm"
    },
    {
      "nom": "Colombo Haven ",
      "categorie": "Hôtel",
      "priceRange": "€€",
      "mapsUrl": "https://maps.google.com/?q=6.9102489,79.8511193",
      "lat": 6.9102489,
      "lng": 79.8511193,
      "halalFriendly": false,
      "bookingUrl": "https://maps.google.com/?q=6.9102489,79.8511193",
      "source": "osm"
    },
    {
      "nom": "Sea View Hotel",
      "categorie": "Hôtel",
      "priceRange": "€€",
      "mapsUrl": "https://maps.google.com/?q=6.9097418,79.8515739",
      "lat": 6.9097418,
      "lng": 79.8515739,
      "halalFriendly": false,
      "bookingUrl": "https://maps.google.com/?q=6.9097418,79.8515739",
      "source": "osm"
    },
    {
      "nom": "Sheraton Colombo Hotel",
      "categorie": "Hôtel",
      "priceRange": "€€",
      "mapsUrl": "https://maps.google.com/?q=6.9103829,79.8504246",
      "lat": 6.9103829,
      "lng": 79.8504246,
      "halalFriendly": false,
      "bookingUrl": "https://maps.google.com/?q=6.9103829,79.8504246",
      "source": "osm"
    },
    {
      "nom": "The Kingsbury",
      "categorie": "Hôtel",
      "priceRange": "€€€€",
      "score": 5,
      "mapsUrl": "https://maps.google.com/?q=6.9329723,79.8418243",
      "lat": 6.9329723,
      "lng": 79.8418243,
      "halalFriendly": false,
      "bookingUrl": "https://www.thekingsburyhotel.com/",
      "source": "osm"
    },
    {
      "nom": "Bunkyard",
      "categorie": "Auberge",
      "priceRange": "€€",
      "mapsUrl": "https://maps.google.com/?q=6.906858,79.8608903",
      "lat": 6.906858,
      "lng": 79.8608903,
      "halalFriendly": false,
      "bookingUrl": "https://maps.google.com/?q=6.906858,79.8608903",
      "source": "osm"
    },
    {
      "nom": "Juliana",
      "categorie": "Hôtel",
      "priceRange": "€€",
      "mapsUrl": "https://maps.google.com/?q=6.9090556,79.8499652",
      "lat": 6.9090556,
      "lng": 79.8499652,
      "halalFriendly": false,
      "bookingUrl": "https://maps.google.com/?q=6.9090556,79.8499652",
      "source": "osm"
    },
    {
      "nom": "Renuka City Hotel",
      "categorie": "Hôtel",
      "priceRange": "€€",
      "mapsUrl": "https://maps.google.com/?q=6.9084134,79.8506209",
      "lat": 6.9084134,
      "lng": 79.8506209,
      "halalFriendly": false,
      "bookingUrl": "https://maps.google.com/?q=6.9084134,79.8506209",
      "source": "osm"
    },
    {
      "nom": "floor 6 and 7",
      "categorie": "Appartement",
      "priceRange": "€€",
      "mapsUrl": "https://maps.google.com/?q=6.9071983,79.8521592",
      "lat": 6.9071983,
      "lng": 79.8521592,
      "halalFriendly": false,
      "bookingUrl": "https://maps.google.com/?q=6.9071983,79.8521592",
      "source": "osm"
    },
    {
      "nom": "Sofia Colombo City Hotel",
      "categorie": "Hôtel",
      "priceRange": "€€",
      "mapsUrl": "https://maps.google.com/?q=6.9077573,79.8509842",
      "lat": 6.9077573,
      "lng": 79.8509842,
      "halalFriendly": false,
      "bookingUrl": "https://maps.google.com/?q=6.9077573,79.8509842",
      "source": "osm"
    },
    {
      "nom": "D.S.S.C Hostel",
      "categorie": "Auberge",
      "priceRange": "€€",
      "mapsUrl": "https://maps.google.com/?q=6.9090505,79.8740414",
      "lat": 6.9090505,
      "lng": 79.8740414,
      "halalFriendly": false,
      "bookingUrl": "https://maps.google.com/?q=6.9090505,79.8740414",
      "source": "osm"
    },
    {
      "nom": "Comfort @15",
      "categorie": "Hôtel",
      "priceRange": "€€",
      "mapsUrl": "https://maps.google.com/?q=6.9082767,79.8494265",
      "lat": 6.9082767,
      "lng": 79.8494265,
      "halalFriendly": false,
      "bookingUrl": "https://maps.google.com/?q=6.9082767,79.8494265",
      "source": "osm"
    },
    {
      "nom": "Hector Kobeekaduwa Hostel",
      "categorie": "Auberge",
      "priceRange": "€€",
      "mapsUrl": "https://maps.google.com/?q=6.9073207,79.871336",
      "lat": 6.9073207,
      "lng": 79.871336,
      "halalFriendly": false,
      "bookingUrl": "https://maps.google.com/?q=6.9073207,79.871336",
      "source": "osm"
    },
    {
      "nom": "The Capsule Hotel",
      "categorie": "Hôtel",
      "priceRange": "€€",
      "mapsUrl": "https://maps.google.com/?q=6.9070778,79.850973",
      "lat": 6.9070778,
      "lng": 79.850973,
      "halalFriendly": false,
      "bookingUrl": "https://maps.google.com/?q=6.9070778,79.850973",
      "source": "osm"
    },
    {
      "nom": "Boutique Colombo",
      "categorie": "Hôtel",
      "priceRange": "€€",
      "mapsUrl": "https://maps.google.com/?q=6.9051452,79.8540373",
      "lat": 6.9051452,
      "lng": 79.8540373,
      "halalFriendly": false,
      "bookingUrl": "https://maps.google.com/?q=6.9051452,79.8540373",
      "source": "osm"
    },
    {
      "nom": "Royal College Junior Hostel",
      "categorie": "Auberge",
      "priceRange": "€€",
      "mapsUrl": "https://maps.google.com/?q=6.9038728,79.8606212",
      "lat": 6.9038728,
      "lng": 79.8606212,
      "halalFriendly": false,
      "bookingUrl": "https://maps.google.com/?q=6.9038728,79.8606212",
      "source": "osm"
    },
    {
      "nom": "5th Lane House",
      "categorie": "Hôtel",
      "priceRange": "€€",
      "mapsUrl": "https://maps.google.com/?q=6.9047564,79.8546435",
      "lat": 6.9047564,
      "lng": 79.8546435,
      "halalFriendly": false,
      "bookingUrl": "https://maps.google.com/?q=6.9047564,79.8546435",
      "source": "osm"
    },
    {
      "nom": "Royal College Senior Hostel",
      "categorie": "Auberge",
      "priceRange": "€€",
      "mapsUrl": "https://maps.google.com/?q=6.9036269,79.8621423",
      "lat": 6.9036269,
      "lng": 79.8621423,
      "halalFriendly": false,
      "bookingUrl": "https://maps.google.com/?q=6.9036269,79.8621423",
      "source": "osm"
    },
    {
      "nom": "Cinnamon Village Eco Tourism Hotel & Lodge",
      "categorie": "Hôtel",
      "priceRange": "€€",
      "mapsUrl": "https://maps.google.com/?q=6.9057946,79.8505771",
      "lat": 6.9057946,
      "lng": 79.8505771,
      "halalFriendly": false,
      "bookingUrl": "https://maps.google.com/?q=6.9057946,79.8505771",
      "source": "osm"
    },
    {
      "nom": "Kolpetty House",
      "categorie": "Hôtel",
      "priceRange": "€€",
      "mapsUrl": "https://maps.google.com/?q=6.9037925,79.8554911",
      "lat": 6.9037925,
      "lng": 79.8554911,
      "halalFriendly": false,
      "bookingUrl": "https://maps.google.com/?q=6.9037925,79.8554911",
      "source": "osm"
    },
    {
      "nom": "Bliss Hotel",
      "categorie": "Hôtel",
      "priceRange": "€€",
      "mapsUrl": "https://maps.google.com/?q=6.9032493,79.8546167",
      "lat": 6.9032493,
      "lng": 79.8546167,
      "halalFriendly": false,
      "bookingUrl": "https://maps.google.com/?q=6.9032493,79.8546167",
      "source": "osm"
    },
    {
      "nom": "Zen rooms sea adventure marine drive",
      "categorie": "Hôtel",
      "priceRange": "€€",
      "mapsUrl": "https://maps.google.com/?q=6.9042232,79.8505044",
      "lat": 6.9042232,
      "lng": 79.8505044,
      "halalFriendly": false,
      "bookingUrl": "https://maps.google.com/?q=6.9042232,79.8505044",
      "source": "osm"
    },
    {
      "nom": "Ivy Lane",
      "categorie": "Hôtel",
      "priceRange": "€€",
      "mapsUrl": "https://maps.google.com/?q=6.9021501,79.8526253",
      "lat": 6.9021501,
      "lng": 79.8526253,
      "halalFriendly": false,
      "bookingUrl": "https://maps.google.com/?q=6.9021501,79.8526253",
      "source": "osm"
    },
    {
      "nom": "Talibah Boutique Hotel",
      "categorie": "Hôtel",
      "priceRange": "€€",
      "mapsUrl": "https://maps.google.com/?q=6.9010126,79.8517252",
      "lat": 6.9010126,
      "lng": 79.8517252,
      "halalFriendly": false,
      "bookingUrl": "https://maps.google.com/?q=6.9010126,79.8517252",
      "source": "osm"
    },
    {
      "nom": "Day Rent House (Vacation Home)",
      "categorie": "Maison d'hôtes",
      "priceRange": "€€",
      "mapsUrl": "https://maps.google.com/?q=6.9550748,79.8622913",
      "lat": 6.9550748,
      "lng": 79.8622913,
      "halalFriendly": false,
      "bookingUrl": "https://maps.google.com/?q=6.9550748,79.8622913",
      "source": "osm"
    },
    {
      "nom": "Mandarina Colombo",
      "categorie": "Hôtel",
      "priceRange": "€€€€",
      "score": 5,
      "mapsUrl": "https://maps.google.com/?q=6.9000335,79.8536507",
      "lat": 6.9000335,
      "lng": 79.8536507,
      "halalFriendly": false,
      "bookingUrl": "https://www.mandarinacolombo.com/",
      "source": "osm"
    },
    {
      "nom": "My Little Island Hostel",
      "categorie": "Auberge",
      "priceRange": "€€",
      "mapsUrl": "https://maps.google.com/?q=6.900014,79.8531722",
      "lat": 6.900014,
      "lng": 79.8531722,
      "halalFriendly": false,
      "bookingUrl": "https://www.facebook.com/MyLittleIslandHostel/",
      "source": "osm"
    },
    {
      "nom": "Queens Court",
      "categorie": "Appartement",
      "priceRange": "€€",
      "mapsUrl": "https://maps.google.com/?q=6.8991523,79.8563445",
      "lat": 6.8991523,
      "lng": 79.8563445,
      "halalFriendly": false,
      "bookingUrl": "https://maps.google.com/?q=6.8991523,79.8563445",
      "source": "osm"
    }
  ],
  "mosqueesPrincipales": [
    {
      "id": "m224062633",
      "nom": "Maradana Jummah Mosque",
      "type": "Mosquée",
      "adresse": "",
      "description": "Lieu de prière (OpenStreetMap).",
      "mapsUrl": "https://maps.google.com/?q=6.9276513,79.8639983",
      "lat": 6.9276513,
      "lng": 79.8639983,
      "source": "osm"
    },
    {
      "id": "m3658423027",
      "nom": "Dawson Street Mosque",
      "type": "Mosquée",
      "adresse": "",
      "description": "Lieu de prière (OpenStreetMap).",
      "mapsUrl": "https://maps.google.com/?q=6.9217304,79.8585019",
      "lat": 6.9217304,
      "lng": 79.8585019,
      "source": "osm"
    },
    {
      "id": "m1378992432",
      "nom": "Panchikawatte Masjid",
      "type": "Mosquée",
      "adresse": "",
      "description": "Lieu de prière (OpenStreetMap).",
      "mapsUrl": "https://maps.google.com/?q=6.93172,79.8653657",
      "lat": 6.93172,
      "lng": 79.8653657,
      "source": "osm"
    },
    {
      "id": "m678259136",
      "nom": "Masjidul Akbar Jumma Mosque Slave Island",
      "type": "Mosquée",
      "adresse": "Kew Lane, Colombo02",
      "description": "Lieu de prière (OpenStreetMap).",
      "mapsUrl": "https://maps.google.com/?q=6.9245156,79.8530785",
      "lat": 6.9245156,
      "lng": 79.8530785,
      "source": "osm"
    },
    {
      "id": "m514045884",
      "nom": "Wekanfa Jumma Mosque",
      "type": "Mosquée",
      "adresse": "",
      "description": "Lieu de prière (OpenStreetMap).",
      "mapsUrl": "https://maps.google.com/?q=6.9224273,79.8516106",
      "lat": 6.9224273,
      "lng": 79.8516106,
      "source": "osm"
    },
    {
      "id": "m3658423938",
      "nom": "Tholappu Garden Mosque",
      "type": "Mosquée",
      "adresse": "",
      "description": "Lieu de prière (OpenStreetMap).",
      "mapsUrl": "https://maps.google.com/?q=6.9234746,79.8505449",
      "lat": 6.9234746,
      "lng": 79.8505449,
      "source": "osm"
    },
    {
      "id": "m1466879256",
      "nom": "Dawatagaha Mosque",
      "type": "Mosquée",
      "adresse": "Alexandra Place, Colombo 07",
      "description": "Lieu de prière (OpenStreetMap).",
      "mapsUrl": "https://maps.google.com/?q=6.9162075,79.8645367",
      "lat": 6.9162075,
      "lng": 79.8645367,
      "source": "osm"
    },
    {
      "id": "m3658423139",
      "nom": "Java Lane Mosque",
      "type": "Mosquée",
      "adresse": "",
      "description": "Lieu de prière (OpenStreetMap).",
      "mapsUrl": "https://maps.google.com/?q=6.926001,79.8493987",
      "lat": 6.926001,
      "lng": 79.8493987,
      "source": "osm"
    },
    {
      "id": "m533352957",
      "nom": "Shahul Hameedhiya Jumma Musjidh",
      "type": "Mosquée",
      "adresse": "",
      "description": "Lieu de prière (OpenStreetMap).",
      "mapsUrl": "https://maps.google.com/?q=6.9205989,79.8495296",
      "lat": 6.9205989,
      "lng": 79.8495296,
      "source": "osm"
    },
    {
      "id": "m2826701432",
      "nom": "Masjid Muhiadeen Khadiriya Thakiya",
      "type": "Mosquée",
      "adresse": "",
      "description": "Lieu de prière (OpenStreetMap).",
      "mapsUrl": "https://maps.google.com/?q=6.9404365,79.8608731",
      "lat": 6.9404365,
      "lng": 79.8608731,
      "source": "osm"
    },
    {
      "id": "m685043382",
      "nom": "Grand Mosque",
      "type": "Mosquée",
      "adresse": "",
      "description": "Lieu de prière (OpenStreetMap).",
      "mapsUrl": "https://maps.google.com/?q=6.9404528,79.8589591",
      "lat": 6.9404528,
      "lng": 79.8589591,
      "source": "osm"
    },
    {
      "id": "m3085648468",
      "nom": "Jumma Mosque",
      "type": "Mosquée",
      "adresse": "Borella",
      "description": "Lieu de prière (OpenStreetMap).",
      "mapsUrl": "https://maps.google.com/?q=6.9167522,79.8771325",
      "lat": 6.9167522,
      "lng": 79.8771325,
      "source": "osm"
    },
    {
      "id": "m4310401289",
      "nom": "Masjidhul Salam",
      "type": "Mosquée",
      "adresse": "",
      "description": "Lieu de prière (OpenStreetMap).",
      "mapsUrl": "https://maps.google.com/?q=6.9394256,79.873136",
      "lat": 6.9394256,
      "lng": 79.873136,
      "source": "osm"
    },
    {
      "id": "m1348668146",
      "nom": "Jumma Mosque Kollupitiya",
      "type": "Mosquée",
      "adresse": "",
      "description": "Lieu de prière (OpenStreetMap).",
      "mapsUrl": "https://maps.google.com/?q=6.9132479,79.8507813",
      "lat": 6.9132479,
      "lng": 79.8507813,
      "source": "osm"
    },
    {
      "id": "m4233205610",
      "nom": "Fort Jumma Mosque",
      "type": "Mosquée",
      "adresse": "Chatham Street",
      "description": "Lieu de prière (OpenStreetMap).",
      "mapsUrl": "https://maps.google.com/?q=6.9347378,79.8438484",
      "lat": 6.9347378,
      "lng": 79.8438484,
      "source": "osm"
    },
    {
      "id": "m11435013308",
      "nom": "Ahmadiyya Community Centre",
      "type": "Mosquée",
      "adresse": "Colombo",
      "description": "Lieu de prière (OpenStreetMap).",
      "mapsUrl": "https://maps.google.com/?q=6.9380869,79.8776951",
      "lat": 6.9380869,
      "lng": 79.8776951,
      "source": "osm"
    },
    {
      "id": "m4304782810",
      "nom": "St. Lucia Church",
      "type": "Mosquée",
      "adresse": "St Benadicts Street, Kotahena",
      "description": "Lieu de prière (OpenStreetMap).",
      "mapsUrl": "https://maps.google.com/?q=6.9481148,79.8645241",
      "lat": 6.9481148,
      "lng": 79.8645241,
      "source": "osm"
    },
    {
      "id": "m528705064",
      "nom": "Noor Jumma Mosque",
      "type": "Mosquée",
      "adresse": "",
      "description": "Lieu de prière (OpenStreetMap).",
      "mapsUrl": "https://maps.google.com/?q=6.9051436,79.8752837",
      "lat": 6.9051436,
      "lng": 79.8752837,
      "source": "osm"
    },
    {
      "id": "m434316706",
      "nom": "Jawatte Jumma Masjid",
      "type": "Mosquée",
      "adresse": "",
      "description": "Lieu de prière (OpenStreetMap).",
      "mapsUrl": "https://maps.google.com/?q=6.8987543,79.8685906",
      "lat": 6.8987543,
      "lng": 79.8685906,
      "source": "osm"
    },
    {
      "id": "m1838419598",
      "nom": "Borah Mosque",
      "type": "Mosquée",
      "adresse": "",
      "description": "Lieu de prière (OpenStreetMap).",
      "mapsUrl": "https://maps.google.com/?q=6.8945884,79.8531736",
      "lat": 6.8945884,
      "lng": 79.8531736,
      "source": "osm"
    },
    {
      "id": "m3954317061",
      "nom": "Masjidur Rahumaniya Mosque",
      "type": "Mosquée",
      "adresse": "",
      "description": "Lieu de prière (OpenStreetMap).",
      "mapsUrl": "https://maps.google.com/?q=6.9603119,79.8684423",
      "lat": 6.9603119,
      "lng": 79.8684423,
      "source": "osm"
    },
    {
      "id": "m3954317070",
      "nom": "Al Masidua Islahiya Mosque",
      "type": "Mosquée",
      "adresse": "",
      "description": "Lieu de prière (OpenStreetMap).",
      "mapsUrl": "https://maps.google.com/?q=6.9611113,79.8700386",
      "lat": 6.9611113,
      "lng": 79.8700386,
      "source": "osm"
    },
    {
      "id": "m392160940",
      "nom": "Mutwal Jumma Mosque",
      "type": "Mosquée",
      "adresse": "",
      "description": "Lieu de prière (OpenStreetMap).",
      "mapsUrl": "https://maps.google.com/?q=6.962534,79.8640482",
      "lat": 6.962534,
      "lng": 79.8640482,
      "source": "osm"
    },
    {
      "id": "m2406769219",
      "nom": "Nawala Jumma Mosque",
      "type": "Mosquée",
      "adresse": "Nawala Road, Rajagiriya",
      "description": "Lieu de prière (OpenStreetMap).",
      "mapsUrl": "https://maps.google.com/?q=6.9067504,79.8954762",
      "lat": 6.9067504,
      "lng": 79.8954762,
      "source": "osm"
    },
    {
      "id": "m1838377733",
      "nom": "Jumma Masjid",
      "type": "Mosquée",
      "adresse": "Kirulapana Masjid Road, Kirulapone",
      "description": "Lieu de prière (OpenStreetMap).",
      "mapsUrl": "https://maps.google.com/?q=6.8759528,79.8807906",
      "lat": 6.8759528,
      "lng": 79.8807906,
      "source": "osm"
    },
    {
      "id": "m4879900416",
      "nom": "Nooraniya Jummah Masjid",
      "type": "Mosquée",
      "adresse": "N.J.V Cooray Road, Rajagiriya",
      "description": "Lieu de prière (OpenStreetMap).",
      "mapsUrl": "https://maps.google.com/?q=6.9052991,79.9001609",
      "lat": 6.9052991,
      "lng": 79.9001609,
      "source": "osm"
    },
    {
      "id": "m6615719992",
      "nom": "Noor Mosque",
      "type": "Mosquée",
      "adresse": "7th Lane, Colombo",
      "description": "Lieu de prière (OpenStreetMap).",
      "mapsUrl": "https://maps.google.com/?q=6.9737568,79.8713901",
      "lat": 6.9737568,
      "lng": 79.8713901,
      "source": "osm"
    },
    {
      "id": "m6615719499",
      "nom": "Zavia Mosque",
      "type": "Mosquée",
      "adresse": "St.Mary's Road, Colombo",
      "description": "Lieu de prière (OpenStreetMap).",
      "mapsUrl": "https://maps.google.com/?q=6.9728036,79.8756295",
      "lat": 6.9728036,
      "lng": 79.8756295,
      "source": "osm"
    },
    {
      "id": "m6615719500",
      "nom": "Zaviyathul Khairiya Jumma Masjid",
      "type": "Mosquée",
      "adresse": "Colombo",
      "description": "Lieu de prière (OpenStreetMap).",
      "mapsUrl": "https://maps.google.com/?q=6.9732322,79.8760825",
      "lat": 6.9732322,
      "lng": 79.8760825,
      "source": "osm"
    },
    {
      "id": "m390255882",
      "nom": "Wellawatte Jumma Masjid",
      "type": "Mosquée",
      "adresse": "",
      "description": "Lieu de prière (OpenStreetMap).",
      "mapsUrl": "https://maps.google.com/?q=6.8770883,79.8601417",
      "lat": 6.8770883,
      "lng": 79.8601417,
      "source": "osm"
    },
    {
      "id": "m6615720004",
      "nom": "Al Masjidhul Ilahiya Mosque",
      "type": "Mosquée",
      "adresse": "Colombo",
      "description": "Lieu de prière (OpenStreetMap).",
      "mapsUrl": "https://maps.google.com/?q=6.9768996,79.8745097",
      "lat": 6.9768996,
      "lng": 79.8745097,
      "source": "osm"
    },
    {
      "id": "m6615719519",
      "nom": "MASJID UL BADRIYA",
      "type": "Mosquée",
      "adresse": "Colombo",
      "description": "Lieu de prière (OpenStreetMap).",
      "mapsUrl": "https://maps.google.com/?q=6.9754875,79.879551",
      "lat": 6.9754875,
      "lng": 79.879551,
      "source": "osm"
    },
    {
      "id": "m3403161441",
      "nom": "Kohilawatte Jumma Mosque",
      "type": "Mosquée",
      "adresse": "Wellampitiya",
      "description": "Lieu de prière (OpenStreetMap).",
      "mapsUrl": "https://maps.google.com/?q=6.9485431,79.9107431",
      "lat": 6.9485431,
      "lng": 79.9107431,
      "source": "osm"
    },
    {
      "id": "m1261071452",
      "nom": "Dehiwala Jumma Masjid",
      "type": "Mosquée",
      "adresse": "",
      "description": "Lieu de prière (OpenStreetMap).",
      "mapsUrl": "https://maps.google.com/?q=6.8632611,79.865291",
      "lat": 6.8632611,
      "lng": 79.865291,
      "source": "osm"
    },
    {
      "id": "m3401467574",
      "nom": "Dehiwala Town Jumma Mosque",
      "type": "Mosquée",
      "adresse": "Dehiwala",
      "description": "Lieu de prière (OpenStreetMap).",
      "mapsUrl": "https://maps.google.com/?q=6.8528759,79.8661352",
      "lat": 6.8528759,
      "lng": 79.8661352,
      "source": "osm"
    },
    {
      "id": "m1453824997",
      "nom": "Bangala Watta Mosque",
      "type": "Mosquée",
      "adresse": "",
      "description": "Lieu de prière (OpenStreetMap).",
      "mapsUrl": "https://maps.google.com/?q=6.9857118,79.9090004",
      "lat": 6.9857118,
      "lng": 79.9090004,
      "source": "osm"
    },
    {
      "id": "m5277505615",
      "nom": "Akbar Town Jumma Masjid",
      "type": "Mosquée",
      "adresse": "Wattala",
      "description": "Lieu de prière (OpenStreetMap).",
      "mapsUrl": "https://maps.google.com/?q=6.9906052,79.9092525",
      "lat": 6.9906052,
      "lng": 79.9092525,
      "source": "osm"
    },
    {
      "id": "m578109630",
      "nom": "Zeyneb Jumma Mosque",
      "type": "Mosquée",
      "adresse": "",
      "description": "Lieu de prière (OpenStreetMap).",
      "mapsUrl": "https://maps.google.com/?q=6.8449532,79.8696447",
      "lat": 6.8449532,
      "lng": 79.8696447,
      "source": "osm"
    },
    {
      "id": "m2507004946",
      "nom": "Mobole Jumma Masjid",
      "type": "Mosquée",
      "adresse": "",
      "description": "Lieu de prière (OpenStreetMap).",
      "mapsUrl": "https://maps.google.com/?q=7.006067,79.8972043",
      "lat": 7.006067,
      "lng": 79.8972043,
      "source": "osm"
    },
    {
      "id": "m4883984421",
      "nom": "Masjid-Ul Jannah",
      "type": "Mosquée",
      "adresse": "Lake Road, Boralesgamuwa",
      "description": "Lieu de prière (OpenStreetMap).",
      "mapsUrl": "https://maps.google.com/?q=6.8414523,79.9026742",
      "lat": 6.8414523,
      "lng": 79.9026742,
      "source": "osm"
    }
  ],
  "activites": [
    {
      "id": "a13233966301",
      "nom": "Train Viewpoint",
      "categorie": "viewpoint",
      "description": "",
      "prix": "",
      "duree": "",
      "mapsUrl": "https://maps.google.com/?q=6.928196,79.8599153",
      "lat": 6.928196,
      "lng": 79.8599153,
      "source": "osm"
    },
    {
      "id": "a3307527165",
      "nom": "Lotus Tower",
      "categorie": "viewpoint",
      "description": "",
      "prix": "",
      "duree": "",
      "mapsUrl": "https://maps.google.com/?q=6.9270265,79.8583147",
      "lat": 6.9270265,
      "lng": 79.8583147,
      "source": "osm"
    },
    {
      "id": "a4109157989",
      "nom": "railway station",
      "categorie": "viewpoint",
      "description": "",
      "prix": "",
      "duree": "",
      "mapsUrl": "https://maps.google.com/?q=6.9284655,79.8648826",
      "lat": 6.9284655,
      "lng": 79.8648826,
      "source": "osm"
    },
    {
      "id": "a231068282",
      "nom": "Excel World",
      "categorie": "theme park",
      "description": "",
      "prix": "",
      "duree": "",
      "mapsUrl": "https://maps.google.com/?q=6.9222098,79.861057",
      "lat": 6.9222098,
      "lng": 79.861057,
      "source": "osm"
    },
    {
      "id": "a1523621150",
      "nom": "Railway Museum",
      "categorie": "museum",
      "description": "",
      "prix": "",
      "duree": "",
      "mapsUrl": "https://maps.google.com/?q=6.9317214,79.858871",
      "lat": 6.9317214,
      "lng": 79.858871,
      "source": "osm"
    },
    {
      "id": "a618491025",
      "nom": "Ananda College",
      "categorie": "monument",
      "description": "",
      "prix": "",
      "duree": "",
      "mapsUrl": "https://maps.google.com/?q=6.9243358,79.8685501",
      "lat": 6.9243358,
      "lng": 79.8685501,
      "source": "osm"
    },
    {
      "id": "a303907118",
      "nom": "Pettah Floating Market",
      "categorie": "attraction",
      "description": "",
      "prix": "",
      "duree": "",
      "mapsUrl": "https://maps.google.com/?q=6.9327253,79.8555267",
      "lat": 6.9327253,
      "lng": 79.8555267,
      "source": "osm"
    },
    {
      "id": "a3922519072",
      "nom": "Horse made out of vehicle parts",
      "categorie": "monument",
      "description": "",
      "prix": "",
      "duree": "",
      "mapsUrl": "https://maps.google.com/?q=6.9343887,79.8659923",
      "lat": 6.9343887,
      "lng": 79.8659923,
      "source": "osm"
    },
    {
      "id": "a12123492854",
      "nom": "Buddha Statue",
      "categorie": "artwork",
      "description": "",
      "prix": "",
      "duree": "",
      "mapsUrl": "https://maps.google.com/?q=6.9190333,79.8573133",
      "lat": 6.9190333,
      "lng": 79.8573133,
      "source": "osm"
    },
    {
      "id": "a12115411221",
      "nom": "Charles Henry de Soysa Statue",
      "categorie": "artwork",
      "description": "",
      "prix": "",
      "duree": "",
      "mapsUrl": "https://maps.google.com/?q=6.9172946,79.864775",
      "lat": 6.9172946,
      "lng": 79.864775,
      "source": "osm"
    },
    {
      "id": "a10232700344",
      "nom": "Drummer and Elephant",
      "categorie": "artwork",
      "description": "",
      "prix": "",
      "duree": "",
      "mapsUrl": "https://maps.google.com/?q=6.9165439,79.8556103",
      "lat": 6.9165439,
      "lng": 79.8556103,
      "source": "osm"
    },
    {
      "id": "a10107520123",
      "nom": "Viharamahadevi Park Aquarium",
      "categorie": "aquarium",
      "description": "",
      "prix": "",
      "duree": "",
      "mapsUrl": "https://maps.google.com/?q=6.9148992,79.8613636",
      "lat": 6.9148992,
      "lng": 79.8613636,
      "source": "osm"
    },
    {
      "id": "a1026645593",
      "nom": "Giant Seated Buddha",
      "categorie": "artwork",
      "description": "",
      "prix": "",
      "duree": "",
      "mapsUrl": "https://maps.google.com/?q=6.914765,79.8628964",
      "lat": 6.914765,
      "lng": 79.8628964,
      "source": "osm"
    },
    {
      "id": "a5102778721",
      "nom": "Urban Ruin",
      "categorie": "attraction",
      "description": "",
      "prix": "",
      "duree": "",
      "mapsUrl": "https://maps.google.com/?q=6.915605,79.8557992",
      "lat": 6.915605,
      "lng": 79.8557992,
      "source": "osm"
    },
    {
      "id": "a13447631674",
      "nom": "Henry Steel Olcott",
      "categorie": "memorial",
      "description": "",
      "prix": "",
      "duree": "",
      "mapsUrl": "https://maps.google.com/?q=6.9338612,79.8500437",
      "lat": 6.9338612,
      "lng": 79.8500437,
      "source": "osm"
    },
    {
      "id": "a4354445603",
      "nom": "Dutch Colonial Museum",
      "categorie": "museum",
      "description": "",
      "prix": "",
      "duree": "",
      "mapsUrl": "https://maps.google.com/?q=6.9360639,79.8516492",
      "lat": 6.9360639,
      "lng": 79.8516492,
      "source": "osm"
    },
    {
      "id": "a10159002252",
      "nom": "Vihara maha devi",
      "categorie": "artwork",
      "description": "",
      "prix": "",
      "duree": "",
      "mapsUrl": "https://maps.google.com/?q=6.9140967,79.863193",
      "lat": 6.9140967,
      "lng": 79.863193,
      "source": "osm"
    },
    {
      "id": "a8016433755",
      "nom": "Frederick Richard Senanayaka",
      "categorie": "memorial",
      "description": "",
      "prix": "",
      "duree": "",
      "mapsUrl": "https://maps.google.com/?q=6.9139563,79.8645524",
      "lat": 6.9139563,
      "lng": 79.8645524,
      "source": "osm"
    },
    {
      "id": "a10160885071",
      "nom": "Golden Jubilee 1917-1967",
      "categorie": "monument",
      "description": "",
      "prix": "",
      "duree": "",
      "mapsUrl": "https://maps.google.com/?q=6.9134897,79.8581929",
      "lat": 6.9134897,
      "lng": 79.8581929,
      "source": "osm"
    },
    {
      "id": "a10793137786",
      "nom": "Nalanda War Memorial",
      "categorie": "memorial",
      "description": "",
      "prix": "",
      "duree": "",
      "mapsUrl": "https://maps.google.com/?q=6.9239259,79.8750824",
      "lat": 6.9239259,
      "lng": 79.8750824,
      "source": "osm"
    },
    {
      "id": "a5915271185",
      "nom": "Pettah Market",
      "categorie": "attraction",
      "description": "",
      "prix": "",
      "duree": "",
      "mapsUrl": "https://maps.google.com/?q=6.9362523,79.8499631",
      "lat": 6.9362523,
      "lng": 79.8499631,
      "source": "osm"
    },
    {
      "id": "a1030875657",
      "nom": "Cenotaph War Memorial",
      "categorie": "memorial",
      "description": "",
      "prix": "",
      "duree": "",
      "mapsUrl": "https://maps.google.com/?q=6.9128886,79.8584571",
      "lat": 6.9128886,
      "lng": 79.8584571,
      "source": "osm"
    },
    {
      "id": "a10137897158",
      "nom": "T.B. Ilangararne",
      "categorie": "memorial",
      "description": "",
      "prix": "",
      "duree": "",
      "mapsUrl": "https://maps.google.com/?q=6.9168857,79.8506042",
      "lat": 6.9168857,
      "lng": 79.8506042,
      "source": "osm"
    },
    {
      "id": "a10116052780",
      "nom": "Ho Chi-Minh",
      "categorie": "artwork",
      "description": "",
      "prix": "",
      "duree": "",
      "mapsUrl": "https://maps.google.com/?q=6.9119901,79.8588553",
      "lat": 6.9119901,
      "lng": 79.8588553,
      "source": "osm"
    },
    {
      "id": "a6152700385",
      "nom": "Felix Reginald Dias Bandaranaike",
      "categorie": "memorial",
      "description": "",
      "prix": "",
      "duree": "",
      "mapsUrl": "https://maps.google.com/?q=6.9120898,79.8644419",
      "lat": 6.9120898,
      "lng": 79.8644419,
      "source": "osm"
    },
    {
      "id": "a662919724",
      "nom": "National Art Gallery",
      "categorie": "museum",
      "description": "",
      "prix": "",
      "duree": "",
      "mapsUrl": "https://maps.google.com/?q=6.9114097,79.861969",
      "lat": 6.9114097,
      "lng": 79.861969,
      "source": "osm"
    },
    {
      "id": "a3825169557",
      "nom": "Sri Lanka Telecom Monument",
      "categorie": "memorial",
      "description": "",
      "prix": "",
      "duree": "",
      "mapsUrl": "https://maps.google.com/?q=6.9340975,79.8469942",
      "lat": 6.9340975,
      "lng": 79.8469942,
      "source": "osm"
    },
    {
      "id": "a138991603",
      "nom": "National Museum of Natural History",
      "categorie": "museum",
      "description": "",
      "prix": "",
      "duree": "",
      "mapsUrl": "https://maps.google.com/?q=6.9111764,79.8611217",
      "lat": 6.9111764,
      "lng": 79.8611217,
      "source": "osm"
    },
    {
      "id": "a138991604",
      "nom": "National Museum of Colombo",
      "categorie": "museum",
      "description": "",
      "prix": "",
      "duree": "",
      "mapsUrl": "https://maps.google.com/?q=6.9104124,79.8609699",
      "lat": 6.9104124,
      "lng": 79.8609699,
      "source": "osm"
    },
    {
      "id": "a11529364269",
      "nom": "eco Maximus",
      "categorie": "artwork",
      "description": "",
      "prix": "",
      "duree": "",
      "mapsUrl": "https://maps.google.com/?q=6.9279806,79.8783494",
      "lat": 6.9279806,
      "lng": 79.8783494,
      "source": "osm"
    },
    {
      "id": "a12477803316",
      "nom": "HON.LAKSHMAN KADIRAGAMAR",
      "categorie": "artwork",
      "description": "",
      "prix": "",
      "duree": "",
      "mapsUrl": "https://maps.google.com/?q=6.9122418,79.851926",
      "lat": 6.9122418,
      "lng": 79.851926,
      "source": "osm"
    },
    {
      "id": "a262531868",
      "nom": "White Triangle Building",
      "categorie": "attraction",
      "description": "",
      "prix": "",
      "duree": "",
      "mapsUrl": "https://maps.google.com/?q=6.9368333,79.8465015",
      "lat": 6.9368333,
      "lng": 79.8465015,
      "source": "osm"
    },
    {
      "id": "a374793744",
      "nom": "Historic Cargills building",
      "categorie": "attraction",
      "description": "",
      "prix": "",
      "duree": "",
      "mapsUrl": "https://maps.google.com/?q=6.935746,79.8446886",
      "lat": 6.935746,
      "lng": 79.8446886,
      "source": "osm"
    },
    {
      "id": "a374793746",
      "nom": "Lloyds Building",
      "categorie": "attraction",
      "description": "",
      "prix": "",
      "duree": "",
      "mapsUrl": "https://maps.google.com/?q=6.9365847,79.8443745",
      "lat": 6.9365847,
      "lng": 79.8443745,
      "source": "osm"
    },
    {
      "id": "a1465741240",
      "nom": "Old Colombo Lighthouse;Chatham Street Clock Tower",
      "categorie": "attraction",
      "description": "",
      "prix": "",
      "duree": "",
      "mapsUrl": "https://maps.google.com/?q=6.9347262,79.8428247",
      "lat": 6.9347262,
      "lng": 79.8428247,
      "source": "osm"
    },
    {
      "id": "a682747849",
      "nom": "Old General Post Office Fort",
      "categorie": "museum",
      "description": "",
      "prix": "",
      "duree": "",
      "mapsUrl": "https://maps.google.com/?q=6.9360351,79.8434128",
      "lat": 6.9360351,
      "lng": 79.8434128,
      "source": "osm"
    },
    {
      "id": "a441724047",
      "nom": "President's House",
      "categorie": "castle",
      "description": "",
      "prix": "",
      "duree": "",
      "mapsUrl": "https://maps.google.com/?q=6.9361123,79.8427013",
      "lat": 6.9361123,
      "lng": 79.8427013,
      "source": "osm"
    },
    {
      "id": "a6467969244",
      "nom": "Deshamanya Siva Ovyeskere Crafts Gallery",
      "categorie": "gallery",
      "description": "",
      "prix": "",
      "duree": "",
      "mapsUrl": "https://maps.google.com/?q=6.9062853,79.8630571",
      "lat": 6.9062853,
      "lng": 79.8630571,
      "source": "osm"
    },
    {
      "id": "a6467964377",
      "nom": "Junction Art Gallery",
      "categorie": "gallery",
      "description": "",
      "prix": "",
      "duree": "",
      "mapsUrl": "https://maps.google.com/?q=6.9062737,79.8631171",
      "lat": 6.9062737,
      "lng": 79.8631171,
      "source": "osm"
    },
    {
      "id": "a13011179161",
      "nom": "Good Market fair trade and organic market",
      "categorie": "attraction",
      "description": "",
      "prix": "",
      "duree": "",
      "mapsUrl": "https://maps.google.com/?q=6.9061323,79.8644793",
      "lat": 6.9061323,
      "lng": 79.8644793,
      "source": "osm"
    },
    {
      "id": "a303295581",
      "nom": "Musée des autorités Maritimes",
      "categorie": "museum",
      "description": "",
      "prix": "",
      "duree": "",
      "mapsUrl": "https://maps.google.com/?q=6.9386877,79.8424354",
      "lat": 6.9386877,
      "lng": 79.8424354,
      "source": "osm"
    },
    {
      "id": "a1316824020",
      "nom": "War Memorial",
      "categorie": "memorial",
      "description": "",
      "prix": "",
      "duree": "",
      "mapsUrl": "https://maps.google.com/?q=6.9050934,79.8614941",
      "lat": 6.9050934,
      "lng": 79.8614941,
      "source": "osm"
    },
    {
      "id": "a9482289804",
      "nom": "D.S.Senanayeke",
      "categorie": "artwork",
      "description": "",
      "prix": "",
      "duree": "",
      "mapsUrl": "https://maps.google.com/?q=6.909161,79.8750222",
      "lat": 6.909161,
      "lng": 79.8750222,
      "source": "osm"
    },
    {
      "id": "a9457703602",
      "nom": "R.I.T.Alles Sir",
      "categorie": "artwork",
      "description": "",
      "prix": "",
      "duree": "",
      "mapsUrl": "https://maps.google.com/?q=6.9089207,79.8750233",
      "lat": 6.9089207,
      "lng": 79.8750233,
      "source": "osm"
    },
    {
      "id": "a620382353",
      "nom": "Independence Square",
      "categorie": "monument",
      "description": "",
      "prix": "",
      "duree": "",
      "mapsUrl": "https://maps.google.com/?q=6.9046368,79.8675663",
      "lat": 6.9046368,
      "lng": 79.8675663,
      "source": "osm"
    },
    {
      "id": "a303909847",
      "nom": "Independence Memorial Hall",
      "categorie": "monument",
      "description": "",
      "prix": "",
      "duree": "",
      "mapsUrl": "https://maps.google.com/?q=6.9041327,79.8675834",
      "lat": 6.9041327,
      "lng": 79.8675834,
      "source": "osm"
    },
    {
      "id": "a588953435",
      "nom": "Arcade Independence Square Park",
      "categorie": "attraction",
      "description": "",
      "prix": "",
      "duree": "",
      "mapsUrl": "https://maps.google.com/?q=6.9028747,79.8687543",
      "lat": 6.9028747,
      "lng": 79.8687543,
      "source": "osm"
    },
    {
      "id": "a6744992599",
      "nom": "Sir Oliver Ernest Goonatilake",
      "categorie": "memorial",
      "description": "",
      "prix": "",
      "duree": "",
      "mapsUrl": "https://maps.google.com/?q=6.910962,79.8813321",
      "lat": 6.910962,
      "lng": 79.8813321,
      "source": "osm"
    },
    {
      "id": "a1000695194",
      "nom": "Geoffrey Bawa House No.11",
      "categorie": "museum",
      "description": "",
      "prix": "",
      "duree": "",
      "mapsUrl": "https://maps.google.com/?q=6.9014644,79.8579158",
      "lat": 6.9014644,
      "lng": 79.8579158,
      "source": "osm"
    },
    {
      "id": "a381878144",
      "nom": "National Planetarium",
      "categorie": "museum",
      "description": "",
      "prix": "",
      "duree": "",
      "mapsUrl": "https://maps.google.com/?q=6.9006817,79.8628625",
      "lat": 6.9006817,
      "lng": 79.8628625,
      "source": "osm"
    },
    {
      "id": "a6351639100",
      "nom": "for PW",
      "categorie": "artwork",
      "description": "",
      "prix": "",
      "duree": "",
      "mapsUrl": "https://maps.google.com/?q=6.9006749,79.8540021",
      "lat": 6.9006749,
      "lng": 79.8540021,
      "source": "osm"
    },
    {
      "id": "a1128188500",
      "nom": "Dr. N. M. Perera",
      "categorie": "memorial",
      "description": "",
      "prix": "",
      "duree": "",
      "mapsUrl": "https://maps.google.com/?q=6.910632,79.8881818",
      "lat": 6.910632,
      "lng": 79.8881818,
      "source": "osm"
    },
    {
      "id": "a10107620993",
      "nom": "Sathutu Uyana",
      "categorie": "attraction",
      "description": "",
      "prix": "",
      "duree": "",
      "mapsUrl": "https://maps.google.com/?q=6.9603056,79.8649125",
      "lat": 6.9603056,
      "lng": 79.8649125,
      "source": "osm"
    },
    {
      "id": "a3431856751",
      "nom": "Highway Entrance Monument",
      "categorie": "monument",
      "description": "",
      "prix": "",
      "duree": "",
      "mapsUrl": "https://maps.google.com/?q=6.9558728,79.8830593",
      "lat": 6.9558728,
      "lng": 79.8830593,
      "source": "osm"
    },
    {
      "id": "a3516467775",
      "nom": "Srimath Anagarika Dharmapala Statue",
      "categorie": "monument",
      "description": "",
      "prix": "",
      "duree": "",
      "mapsUrl": "https://maps.google.com/?q=6.9105256,79.8935704",
      "lat": 6.9105256,
      "lng": 79.8935704,
      "source": "osm"
    },
    {
      "id": "a3516468007",
      "nom": "Veediye Bandara Statue",
      "categorie": "monument",
      "description": "",
      "prix": "",
      "duree": "",
      "mapsUrl": "https://maps.google.com/?q=6.9093858,79.8959575",
      "lat": 6.9093858,
      "lng": 79.8959575,
      "source": "osm"
    },
    {
      "id": "a2034206138",
      "nom": "Chitrasena Art Gallery",
      "categorie": "gallery",
      "description": "",
      "prix": "",
      "duree": "",
      "mapsUrl": "https://maps.google.com/?q=6.8892618,79.8767137",
      "lat": 6.8892618,
      "lng": 79.8767137,
      "source": "osm"
    },
    {
      "id": "a6615719995",
      "nom": "Emrald Aquarium",
      "categorie": "aquarium",
      "description": "",
      "prix": "",
      "duree": "",
      "mapsUrl": "https://maps.google.com/?q=6.9727926,79.8738652",
      "lat": 6.9727926,
      "lng": 79.8738652,
      "source": "osm"
    },
    {
      "id": "a999318938",
      "nom": "G L P Bird Park",
      "categorie": "attraction",
      "description": "",
      "prix": "",
      "duree": "",
      "mapsUrl": "https://maps.google.com/?q=6.9178184,79.9099338",
      "lat": 6.9178184,
      "lng": 79.9099338,
      "source": "osm"
    },
    {
      "id": "a6235337387",
      "nom": "W A Silva Museum",
      "categorie": "museum",
      "description": "",
      "prix": "",
      "duree": "",
      "mapsUrl": "https://maps.google.com/?q=6.8766665,79.866842",
      "lat": 6.8766665,
      "lng": 79.866842,
      "source": "osm"
    },
    {
      "id": "a6346967804",
      "nom": "Mondigliani Gallery",
      "categorie": "gallery",
      "description": "",
      "prix": "",
      "duree": "",
      "mapsUrl": "https://maps.google.com/?q=6.8771937,79.8730561",
      "lat": 6.8771937,
      "lng": 79.8730561,
      "source": "osm"
    },
    {
      "id": "a307993496",
      "nom": "Diyatha Uyana Aquarium",
      "categorie": "aquarium",
      "description": "",
      "prix": "",
      "duree": "",
      "mapsUrl": "https://maps.google.com/?q=6.9037164,79.9111467",
      "lat": 6.9037164,
      "lng": 79.9111467,
      "source": "osm"
    },
    {
      "id": "a5172712575",
      "nom": "Archaeological Museum of Kotte",
      "categorie": "museum",
      "description": "",
      "prix": "",
      "duree": "",
      "mapsUrl": "https://maps.google.com/?q=6.8932566,79.9051742",
      "lat": 6.8932566,
      "lng": 79.9051742,
      "source": "osm"
    },
    {
      "id": "a6626986805",
      "nom": "Alakeshwara Palace Or Tombstone",
      "categorie": "archaeological site",
      "description": "",
      "prix": "",
      "duree": "",
      "mapsUrl": "https://maps.google.com/?q=6.8965416,79.9077393",
      "lat": 6.8965416,
      "lng": 79.9077393,
      "source": "osm"
    },
    {
      "id": "a1684193285",
      "nom": "Kohuwala Cemetery",
      "categorie": "memorial",
      "description": "",
      "prix": "",
      "duree": "",
      "mapsUrl": "https://maps.google.com/?q=6.8665943,79.8832731",
      "lat": 6.8665943,
      "lng": 79.8832731,
      "source": "osm"
    },
    {
      "id": "a322189134",
      "nom": "War Heroes Monument",
      "categorie": "monument",
      "description": "",
      "prix": "",
      "duree": "",
      "mapsUrl": "https://maps.google.com/?q=6.8933325,79.9168803",
      "lat": 6.8933325,
      "lng": 79.9168803,
      "source": "osm"
    },
    {
      "id": "a1730307197",
      "nom": "National Puppet Museum",
      "categorie": "museum",
      "description": "",
      "prix": "",
      "duree": "",
      "mapsUrl": "https://maps.google.com/?q=6.8614077,79.8664848",
      "lat": 6.8614077,
      "lng": 79.8664848,
      "source": "osm"
    },
    {
      "id": "a5898406686",
      "nom": "Methodist Church Wattala",
      "categorie": "attraction",
      "description": "",
      "prix": "",
      "duree": "",
      "mapsUrl": "https://maps.google.com/?q=6.9907169,79.8827022",
      "lat": 6.9907169,
      "lng": 79.8827022,
      "source": "osm"
    },
    {
      "id": "a3967352533",
      "nom": "Helanka Art Gallery",
      "categorie": "gallery",
      "description": "",
      "prix": "",
      "duree": "",
      "mapsUrl": "https://maps.google.com/?q=6.9056728,79.9268472",
      "lat": 6.9056728,
      "lng": 79.9268472,
      "source": "osm"
    },
    {
      "id": "a5093837323",
      "nom": "janakala kendraya",
      "categorie": "artwork",
      "description": "",
      "prix": "",
      "duree": "",
      "mapsUrl": "https://maps.google.com/?q=6.890931,79.9213399",
      "lat": 6.890931,
      "lng": 79.9213399,
      "source": "osm"
    },
    {
      "id": "a678839006",
      "nom": "Indian Peace Keeping Force (1987-2000)",
      "categorie": "memorial",
      "description": "",
      "prix": "",
      "duree": "",
      "mapsUrl": "https://maps.google.com/?q=6.8909601,79.9227139",
      "lat": 6.8909601,
      "lng": 79.9227139,
      "source": "osm"
    },
    {
      "id": "a48893708",
      "nom": "National Zoological Gardens",
      "categorie": "zoo",
      "description": "",
      "prix": "",
      "duree": "",
      "mapsUrl": "https://maps.google.com/?q=6.8571632,79.8741524",
      "lat": 6.8571632,
      "lng": 79.8741524,
      "source": "osm"
    },
    {
      "id": "a6486247688",
      "nom": "Island Scuba",
      "categorie": "attraction",
      "description": "",
      "prix": "",
      "duree": "",
      "mapsUrl": "https://maps.google.com/?q=6.8542187,79.8609148",
      "lat": 6.8542187,
      "lng": 79.8609148,
      "source": "osm"
    }
  ],
  "scoreIndicatif": true,
  "osmEnriched": true,
  "osmEnrichedAt": "2026-06-30",
  "description_en": "Colombo may not be a Muslim-majority destination, but it welcomes Muslim travelers with real halal options. You'll find 21 halal restaurants and 47 mosques nearby, plus real-time prayer times and the Qibla direction — everything to explore Colombo, Sri Lanka, with peace of mind.",
  "metaDescription_en": "Halal guide to Colombo: 21+ halal restaurants, 47 mosques, prayer times and tips for Muslim travelers. Halal Trust Score 3.8/5.",
  "nom_en": "Colombo",
  "boucheries": []
}