{
 "slug": "colombo",
 "nom": "Colombo",
 "pays": "Sri Lanka",
 "pays_slug": "sri-lanka",
 "continent": "Asie",
 "region": "Sri Lanka",
 "coordonnees": {
  "lat": 6.9271,
  "lng": 79.8612
 },
 "codeISO": "LK",
 "score_halal": 3.8,
 "halalScore": 7.6,
 "villeNonMusulmane": true,
 "description": "Capitale économique insulaire. Communauté musulmane importante, nombreuses mosquées et large offre halal.",
 "metaDescription": "Capitale économique insulaire. Communauté musulmane importante, nombreuses mosquées et large offre halal.",
 "image": "https://upload.wikimedia.org/wikipedia/commons/6/62/Colombo_city_skyline_at_night.png",
 "image_hero": "https://upload.wikimedia.org/wikipedia/commons/6/62/Colombo_city_skyline_at_night.png",
 "imageCredit": "Wikimedia Commons",
 "statistiques": {
  "restaurants_halal": 19,
  "mosquees": 39,
  "hotels": 40
 },
 "infoPratique": {
  "transport": "Accessible par avion et transports en commun locaux.",
  "meilleureEpoque": "Printemps et automne (climat tempéré).",
  "conseilHalal": "Ville non-musulmane : repérez les restaurants halal certifiés et les mosquées via l'application avant votre visite."
 },
 "tags": [
  "halal",
  "ville non-musulmane",
  "asie"
 ],
 "restaurants": [
  {
   "nom": "Graze Kitchen",
   "type": "international, italian, chinese, indian, asian",
   "priceRange": "€€",
   "mapsUrl": "https://maps.google.com/?q=6.9320689,79.8448456",
   "lat": 6.9320689,
   "lng": 79.8448456,
   "halalConfidence": "yes",
   "source": "osm"
  },
  {
   "nom": "Hotel De Plaza",
   "type": "local, indian",
   "priceRange": "€€",
   "mapsUrl": "https://maps.google.com/?q=6.9065129,79.851439",
   "lat": 6.9065129,
   "lng": 79.851439,
   "halalConfidence": "yes",
   "source": "osm"
  },
  {
   "nom": "Elite Indian Restaurant",
   "type": "fish, ice cream, tea, seafood, coffee shop, asian, chinese, diner, chicken, indian, curry",
   "priceRange": "€€",
   "mapsUrl": "https://maps.google.com/?q=6.8960482,79.8577791",
   "lat": 6.8960482,
   "lng": 79.8577791,
   "halalConfidence": "yes",
   "source": "osm"
  },
  {
   "nom": "Big Plate",
   "type": "indian, chinese, burger, sandwich",
   "priceRange": "€€",
   "mapsUrl": "https://maps.google.com/?q=6.8965728,79.8524163",
   "lat": 6.8965728,
   "lng": 79.8524163,
   "halalConfidence": "yes",
   "source": "osm"
  },
  {
   "nom": "Pizza Hut",
   "type": "pizza",
   "priceRange": "€€",
   "mapsUrl": "https://maps.google.com/?q=6.8903673,79.8659795",
   "lat": 6.8903673,
   "lng": 79.8659795,
   "halalConfidence": "yes",
   "source": "osm"
  },
  {
   "nom": "Street Burger",
   "type": "burger",
   "priceRange": "€€",
   "mapsUrl": "https://maps.google.com/?q=6.8892515,79.8543697",
   "lat": 6.8892515,
   "lng": 79.8543697,
   "halalConfidence": "yes",
   "source": "osm"
  },
  {
   "nom": "Dindigul Thalappakatti Restaurant",
   "type": "indian",
   "priceRange": "€€",
   "mapsUrl": "https://maps.google.com/?q=6.8884429,79.8584166",
   "lat": 6.8884429,
   "lng": 79.8584166,
   "halalConfidence": "yes",
   "source": "osm"
  },
  {
   "nom": "Colombo Steak House",
   "type": "steak house",
   "priceRange": "€€",
   "mapsUrl": "https://maps.google.com/?q=6.882908,79.8673904",
   "lat": 6.882908,
   "lng": 79.8673904,
   "halalConfidence": "yes",
   "source": "osm"
  },
  {
   "nom": "Pizza Hut",
   "type": "pizza",
   "priceRange": "€€",
   "mapsUrl": "https://maps.google.com/?q=6.8816663,79.8694724",
   "lat": 6.8816663,
   "lng": 79.8694724,
   "halalConfidence": "yes",
   "source": "osm"
  },
  {
   "nom": "Marine Grill",
   "type": "indian, chinese, burger",
   "priceRange": "€€",
   "mapsUrl": "https://maps.google.com/?q=6.8764256,79.8575269",
   "lat": 6.8764256,
   "lng": 79.8575269,
   "halalConfidence": "yes",
   "source": "osm"
  },
  {
   "nom": "Juice Junction",
   "type": "juice, burger, sandwich, bubble tea",
   "priceRange": "€€",
   "mapsUrl": "https://maps.google.com/?q=6.8665594,79.8780977",
   "lat": 6.8665594,
   "lng": 79.8780977,
   "halalConfidence": "yes",
   "source": "osm"
  },
  {
   "nom": "Sulthan Palace",
   "type": "arabic, indian, chinese",
   "priceRange": "€€",
   "mapsUrl": "https://maps.google.com/?q=6.9145883,79.8649784",
   "lat": 6.9145883,
   "lng": 79.8649784,
   "halalConfidence": "likely",
   "source": "osm"
  },
  {
   "nom": "HAZARI'S",
   "type": "arab",
   "priceRange": "€€",
   "mapsUrl": "https://maps.google.com/?q=6.901052,79.8511736",
   "lat": 6.901052,
   "lng": 79.8511736,
   "halalConfidence": "likely",
   "source": "osm"
  },
  {
   "nom": "The Hummus Bar",
   "type": "lebanese, mediterranean",
   "priceRange": "€€",
   "mapsUrl": "https://maps.google.com/?q=6.9139724,79.892796",
   "lat": 6.9139724,
   "lng": 79.892796,
   "halalConfidence": "likely",
   "source": "osm"
  },
  {
   "nom": "D&D Döner & Dürüm",
   "type": "turkish",
   "priceRange": "€€",
   "mapsUrl": "https://maps.google.com/?q=6.8912674,79.8674348",
   "lat": 6.8912674,
   "lng": 79.8674348,
   "halalConfidence": "likely",
   "source": "osm"
  },
  {
   "nom": "Hazari's -The Arabic Restaurant",
   "type": "arab",
   "priceRange": "€€",
   "mapsUrl": "https://maps.google.com/?q=6.8914067,79.8686729",
   "lat": 6.8914067,
   "lng": 79.8686729,
   "halalConfidence": "likely",
   "source": "osm"
  },
  {
   "nom": "Al Reem",
   "type": "arab, indian",
   "priceRange": "€€",
   "mapsUrl": "https://maps.google.com/?q=6.9065948,79.894904",
   "lat": 6.9065948,
   "lng": 79.894904,
   "halalConfidence": "likely",
   "source": "osm"
  },
  {
   "nom": "Al Maas Indian Family Restaurant",
   "type": "indian, chinese, pakistani",
   "priceRange": "€€",
   "mapsUrl": "https://maps.google.com/?q=6.8799176,79.8565822",
   "lat": 6.8799176,
   "lng": 79.8565822,
   "halalConfidence": "likely",
   "source": "osm"
  },
  {
   "nom": "Fayaz Arabic Shawarma",
   "type": "shawarma",
   "priceRange": "€€",
   "mapsUrl": "https://maps.google.com/?q=6.8630344,79.8661954",
   "lat": 6.8630344,
   "lng": 79.8661954,
   "halalConfidence": "likely",
   "source": "osm"
  }
 ],
 "hotels": [
  {
   "nom": "Shalimar Hotel",
   "categorie": "Hôtel",
   "priceRange": "€€",
   "mapsUrl": "https://maps.google.com/?q=6.9304715,79.8651588",
   "lat": 6.9304715,
   "lng": 79.8651588,
   "halalFriendly": false,
   "bookingUrl": "https://maps.google.com/?q=6.9304715,79.8651588",
   "source": "osm"
  },
  {
   "nom": "Booker Banquet Hall",
   "categorie": "Hôtel",
   "priceRange": "€€",
   "mapsUrl": "https://maps.google.com/?q=6.9215411,79.864628",
   "lat": 6.9215411,
   "lng": 79.864628,
   "halalFriendly": false,
   "bookingUrl": "https://maps.google.com/?q=6.9215411,79.864628",
   "source": "osm"
  },
  {
   "nom": "Benchmark Holidays",
   "categorie": "Hôtel",
   "priceRange": "€€",
   "mapsUrl": "https://maps.google.com/?q=6.9311621,79.855306",
   "lat": 6.9311621,
   "lng": 79.855306,
   "halalFriendly": false,
   "bookingUrl": "https://maps.google.com/?q=6.9311621,79.855306",
   "source": "osm"
  },
  {
   "nom": "onThree20",
   "categorie": "Appartement",
   "priceRange": "€€",
   "mapsUrl": "https://maps.google.com/?q=6.9196541,79.8592353",
   "lat": 6.9196541,
   "lng": 79.8592353,
   "halalFriendly": false,
   "bookingUrl": "https://maps.google.com/?q=6.9196541,79.8592353",
   "source": "osm"
  },
  {
   "nom": "Trizen",
   "categorie": "Appartement",
   "priceRange": "€€",
   "mapsUrl": "https://maps.google.com/?q=6.9198506,79.8585311",
   "lat": 6.9198506,
   "lng": 79.8585311,
   "halalFriendly": false,
   "bookingUrl": "https://maps.google.com/?q=6.9198506,79.8585311",
   "source": "osm"
  },
  {
   "nom": "YWCA",
   "categorie": "Auberge",
   "priceRange": "€€",
   "mapsUrl": "https://maps.google.com/?q=6.9192482,79.8600393",
   "lat": 6.9192482,
   "lng": 79.8600393,
   "halalFriendly": false,
   "bookingUrl": "https://maps.google.com/?q=6.9192482,79.8600393",
   "source": "osm"
  },
  {
   "nom": "Zak Rezidence",
   "categorie": "Appartement",
   "priceRange": "€€",
   "mapsUrl": "https://maps.google.com/?q=6.9216846,79.8552464",
   "lat": 6.9216846,
   "lng": 79.8552464,
   "halalFriendly": false,
   "bookingUrl": "https://maps.google.com/?q=6.9216846,79.8552464",
   "source": "osm"
  },
  {
   "nom": "Hilton Colombo Residences",
   "categorie": "Hôtel",
   "priceRange": "€€€€",
   "score": 5,
   "mapsUrl": "https://maps.google.com/?q=6.9206639,79.8562983",
   "lat": 6.9206639,
   "lng": 79.8562983,
   "halalFriendly": false,
   "bookingUrl": "https://www.hilton.com/en/hotels/coljttw-hilton-colombo-residences/",
   "source": "osm"
  },
  {
   "nom": "Jan Rich",
   "categorie": "Hôtel",
   "priceRange": "€€",
   "mapsUrl": "https://maps.google.com/?q=6.9226113,79.853847",
   "lat": 6.9226113,
   "lng": 79.853847,
   "halalFriendly": false,
   "bookingUrl": "https://maps.google.com/?q=6.9226113,79.853847",
   "source": "osm"
  },
  {
   "nom": "Thilhara Days Inn",
   "categorie": "Hôtel",
   "priceRange": "€€",
   "mapsUrl": "https://maps.google.com/?q=6.9223793,79.8539816",
   "lat": 6.9223793,
   "lng": 79.8539816,
   "halalFriendly": false,
   "bookingUrl": "https://maps.google.com/?q=6.9223793,79.8539816",
   "source": "osm"
  },
  {
   "nom": "Haven Fort Hostel",
   "categorie": "Auberge",
   "priceRange": "€€",
   "mapsUrl": "https://maps.google.com/?q=6.9236437,79.8532034",
   "lat": 6.9236437,
   "lng": 79.8532034,
   "halalFriendly": false,
   "bookingUrl": "https://maps.google.com/?q=6.9236437,79.8532034",
   "source": "osm"
  },
  {
   "nom": "Ananda College Hostel",
   "categorie": "Auberge",
   "priceRange": "€€",
   "mapsUrl": "https://maps.google.com/?q=6.9249354,79.8697021",
   "lat": 6.9249354,
   "lng": 79.8697021,
   "halalFriendly": false,
   "bookingUrl": "https://maps.google.com/?q=6.9249354,79.8697021",
   "source": "osm"
  },
  {
   "nom": "Asine hotel",
   "categorie": "Hôtel",
   "priceRange": "€€",
   "mapsUrl": "https://maps.google.com/?q=6.9227909,79.8532068",
   "lat": 6.9227909,
   "lng": 79.8532068,
   "halalFriendly": false,
   "bookingUrl": "https://maps.google.com/?q=6.9227909,79.8532068",
   "source": "osm"
  },
  {
   "nom": "Jan rich hotel",
   "categorie": "Hôtel",
   "priceRange": "€€",
   "mapsUrl": "https://maps.google.com/?q=6.9226857,79.8532476",
   "lat": 6.9226857,
   "lng": 79.8532476,
   "halalFriendly": false,
   "bookingUrl": "https://maps.google.com/?q=6.9226857,79.8532476",
   "source": "osm"
  },
  {
   "nom": "City Hotel Colombo 2",
   "categorie": "Hôtel",
   "priceRange": "€€",
   "mapsUrl": "https://maps.google.com/?q=6.9211524,79.8542916",
   "lat": 6.9211524,
   "lng": 79.8542916,
   "halalFriendly": false,
   "bookingUrl": "https://maps.google.com/?q=6.9211524,79.8542916",
   "source": "osm"
  },
  {
   "nom": "Colomba Gedara",
   "categorie": "Maison d'hôtes",
   "priceRange": "€€",
   "mapsUrl": "https://maps.google.com/?q=6.9330669,79.8539138",
   "lat": 6.9330669,
   "lng": 79.8539138,
   "halalFriendly": false,
   "bookingUrl": "https://maps.google.com/?q=6.9330669,79.8539138",
   "source": "osm"
  },
  {
   "nom": "Salvation Army Hostel",
   "categorie": "Auberge",
   "priceRange": "€€",
   "mapsUrl": "https://maps.google.com/?q=6.9219164,79.8531783",
   "lat": 6.9219164,
   "lng": 79.8531783,
   "halalFriendly": false,
   "bookingUrl": "https://maps.google.com/?q=6.9219164,79.8531783",
   "source": "osm"
  },
  {
   "nom": "Bismillah lodge",
   "categorie": "Hôtel",
   "priceRange": "€€",
   "mapsUrl": "https://maps.google.com/?q=6.9232471,79.8699722",
   "lat": 6.9232471,
   "lng": 79.8699722,
   "halalFriendly": false,
   "bookingUrl": "https://maps.google.com/?q=6.9232471,79.8699722",
   "source": "osm"
  },
  {
   "nom": "Colombo City Jumbo Hostel",
   "categorie": "Auberge",
   "priceRange": "€€",
   "mapsUrl": "https://maps.google.com/?q=6.9225063,79.8697434",
   "lat": 6.9225063,
   "lng": 79.8697434,
   "halalFriendly": false,
   "bookingUrl": "https://maps.google.com/?q=6.9225063,79.8697434",
   "source": "osm"
  },
  {
   "nom": "Residence by Uga Escapes",
   "categorie": "Hôtel",
   "priceRange": "€€",
   "mapsUrl": "https://maps.google.com/?q=6.9173938,79.8585264",
   "lat": 6.9173938,
   "lng": 79.8585264,
   "halalFriendly": false,
   "bookingUrl": "https://maps.google.com/?q=6.9173938,79.8585264",
   "source": "osm"
  },
  {
   "nom": "Residence on Park Street",
   "categorie": "Hôtel",
   "priceRange": "€€",
   "mapsUrl": "https://maps.google.com/?q=6.9172364,79.8582344",
   "lat": 6.9172364,
   "lng": 79.8582344,
   "halalFriendly": false,
   "bookingUrl": "https://www.residenceonparkstreet.com/",
   "source": "osm"
  },
  {
   "nom": "Pradeepa Hall",
   "categorie": "Hôtel",
   "priceRange": "€€",
   "mapsUrl": "https://maps.google.com/?q=6.9327253,79.8699193",
   "lat": 6.9327253,
   "lng": 79.8699193,
   "halalFriendly": false,
   "bookingUrl": "https://maps.google.com/?q=6.9327253,79.8699193",
   "source": "osm"
  },
  {
   "nom": "Metro City",
   "categorie": "Hôtel",
   "priceRange": "€€",
   "mapsUrl": "https://maps.google.com/?q=6.923703,79.8510897",
   "lat": 6.923703,
   "lng": 79.8510897,
   "halalFriendly": false,
   "bookingUrl": "https://www.metrocityhotel.com/",
   "source": "osm"
  },
  {
   "nom": "Courtyard by Marriott Colombo",
   "categorie": "Hôtel",
   "priceRange": "€€",
   "mapsUrl": "https://maps.google.com/?q=6.9176898,79.8557649",
   "lat": 6.9176898,
   "lng": 79.8557649,
   "halalFriendly": false,
   "bookingUrl": "https://maps.google.com/?q=6.9176898,79.8557649",
   "source": "osm"
  },
  {
   "nom": "Chinese",
   "categorie": "Appartement",
   "priceRange": "€€",
   "mapsUrl": "https://maps.google.com/?q=6.9229574,79.8509008",
   "lat": 6.9229574,
   "lng": 79.8509008,
   "halalFriendly": false,
   "bookingUrl": "https://maps.google.com/?q=6.9229574,79.8509008",
   "source": "osm"
  },
  {
   "nom": "Iddawela Residence",
   "categorie": "Appartement",
   "priceRange": "€€",
   "mapsUrl": "https://maps.google.com/?q=6.9157684,79.8588039",
   "lat": 6.9157684,
   "lng": 79.8588039,
   "halalFriendly": false,
   "bookingUrl": "https://maps.google.com/?q=6.9157684,79.8588039",
   "source": "osm"
  },
  {
   "nom": "Opulence Colombo",
   "categorie": "Hôtel",
   "priceRange": "€€",
   "mapsUrl": "https://maps.google.com/?q=6.9386821,79.8594962",
   "lat": 6.9386821,
   "lng": 79.8594962,
   "halalFriendly": false,
   "bookingUrl": "https://maps.google.com/?q=6.9386821,79.8594962",
   "source": "osm"
  },
  {
   "nom": "Chinese",
   "categorie": "Appartement",
   "priceRange": "€€",
   "mapsUrl": "https://maps.google.com/?q=6.9244188,79.8495667",
   "lat": 6.9244188,
   "lng": 79.8495667,
   "halalFriendly": false,
   "bookingUrl": "https://maps.google.com/?q=6.9244188,79.8495667",
   "source": "osm"
  },
  {
   "nom": "Cinnamon Lakeside Hotel",
   "categorie": "Hôtel",
   "priceRange": "€€€€",
   "score": 5,
   "mapsUrl": "https://maps.google.com/?q=6.9291227,79.8493786",
   "lat": 6.9291227,
   "lng": 79.8493786,
   "halalFriendly": false,
   "bookingUrl": "https://www.cinnamonhotels.com/cinnamonlakesidecolombo",
   "source": "osm"
  },
  {
   "nom": "Steps Backpackers Hostel",
   "categorie": "Hôtel",
   "priceRange": "€€",
   "mapsUrl": "https://maps.google.com/?q=6.926099,79.8735632",
   "lat": 6.926099,
   "lng": 79.8735632,
   "halalFriendly": false,
   "bookingUrl": "https://maps.google.com/?q=6.926099,79.8735632",
   "source": "osm"
  },
  {
   "nom": "Rosmead Place Boutique Hotel",
   "categorie": "Hôtel",
   "priceRange": "€€",
   "mapsUrl": "https://maps.google.com/?q=6.9155255,79.8667955",
   "lat": 6.9155255,
   "lng": 79.8667955,
   "halalFriendly": false,
   "bookingUrl": "https://rosmeadplacecolombo7.com/",
   "source": "osm"
  },
  {
   "nom": "Cinnamon Life at City of Dreams",
   "categorie": "Hôtel",
   "priceRange": "€€",
   "mapsUrl": "https://maps.google.com/?q=6.9251571,79.8477704",
   "lat": 6.9251571,
   "lng": 79.8477704,
   "halalFriendly": false,
   "bookingUrl": "https://cinnamonhotels.com/cinnamonlife",
   "source": "osm"
  },
  {
   "nom": "Charter  house",
   "categorie": "Maison d'hôtes",
   "priceRange": "€€",
   "mapsUrl": "https://maps.google.com/?q=6.9307015,79.8478926",
   "lat": 6.9307015,
   "lng": 79.8478926,
   "halalFriendly": false,
   "bookingUrl": "https://maps.google.com/?q=6.9307015,79.8478926",
   "source": "osm"
  },
  {
   "nom": "Jetwing Colombo Seven",
   "categorie": "Hôtel",
   "priceRange": "€€",
   "mapsUrl": "https://maps.google.com/?q=6.9165826,79.8702801",
   "lat": 6.9165826,
   "lng": 79.8702801,
   "halalFriendly": false,
   "bookingUrl": "https://maps.google.com/?q=6.9165826,79.8702801",
   "source": "osm"
  },
  {
   "nom": "55 Fort Train Hostel",
   "categorie": "Auberge",
   "priceRange": "€€",
   "mapsUrl": "https://maps.google.com/?q=6.935606,79.8501628",
   "lat": 6.935606,
   "lng": 79.8501628,
   "halalFriendly": false,
   "bookingUrl": "https://maps.google.com/?q=6.935606,79.8501628",
   "source": "osm"
  },
  {
   "nom": "Beira house",
   "categorie": "Maison d'hôtes",
   "priceRange": "€€",
   "mapsUrl": "https://maps.google.com/?q=6.9162894,79.8523819",
   "lat": 6.9162894,
   "lng": 79.8523819,
   "halalFriendly": false,
   "bookingUrl": "https://maps.google.com/?q=6.9162894,79.8523819",
   "source": "osm"
  },
  {
   "nom": "Lake Lodge",
   "categorie": "Hôtel",
   "priceRange": "€€",
   "mapsUrl": "https://maps.google.com/?q=6.9150324,79.8542302",
   "lat": 6.9150324,
   "lng": 79.8542302,
   "halalFriendly": false,
   "bookingUrl": "https://maps.google.com/?q=6.9150324,79.8542302",
   "source": "osm"
  },
  {
   "nom": "Black Cat B&B",
   "categorie": "Hôtel",
   "priceRange": "€€",
   "mapsUrl": "https://maps.google.com/?q=6.915641,79.869255",
   "lat": 6.915641,
   "lng": 79.869255,
   "halalFriendly": false,
   "bookingUrl": "https://maps.google.com/?q=6.915641,79.869255",
   "source": "osm"
  },
  {
   "nom": "De Saram House",
   "categorie": "Maison d'hôtes",
   "priceRange": "€€",
   "mapsUrl": "https://maps.google.com/?q=6.9167137,79.8708312",
   "lat": 6.9167137,
   "lng": 79.8708312,
   "halalFriendly": false,
   "bookingUrl": "https://geoffreybawa.com/de-saram-house",
   "source": "osm"
  },
  {
   "nom": "Black Cat B&B",
   "categorie": "Maison d'hôtes",
   "priceRange": "€€",
   "mapsUrl": "https://maps.google.com/?q=6.9154151,79.8695817",
   "lat": 6.9154151,
   "lng": 79.8695817,
   "halalFriendly": false,
   "bookingUrl": "https://www.blackcatcolombo.com/",
   "source": "osm"
  }
 ],
 "mosqueesPrincipales": [
  {
   "id": "m224062633",
   "nom": "Maradana Jummah Mosque",
   "type": "Mosquée",
   "adresse": "",
   "description": "Lieu de prière (OpenStreetMap).",
   "mapsUrl": "https://maps.google.com/?q=6.9276513,79.8639983",
   "lat": 6.9276513,
   "lng": 79.8639983,
   "source": "osm"
  },
  {
   "id": "m3658423027",
   "nom": "Dawson Street Mosque",
   "type": "Mosquée",
   "adresse": "",
   "description": "Lieu de prière (OpenStreetMap).",
   "mapsUrl": "https://maps.google.com/?q=6.9217304,79.8585019",
   "lat": 6.9217304,
   "lng": 79.8585019,
   "source": "osm"
  },
  {
   "id": "m1378992432",
   "nom": "Panchikawatte Masjid",
   "type": "Mosquée",
   "adresse": "",
   "description": "Lieu de prière (OpenStreetMap).",
   "mapsUrl": "https://maps.google.com/?q=6.93172,79.8653657",
   "lat": 6.93172,
   "lng": 79.8653657,
   "source": "osm"
  },
  {
   "id": "m678259136",
   "nom": "Masjidul Akbar Jumma Mosque Slave Island",
   "type": "Mosquée",
   "adresse": "Kew Lane, Colombo02",
   "description": "Lieu de prière (OpenStreetMap).",
   "mapsUrl": "https://maps.google.com/?q=6.9245156,79.8530785",
   "lat": 6.9245156,
   "lng": 79.8530785,
   "source": "osm"
  },
  {
   "id": "m514045884",
   "nom": "Wekanfa Jumma Mosque",
   "type": "Mosquée",
   "adresse": "",
   "description": "Lieu de prière (OpenStreetMap).",
   "mapsUrl": "https://maps.google.com/?q=6.9224273,79.8516106",
   "lat": 6.9224273,
   "lng": 79.8516106,
   "source": "osm"
  },
  {
   "id": "m3658423938",
   "nom": "Tholappu Garden Mosque",
   "type": "Mosquée",
   "adresse": "",
   "description": "Lieu de prière (OpenStreetMap).",
   "mapsUrl": "https://maps.google.com/?q=6.9234746,79.8505449",
   "lat": 6.9234746,
   "lng": 79.8505449,
   "source": "osm"
  },
  {
   "id": "m1466879256",
   "nom": "Dawatagaha Mosque",
   "type": "Mosquée",
   "adresse": "Alexandra Place, Colombo 07",
   "description": "Lieu de prière (OpenStreetMap).",
   "mapsUrl": "https://maps.google.com/?q=6.9162075,79.8645367",
   "lat": 6.9162075,
   "lng": 79.8645367,
   "source": "osm"
  },
  {
   "id": "m3658423139",
   "nom": "Java Lane Mosque",
   "type": "Mosquée",
   "adresse": "",
   "description": "Lieu de prière (OpenStreetMap).",
   "mapsUrl": "https://maps.google.com/?q=6.926001,79.8493987",
   "lat": 6.926001,
   "lng": 79.8493987,
   "source": "osm"
  },
  {
   "id": "m533352957",
   "nom": "Shahul Hameedhiya Jumma Musjidh",
   "type": "Mosquée",
   "adresse": "",
   "description": "Lieu de prière (OpenStreetMap).",
   "mapsUrl": "https://maps.google.com/?q=6.9205989,79.8495296",
   "lat": 6.9205989,
   "lng": 79.8495296,
   "source": "osm"
  },
  {
   "id": "m2826701432",
   "nom": "Masjid Muhiadeen Khadiriya Thakiya",
   "type": "Mosquée",
   "adresse": "",
   "description": "Lieu de prière (OpenStreetMap).",
   "mapsUrl": "https://maps.google.com/?q=6.9404365,79.8608731",
   "lat": 6.9404365,
   "lng": 79.8608731,
   "source": "osm"
  },
  {
   "id": "m685043382",
   "nom": "Grand Mosque",
   "type": "Mosquée",
   "adresse": "",
   "description": "Lieu de prière (OpenStreetMap).",
   "mapsUrl": "https://maps.google.com/?q=6.9404528,79.8589591",
   "lat": 6.9404528,
   "lng": 79.8589591,
   "source": "osm"
  },
  {
   "id": "m4310399691",
   "nom": "Jumma mosque",
   "type": "Mosquée",
   "adresse": "",
   "description": "Lieu de prière (OpenStreetMap).",
   "mapsUrl": "https://maps.google.com/?q=6.9373729,79.8723039",
   "lat": 6.9373729,
   "lng": 79.8723039,
   "source": "osm"
  },
  {
   "id": "m682084505",
   "nom": "Jumma mosque",
   "type": "Mosquée",
   "adresse": "",
   "description": "Lieu de prière (OpenStreetMap).",
   "mapsUrl": "https://maps.google.com/?q=6.9305881,79.8761875",
   "lat": 6.9305881,
   "lng": 79.8761875,
   "source": "osm"
  },
  {
   "id": "m514543399",
   "nom": "Jumma mosque",
   "type": "Mosquée",
   "adresse": "",
   "description": "Lieu de prière (OpenStreetMap).",
   "mapsUrl": "https://maps.google.com/?q=6.9307131,79.8761841",
   "lat": 6.9307131,
   "lng": 79.8761841,
   "source": "osm"
  },
  {
   "id": "m4310401289",
   "nom": "Masjidhul Salam",
   "type": "Mosquée",
   "adresse": "",
   "description": "Lieu de prière (OpenStreetMap).",
   "mapsUrl": "https://maps.google.com/?q=6.9394256,79.873136",
   "lat": 6.9394256,
   "lng": 79.873136,
   "source": "osm"
  },
  {
   "id": "m1348668146",
   "nom": "Jumma Mosque Kollupitiya",
   "type": "Mosquée",
   "adresse": "",
   "description": "Lieu de prière (OpenStreetMap).",
   "mapsUrl": "https://maps.google.com/?q=6.9132479,79.8507813",
   "lat": 6.9132479,
   "lng": 79.8507813,
   "source": "osm"
  },
  {
   "id": "m4233205610",
   "nom": "Fort Jumma Mosque",
   "type": "Mosquée",
   "adresse": "Chatham Street",
   "description": "Lieu de prière (OpenStreetMap).",
   "mapsUrl": "https://maps.google.com/?q=6.9347378,79.8438484",
   "lat": 6.9347378,
   "lng": 79.8438484,
   "source": "osm"
  },
  {
   "id": "m3085648468",
   "nom": "Jumma Mosque",
   "type": "Mosquée",
   "adresse": "Borella",
   "description": "Lieu de prière (OpenStreetMap).",
   "mapsUrl": "https://maps.google.com/?q=6.9167522,79.8771325",
   "lat": 6.9167522,
   "lng": 79.8771325,
   "source": "osm"
  },
  {
   "id": "m11435013308",
   "nom": "Ahmadiyya Community Centre",
   "type": "Mosquée",
   "adresse": "Colombo",
   "description": "Lieu de prière (OpenStreetMap).",
   "mapsUrl": "https://maps.google.com/?q=6.9380869,79.8776951",
   "lat": 6.9380869,
   "lng": 79.8776951,
   "source": "osm"
  },
  {
   "id": "m4304782810",
   "nom": "St. Lucia Church",
   "type": "Mosquée",
   "adresse": "St Benadicts Street, Kotahena",
   "description": "Lieu de prière (OpenStreetMap).",
   "mapsUrl": "https://maps.google.com/?q=6.9481148,79.8645241",
   "lat": 6.9481148,
   "lng": 79.8645241,
   "source": "osm"
  },
  {
   "id": "m528705064",
   "nom": "Noor Jumma Mosque",
   "type": "Mosquée",
   "adresse": "",
   "description": "Lieu de prière (OpenStreetMap).",
   "mapsUrl": "https://maps.google.com/?q=6.9051436,79.8752837",
   "lat": 6.9051436,
   "lng": 79.8752837,
   "source": "osm"
  },
  {
   "id": "m434316706",
   "nom": "Jawatte Jumma Masjid",
   "type": "Mosquée",
   "adresse": "",
   "description": "Lieu de prière (OpenStreetMap).",
   "mapsUrl": "https://maps.google.com/?q=6.8987543,79.8685906",
   "lat": 6.8987543,
   "lng": 79.8685906,
   "source": "osm"
  },
  {
   "id": "m666881113",
   "nom": "Jumma Mosque",
   "type": "Mosquée",
   "adresse": "Bauddhaloka Mawatha, Bambalapitiya",
   "description": "Lieu de prière (OpenStreetMap).",
   "mapsUrl": "https://maps.google.com/?q=6.8959689,79.8561026",
   "lat": 6.8959689,
   "lng": 79.8561026,
   "source": "osm"
  },
  {
   "id": "m1838419598",
   "nom": "Borah Mosque",
   "type": "Mosquée",
   "adresse": "",
   "description": "Lieu de prière (OpenStreetMap).",
   "mapsUrl": "https://maps.google.com/?q=6.8945884,79.8531736",
   "lat": 6.8945884,
   "lng": 79.8531736,
   "source": "osm"
  },
  {
   "id": "m3954317061",
   "nom": "Masjidur Rahumaniya Mosque",
   "type": "Mosquée",
   "adresse": "",
   "description": "Lieu de prière (OpenStreetMap).",
   "mapsUrl": "https://maps.google.com/?q=6.9603119,79.8684423",
   "lat": 6.9603119,
   "lng": 79.8684423,
   "source": "osm"
  },
  {
   "id": "m3954317070",
   "nom": "Al Masidua Islahiya Mosque",
   "type": "Mosquée",
   "adresse": "",
   "description": "Lieu de prière (OpenStreetMap).",
   "mapsUrl": "https://maps.google.com/?q=6.9611113,79.8700386",
   "lat": 6.9611113,
   "lng": 79.8700386,
   "source": "osm"
  },
  {
   "id": "m392160940",
   "nom": "Mutwal Jumma Mosque",
   "type": "Mosquée",
   "adresse": "",
   "description": "Lieu de prière (OpenStreetMap).",
   "mapsUrl": "https://maps.google.com/?q=6.962534,79.8640482",
   "lat": 6.962534,
   "lng": 79.8640482,
   "source": "osm"
  },
  {
   "id": "m3954317211",
   "nom": "Jumma Mosque",
   "type": "Mosquée",
   "adresse": "",
   "description": "Lieu de prière (OpenStreetMap).",
   "mapsUrl": "https://maps.google.com/?q=6.9608189,79.8725569",
   "lat": 6.9608189,
   "lng": 79.8725569,
   "source": "osm"
  },
  {
   "id": "m2406769219",
   "nom": "Nawala Jumma Mosque",
   "type": "Mosquée",
   "adresse": "Nawala Road, Rajagiriya",
   "description": "Lieu de prière (OpenStreetMap).",
   "mapsUrl": "https://maps.google.com/?q=6.9067504,79.8954762",
   "lat": 6.9067504,
   "lng": 79.8954762,
   "source": "osm"
  },
  {
   "id": "m810436715",
   "nom": "Jumma Masjid",
   "type": "Mosquée",
   "adresse": "",
   "description": "Lieu de prière (OpenStreetMap).",
   "mapsUrl": "https://maps.google.com/?q=6.8868093,79.8548802",
   "lat": 6.8868093,
   "lng": 79.8548802,
   "source": "osm"
  },
  {
   "id": "m4879900416",
   "nom": "Nooraniya Jummah Masjid",
   "type": "Mosquée",
   "adresse": "N.J.V Cooray Road, Rajagiriya",
   "description": "Lieu de prière (OpenStreetMap).",
   "mapsUrl": "https://maps.google.com/?q=6.9052991,79.9001609",
   "lat": 6.9052991,
   "lng": 79.9001609,
   "source": "osm"
  },
  {
   "id": "m6615719992",
   "nom": "Noor Mosque",
   "type": "Mosquée",
   "adresse": "7th Lane, Colombo",
   "description": "Lieu de prière (OpenStreetMap).",
   "mapsUrl": "https://maps.google.com/?q=6.9737568,79.8713901",
   "lat": 6.9737568,
   "lng": 79.8713901,
   "source": "osm"
  },
  {
   "id": "m6615719499",
   "nom": "Zavia Mosque",
   "type": "Mosquée",
   "adresse": "St.Mary's Road, Colombo",
   "description": "Lieu de prière (OpenStreetMap).",
   "mapsUrl": "https://maps.google.com/?q=6.9728036,79.8756295",
   "lat": 6.9728036,
   "lng": 79.8756295,
   "source": "osm"
  },
  {
   "id": "m6615719500",
   "nom": "Zaviyathul Khairiya Jumma Masjid",
   "type": "Mosquée",
   "adresse": "Colombo",
   "description": "Lieu de prière (OpenStreetMap).",
   "mapsUrl": "https://maps.google.com/?q=6.9732322,79.8760825",
   "lat": 6.9732322,
   "lng": 79.8760825,
   "source": "osm"
  },
  {
   "id": "m390255882",
   "nom": "Wellawatte Jumma Masjid",
   "type": "Mosquée",
   "adresse": "",
   "description": "Lieu de prière (OpenStreetMap).",
   "mapsUrl": "https://maps.google.com/?q=6.8770883,79.8601417",
   "lat": 6.8770883,
   "lng": 79.8601417,
   "source": "osm"
  },
  {
   "id": "m6615720004",
   "nom": "Al Masjidhul Ilahiya Mosque",
   "type": "Mosquée",
   "adresse": "Colombo",
   "description": "Lieu de prière (OpenStreetMap).",
   "mapsUrl": "https://maps.google.com/?q=6.9768996,79.8745097",
   "lat": 6.9768996,
   "lng": 79.8745097,
   "source": "osm"
  },
  {
   "id": "m6615719519",
   "nom": "MASJID UL BADRIYA",
   "type": "Mosquée",
   "adresse": "Colombo",
   "description": "Lieu de prière (OpenStreetMap).",
   "mapsUrl": "https://maps.google.com/?q=6.9754875,79.879551",
   "lat": 6.9754875,
   "lng": 79.879551,
   "source": "osm"
  },
  {
   "id": "m3403161441",
   "nom": "Kohilawatte Jumma Mosque",
   "type": "Mosquée",
   "adresse": "Wellampitiya",
   "description": "Lieu de prière (OpenStreetMap).",
   "mapsUrl": "https://maps.google.com/?q=6.9485431,79.9107431",
   "lat": 6.9485431,
   "lng": 79.9107431,
   "source": "osm"
  },
  {
   "id": "m1838377733",
   "nom": "Jumma Masjid",
   "type": "Mosquée",
   "adresse": "Kirulapana Masjid Road, Kirulapone",
   "description": "Lieu de prière (OpenStreetMap).",
   "mapsUrl": "https://maps.google.com/?q=6.8759528,79.8807906",
   "lat": 6.8759528,
   "lng": 79.8807906,
   "source": "osm"
  }
 ],
 "activites": [
  {
   "id": "a13233966301",
   "nom": "Train Viewpoint",
   "categorie": "viewpoint",
   "description": "",
   "prix": "",
   "duree": "",
   "mapsUrl": "https://maps.google.com/?q=6.928196,79.8599153",
   "lat": 6.928196,
   "lng": 79.8599153,
   "source": "osm"
  },
  {
   "id": "a3307527165",
   "nom": "Lotus Tower",
   "categorie": "viewpoint",
   "description": "",
   "prix": "",
   "duree": "",
   "mapsUrl": "https://maps.google.com/?q=6.9270265,79.8583147",
   "lat": 6.9270265,
   "lng": 79.8583147,
   "source": "osm"
  },
  {
   "id": "a4109157989",
   "nom": "railway station",
   "categorie": "viewpoint",
   "description": "",
   "prix": "",
   "duree": "",
   "mapsUrl": "https://maps.google.com/?q=6.9284655,79.8648826",
   "lat": 6.9284655,
   "lng": 79.8648826,
   "source": "osm"
  },
  {
   "id": "a1523621150",
   "nom": "Railway Museum",
   "categorie": "museum",
   "description": "",
   "prix": "",
   "duree": "",
   "mapsUrl": "https://maps.google.com/?q=6.9317214,79.858871",
   "lat": 6.9317214,
   "lng": 79.858871,
   "source": "osm"
  },
  {
   "id": "a618491025",
   "nom": "Ananda College",
   "categorie": "monument",
   "description": "",
   "prix": "",
   "duree": "",
   "mapsUrl": "https://maps.google.com/?q=6.9243358,79.8685501",
   "lat": 6.9243358,
   "lng": 79.8685501,
   "source": "osm"
  },
  {
   "id": "a303907118",
   "nom": "Pettah Floating Market",
   "categorie": "attraction",
   "description": "",
   "prix": "",
   "duree": "",
   "mapsUrl": "https://maps.google.com/?q=6.9327253,79.8555267",
   "lat": 6.9327253,
   "lng": 79.8555267,
   "source": "osm"
  },
  {
   "id": "a3922519072",
   "nom": "Horse made out of vehicle parts",
   "categorie": "monument",
   "description": "",
   "prix": "",
   "duree": "",
   "mapsUrl": "https://maps.google.com/?q=6.9343887,79.8659923",
   "lat": 6.9343887,
   "lng": 79.8659923,
   "source": "osm"
  },
  {
   "id": "a5102778721",
   "nom": "Urban Ruin",
   "categorie": "attraction",
   "description": "",
   "prix": "",
   "duree": "",
   "mapsUrl": "https://maps.google.com/?q=6.915605,79.8557992",
   "lat": 6.915605,
   "lng": 79.8557992,
   "source": "osm"
  },
  {
   "id": "a13447631674",
   "nom": "Henry Steel Olcott",
   "categorie": "memorial",
   "description": "",
   "prix": "",
   "duree": "",
   "mapsUrl": "https://maps.google.com/?q=6.9338612,79.8500437",
   "lat": 6.9338612,
   "lng": 79.8500437,
   "source": "osm"
  },
  {
   "id": "a4354445603",
   "nom": "Dutch Colonial Museum",
   "categorie": "museum",
   "description": "",
   "prix": "",
   "duree": "",
   "mapsUrl": "https://maps.google.com/?q=6.9360639,79.8516492",
   "lat": 6.9360639,
   "lng": 79.8516492,
   "source": "osm"
  },
  {
   "id": "a8016433755",
   "nom": "Frederick Richard Senanayaka",
   "categorie": "memorial",
   "description": "",
   "prix": "",
   "duree": "",
   "mapsUrl": "https://maps.google.com/?q=6.9139563,79.8645524",
   "lat": 6.9139563,
   "lng": 79.8645524,
   "source": "osm"
  },
  {
   "id": "a10160885071",
   "nom": "Golden Jubilee 1917-1967",
   "categorie": "monument",
   "description": "",
   "prix": "",
   "duree": "",
   "mapsUrl": "https://maps.google.com/?q=6.9134897,79.8581929",
   "lat": 6.9134897,
   "lng": 79.8581929,
   "source": "osm"
  },
  {
   "id": "a10793137786",
   "nom": "Nalanda War Memorial",
   "categorie": "memorial",
   "description": "",
   "prix": "",
   "duree": "",
   "mapsUrl": "https://maps.google.com/?q=6.9239259,79.8750824",
   "lat": 6.9239259,
   "lng": 79.8750824,
   "source": "osm"
  },
  {
   "id": "a5915271185",
   "nom": "Pettah Market",
   "categorie": "attraction",
   "description": "",
   "prix": "",
   "duree": "",
   "mapsUrl": "https://maps.google.com/?q=6.9362523,79.8499631",
   "lat": 6.9362523,
   "lng": 79.8499631,
   "source": "osm"
  },
  {
   "id": "a10137897158",
   "nom": "T.B. Ilangararne",
   "categorie": "memorial",
   "description": "",
   "prix": "",
   "duree": "",
   "mapsUrl": "https://maps.google.com/?q=6.9168857,79.8506042",
   "lat": 6.9168857,
   "lng": 79.8506042,
   "source": "osm"
  },
  {
   "id": "a6152700385",
   "nom": "Felix Reginald Dias Bandaranaike",
   "categorie": "memorial",
   "description": "",
   "prix": "",
   "duree": "",
   "mapsUrl": "https://maps.google.com/?q=6.9120898,79.8644419",
   "lat": 6.9120898,
   "lng": 79.8644419,
   "source": "osm"
  },
  {
   "id": "a662919724",
   "nom": "National Art Gallery",
   "categorie": "museum",
   "description": "",
   "prix": "",
   "duree": "",
   "mapsUrl": "https://maps.google.com/?q=6.9114097,79.861969",
   "lat": 6.9114097,
   "lng": 79.861969,
   "source": "osm"
  },
  {
   "id": "a3825169557",
   "nom": "Sri Lanka Telecom Monument",
   "categorie": "memorial",
   "description": "",
   "prix": "",
   "duree": "",
   "mapsUrl": "https://maps.google.com/?q=6.9340975,79.8469942",
   "lat": 6.9340975,
   "lng": 79.8469942,
   "source": "osm"
  },
  {
   "id": "a138991603",
   "nom": "National Museum of Natural History",
   "categorie": "museum",
   "description": "",
   "prix": "",
   "duree": "",
   "mapsUrl": "https://maps.google.com/?q=6.9111764,79.8611217",
   "lat": 6.9111764,
   "lng": 79.8611217,
   "source": "osm"
  },
  {
   "id": "a138991604",
   "nom": "National Museum of Colombo",
   "categorie": "museum",
   "description": "",
   "prix": "",
   "duree": "",
   "mapsUrl": "https://maps.google.com/?q=6.9104124,79.8609699",
   "lat": 6.9104124,
   "lng": 79.8609699,
   "source": "osm"
  },
  {
   "id": "a262531868",
   "nom": "White Triangle Building",
   "categorie": "attraction",
   "description": "",
   "prix": "",
   "duree": "",
   "mapsUrl": "https://maps.google.com/?q=6.9368333,79.8465015",
   "lat": 6.9368333,
   "lng": 79.8465015,
   "source": "osm"
  },
  {
   "id": "a374793744",
   "nom": "Historic Cargills building",
   "categorie": "attraction",
   "description": "",
   "prix": "",
   "duree": "",
   "mapsUrl": "https://maps.google.com/?q=6.935746,79.8446886",
   "lat": 6.935746,
   "lng": 79.8446886,
   "source": "osm"
  },
  {
   "id": "a374793746",
   "nom": "Lloyds Building",
   "categorie": "attraction",
   "description": "",
   "prix": "",
   "duree": "",
   "mapsUrl": "https://maps.google.com/?q=6.9365847,79.8443745",
   "lat": 6.9365847,
   "lng": 79.8443745,
   "source": "osm"
  },
  {
   "id": "a1465741240",
   "nom": "Old Colombo Lighthouse;Chatham Street Clock Tower",
   "categorie": "attraction",
   "description": "",
   "prix": "",
   "duree": "",
   "mapsUrl": "https://maps.google.com/?q=6.9347262,79.8428247",
   "lat": 6.9347262,
   "lng": 79.8428247,
   "source": "osm"
  },
  {
   "id": "a682747849",
   "nom": "Old General Post Office Fort",
   "categorie": "museum",
   "description": "",
   "prix": "",
   "duree": "",
   "mapsUrl": "https://maps.google.com/?q=6.9360351,79.8434128",
   "lat": 6.9360351,
   "lng": 79.8434128,
   "source": "osm"
  },
  {
   "id": "a6467969244",
   "nom": "Deshamanya Siva Ovyeskere Crafts Gallery",
   "categorie": "gallery",
   "description": "",
   "prix": "",
   "duree": "",
   "mapsUrl": "https://maps.google.com/?q=6.9062853,79.8630571",
   "lat": 6.9062853,
   "lng": 79.8630571,
   "source": "osm"
  },
  {
   "id": "a6467964377",
   "nom": "Junction Art Gallery",
   "categorie": "gallery",
   "description": "",
   "prix": "",
   "duree": "",
   "mapsUrl": "https://maps.google.com/?q=6.9062737,79.8631171",
   "lat": 6.9062737,
   "lng": 79.8631171,
   "source": "osm"
  },
  {
   "id": "a13011179161",
   "nom": "Good Market fair trade and organic market",
   "categorie": "attraction",
   "description": "",
   "prix": "",
   "duree": "",
   "mapsUrl": "https://maps.google.com/?q=6.9061323,79.8644793",
   "lat": 6.9061323,
   "lng": 79.8644793,
   "source": "osm"
  },
  {
   "id": "a5242147923",
   "nom": "buddha statue",
   "categorie": "monument",
   "description": "",
   "prix": "",
   "duree": "",
   "mapsUrl": "https://maps.google.com/?q=6.9132399,79.8774256",
   "lat": 6.9132399,
   "lng": 79.8774256,
   "source": "osm"
  },
  {
   "id": "a303295581",
   "nom": "Musée des autorités Maritimes",
   "categorie": "museum",
   "description": "",
   "prix": "",
   "duree": "",
   "mapsUrl": "https://maps.google.com/?q=6.9386877,79.8424354",
   "lat": 6.9386877,
   "lng": 79.8424354,
   "source": "osm"
  }
 ],
 "scoreIndicatif": true,
 "osmEnriched": true,
 "osmEnrichedAt": "2026-06-30"
}
