{
 "slug": "colombo",
 "nom": "Colombo",
 "pays": "Sri Lanka",
 "pays_slug": "sri-lanka",
 "continent": "Asie",
 "region": "Sri Lanka",
 "coordonnees": {
  "lat": 6.9271,
  "lng": 79.8612
 },
 "codeISO": "LK",
 "score_halal": 3.8,
 "halalScore": 7.6,
 "villeNonMusulmane": true,
 "description": "Capitale économique insulaire. Communauté musulmane importante, nombreuses mosquées et large offre halal.",
 "metaDescription": "Capitale économique insulaire. Communauté musulmane importante, nombreuses mosquées et large offre halal.",
 "image": "https://upload.wikimedia.org/wikipedia/commons/6/62/Colombo_city_skyline_at_night.png",
 "image_hero": "https://upload.wikimedia.org/wikipedia/commons/6/62/Colombo_city_skyline_at_night.png",
 "imageCredit": "Wikimedia Commons",
 "statistiques": {
  "restaurants_halal": 19,
  "mosquees": 20,
  "hotels": 0
 },
 "infoPratique": {
  "transport": "Accessible par avion et transports en commun locaux.",
  "meilleureEpoque": "Printemps et automne (climat tempéré).",
  "conseilHalal": "Ville non-musulmane : repérez les restaurants halal certifiés et les mosquées via l'application avant votre visite."
 },
 "tags": [
  "halal",
  "ville non-musulmane",
  "asie"
 ],
 "restaurants": [
  {
   "nom": "Graze Kitchen",
   "type": "international, italian, chinese, indian, asian",
   "priceRange": "€€",
   "mapsUrl": "https://maps.google.com/?q=6.9320689,79.8448456",
   "lat": 6.9320689,
   "lng": 79.8448456,
   "halalConfidence": "yes",
   "source": "osm"
  },
  {
   "nom": "Hotel De Plaza",
   "type": "local, indian",
   "priceRange": "€€",
   "mapsUrl": "https://maps.google.com/?q=6.9065129,79.851439",
   "lat": 6.9065129,
   "lng": 79.851439,
   "halalConfidence": "yes",
   "source": "osm"
  },
  {
   "nom": "Elite Indian Restaurant",
   "type": "fish, ice cream, tea, seafood, coffee shop, asian, chinese, diner, chicken, indian, curry",
   "priceRange": "€€",
   "mapsUrl": "https://maps.google.com/?q=6.8960482,79.8577791",
   "lat": 6.8960482,
   "lng": 79.8577791,
   "halalConfidence": "yes",
   "source": "osm"
  },
  {
   "nom": "Big Plate",
   "type": "indian, chinese, burger, sandwich",
   "priceRange": "€€",
   "mapsUrl": "https://maps.google.com/?q=6.8965728,79.8524163",
   "lat": 6.8965728,
   "lng": 79.8524163,
   "halalConfidence": "yes",
   "source": "osm"
  },
  {
   "nom": "Pizza Hut",
   "type": "pizza",
   "priceRange": "€€",
   "mapsUrl": "https://maps.google.com/?q=6.8903673,79.8659795",
   "lat": 6.8903673,
   "lng": 79.8659795,
   "halalConfidence": "yes",
   "source": "osm"
  },
  {
   "nom": "Street Burger",
   "type": "burger",
   "priceRange": "€€",
   "mapsUrl": "https://maps.google.com/?q=6.8892515,79.8543697",
   "lat": 6.8892515,
   "lng": 79.8543697,
   "halalConfidence": "yes",
   "source": "osm"
  },
  {
   "nom": "Dindigul Thalappakatti Restaurant",
   "type": "indian",
   "priceRange": "€€",
   "mapsUrl": "https://maps.google.com/?q=6.8884429,79.8584166",
   "lat": 6.8884429,
   "lng": 79.8584166,
   "halalConfidence": "yes",
   "source": "osm"
  },
  {
   "nom": "Colombo Steak House",
   "type": "steak house",
   "priceRange": "€€",
   "mapsUrl": "https://maps.google.com/?q=6.882908,79.8673904",
   "lat": 6.882908,
   "lng": 79.8673904,
   "halalConfidence": "yes",
   "source": "osm"
  },
  {
   "nom": "Pizza Hut",
   "type": "pizza",
   "priceRange": "€€",
   "mapsUrl": "https://maps.google.com/?q=6.8816663,79.8694724",
   "lat": 6.8816663,
   "lng": 79.8694724,
   "halalConfidence": "yes",
   "source": "osm"
  },
  {
   "nom": "Marine Grill",
   "type": "indian, chinese, burger",
   "priceRange": "€€",
   "mapsUrl": "https://maps.google.com/?q=6.8764256,79.8575269",
   "lat": 6.8764256,
   "lng": 79.8575269,
   "halalConfidence": "yes",
   "source": "osm"
  },
  {
   "nom": "Juice Junction",
   "type": "juice, burger, sandwich, bubble tea",
   "priceRange": "€€",
   "mapsUrl": "https://maps.google.com/?q=6.8665594,79.8780977",
   "lat": 6.8665594,
   "lng": 79.8780977,
   "halalConfidence": "yes",
   "source": "osm"
  },
  {
   "nom": "Sulthan Palace",
   "type": "arabic, indian, chinese",
   "priceRange": "€€",
   "mapsUrl": "https://maps.google.com/?q=6.9145883,79.8649784",
   "lat": 6.9145883,
   "lng": 79.8649784,
   "halalConfidence": "likely",
   "source": "osm"
  },
  {
   "nom": "HAZARI'S",
   "type": "arab",
   "priceRange": "€€",
   "mapsUrl": "https://maps.google.com/?q=6.901052,79.8511736",
   "lat": 6.901052,
   "lng": 79.8511736,
   "halalConfidence": "likely",
   "source": "osm"
  },
  {
   "nom": "The Hummus Bar",
   "type": "lebanese, mediterranean",
   "priceRange": "€€",
   "mapsUrl": "https://maps.google.com/?q=6.9139724,79.892796",
   "lat": 6.9139724,
   "lng": 79.892796,
   "halalConfidence": "likely",
   "source": "osm"
  },
  {
   "nom": "D&D Döner & Dürüm",
   "type": "turkish",
   "priceRange": "€€",
   "mapsUrl": "https://maps.google.com/?q=6.8912674,79.8674348",
   "lat": 6.8912674,
   "lng": 79.8674348,
   "halalConfidence": "likely",
   "source": "osm"
  },
  {
   "nom": "Hazari's -The Arabic Restaurant",
   "type": "arab",
   "priceRange": "€€",
   "mapsUrl": "https://maps.google.com/?q=6.8914067,79.8686729",
   "lat": 6.8914067,
   "lng": 79.8686729,
   "halalConfidence": "likely",
   "source": "osm"
  },
  {
   "nom": "Al Reem",
   "type": "arab, indian",
   "priceRange": "€€",
   "mapsUrl": "https://maps.google.com/?q=6.9065948,79.894904",
   "lat": 6.9065948,
   "lng": 79.894904,
   "halalConfidence": "likely",
   "source": "osm"
  },
  {
   "nom": "Al Maas Indian Family Restaurant",
   "type": "indian, chinese, pakistani",
   "priceRange": "€€",
   "mapsUrl": "https://maps.google.com/?q=6.8799176,79.8565822",
   "lat": 6.8799176,
   "lng": 79.8565822,
   "halalConfidence": "likely",
   "source": "osm"
  },
  {
   "nom": "Fayaz Arabic Shawarma",
   "type": "shawarma",
   "priceRange": "€€",
   "mapsUrl": "https://maps.google.com/?q=6.8630344,79.8661954",
   "lat": 6.8630344,
   "lng": 79.8661954,
   "halalConfidence": "likely",
   "source": "osm"
  }
 ],
 "hotels": [],
 "mosqueesPrincipales": [
  {
   "id": "m224062633",
   "nom": "Maradana Jummah Mosque",
   "type": "Mosquée",
   "adresse": "",
   "description": "Lieu de prière (OpenStreetMap).",
   "mapsUrl": "https://maps.google.com/?q=6.9276513,79.8639983",
   "lat": 6.9276513,
   "lng": 79.8639983,
   "source": "osm"
  },
  {
   "id": "m3658423027",
   "nom": "Dawson Street Mosque",
   "type": "Mosquée",
   "adresse": "",
   "description": "Lieu de prière (OpenStreetMap).",
   "mapsUrl": "https://maps.google.com/?q=6.9217304,79.8585019",
   "lat": 6.9217304,
   "lng": 79.8585019,
   "source": "osm"
  },
  {
   "id": "m1378992432",
   "nom": "Panchikawatte Masjid",
   "type": "Mosquée",
   "adresse": "",
   "description": "Lieu de prière (OpenStreetMap).",
   "mapsUrl": "https://maps.google.com/?q=6.93172,79.8653657",
   "lat": 6.93172,
   "lng": 79.8653657,
   "source": "osm"
  },
  {
   "id": "m678259136",
   "nom": "Masjidul Akbar Jumma Mosque Slave Island",
   "type": "Mosquée",
   "adresse": "Kew Lane, Colombo02",
   "description": "Lieu de prière (OpenStreetMap).",
   "mapsUrl": "https://maps.google.com/?q=6.9245156,79.8530785",
   "lat": 6.9245156,
   "lng": 79.8530785,
   "source": "osm"
  },
  {
   "id": "m514045884",
   "nom": "Wekanfa Jumma Mosque",
   "type": "Mosquée",
   "adresse": "",
   "description": "Lieu de prière (OpenStreetMap).",
   "mapsUrl": "https://maps.google.com/?q=6.9224273,79.8516106",
   "lat": 6.9224273,
   "lng": 79.8516106,
   "source": "osm"
  },
  {
   "id": "m3658423938",
   "nom": "Tholappu Garden Mosque",
   "type": "Mosquée",
   "adresse": "",
   "description": "Lieu de prière (OpenStreetMap).",
   "mapsUrl": "https://maps.google.com/?q=6.9234746,79.8505449",
   "lat": 6.9234746,
   "lng": 79.8505449,
   "source": "osm"
  },
  {
   "id": "m1466879256",
   "nom": "Dawatagaha Mosque",
   "type": "Mosquée",
   "adresse": "Alexandra Place, Colombo 07",
   "description": "Lieu de prière (OpenStreetMap).",
   "mapsUrl": "https://maps.google.com/?q=6.9162075,79.8645367",
   "lat": 6.9162075,
   "lng": 79.8645367,
   "source": "osm"
  },
  {
   "id": "m3658423139",
   "nom": "Java Lane Mosque",
   "type": "Mosquée",
   "adresse": "",
   "description": "Lieu de prière (OpenStreetMap).",
   "mapsUrl": "https://maps.google.com/?q=6.926001,79.8493987",
   "lat": 6.926001,
   "lng": 79.8493987,
   "source": "osm"
  },
  {
   "id": "m533352957",
   "nom": "Shahul Hameedhiya Jumma Musjidh",
   "type": "Mosquée",
   "adresse": "",
   "description": "Lieu de prière (OpenStreetMap).",
   "mapsUrl": "https://maps.google.com/?q=6.9205989,79.8495296",
   "lat": 6.9205989,
   "lng": 79.8495296,
   "source": "osm"
  },
  {
   "id": "m2826701432",
   "nom": "Masjid Muhiadeen Khadiriya Thakiya",
   "type": "Mosquée",
   "adresse": "",
   "description": "Lieu de prière (OpenStreetMap).",
   "mapsUrl": "https://maps.google.com/?q=6.9404365,79.8608731",
   "lat": 6.9404365,
   "lng": 79.8608731,
   "source": "osm"
  },
  {
   "id": "m685043382",
   "nom": "Grand Mosque",
   "type": "Mosquée",
   "adresse": "",
   "description": "Lieu de prière (OpenStreetMap).",
   "mapsUrl": "https://maps.google.com/?q=6.9404528,79.8589591",
   "lat": 6.9404528,
   "lng": 79.8589591,
   "source": "osm"
  },
  {
   "id": "m4310399691",
   "nom": "Jumma mosque",
   "type": "Mosquée",
   "adresse": "",
   "description": "Lieu de prière (OpenStreetMap).",
   "mapsUrl": "https://maps.google.com/?q=6.9373729,79.8723039",
   "lat": 6.9373729,
   "lng": 79.8723039,
   "source": "osm"
  },
  {
   "id": "m682084505",
   "nom": "Jumma mosque",
   "type": "Mosquée",
   "adresse": "",
   "description": "Lieu de prière (OpenStreetMap).",
   "mapsUrl": "https://maps.google.com/?q=6.9305881,79.8761875",
   "lat": 6.9305881,
   "lng": 79.8761875,
   "source": "osm"
  },
  {
   "id": "m514543399",
   "nom": "Jumma mosque",
   "type": "Mosquée",
   "adresse": "",
   "description": "Lieu de prière (OpenStreetMap).",
   "mapsUrl": "https://maps.google.com/?q=6.9307131,79.8761841",
   "lat": 6.9307131,
   "lng": 79.8761841,
   "source": "osm"
  },
  {
   "id": "m4310401289",
   "nom": "Masjidhul Salam",
   "type": "Mosquée",
   "adresse": "",
   "description": "Lieu de prière (OpenStreetMap).",
   "mapsUrl": "https://maps.google.com/?q=6.9394256,79.873136",
   "lat": 6.9394256,
   "lng": 79.873136,
   "source": "osm"
  },
  {
   "id": "m1348668146",
   "nom": "Jumma Mosque Kollupitiya",
   "type": "Mosquée",
   "adresse": "",
   "description": "Lieu de prière (OpenStreetMap).",
   "mapsUrl": "https://maps.google.com/?q=6.9132479,79.8507813",
   "lat": 6.9132479,
   "lng": 79.8507813,
   "source": "osm"
  },
  {
   "id": "m4233205610",
   "nom": "Fort Jumma Mosque",
   "type": "Mosquée",
   "adresse": "Chatham Street",
   "description": "Lieu de prière (OpenStreetMap).",
   "mapsUrl": "https://maps.google.com/?q=6.9347378,79.8438484",
   "lat": 6.9347378,
   "lng": 79.8438484,
   "source": "osm"
  },
  {
   "id": "m3085648468",
   "nom": "Jumma Mosque",
   "type": "Mosquée",
   "adresse": "Borella",
   "description": "Lieu de prière (OpenStreetMap).",
   "mapsUrl": "https://maps.google.com/?q=6.9167522,79.8771325",
   "lat": 6.9167522,
   "lng": 79.8771325,
   "source": "osm"
  },
  {
   "id": "m11435013308",
   "nom": "Ahmadiyya Community Centre",
   "type": "Mosquée",
   "adresse": "Colombo",
   "description": "Lieu de prière (OpenStreetMap).",
   "mapsUrl": "https://maps.google.com/?q=6.9380869,79.8776951",
   "lat": 6.9380869,
   "lng": 79.8776951,
   "source": "osm"
  },
  {
   "id": "m4304782810",
   "nom": "St. Lucia Church",
   "type": "Mosquée",
   "adresse": "St Benadicts Street, Kotahena",
   "description": "Lieu de prière (OpenStreetMap).",
   "mapsUrl": "https://maps.google.com/?q=6.9481148,79.8645241",
   "lat": 6.9481148,
   "lng": 79.8645241,
   "source": "osm"
  }
 ],
 "activites": [
  {
   "id": "a13233966301",
   "nom": "Train Viewpoint",
   "categorie": "viewpoint",
   "description": "",
   "prix": "",
   "duree": "",
   "mapsUrl": "https://maps.google.com/?q=6.928196,79.8599153",
   "lat": 6.928196,
   "lng": 79.8599153,
   "source": "osm"
  },
  {
   "id": "a3307527165",
   "nom": "Lotus Tower",
   "categorie": "viewpoint",
   "description": "",
   "prix": "",
   "duree": "",
   "mapsUrl": "https://maps.google.com/?q=6.9270265,79.8583147",
   "lat": 6.9270265,
   "lng": 79.8583147,
   "source": "osm"
  },
  {
   "id": "a4109157989",
   "nom": "railway station",
   "categorie": "viewpoint",
   "description": "",
   "prix": "",
   "duree": "",
   "mapsUrl": "https://maps.google.com/?q=6.9284655,79.8648826",
   "lat": 6.9284655,
   "lng": 79.8648826,
   "source": "osm"
  },
  {
   "id": "a1523621150",
   "nom": "Railway Museum",
   "categorie": "museum",
   "description": "",
   "prix": "",
   "duree": "",
   "mapsUrl": "https://maps.google.com/?q=6.9317214,79.858871",
   "lat": 6.9317214,
   "lng": 79.858871,
   "source": "osm"
  },
  {
   "id": "a618491025",
   "nom": "Ananda College",
   "categorie": "monument",
   "description": "",
   "prix": "",
   "duree": "",
   "mapsUrl": "https://maps.google.com/?q=6.9243358,79.8685501",
   "lat": 6.9243358,
   "lng": 79.8685501,
   "source": "osm"
  },
  {
   "id": "a303907118",
   "nom": "Pettah Floating Market",
   "categorie": "attraction",
   "description": "",
   "prix": "",
   "duree": "",
   "mapsUrl": "https://maps.google.com/?q=6.9327253,79.8555267",
   "lat": 6.9327253,
   "lng": 79.8555267,
   "source": "osm"
  },
  {
   "id": "a3922519072",
   "nom": "Horse made out of vehicle parts",
   "categorie": "monument",
   "description": "",
   "prix": "",
   "duree": "",
   "mapsUrl": "https://maps.google.com/?q=6.9343887,79.8659923",
   "lat": 6.9343887,
   "lng": 79.8659923,
   "source": "osm"
  },
  {
   "id": "a5102778721",
   "nom": "Urban Ruin",
   "categorie": "attraction",
   "description": "",
   "prix": "",
   "duree": "",
   "mapsUrl": "https://maps.google.com/?q=6.915605,79.8557992",
   "lat": 6.915605,
   "lng": 79.8557992,
   "source": "osm"
  },
  {
   "id": "a13447631674",
   "nom": "Henry Steel Olcott",
   "categorie": "memorial",
   "description": "",
   "prix": "",
   "duree": "",
   "mapsUrl": "https://maps.google.com/?q=6.9338612,79.8500437",
   "lat": 6.9338612,
   "lng": 79.8500437,
   "source": "osm"
  },
  {
   "id": "a4354445603",
   "nom": "Dutch Colonial Museum",
   "categorie": "museum",
   "description": "",
   "prix": "",
   "duree": "",
   "mapsUrl": "https://maps.google.com/?q=6.9360639,79.8516492",
   "lat": 6.9360639,
   "lng": 79.8516492,
   "source": "osm"
  },
  {
   "id": "a8016433755",
   "nom": "Frederick Richard Senanayaka",
   "categorie": "memorial",
   "description": "",
   "prix": "",
   "duree": "",
   "mapsUrl": "https://maps.google.com/?q=6.9139563,79.8645524",
   "lat": 6.9139563,
   "lng": 79.8645524,
   "source": "osm"
  },
  {
   "id": "a10160885071",
   "nom": "Golden Jubilee 1917-1967",
   "categorie": "monument",
   "description": "",
   "prix": "",
   "duree": "",
   "mapsUrl": "https://maps.google.com/?q=6.9134897,79.8581929",
   "lat": 6.9134897,
   "lng": 79.8581929,
   "source": "osm"
  },
  {
   "id": "a10793137786",
   "nom": "Nalanda War Memorial",
   "categorie": "memorial",
   "description": "",
   "prix": "",
   "duree": "",
   "mapsUrl": "https://maps.google.com/?q=6.9239259,79.8750824",
   "lat": 6.9239259,
   "lng": 79.8750824,
   "source": "osm"
  },
  {
   "id": "a5915271185",
   "nom": "Pettah Market",
   "categorie": "attraction",
   "description": "",
   "prix": "",
   "duree": "",
   "mapsUrl": "https://maps.google.com/?q=6.9362523,79.8499631",
   "lat": 6.9362523,
   "lng": 79.8499631,
   "source": "osm"
  },
  {
   "id": "a10137897158",
   "nom": "T.B. Ilangararne",
   "categorie": "memorial",
   "description": "",
   "prix": "",
   "duree": "",
   "mapsUrl": "https://maps.google.com/?q=6.9168857,79.8506042",
   "lat": 6.9168857,
   "lng": 79.8506042,
   "source": "osm"
  },
  {
   "id": "a6152700385",
   "nom": "Felix Reginald Dias Bandaranaike",
   "categorie": "memorial",
   "description": "",
   "prix": "",
   "duree": "",
   "mapsUrl": "https://maps.google.com/?q=6.9120898,79.8644419",
   "lat": 6.9120898,
   "lng": 79.8644419,
   "source": "osm"
  },
  {
   "id": "a662919724",
   "nom": "National Art Gallery",
   "categorie": "museum",
   "description": "",
   "prix": "",
   "duree": "",
   "mapsUrl": "https://maps.google.com/?q=6.9114097,79.861969",
   "lat": 6.9114097,
   "lng": 79.861969,
   "source": "osm"
  },
  {
   "id": "a3825169557",
   "nom": "Sri Lanka Telecom Monument",
   "categorie": "memorial",
   "description": "",
   "prix": "",
   "duree": "",
   "mapsUrl": "https://maps.google.com/?q=6.9340975,79.8469942",
   "lat": 6.9340975,
   "lng": 79.8469942,
   "source": "osm"
  }
 ],
 "scoreIndicatif": true,
 "osmEnriched": true,
 "osmEnrichedAt": "2026-06-30"
}
