{
 "slug": "copenhague",
 "nom": "Copenhague",
 "pays": "Danemark",
 "pays_slug": "danemark",
 "continent": "Europe",
 "region": "Danemark",
 "coordonnees": {
  "lat": 55.6761,
  "lng": 12.5683
 },
 "codeISO": "DK",
 "score_halal": 3.4,
 "halalScore": 6.8,
 "villeNonMusulmane": true,
 "description": "Capitale scandinave du design et du vélo. Communauté musulmane à Nørrebro avec un bon choix d'adresses halal.",
 "metaDescription": "Capitale scandinave du design et du vélo. Communauté musulmane à Nørrebro avec un bon choix d'adresses halal.",
 "image": "https://upload.wikimedia.org/wikipedia/commons/0/03/Kastelsm%C3%B8llen%2C_Copenhague_154.jpg",
 "image_hero": "https://upload.wikimedia.org/wikipedia/commons/0/03/Kastelsm%C3%B8llen%2C_Copenhague_154.jpg",
 "imageCredit": "Wikimedia Commons",
 "statistiques": {
  "restaurants_halal": 60,
  "mosquees": 20,
  "hotels": 30
 },
 "infoPratique": {
  "transport": "Accessible par avion et transports en commun locaux.",
  "meilleureEpoque": "Printemps et automne (climat tempéré).",
  "conseilHalal": "Ville non-musulmane : repérez les restaurants halal certifiés et les mosquées via l'application avant votre visite."
 },
 "tags": [
  "halal",
  "ville non-musulmane",
  "europe"
 ],
 "restaurants": [
  {
   "nom": "Shah's Halal Food",
   "type": "Restaurant halal",
   "priceRange": "€€",
   "mapsUrl": "https://maps.google.com/?q=55.6767195,12.5707203",
   "lat": 55.6767195,
   "lng": 12.5707203,
   "halalConfidence": "only",
   "source": "osm"
  },
  {
   "nom": "Kebabish",
   "type": "kebab",
   "priceRange": "€€",
   "mapsUrl": "https://maps.google.com/?q=55.6731288,12.5604195",
   "lat": 55.6731288,
   "lng": 12.5604195,
   "halalConfidence": "yes",
   "source": "osm"
  },
  {
   "nom": "Shahs Halal Food",
   "type": "Restaurant halal",
   "priceRange": "€€",
   "mapsUrl": "https://maps.google.com/?q=55.6883454,12.5591028",
   "lat": 55.6883454,
   "lng": 12.5591028,
   "halalConfidence": "only",
   "source": "osm"
  },
  {
   "nom": "Bindia Elmegade",
   "type": "indian",
   "priceRange": "€€",
   "mapsUrl": "https://maps.google.com/?q=55.6895902,12.5582863",
   "lat": 55.6895902,
   "lng": 12.5582863,
   "halalConfidence": "yes",
   "source": "osm"
  },
  {
   "nom": "Bindia Gl. Kongevej",
   "type": "indian, chicken, asian, sushi",
   "priceRange": "€€",
   "mapsUrl": "https://maps.google.com/?q=55.6768048,12.5394373",
   "lat": 55.6768048,
   "lng": 12.5394373,
   "halalConfidence": "yes",
   "source": "osm"
  },
  {
   "nom": "Bouillon",
   "type": "french",
   "priceRange": "€€",
   "mapsUrl": "https://maps.google.com/?q=55.6809946,12.5332486",
   "lat": 55.6809946,
   "lng": 12.5332486,
   "halalConfidence": "yes",
   "source": "osm"
  },
  {
   "nom": "Bindia Blegdamsvej",
   "type": "indian, chicken, sushi, asian",
   "priceRange": "€€",
   "mapsUrl": "https://maps.google.com/?q=55.6986394,12.5761578",
   "lat": 55.6986394,
   "lng": 12.5761578,
   "halalConfidence": "yes",
   "source": "osm"
  },
  {
   "nom": "Bindia Amagerbrogade",
   "type": "indian, chicken, asian, sushi",
   "priceRange": "€€",
   "mapsUrl": "https://maps.google.com/?q=55.6564242,12.6091025",
   "lat": 55.6564242,
   "lng": 12.6091025,
   "halalConfidence": "yes",
   "source": "osm"
  },
  {
   "nom": "Det Islamiske Trossamfund Restaurant",
   "type": "Restaurant halal",
   "priceRange": "€€",
   "mapsUrl": "https://maps.google.com/?q=55.708316,12.525445",
   "lat": 55.708316,
   "lng": 12.525445,
   "halalConfidence": "yes",
   "source": "osm"
  },
  {
   "nom": "The Foodcorner",
   "type": "pizza, burger, salad, sandwich, kebab",
   "priceRange": "€€",
   "mapsUrl": "https://maps.google.com/?q=55.632231,12.580051",
   "lat": 55.632231,
   "lng": 12.580051,
   "halalConfidence": "yes",
   "source": "osm"
  },
  {
   "nom": "Bindia",
   "type": "indian, chicken, asian",
   "priceRange": "€€",
   "mapsUrl": "https://maps.google.com/?q=55.7328023,12.5166896",
   "lat": 55.7328023,
   "lng": 12.5166896,
   "halalConfidence": "yes",
   "source": "osm"
  },
  {
   "nom": "Shawarma Grillhouse",
   "type": "kebab, lebanese, grill",
   "priceRange": "€€",
   "mapsUrl": "https://maps.google.com/?q=55.6767719,12.5698547",
   "lat": 55.6767719,
   "lng": 12.5698547,
   "halalConfidence": "likely",
   "source": "osm"
  },
  {
   "nom": "Shawarma Palace",
   "type": "kebab",
   "priceRange": "€€",
   "mapsUrl": "https://maps.google.com/?q=55.6769031,12.5701356",
   "lat": 55.6769031,
   "lng": 12.5701356,
   "halalConfidence": "likely",
   "source": "osm"
  },
  {
   "nom": "Wakha Wakha",
   "type": "moroccan",
   "priceRange": "€€",
   "mapsUrl": "https://maps.google.com/?q=55.6744794,12.5651668",
   "lat": 55.6744794,
   "lng": 12.5651668,
   "halalConfidence": "likely",
   "source": "osm"
  },
  {
   "nom": "Bear Slice",
   "type": "pizza, kebab",
   "priceRange": "€€",
   "mapsUrl": "https://maps.google.com/?q=55.6789261,12.5687562",
   "lat": 55.6789261,
   "lng": 12.5687562,
   "halalConfidence": "likely",
   "source": "osm"
  },
  {
   "nom": "Original Shawarma",
   "type": "shawarma",
   "priceRange": "€€",
   "mapsUrl": "https://maps.google.com/?q=55.6733876,12.5705317",
   "lat": 55.6733876,
   "lng": 12.5705317,
   "halalConfidence": "likely",
   "source": "osm"
  },
  {
   "nom": "The Döner",
   "type": "kebab",
   "priceRange": "€€",
   "mapsUrl": "https://maps.google.com/?q=55.6784376,12.5720995",
   "lat": 55.6784376,
   "lng": 12.5720995,
   "halalConfidence": "likely",
   "source": "osm"
  },
  {
   "nom": "Doner Kebab",
   "type": "kebab",
   "priceRange": "€€",
   "mapsUrl": "https://maps.google.com/?q=55.678166,12.572885",
   "lat": 55.678166,
   "lng": 12.572885,
   "halalConfidence": "likely",
   "source": "osm"
  },
  {
   "nom": "Ankara",
   "type": "turkish",
   "priceRange": "€€",
   "mapsUrl": "https://maps.google.com/?q=55.6811269,12.5741096",
   "lat": 55.6811269,
   "lng": 12.5741096,
   "halalConfidence": "likely",
   "source": "osm"
  },
  {
   "nom": "Killer Kebab",
   "type": "kebab",
   "priceRange": "€€",
   "mapsUrl": "https://maps.google.com/?q=55.6714246,12.5584379",
   "lat": 55.6714246,
   "lng": 12.5584379,
   "halalConfidence": "likely",
   "source": "osm"
  },
  {
   "nom": "DORO DONER",
   "type": "kebab",
   "priceRange": "€€",
   "mapsUrl": "https://maps.google.com/?q=55.6708697,12.559108",
   "lat": 55.6708697,
   "lng": 12.559108,
   "halalConfidence": "likely",
   "source": "osm"
  },
  {
   "nom": "Restaurant Shezan",
   "type": "pakistani",
   "priceRange": "€€",
   "mapsUrl": "https://maps.google.com/?q=55.6709081,12.5585764",
   "lat": 55.6709081,
   "lng": 12.5585764,
   "halalConfidence": "likely",
   "source": "osm"
  },
  {
   "nom": "Mahalle Nansensgade",
   "type": "lebanese",
   "priceRange": "€€",
   "mapsUrl": "https://maps.google.com/?q=55.6837192,12.5655588",
   "lat": 55.6837192,
   "lng": 12.5655588,
   "halalConfidence": "likely",
   "source": "osm"
  },
  {
   "nom": "Zahida",
   "type": "pakistani",
   "priceRange": "€€",
   "mapsUrl": "https://maps.google.com/?q=55.6845789,12.5697732",
   "lat": 55.6845789,
   "lng": 12.5697732,
   "halalConfidence": "likely",
   "source": "osm"
  },
  {
   "nom": "Kebaben",
   "type": "kebab",
   "priceRange": "€€",
   "mapsUrl": "https://maps.google.com/?q=55.6821813,12.582919",
   "lat": 55.6821813,
   "lng": 12.582919,
   "halalConfidence": "likely",
   "source": "osm"
  },
  {
   "nom": "CPH Grillzone",
   "type": "falafel, pizza, shawarma",
   "priceRange": "€€",
   "mapsUrl": "https://maps.google.com/?q=55.6723628,12.5492219",
   "lat": 55.6723628,
   "lng": 12.5492219,
   "halalConfidence": "likely",
   "source": "osm"
  },
  {
   "nom": "Ankara Dürüm House",
   "type": "shawarma",
   "priceRange": "€€",
   "mapsUrl": "https://maps.google.com/?q=55.6687942,12.5524727",
   "lat": 55.6687942,
   "lng": 12.5524727,
   "halalConfidence": "likely",
   "source": "osm"
  },
  {
   "nom": "Ahaaa Det Arabiske Madsted",
   "type": "arab",
   "priceRange": "€€",
   "mapsUrl": "https://maps.google.com/?q=55.6864878,12.5584645",
   "lat": 55.6864878,
   "lng": 12.5584645,
   "halalConfidence": "likely",
   "source": "osm"
  },
  {
   "nom": "Ørsteds Kebab",
   "type": "kebab",
   "priceRange": "€€",
   "mapsUrl": "https://maps.google.com/?q=55.680464,12.548524",
   "lat": 55.680464,
   "lng": 12.548524,
   "halalConfidence": "likely",
   "source": "osm"
  },
  {
   "nom": "Zafran",
   "type": "persian",
   "priceRange": "€€",
   "mapsUrl": "https://maps.google.com/?q=55.6873787,12.5595118",
   "lat": 55.6873787,
   "lng": 12.5595118,
   "halalConfidence": "likely",
   "source": "osm"
  },
  {
   "nom": "Killer Kebab Borgergade",
   "type": "kebab",
   "priceRange": "€€",
   "mapsUrl": "https://maps.google.com/?q=55.6838835,12.5855186",
   "lat": 55.6838835,
   "lng": 12.5855186,
   "halalConfidence": "likely",
   "source": "osm"
  },
  {
   "nom": "Liban Cuisine",
   "type": "lebanese",
   "priceRange": "€€",
   "mapsUrl": "https://maps.google.com/?q=55.6852053,12.5529978",
   "lat": 55.6852053,
   "lng": 12.5529978,
   "halalConfidence": "likely",
   "source": "osm"
  },
  {
   "nom": "Bazaar",
   "type": "arab",
   "priceRange": "€€",
   "mapsUrl": "https://maps.google.com/?q=55.6837592,12.5862493",
   "lat": 55.6837592,
   "lng": 12.5862493,
   "halalConfidence": "likely",
   "source": "osm"
  },
  {
   "nom": "Beyti",
   "type": "turkish",
   "priceRange": "€€",
   "mapsUrl": "https://maps.google.com/?q=55.6879495,12.5601653",
   "lat": 55.6879495,
   "lng": 12.5601653,
   "halalConfidence": "likely",
   "source": "osm"
  },
  {
   "nom": "King of Kebab",
   "type": "kebab",
   "priceRange": "€€",
   "mapsUrl": "https://maps.google.com/?q=55.6881659,12.5602562",
   "lat": 55.6881659,
   "lng": 12.5602562,
   "halalConfidence": "likely",
   "source": "osm"
  },
  {
   "nom": "Kebaba",
   "type": "kebab",
   "priceRange": "€€",
   "mapsUrl": "https://maps.google.com/?q=55.6758386,12.5446572",
   "lat": 55.6758386,
   "lng": 12.5446572,
   "halalConfidence": "likely",
   "source": "osm"
  },
  {
   "nom": "GuGus Corner",
   "type": "pakistani",
   "priceRange": "€€",
   "mapsUrl": "https://maps.google.com/?q=55.6711496,12.5461862",
   "lat": 55.6711496,
   "lng": 12.5461862,
   "halalConfidence": "likely",
   "source": "osm"
  },
  {
   "nom": "Star Midnight Kebab & Grill",
   "type": "kebab",
   "priceRange": "€€",
   "mapsUrl": "https://maps.google.com/?q=55.6678946,12.5493432",
   "lat": 55.6678946,
   "lng": 12.5493432,
   "halalConfidence": "likely",
   "source": "osm"
  },
  {
   "nom": "Killer Kebab",
   "type": "kebab",
   "priceRange": "€€",
   "mapsUrl": "https://maps.google.com/?q=55.6858846,12.5511495",
   "lat": 55.6858846,
   "lng": 12.5511495,
   "halalConfidence": "likely",
   "source": "osm"
  },
  {
   "nom": "Killer Kebab",
   "type": "kebab",
   "priceRange": "€€",
   "mapsUrl": "https://maps.google.com/?q=55.6716426,12.5915789",
   "lat": 55.6716426,
   "lng": 12.5915789,
   "halalConfidence": "likely",
   "source": "osm"
  },
  {
   "nom": "Abu Kebab",
   "type": "kebab",
   "priceRange": "€€",
   "mapsUrl": "https://maps.google.com/?q=55.6624082,12.5626927",
   "lat": 55.6624082,
   "lng": 12.5626927,
   "halalConfidence": "likely",
   "source": "osm"
  },
  {
   "nom": "Dünyam Shawarma House",
   "type": "shawarma",
   "priceRange": "€€",
   "mapsUrl": "https://maps.google.com/?q=55.6676897,12.5478768",
   "lat": 55.6676897,
   "lng": 12.5478768,
   "halalConfidence": "likely",
   "source": "osm"
  },
  {
   "nom": "Berlin Döner Kopenhagen",
   "type": "kebab",
   "priceRange": "€€",
   "mapsUrl": "https://maps.google.com/?q=55.6695047,12.5451317",
   "lat": 55.6695047,
   "lng": 12.5451317,
   "halalConfidence": "likely",
   "source": "osm"
  },
  {
   "nom": "Torvets Kebab",
   "type": "turkish",
   "priceRange": "€€",
   "mapsUrl": "https://maps.google.com/?q=55.6904643,12.5609906",
   "lat": 55.6904643,
   "lng": 12.5609906,
   "halalConfidence": "likely",
   "source": "osm"
  },
  {
   "nom": "Havnens BBQ",
   "type": "kebab, sandwich",
   "priceRange": "€€",
   "mapsUrl": "https://maps.google.com/?q=55.671197,12.593376",
   "lat": 55.671197,
   "lng": 12.593376,
   "halalConfidence": "likely",
   "source": "osm"
  },
  {
   "nom": "Maroosh Grill",
   "type": "shawarma",
   "priceRange": "€€",
   "mapsUrl": "https://maps.google.com/?q=55.6898032,12.555954",
   "lat": 55.6898032,
   "lng": 12.555954,
   "halalConfidence": "likely",
   "source": "osm"
  },
  {
   "nom": "Colombia Pizza & Restaurant",
   "type": "indian, pakistani, pizza",
   "priceRange": "€€",
   "mapsUrl": "https://maps.google.com/?q=55.6705722,12.5421135",
   "lat": 55.6705722,
   "lng": 12.5421135,
   "halalConfidence": "likely",
   "source": "osm"
  },
  {
   "nom": "The Döner",
   "type": "kebab",
   "priceRange": "€€",
   "mapsUrl": "https://maps.google.com/?q=55.673646,12.5406785",
   "lat": 55.673646,
   "lng": 12.5406785,
   "halalConfidence": "likely",
   "source": "osm"
  },
  {
   "nom": "Pasha Kebab",
   "type": "kebab, turkish",
   "priceRange": "€€",
   "mapsUrl": "https://maps.google.com/?q=55.6676849,12.5445913",
   "lat": 55.6676849,
   "lng": 12.5445913,
   "halalConfidence": "likely",
   "source": "osm"
  },
  {
   "nom": "Mr.W. Shawarma",
   "type": "shawarma",
   "priceRange": "€€",
   "mapsUrl": "https://maps.google.com/?q=55.6728758,12.5999269",
   "lat": 55.6728758,
   "lng": 12.5999269,
   "halalConfidence": "likely",
   "source": "osm"
  },
  {
   "nom": "AROS KEBAB",
   "type": "kebab",
   "priceRange": "€€",
   "mapsUrl": "https://maps.google.com/?q=55.6870162,12.540768",
   "lat": 55.6870162,
   "lng": 12.540768,
   "halalConfidence": "likely",
   "source": "osm"
  },
  {
   "nom": "Sheiks Shawarma",
   "type": "kebab",
   "priceRange": "€€",
   "mapsUrl": "https://maps.google.com/?q=55.6928381,12.5514018",
   "lat": 55.6928381,
   "lng": 12.5514018,
   "halalConfidence": "likely",
   "source": "osm"
  },
  {
   "nom": "Monteys",
   "type": "burger, kebab",
   "priceRange": "€€",
   "mapsUrl": "https://maps.google.com/?q=55.6928492,12.5513781",
   "lat": 55.6928492,
   "lng": 12.5513781,
   "halalConfidence": "likely",
   "source": "osm"
  },
  {
   "nom": "Berlin Döner Kebab",
   "type": "kebab",
   "priceRange": "€€",
   "mapsUrl": "https://maps.google.com/?q=55.6929812,12.5511858",
   "lat": 55.6929812,
   "lng": 12.5511858,
   "halalConfidence": "likely",
   "source": "osm"
  },
  {
   "nom": "Dürüm & Dreams",
   "type": "shawarma",
   "priceRange": "€€",
   "mapsUrl": "https://maps.google.com/?q=55.6854299,12.5376818",
   "lat": 55.6854299,
   "lng": 12.5376818,
   "halalConfidence": "likely",
   "source": "osm"
  },
  {
   "nom": "Amager Kebab 2001",
   "type": "kebab",
   "priceRange": "€€",
   "mapsUrl": "https://maps.google.com/?q=55.6661025,12.5985614",
   "lat": 55.6661025,
   "lng": 12.5985614,
   "halalConfidence": "likely",
   "source": "osm"
  },
  {
   "nom": "Safir Kebab",
   "type": "turkish",
   "priceRange": "€€",
   "mapsUrl": "https://maps.google.com/?q=55.690498,12.5441844",
   "lat": 55.690498,
   "lng": 12.5441844,
   "halalConfidence": "likely",
   "source": "osm"
  },
  {
   "nom": "Alshami",
   "type": "shawarma",
   "priceRange": "€€",
   "mapsUrl": "https://maps.google.com/?q=55.6934122,12.550543",
   "lat": 55.6934122,
   "lng": 12.550543,
   "halalConfidence": "likely",
   "source": "osm"
  },
  {
   "nom": "Killer Kebab",
   "type": "kebab",
   "priceRange": "€€",
   "mapsUrl": "https://maps.google.com/?q=55.6800903,12.5331964",
   "lat": 55.6800903,
   "lng": 12.5331964,
   "halalConfidence": "likely",
   "source": "osm"
  },
  {
   "nom": "Streetmums",
   "type": "kebab",
   "priceRange": "€€",
   "mapsUrl": "https://maps.google.com/?q=55.6812641,12.5335185",
   "lat": 55.6812641,
   "lng": 12.5335185,
   "halalConfidence": "likely",
   "source": "osm"
  }
 ],
 "hotels": [
  {
   "nom": "The Square",
   "categorie": "Hôtel",
   "priceRange": "€€€€",
   "score": 4,
   "mapsUrl": "https://maps.google.com/?q=55.6761571,12.5669727",
   "lat": 55.6761571,
   "lng": 12.5669727,
   "halalFriendly": false,
   "bookingUrl": "https://www.thesquare.dk",
   "source": "osm"
  },
  {
   "nom": "Scandic Palace Hotel",
   "categorie": "Hôtel",
   "priceRange": "€€",
   "mapsUrl": "https://maps.google.com/?q=55.6762339,12.5703021",
   "lat": 55.6762339,
   "lng": 12.5703021,
   "halalFriendly": false,
   "bookingUrl": "https://www.scandichotels.dk/Hotels/Danmark/Kobenhavn/Palace-Hotel/",
   "source": "osm"
  },
  {
   "nom": "CitizenM Rådhuspladsen",
   "categorie": "Hôtel",
   "priceRange": "€€",
   "mapsUrl": "https://maps.google.com/?q=55.676601,12.566396",
   "lat": 55.676601,
   "lng": 12.566396,
   "halalFriendly": false,
   "bookingUrl": "https://www.citizenm.com/destinations/copenhagen/copenhagen-radhuspladsen-hotel",
   "source": "osm"
  },
  {
   "nom": "Hotel Bella Grande",
   "categorie": "Hôtel",
   "priceRange": "€€",
   "mapsUrl": "https://maps.google.com/?q=55.6775123,12.5676777",
   "lat": 55.6775123,
   "lng": 12.5676777,
   "halalFriendly": false,
   "bookingUrl": "https://hotelbellagrande.com/",
   "source": "osm"
  },
  {
   "nom": "Hotel Alexandra",
   "categorie": "Hôtel",
   "priceRange": "€€",
   "mapsUrl": "https://maps.google.com/?q=55.67701,12.56607",
   "lat": 55.67701,
   "lng": 12.56607,
   "halalFriendly": false,
   "bookingUrl": "https://hotelalexandra.dk/",
   "source": "osm"
  },
  {
   "nom": "Ascot Hotel",
   "categorie": "Hôtel",
   "priceRange": "€€",
   "mapsUrl": "https://maps.google.com/?q=55.67687,12.56538",
   "lat": 55.67687,
   "lng": 12.56538,
   "halalFriendly": false,
   "bookingUrl": "https://www.ascot-hotel.dk/",
   "source": "osm"
  },
  {
   "nom": "Motel One Copenhagen",
   "categorie": "Hôtel",
   "priceRange": "€€",
   "mapsUrl": "https://maps.google.com/?q=55.6752804,12.5727071",
   "lat": 55.6752804,
   "lng": 12.5727071,
   "halalFriendly": false,
   "bookingUrl": "https://www.motel-one.com/en/hotels/copenhagen/hotel-copenhagen/",
   "source": "osm"
  },
  {
   "nom": "Nimb Hotel",
   "categorie": "Hôtel",
   "priceRange": "€€",
   "mapsUrl": "https://maps.google.com/?q=55.6735259,12.5664399",
   "lat": 55.6735259,
   "lng": 12.5664399,
   "halalFriendly": false,
   "bookingUrl": "http://www.nimb.dk/",
   "source": "osm"
  },
  {
   "nom": "Hotel SP34",
   "categorie": "Hôtel",
   "priceRange": "€€",
   "mapsUrl": "https://maps.google.com/?q=55.6787261,12.566462",
   "lat": 55.6787261,
   "lng": 12.566462,
   "halalFriendly": false,
   "bookingUrl": "https://www.brochner-hotels.dk/hotel-sp34/",
   "source": "osm"
  },
  {
   "nom": "Radisson SAS Royal",
   "categorie": "Hôtel",
   "priceRange": "€€",
   "mapsUrl": "https://maps.google.com/?q=55.6750673,12.5634225",
   "lat": 55.6750673,
   "lng": 12.5634225,
   "halalFriendly": false,
   "bookingUrl": "https://www.radissonblu.com/royalhotel-copenhagen",
   "source": "osm"
  },
  {
   "nom": "Hotel Danmark",
   "categorie": "Hôtel",
   "priceRange": "€€",
   "mapsUrl": "https://maps.google.com/?q=55.6747227,12.5730368",
   "lat": 55.6747227,
   "lng": 12.5730368,
   "halalFriendly": false,
   "bookingUrl": "https://maps.google.com/?q=55.6747227,12.5730368",
   "source": "osm"
  },
  {
   "nom": "Copenhagen Plaza",
   "categorie": "Hôtel",
   "priceRange": "€€",
   "mapsUrl": "https://maps.google.com/?q=55.6738613,12.5646287",
   "lat": 55.6738613,
   "lng": 12.5646287,
   "halalFriendly": false,
   "bookingUrl": "https://ligula.se/profilhotels/copenhagen-plaza/",
   "source": "osm"
  },
  {
   "nom": "Copenhagen Downtown Hostel",
   "categorie": "Auberge",
   "priceRange": "€€",
   "mapsUrl": "https://maps.google.com/?q=55.6759488,12.5742396",
   "lat": 55.6759488,
   "lng": 12.5742396,
   "halalFriendly": false,
   "bookingUrl": "http://www.copenhagendowntown.com/",
   "source": "osm"
  },
  {
   "nom": "Mercur Hotel",
   "categorie": "Hôtel",
   "priceRange": "€€",
   "mapsUrl": "https://maps.google.com/?q=55.6765536,12.561795",
   "lat": 55.6765536,
   "lng": 12.561795,
   "halalFriendly": false,
   "bookingUrl": "https://ligula.se/profilhotels/mercur-hotel/",
   "source": "osm"
  },
  {
   "nom": "Imperial",
   "categorie": "Hôtel",
   "priceRange": "€€€€",
   "score": 4,
   "mapsUrl": "https://maps.google.com/?q=55.6756448,12.5616263",
   "lat": 55.6756448,
   "lng": 12.5616263,
   "halalFriendly": false,
   "bookingUrl": "https://www.imperial-hotel-copenhagen.com",
   "source": "osm"
  },
  {
   "nom": "Astoria",
   "categorie": "Hôtel",
   "priceRange": "€€",
   "mapsUrl": "https://maps.google.com/?q=55.6734251,12.5631089",
   "lat": 55.6734251,
   "lng": 12.5631089,
   "halalFriendly": false,
   "bookingUrl": "https://maps.google.com/?q=55.6734251,12.5631089",
   "source": "osm"
  },
  {
   "nom": "Richmond Hotel",
   "categorie": "Hôtel",
   "priceRange": "€€",
   "mapsUrl": "https://maps.google.com/?q=55.678613,12.562586",
   "lat": 55.678613,
   "lng": 12.562586,
   "halalFriendly": false,
   "bookingUrl": "https://ligula.se/profilhotels/richmond-hotel/",
   "source": "osm"
  },
  {
   "nom": "Grand Hotel",
   "categorie": "Hôtel",
   "priceRange": "€€",
   "mapsUrl": "https://maps.google.com/?q=55.6735499,12.5624651",
   "lat": 55.6735499,
   "lng": 12.5624651,
   "halalFriendly": false,
   "bookingUrl": "https://maps.google.com/?q=55.6735499,12.5624651",
   "source": "osm"
  },
  {
   "nom": "Steel House",
   "categorie": "Auberge",
   "priceRange": "€€",
   "mapsUrl": "https://maps.google.com/?q=55.676257,12.560096",
   "lat": 55.676257,
   "lng": 12.560096,
   "halalFriendly": false,
   "bookingUrl": "https://www.steelhousecopenhagen.com/",
   "source": "osm"
  },
  {
   "nom": "Villa Copenhagen",
   "categorie": "Hôtel",
   "priceRange": "€€€€",
   "score": 5,
   "mapsUrl": "https://maps.google.com/?q=55.6714034,12.5677356",
   "lat": 55.6714034,
   "lng": 12.5677356,
   "halalFriendly": false,
   "bookingUrl": "https://villacopenhagen.com/",
   "source": "osm"
  },
  {
   "nom": "Nobis Hotel Copenhagen",
   "categorie": "Hôtel",
   "priceRange": "€€",
   "mapsUrl": "https://maps.google.com/?q=55.6723955,12.5734895",
   "lat": 55.6723955,
   "lng": 12.5734895,
   "halalFriendly": false,
   "bookingUrl": "https://nobishotel.dk/",
   "source": "osm"
  },
  {
   "nom": "City Hotel Nebo",
   "categorie": "Hôtel",
   "priceRange": "€€",
   "mapsUrl": "https://maps.google.com/?q=55.6723046,12.5627761",
   "lat": 55.6723046,
   "lng": 12.5627761,
   "halalFriendly": false,
   "bookingUrl": "http://www.nebo.dk/",
   "source": "osm"
  },
  {
   "nom": "Scandic Copenhagen",
   "categorie": "Hôtel",
   "priceRange": "€€",
   "mapsUrl": "https://maps.google.com/?q=55.6749964,12.5596357",
   "lat": 55.6749964,
   "lng": 12.5596357,
   "halalFriendly": false,
   "bookingUrl": "https://www.scandichotels.com/Hotels/Denmark/Copenhagen/Scandic-Copenhagen/",
   "source": "osm"
  },
  {
   "nom": "Comfort Hotel Excelsior",
   "categorie": "Hôtel",
   "priceRange": "€€",
   "mapsUrl": "https://maps.google.com/?q=55.6726087,12.5616921",
   "lat": 55.6726087,
   "lng": 12.5616921,
   "halalFriendly": false,
   "bookingUrl": "https://maps.google.com/?q=55.6726087,12.5616921",
   "source": "osm"
  },
  {
   "nom": "Scandic Webers Hotel",
   "categorie": "Hôtel",
   "priceRange": "€€",
   "mapsUrl": "https://maps.google.com/?q=55.673118,12.5608649",
   "lat": 55.673118,
   "lng": 12.5608649,
   "halalFriendly": false,
   "bookingUrl": "https://maps.google.com/?q=55.673118,12.5608649",
   "source": "osm"
  },
  {
   "nom": "Meiniger Hotel Copenhagen (former Urban House Copenhagen)",
   "categorie": "Auberge",
   "priceRange": "€€",
   "mapsUrl": "https://maps.google.com/?q=55.6722103,12.5623271",
   "lat": 55.6722103,
   "lng": 12.5623271,
   "halalFriendly": false,
   "bookingUrl": "https://www.meininger-hotels.com/en/hotels/copenhagen/hotel-copenhagen-urban-house/",
   "source": "osm"
  },
  {
   "nom": "Turist Hotellet",
   "categorie": "Hôtel",
   "priceRange": "€€",
   "mapsUrl": "https://maps.google.com/?q=55.6716956,12.5634589",
   "lat": 55.6716956,
   "lng": 12.5634589,
   "halalFriendly": false,
   "bookingUrl": "https://maps.google.com/?q=55.6716956,12.5634589",
   "source": "osm"
  },
  {
   "nom": "1 Hotel Copenhagen",
   "categorie": "Hôtel",
   "priceRange": "€€",
   "mapsUrl": "https://maps.google.com/?q=55.6808491,12.5720614",
   "lat": 55.6808491,
   "lng": 12.5720614,
   "halalFriendly": false,
   "bookingUrl": "https://www.1hotels.com/copenhagen",
   "source": "osm"
  },
  {
   "nom": "Hotel Mayfair",
   "categorie": "Hôtel",
   "priceRange": "€€",
   "mapsUrl": "https://maps.google.com/?q=55.6727461,12.5611509",
   "lat": 55.6727461,
   "lng": 12.5611509,
   "halalFriendly": false,
   "bookingUrl": "https://www.hotelmayfair.dk/",
   "source": "osm"
  },
  {
   "nom": "Good Morning City Copenhagen Star",
   "categorie": "Hôtel",
   "priceRange": "€€",
   "mapsUrl": "https://maps.google.com/?q=55.6719041,12.5625434",
   "lat": 55.6719041,
   "lng": 12.5625434,
   "halalFriendly": false,
   "bookingUrl": "https://ligula.se/da/goodmorninghotels/copenhagen-star/",
   "source": "osm"
  }
 ],
 "mosqueesPrincipales": [
  {
   "id": "m25451190",
   "nom": "Vor Frue Kirke",
   "type": "Mosquée",
   "adresse": "",
   "description": "Lieu de prière (OpenStreetMap).",
   "mapsUrl": "https://maps.google.com/?q=55.6793765,12.5727306",
   "lat": 55.6793765,
   "lng": 12.5727306,
   "source": "osm"
  },
  {
   "id": "m26436022",
   "nom": "Sankt Petri Kirke",
   "type": "Mosquée",
   "adresse": "",
   "description": "Lieu de prière (OpenStreetMap).",
   "mapsUrl": "https://maps.google.com/?q=55.6800166,12.5708323",
   "lat": 55.6800166,
   "lng": 12.5708323,
   "source": "osm"
  },
  {
   "id": "m133104582",
   "nom": "Helligåndskirken",
   "type": "Mosquée",
   "adresse": "",
   "description": "Lieu de prière (OpenStreetMap).",
   "mapsUrl": "https://maps.google.com/?q=55.6790374,12.57697",
   "lat": 55.6790374,
   "lng": 12.57697,
   "source": "osm"
  },
  {
   "id": "m26363619",
   "nom": "Synagogen",
   "type": "Mosquée",
   "adresse": "",
   "description": "Lieu de prière (OpenStreetMap).",
   "mapsUrl": "https://maps.google.com/?q=55.6811348,12.5735197",
   "lat": 55.6811348,
   "lng": 12.5735197,
   "source": "osm"
  },
  {
   "id": "m264362254",
   "nom": "Holmens Kirke",
   "type": "Mosquée",
   "adresse": "",
   "description": "Lieu de prière (OpenStreetMap).",
   "mapsUrl": "https://maps.google.com/?q=55.6766156,12.583508",
   "lat": 55.6766156,
   "lng": 12.583508,
   "source": "osm"
  },
  {
   "id": "m40106991",
   "nom": "Christians Kirke",
   "type": "Mosquée",
   "adresse": "",
   "description": "Lieu de prière (OpenStreetMap).",
   "mapsUrl": "https://maps.google.com/?q=55.6723431,12.5871524",
   "lat": 55.6723431,
   "lng": 12.5871524,
   "source": "osm"
  },
  {
   "id": "m138577704",
   "nom": "København Islamisk Menighed",
   "type": "Mosquée",
   "adresse": "",
   "description": "Lieu de prière (OpenStreetMap).",
   "mapsUrl": "https://maps.google.com/?q=55.6707309,12.5488951",
   "lat": 55.6707309,
   "lng": 12.5488951,
   "source": "osm"
  },
  {
   "id": "m3287971364",
   "nom": "Masjid Al-Nour",
   "type": "Mosquée",
   "adresse": "",
   "description": "Lieu de prière (OpenStreetMap).",
   "mapsUrl": "https://maps.google.com/?q=55.687307,12.5590413",
   "lat": 55.687307,
   "lng": 12.5590413,
   "source": "osm"
  },
  {
   "id": "m25524833",
   "nom": "Marmorkirken",
   "type": "Mosquée",
   "adresse": "",
   "description": "Lieu de prière (OpenStreetMap).",
   "mapsUrl": "https://maps.google.com/?q=55.6849756,12.5895749",
   "lat": 55.6849756,
   "lng": 12.5895749,
   "source": "osm"
  },
  {
   "id": "m25607908",
   "nom": "Vor Frelsers Kirke",
   "type": "Mosquée",
   "adresse": "",
   "description": "Lieu de prière (OpenStreetMap).",
   "mapsUrl": "https://maps.google.com/?q=55.6729081,12.5942516",
   "lat": 55.6729081,
   "lng": 12.5942516,
   "source": "osm"
  },
  {
   "id": "m25813625",
   "nom": "Kastelskirken",
   "type": "Mosquée",
   "adresse": "",
   "description": "Lieu de prière (OpenStreetMap).",
   "mapsUrl": "https://maps.google.com/?q=55.6913935,12.5928251",
   "lat": 55.6913935,
   "lng": 12.5928251,
   "source": "osm"
  },
  {
   "id": "m13544084501",
   "nom": "Masjid al-Faruq",
   "type": "Mosquée",
   "adresse": "",
   "description": "Lieu de prière (OpenStreetMap).",
   "mapsUrl": "https://maps.google.com/?q=55.7029011,12.5444429",
   "lat": 55.7029011,
   "lng": 12.5444429,
   "source": "osm"
  },
  {
   "id": "m117918884",
   "nom": "Det Islamiske Forbund i Danmark",
   "type": "Mosquée",
   "adresse": "",
   "description": "Lieu de prière (OpenStreetMap).",
   "mapsUrl": "https://maps.google.com/?q=55.700955,12.5346913",
   "lat": 55.700955,
   "lng": 12.5346913,
   "source": "osm"
  },
  {
   "id": "m313161162",
   "nom": "Imam Ali Moskeen",
   "type": "Mosquée",
   "adresse": "",
   "description": "Lieu de prière (OpenStreetMap).",
   "mapsUrl": "https://maps.google.com/?q=55.7000587,12.531938",
   "lat": 55.7000587,
   "lng": 12.531938,
   "source": "osm"
  },
  {
   "id": "m155189605",
   "nom": "Hamad Bin Khalifa Civilisation Center",
   "type": "Mosquée",
   "adresse": "",
   "description": "Lieu de prière (OpenStreetMap).",
   "mapsUrl": "https://maps.google.com/?q=55.7083471,12.5488391",
   "lat": 55.7083471,
   "lng": 12.5488391,
   "source": "osm"
  },
  {
   "id": "m1043641227",
   "nom": "Tauba Moskeen",
   "type": "Mosquée",
   "adresse": "",
   "description": "Lieu de prière (OpenStreetMap).",
   "mapsUrl": "https://maps.google.com/?q=55.7082992,12.5253743",
   "lat": 55.7082992,
   "lng": 12.5253743,
   "source": "osm"
  },
  {
   "id": "m8515571559",
   "nom": "Madina-Tul-Ilm Education Center",
   "type": "Mosquée",
   "adresse": "",
   "description": "Lieu de prière (OpenStreetMap).",
   "mapsUrl": "https://maps.google.com/?q=55.6530133,12.5027531",
   "lat": 55.6530133,
   "lng": 12.5027531,
   "source": "osm"
  },
  {
   "id": "m25523430",
   "nom": "Grundtvigs Kirke",
   "type": "Mosquée",
   "adresse": "",
   "description": "Lieu de prière (OpenStreetMap).",
   "mapsUrl": "https://maps.google.com/?q=55.7165844,12.5338941",
   "lat": 55.7165844,
   "lng": 12.5338941,
   "source": "osm"
  },
  {
   "id": "m9604826456",
   "nom": "Islamisk Kulturcenter",
   "type": "Mosquée",
   "adresse": "",
   "description": "Lieu de prière (OpenStreetMap).",
   "mapsUrl": "https://maps.google.com/?q=55.711306,12.5148735",
   "lat": 55.711306,
   "lng": 12.5148735,
   "source": "osm"
  },
  {
   "id": "m1373352061",
   "nom": "Nusrat Djahan Moske",
   "type": "Mosquée",
   "adresse": "",
   "description": "Lieu de prière (OpenStreetMap).",
   "mapsUrl": "https://maps.google.com/?q=55.6509755,12.479088",
   "lat": 55.6509755,
   "lng": 12.479088,
   "source": "osm"
  }
 ],
 "activites": [
  {
   "id": "a549543686",
   "nom": "Rådhuspladsen",
   "categorie": "attraction",
   "description": "",
   "prix": "",
   "duree": "",
   "mapsUrl": "https://maps.google.com/?q=55.6760449,12.5688281",
   "lat": 55.6760449,
   "lng": 12.5688281,
   "source": "osm"
  },
  {
   "id": "a12961134226",
   "nom": "Jens Olsens Verdensur",
   "categorie": "attraction",
   "description": "",
   "prix": "",
   "duree": "",
   "mapsUrl": "https://maps.google.com/?q=55.6755396,12.5694732",
   "lat": 55.6755396,
   "lng": 12.5694732,
   "source": "osm"
  },
  {
   "id": "a687303281",
   "nom": "Ripley's Believe It or Not",
   "categorie": "museum",
   "description": "",
   "prix": "",
   "duree": "",
   "mapsUrl": "https://maps.google.com/?q=55.6763244,12.5699496",
   "lat": 55.6763244,
   "lng": 12.5699496,
   "source": "osm"
  },
  {
   "id": "a4575935485",
   "nom": "H.C. Andersen Museum",
   "categorie": "museum",
   "description": "",
   "prix": "",
   "duree": "",
   "mapsUrl": "https://maps.google.com/?q=55.6762498,12.5701546",
   "lat": 55.6762498,
   "lng": 12.5701546,
   "source": "osm"
  },
  {
   "id": "a9090526686",
   "nom": "Museum of Illusions Copenhagen",
   "categorie": "museum",
   "description": "",
   "prix": "",
   "duree": "",
   "mapsUrl": "https://maps.google.com/?q=55.6771718,12.5706746",
   "lat": 55.6771718,
   "lng": 12.5706746,
   "source": "osm"
  },
  {
   "id": "a13690726163",
   "nom": "Genforeningstavle",
   "categorie": "memorial",
   "description": "",
   "prix": "",
   "duree": "",
   "mapsUrl": "https://maps.google.com/?q=55.6775146,12.5656026",
   "lat": 55.6775146,
   "lng": 12.5656026,
   "source": "osm"
  },
  {
   "id": "a13727475905",
   "nom": "Børge Thing",
   "categorie": "memorial",
   "description": "",
   "prix": "",
   "duree": "",
   "mapsUrl": "https://maps.google.com/?q=55.6754653,12.5645104",
   "lat": 55.6754653,
   "lng": 12.5645104,
   "source": "osm"
  },
  {
   "id": "a12127907619",
   "nom": "Georg Carstensen",
   "categorie": "memorial",
   "description": "",
   "prix": "",
   "duree": "",
   "mapsUrl": "https://maps.google.com/?q=55.6740353,12.5664371",
   "lat": 55.6740353,
   "lng": 12.5664371,
   "source": "osm"
  },
  {
   "id": "a2712714149",
   "nom": "Væggen",
   "categorie": "museum",
   "description": "",
   "prix": "",
   "duree": "",
   "mapsUrl": "https://maps.google.com/?q=55.6762959,12.5640628",
   "lat": 55.6762959,
   "lng": 12.5640628,
   "source": "osm"
  },
  {
   "id": "a148223101",
   "nom": "Københavns Museum",
   "categorie": "museum",
   "description": "",
   "prix": "",
   "duree": "",
   "mapsUrl": "https://maps.google.com/?q=55.6743821,12.5724848",
   "lat": 55.6743821,
   "lng": 12.5724848,
   "source": "osm"
  },
  {
   "id": "a25822563",
   "nom": "Gammeltorv",
   "categorie": "attraction",
   "description": "",
   "prix": "",
   "duree": "",
   "mapsUrl": "https://maps.google.com/?q=55.6781422,12.572079",
   "lat": 55.6781422,
   "lng": 12.572079,
   "source": "osm"
  },
  {
   "id": "a5071042620",
   "nom": "Arkæologisk Værksted",
   "categorie": "museum",
   "description": "",
   "prix": "",
   "duree": "",
   "mapsUrl": "https://maps.google.com/?q=55.6739045,12.5722525",
   "lat": 55.6739045,
   "lng": 12.5722525,
   "source": "osm"
  },
  {
   "id": "a11365151159",
   "nom": "Gallery Nybro",
   "categorie": "gallery",
   "description": "",
   "prix": "",
   "duree": "",
   "mapsUrl": "https://maps.google.com/?q=55.6792575,12.5696947",
   "lat": 55.6792575,
   "lng": 12.5696947,
   "source": "osm"
  },
  {
   "id": "a4042082383",
   "nom": "Thorvald Stauning",
   "categorie": "memorial",
   "description": "",
   "prix": "",
   "duree": "",
   "mapsUrl": "https://maps.google.com/?q=55.6780807,12.5629657",
   "lat": 55.6780807,
   "lng": 12.5629657,
   "source": "osm"
  },
  {
   "id": "a289670954",
   "nom": "Reformationsmonument",
   "categorie": "memorial",
   "description": "",
   "prix": "",
   "duree": "",
   "mapsUrl": "https://maps.google.com/?q=55.6791988,12.5717541",
   "lat": 55.6791988,
   "lng": 12.5717541,
   "source": "osm"
  },
  {
   "id": "a13728103437",
   "nom": "De Samvirkende Fagforbund",
   "categorie": "memorial",
   "description": "",
   "prix": "",
   "duree": "",
   "mapsUrl": "https://maps.google.com/?q=55.6774354,12.5743527",
   "lat": 55.6774354,
   "lng": 12.5743527,
   "source": "osm"
  },
  {
   "id": "a13724848797",
   "nom": "J. C. JACOBSEN",
   "categorie": "memorial",
   "description": "",
   "prix": "",
   "duree": "",
   "mapsUrl": "https://maps.google.com/?q=55.6776293,12.5747771",
   "lat": 55.6776293,
   "lng": 12.5747771,
   "source": "osm"
  },
  {
   "id": "a9230049012",
   "nom": "Danske Sprogforskere",
   "categorie": "artwork",
   "description": "",
   "prix": "",
   "duree": "",
   "mapsUrl": "https://maps.google.com/?q=55.6732573,12.5736695",
   "lat": 55.6732573,
   "lng": 12.5736695,
   "source": "osm"
  },
  {
   "id": "a7372237339",
   "nom": "Mindeplade for Shellhusets bombardament (Operation Carthage)",
   "categorie": "memorial",
   "description": "",
   "prix": "",
   "duree": "",
   "mapsUrl": "https://maps.google.com/?q=55.6777965,12.5614528",
   "lat": 55.6777965,
   "lng": 12.5614528,
   "source": "osm"
  },
  {
   "id": "a3578680705",
   "nom": "Corfitz Ulfeldts Skamstøtte",
   "categorie": "memorial",
   "description": "",
   "prix": "",
   "duree": "",
   "mapsUrl": "https://maps.google.com/?q=55.6746079,12.575396",
   "lat": 55.6746079,
   "lng": 12.575396,
   "source": "osm"
  },
  {
   "id": "a26950614",
   "nom": "Kommunitetsbygningen",
   "categorie": "attraction",
   "description": "",
   "prix": "",
   "duree": "",
   "mapsUrl": "https://maps.google.com/?q=55.6800425,12.5716432",
   "lat": 55.6800425,
   "lng": 12.5716432,
   "source": "osm"
  },
  {
   "id": "a7871438047",
   "nom": "H.C Ørsted - Elektromagnetismen",
   "categorie": "memorial",
   "description": "",
   "prix": "",
   "duree": "",
   "mapsUrl": "https://maps.google.com/?q=55.6804274,12.5710962",
   "lat": 55.6804274,
   "lng": 12.5710962,
   "source": "osm"
  },
  {
   "id": "a13724828754",
   "nom": "Rasmus Rask",
   "categorie": "memorial",
   "description": "",
   "prix": "",
   "duree": "",
   "mapsUrl": "https://maps.google.com/?q=55.6776073,12.5761483",
   "lat": 55.6776073,
   "lng": 12.5761483,
   "source": "osm"
  },
  {
   "id": "a4856943311",
   "nom": "Inge Lehmann",
   "categorie": "artwork",
   "description": "",
   "prix": "",
   "duree": "",
   "mapsUrl": "https://maps.google.com/?q=55.6799134,12.5731771",
   "lat": 55.6799134,
   "lng": 12.5731771,
   "source": "osm"
  },
  {
   "id": "a26950604",
   "nom": "Københavns Universitetsbibliotek Fiolstræde",
   "categorie": "attraction",
   "description": "",
   "prix": "",
   "duree": "",
   "mapsUrl": "https://maps.google.com/?q=55.6803333,12.5729152",
   "lat": 55.6803333,
   "lng": 12.5729152,
   "source": "osm"
  },
  {
   "id": "a13711531169",
   "nom": "Sophus Falck",
   "categorie": "memorial",
   "description": "",
   "prix": "",
   "duree": "",
   "mapsUrl": "https://maps.google.com/?q=55.6735605,12.5759706",
   "lat": 55.6735605,
   "lng": 12.5759706,
   "source": "osm"
  },
  {
   "id": "a13848509944",
   "nom": "Nationalmuseets Klunkehjem",
   "categorie": "museum",
   "description": "",
   "prix": "",
   "duree": "",
   "mapsUrl": "https://maps.google.com/?q=55.6743302,12.5767736",
   "lat": 55.6743302,
   "lng": 12.5767736,
   "source": "osm"
  },
  {
   "id": "a4888056706",
   "nom": "Projekt Galleri",
   "categorie": "gallery",
   "description": "",
   "prix": "",
   "duree": "",
   "mapsUrl": "https://maps.google.com/?q=55.6735637,12.576204",
   "lat": 55.6735637,
   "lng": 12.576204,
   "source": "osm"
  },
  {
   "id": "a4330130938",
   "nom": "Kunstforeningen Gl. Strand Cafe",
   "categorie": "gallery",
   "description": "",
   "prix": "",
   "duree": "",
   "mapsUrl": "https://maps.google.com/?q=55.6775341,12.5775983",
   "lat": 55.6775341,
   "lng": 12.5775983,
   "source": "osm"
  },
  {
   "id": "a11469875218",
   "nom": "Tofu space",
   "categorie": "gallery",
   "description": "",
   "prix": "",
   "duree": "",
   "mapsUrl": "https://maps.google.com/?q=55.6778504,12.5774625",
   "lat": 55.6778504,
   "lng": 12.5774625,
   "source": "osm"
  }
 ],
 "scoreIndicatif": true,
 "osmEnriched": true,
 "osmEnrichedAt": "2026-06-30"
}
