{
  "slug": "copenhague",
  "nom": "Copenhague",
  "pays": "Danemark",
  "pays_slug": "danemark",
  "continent": "Europe",
  "region": "Danemark",
  "coordonnees": {
    "lat": 55.6761,
    "lng": 12.5683
  },
  "codeISO": "DK",
  "score_halal": 3.4,
  "halalScore": 6.8,
  "villeNonMusulmane": true,
  "description": "Capitale scandinave du design et du vélo. Communauté musulmane à Nørrebro avec un bon choix d'adresses halal.",
  "metaDescription": "Capitale scandinave du design et du vélo. Communauté musulmane à Nørrebro avec un bon choix d'adresses halal.",
  "image": "https://upload.wikimedia.org/wikipedia/commons/0/03/Kastelsm%C3%B8llen%2C_Copenhague_154.jpg",
  "image_hero": "https://upload.wikimedia.org/wikipedia/commons/0/03/Kastelsm%C3%B8llen%2C_Copenhague_154.jpg",
  "imageCredit": "Wikimedia Commons",
  "statistiques": {
    "restaurants_halal": 167,
    "mosquees": 22,
    "hotels": 120
  },
  "infoPratique": {
    "transport": "Accessible par avion et transports en commun locaux.",
    "meilleureEpoque": "Printemps et automne (climat tempéré).",
    "conseilHalal": "Ville non-musulmane : repérez les restaurants halal certifiés et les mosquées via l'application avant votre visite."
  },
  "tags": [
    "halal",
    "ville non-musulmane",
    "europe"
  ],
  "restaurants": [
    {
      "nom": "Shah's Halal Food",
      "type": "Restaurant halal",
      "priceRange": "€€",
      "mapsUrl": "https://maps.google.com/?q=55.6767195,12.5707203",
      "lat": 55.6767195,
      "lng": 12.5707203,
      "halalConfidence": "only",
      "source": "osm"
    },
    {
      "nom": "Kebabish",
      "type": "kebab",
      "priceRange": "€€",
      "mapsUrl": "https://maps.google.com/?q=55.6731288,12.5604195",
      "lat": 55.6731288,
      "lng": 12.5604195,
      "halalConfidence": "yes",
      "source": "osm"
    },
    {
      "nom": "Shahs Halal Food",
      "type": "Restaurant halal",
      "priceRange": "€€",
      "mapsUrl": "https://maps.google.com/?q=55.6883454,12.5591028",
      "lat": 55.6883454,
      "lng": 12.5591028,
      "halalConfidence": "only",
      "source": "osm"
    },
    {
      "nom": "Bindia Elmegade",
      "type": "indian",
      "priceRange": "€€",
      "mapsUrl": "https://maps.google.com/?q=55.6895902,12.5582863",
      "lat": 55.6895902,
      "lng": 12.5582863,
      "halalConfidence": "yes",
      "source": "osm"
    },
    {
      "nom": "Bindia Gl. Kongevej",
      "type": "indian, chicken, asian, sushi",
      "priceRange": "€€",
      "mapsUrl": "https://maps.google.com/?q=55.6768048,12.5394373",
      "lat": 55.6768048,
      "lng": 12.5394373,
      "halalConfidence": "yes",
      "source": "osm"
    },
    {
      "nom": "Bouillon",
      "type": "french",
      "priceRange": "€€",
      "mapsUrl": "https://maps.google.com/?q=55.6809946,12.5332486",
      "lat": 55.6809946,
      "lng": 12.5332486,
      "halalConfidence": "yes",
      "source": "osm"
    },
    {
      "nom": "Bindia Blegdamsvej",
      "type": "indian, chicken, sushi, asian",
      "priceRange": "€€",
      "mapsUrl": "https://maps.google.com/?q=55.6986394,12.5761578",
      "lat": 55.6986394,
      "lng": 12.5761578,
      "halalConfidence": "yes",
      "source": "osm"
    },
    {
      "nom": "Bindia Amagerbrogade",
      "type": "indian, chicken, asian, sushi",
      "priceRange": "€€",
      "mapsUrl": "https://maps.google.com/?q=55.6564242,12.6091025",
      "lat": 55.6564242,
      "lng": 12.6091025,
      "halalConfidence": "yes",
      "source": "osm"
    },
    {
      "nom": "Det Islamiske Trossamfund Restaurant",
      "type": "Restaurant halal",
      "priceRange": "€€",
      "mapsUrl": "https://maps.google.com/?q=55.708316,12.525445",
      "lat": 55.708316,
      "lng": 12.525445,
      "halalConfidence": "yes",
      "source": "osm"
    },
    {
      "nom": "The Foodcorner",
      "type": "pizza, burger, salad, sandwich, kebab",
      "priceRange": "€€",
      "mapsUrl": "https://maps.google.com/?q=55.632231,12.580051",
      "lat": 55.632231,
      "lng": 12.580051,
      "halalConfidence": "yes",
      "source": "osm"
    },
    {
      "nom": "Bindia",
      "type": "indian, chicken, asian",
      "priceRange": "€€",
      "mapsUrl": "https://maps.google.com/?q=55.7328023,12.5166896",
      "lat": 55.7328023,
      "lng": 12.5166896,
      "halalConfidence": "yes",
      "source": "osm"
    },
    {
      "nom": "Byens Bedste Kebab Gentofte ApS",
      "type": "kebab",
      "priceRange": "€€",
      "mapsUrl": "https://maps.google.com/?q=55.7516256,12.5185665",
      "lat": 55.7516256,
      "lng": 12.5185665,
      "halalConfidence": "yes",
      "source": "osm"
    },
    {
      "nom": "Bindia Lyngby Hovedgade",
      "type": "indian, chicken, asian",
      "priceRange": "€€",
      "mapsUrl": "https://maps.google.com/?q=55.7695776,12.5045161",
      "lat": 55.7695776,
      "lng": 12.5045161,
      "halalConfidence": "yes",
      "source": "osm"
    },
    {
      "nom": "Shawarma Grillhouse",
      "type": "kebab, lebanese, grill",
      "priceRange": "€€",
      "mapsUrl": "https://maps.google.com/?q=55.6767719,12.5698547",
      "lat": 55.6767719,
      "lng": 12.5698547,
      "halalConfidence": "likely",
      "source": "osm"
    },
    {
      "nom": "Shawarma Palace",
      "type": "kebab",
      "priceRange": "€€",
      "mapsUrl": "https://maps.google.com/?q=55.6769031,12.5701356",
      "lat": 55.6769031,
      "lng": 12.5701356,
      "halalConfidence": "likely",
      "source": "osm"
    },
    {
      "nom": "Wakha Wakha",
      "type": "moroccan",
      "priceRange": "€€",
      "mapsUrl": "https://maps.google.com/?q=55.6744794,12.5651668",
      "lat": 55.6744794,
      "lng": 12.5651668,
      "halalConfidence": "likely",
      "source": "osm"
    },
    {
      "nom": "Bear Slice",
      "type": "pizza, kebab",
      "priceRange": "€€",
      "mapsUrl": "https://maps.google.com/?q=55.6789261,12.5687562",
      "lat": 55.6789261,
      "lng": 12.5687562,
      "halalConfidence": "likely",
      "source": "osm"
    },
    {
      "nom": "Original Shawarma",
      "type": "shawarma",
      "priceRange": "€€",
      "mapsUrl": "https://maps.google.com/?q=55.6733876,12.5705317",
      "lat": 55.6733876,
      "lng": 12.5705317,
      "halalConfidence": "likely",
      "source": "osm"
    },
    {
      "nom": "The Döner",
      "type": "kebab",
      "priceRange": "€€",
      "mapsUrl": "https://maps.google.com/?q=55.6784376,12.5720995",
      "lat": 55.6784376,
      "lng": 12.5720995,
      "halalConfidence": "likely",
      "source": "osm"
    },
    {
      "nom": "Doner Kebab",
      "type": "kebab",
      "priceRange": "€€",
      "mapsUrl": "https://maps.google.com/?q=55.678166,12.572885",
      "lat": 55.678166,
      "lng": 12.572885,
      "halalConfidence": "likely",
      "source": "osm"
    },
    {
      "nom": "Ankara",
      "type": "turkish",
      "priceRange": "€€",
      "mapsUrl": "https://maps.google.com/?q=55.6811269,12.5741096",
      "lat": 55.6811269,
      "lng": 12.5741096,
      "halalConfidence": "likely",
      "source": "osm"
    },
    {
      "nom": "Killer Kebab",
      "type": "kebab",
      "priceRange": "€€",
      "mapsUrl": "https://maps.google.com/?q=55.6714246,12.5584379",
      "lat": 55.6714246,
      "lng": 12.5584379,
      "halalConfidence": "likely",
      "source": "osm"
    },
    {
      "nom": "DORO DONER",
      "type": "kebab",
      "priceRange": "€€",
      "mapsUrl": "https://maps.google.com/?q=55.6708697,12.559108",
      "lat": 55.6708697,
      "lng": 12.559108,
      "halalConfidence": "likely",
      "source": "osm"
    },
    {
      "nom": "Restaurant Shezan",
      "type": "pakistani",
      "priceRange": "€€",
      "mapsUrl": "https://maps.google.com/?q=55.6709081,12.5585764",
      "lat": 55.6709081,
      "lng": 12.5585764,
      "halalConfidence": "likely",
      "source": "osm"
    },
    {
      "nom": "Mahalle Nansensgade",
      "type": "lebanese",
      "priceRange": "€€",
      "mapsUrl": "https://maps.google.com/?q=55.6837192,12.5655588",
      "lat": 55.6837192,
      "lng": 12.5655588,
      "halalConfidence": "likely",
      "source": "osm"
    },
    {
      "nom": "Zahida",
      "type": "pakistani",
      "priceRange": "€€",
      "mapsUrl": "https://maps.google.com/?q=55.6845789,12.5697732",
      "lat": 55.6845789,
      "lng": 12.5697732,
      "halalConfidence": "likely",
      "source": "osm"
    },
    {
      "nom": "Kebaben",
      "type": "kebab",
      "priceRange": "€€",
      "mapsUrl": "https://maps.google.com/?q=55.6821813,12.582919",
      "lat": 55.6821813,
      "lng": 12.582919,
      "halalConfidence": "likely",
      "source": "osm"
    },
    {
      "nom": "CPH Grillzone",
      "type": "falafel, pizza, shawarma",
      "priceRange": "€€",
      "mapsUrl": "https://maps.google.com/?q=55.6723628,12.5492219",
      "lat": 55.6723628,
      "lng": 12.5492219,
      "halalConfidence": "likely",
      "source": "osm"
    },
    {
      "nom": "Ankara Dürüm House",
      "type": "shawarma",
      "priceRange": "€€",
      "mapsUrl": "https://maps.google.com/?q=55.6687942,12.5524727",
      "lat": 55.6687942,
      "lng": 12.5524727,
      "halalConfidence": "likely",
      "source": "osm"
    },
    {
      "nom": "Ahaaa Det Arabiske Madsted",
      "type": "arab",
      "priceRange": "€€",
      "mapsUrl": "https://maps.google.com/?q=55.6864878,12.5584645",
      "lat": 55.6864878,
      "lng": 12.5584645,
      "halalConfidence": "likely",
      "source": "osm"
    },
    {
      "nom": "Ørsteds Kebab",
      "type": "kebab",
      "priceRange": "€€",
      "mapsUrl": "https://maps.google.com/?q=55.680464,12.548524",
      "lat": 55.680464,
      "lng": 12.548524,
      "halalConfidence": "likely",
      "source": "osm"
    },
    {
      "nom": "Zafran",
      "type": "persian",
      "priceRange": "€€",
      "mapsUrl": "https://maps.google.com/?q=55.6873787,12.5595118",
      "lat": 55.6873787,
      "lng": 12.5595118,
      "halalConfidence": "likely",
      "source": "osm"
    },
    {
      "nom": "Killer Kebab Borgergade",
      "type": "kebab",
      "priceRange": "€€",
      "mapsUrl": "https://maps.google.com/?q=55.6838835,12.5855186",
      "lat": 55.6838835,
      "lng": 12.5855186,
      "halalConfidence": "likely",
      "source": "osm"
    },
    {
      "nom": "Liban Cuisine",
      "type": "lebanese",
      "priceRange": "€€",
      "mapsUrl": "https://maps.google.com/?q=55.6852053,12.5529978",
      "lat": 55.6852053,
      "lng": 12.5529978,
      "halalConfidence": "likely",
      "source": "osm"
    },
    {
      "nom": "Bazaar",
      "type": "arab",
      "priceRange": "€€",
      "mapsUrl": "https://maps.google.com/?q=55.6837592,12.5862493",
      "lat": 55.6837592,
      "lng": 12.5862493,
      "halalConfidence": "likely",
      "source": "osm"
    },
    {
      "nom": "Beyti",
      "type": "turkish",
      "priceRange": "€€",
      "mapsUrl": "https://maps.google.com/?q=55.6879495,12.5601653",
      "lat": 55.6879495,
      "lng": 12.5601653,
      "halalConfidence": "likely",
      "source": "osm"
    },
    {
      "nom": "King of Kebab",
      "type": "kebab",
      "priceRange": "€€",
      "mapsUrl": "https://maps.google.com/?q=55.6881659,12.5602562",
      "lat": 55.6881659,
      "lng": 12.5602562,
      "halalConfidence": "likely",
      "source": "osm"
    },
    {
      "nom": "Kebaba",
      "type": "kebab",
      "priceRange": "€€",
      "mapsUrl": "https://maps.google.com/?q=55.6758386,12.5446572",
      "lat": 55.6758386,
      "lng": 12.5446572,
      "halalConfidence": "likely",
      "source": "osm"
    },
    {
      "nom": "GuGus Corner",
      "type": "pakistani",
      "priceRange": "€€",
      "mapsUrl": "https://maps.google.com/?q=55.6711496,12.5461862",
      "lat": 55.6711496,
      "lng": 12.5461862,
      "halalConfidence": "likely",
      "source": "osm"
    },
    {
      "nom": "Star Midnight Kebab & Grill",
      "type": "kebab",
      "priceRange": "€€",
      "mapsUrl": "https://maps.google.com/?q=55.6678946,12.5493432",
      "lat": 55.6678946,
      "lng": 12.5493432,
      "halalConfidence": "likely",
      "source": "osm"
    },
    {
      "nom": "Abu Kebab",
      "type": "kebab",
      "priceRange": "€€",
      "mapsUrl": "https://maps.google.com/?q=55.6624082,12.5626927",
      "lat": 55.6624082,
      "lng": 12.5626927,
      "halalConfidence": "likely",
      "source": "osm"
    },
    {
      "nom": "Dünyam Shawarma House",
      "type": "shawarma",
      "priceRange": "€€",
      "mapsUrl": "https://maps.google.com/?q=55.6676897,12.5478768",
      "lat": 55.6676897,
      "lng": 12.5478768,
      "halalConfidence": "likely",
      "source": "osm"
    },
    {
      "nom": "Berlin Döner Kopenhagen",
      "type": "kebab",
      "priceRange": "€€",
      "mapsUrl": "https://maps.google.com/?q=55.6695047,12.5451317",
      "lat": 55.6695047,
      "lng": 12.5451317,
      "halalConfidence": "likely",
      "source": "osm"
    },
    {
      "nom": "Torvets Kebab",
      "type": "turkish",
      "priceRange": "€€",
      "mapsUrl": "https://maps.google.com/?q=55.6904643,12.5609906",
      "lat": 55.6904643,
      "lng": 12.5609906,
      "halalConfidence": "likely",
      "source": "osm"
    },
    {
      "nom": "Havnens BBQ",
      "type": "kebab, sandwich",
      "priceRange": "€€",
      "mapsUrl": "https://maps.google.com/?q=55.671197,12.593376",
      "lat": 55.671197,
      "lng": 12.593376,
      "halalConfidence": "likely",
      "source": "osm"
    },
    {
      "nom": "Maroosh Grill",
      "type": "shawarma",
      "priceRange": "€€",
      "mapsUrl": "https://maps.google.com/?q=55.6898032,12.555954",
      "lat": 55.6898032,
      "lng": 12.555954,
      "halalConfidence": "likely",
      "source": "osm"
    },
    {
      "nom": "Colombia Pizza & Restaurant",
      "type": "indian, pakistani, pizza",
      "priceRange": "€€",
      "mapsUrl": "https://maps.google.com/?q=55.6705722,12.5421135",
      "lat": 55.6705722,
      "lng": 12.5421135,
      "halalConfidence": "likely",
      "source": "osm"
    },
    {
      "nom": "Pasha Kebab",
      "type": "kebab, turkish",
      "priceRange": "€€",
      "mapsUrl": "https://maps.google.com/?q=55.6676849,12.5445913",
      "lat": 55.6676849,
      "lng": 12.5445913,
      "halalConfidence": "likely",
      "source": "osm"
    },
    {
      "nom": "Mr.W. Shawarma",
      "type": "shawarma",
      "priceRange": "€€",
      "mapsUrl": "https://maps.google.com/?q=55.6728758,12.5999269",
      "lat": 55.6728758,
      "lng": 12.5999269,
      "halalConfidence": "likely",
      "source": "osm"
    },
    {
      "nom": "AROS KEBAB",
      "type": "kebab",
      "priceRange": "€€",
      "mapsUrl": "https://maps.google.com/?q=55.6870162,12.540768",
      "lat": 55.6870162,
      "lng": 12.540768,
      "halalConfidence": "likely",
      "source": "osm"
    },
    {
      "nom": "Sheiks Shawarma",
      "type": "kebab",
      "priceRange": "€€",
      "mapsUrl": "https://maps.google.com/?q=55.6928381,12.5514018",
      "lat": 55.6928381,
      "lng": 12.5514018,
      "halalConfidence": "likely",
      "source": "osm"
    },
    {
      "nom": "Monteys",
      "type": "burger, kebab",
      "priceRange": "€€",
      "mapsUrl": "https://maps.google.com/?q=55.6928492,12.5513781",
      "lat": 55.6928492,
      "lng": 12.5513781,
      "halalConfidence": "likely",
      "source": "osm"
    },
    {
      "nom": "Berlin Döner Kebab",
      "type": "kebab",
      "priceRange": "€€",
      "mapsUrl": "https://maps.google.com/?q=55.6929812,12.5511858",
      "lat": 55.6929812,
      "lng": 12.5511858,
      "halalConfidence": "likely",
      "source": "osm"
    },
    {
      "nom": "Dürüm & Dreams",
      "type": "shawarma",
      "priceRange": "€€",
      "mapsUrl": "https://maps.google.com/?q=55.6854299,12.5376818",
      "lat": 55.6854299,
      "lng": 12.5376818,
      "halalConfidence": "likely",
      "source": "osm"
    },
    {
      "nom": "Amager Kebab 2001",
      "type": "kebab",
      "priceRange": "€€",
      "mapsUrl": "https://maps.google.com/?q=55.6661025,12.5985614",
      "lat": 55.6661025,
      "lng": 12.5985614,
      "halalConfidence": "likely",
      "source": "osm"
    },
    {
      "nom": "Safir Kebab",
      "type": "turkish",
      "priceRange": "€€",
      "mapsUrl": "https://maps.google.com/?q=55.690498,12.5441844",
      "lat": 55.690498,
      "lng": 12.5441844,
      "halalConfidence": "likely",
      "source": "osm"
    },
    {
      "nom": "Alshami",
      "type": "shawarma",
      "priceRange": "€€",
      "mapsUrl": "https://maps.google.com/?q=55.6934122,12.550543",
      "lat": 55.6934122,
      "lng": 12.550543,
      "halalConfidence": "likely",
      "source": "osm"
    },
    {
      "nom": "Streetmums",
      "type": "kebab",
      "priceRange": "€€",
      "mapsUrl": "https://maps.google.com/?q=55.6812641,12.5335185",
      "lat": 55.6812641,
      "lng": 12.5335185,
      "halalConfidence": "likely",
      "source": "osm"
    },
    {
      "nom": "Kebabbar",
      "type": "kebab",
      "priceRange": "€€",
      "mapsUrl": "https://maps.google.com/?q=55.6952899,12.5496619",
      "lat": 55.6952899,
      "lng": 12.5496619,
      "halalConfidence": "likely",
      "source": "osm"
    },
    {
      "nom": "Lion Kebab",
      "type": "kebab",
      "priceRange": "€€",
      "mapsUrl": "https://maps.google.com/?q=55.663708,12.6013361",
      "lat": 55.663708,
      "lng": 12.6013361,
      "halalConfidence": "likely",
      "source": "osm"
    },
    {
      "nom": "Fuldkorn Kebab",
      "type": "kebab",
      "priceRange": "€€",
      "mapsUrl": "https://maps.google.com/?q=55.6954671,12.5473352",
      "lat": 55.6954671,
      "lng": 12.5473352,
      "halalConfidence": "likely",
      "source": "osm"
    },
    {
      "nom": "Ashiq's",
      "type": "indian, kebab, pizza",
      "priceRange": "€€",
      "mapsUrl": "https://maps.google.com/?q=55.6955819,12.5466994",
      "lat": 55.6955819,
      "lng": 12.5466994,
      "halalConfidence": "likely",
      "source": "osm"
    },
    {
      "nom": "Kebabistan",
      "type": "kebab",
      "priceRange": "€€",
      "mapsUrl": "https://maps.google.com/?q=55.6958074,12.5468437",
      "lat": 55.6958074,
      "lng": 12.5468437,
      "halalConfidence": "likely",
      "source": "osm"
    },
    {
      "nom": "East Kebab",
      "type": "kebab, pizza",
      "priceRange": "€€",
      "mapsUrl": "https://maps.google.com/?q=55.69864,12.5781404",
      "lat": 55.69864,
      "lng": 12.5781404,
      "halalConfidence": "likely",
      "source": "osm"
    },
    {
      "nom": "Beirut Palace",
      "type": "kebab, lebanese",
      "priceRange": "€€",
      "mapsUrl": "https://maps.google.com/?q=55.6958173,12.5463653",
      "lat": 55.6958173,
      "lng": 12.5463653,
      "halalConfidence": "likely",
      "source": "osm"
    },
    {
      "nom": "Durum Bar 2200",
      "type": "kebab, falafel",
      "priceRange": "€€",
      "mapsUrl": "https://maps.google.com/?q=55.6971986,12.5442638",
      "lat": 55.6971986,
      "lng": 12.5442638,
      "halalConfidence": "likely",
      "source": "osm"
    },
    {
      "nom": "Kösem",
      "type": "kebab",
      "priceRange": "€€",
      "mapsUrl": "https://maps.google.com/?q=55.697354,12.544475",
      "lat": 55.697354,
      "lng": 12.544475,
      "halalConfidence": "likely",
      "source": "osm"
    },
    {
      "nom": "Kebabhytten Zoo",
      "type": "kebab",
      "priceRange": "€€",
      "mapsUrl": "https://maps.google.com/?q=55.6717438,12.5231199",
      "lat": 55.6717438,
      "lng": 12.5231199,
      "halalConfidence": "likely",
      "source": "osm"
    },
    {
      "nom": "Vefa Kebab",
      "type": "kebab",
      "priceRange": "€€",
      "mapsUrl": "https://maps.google.com/?q=55.702199,12.5829188",
      "lat": 55.702199,
      "lng": 12.5829188,
      "halalConfidence": "likely",
      "source": "osm"
    },
    {
      "nom": "Kebabistan Amagerbrogade",
      "type": "kebab",
      "priceRange": "€€",
      "mapsUrl": "https://maps.google.com/?q=55.6590358,12.6064936",
      "lat": 55.6590358,
      "lng": 12.6064936,
      "halalConfidence": "likely",
      "source": "osm"
    },
    {
      "nom": "Spice Kebab & Pizza",
      "type": "pizza, kebab",
      "priceRange": "€€",
      "mapsUrl": "https://maps.google.com/?q=55.6590589,12.606914",
      "lat": 55.6590589,
      "lng": 12.606914,
      "halalConfidence": "likely",
      "source": "osm"
    },
    {
      "nom": "Alanya Kebab",
      "type": "turkish",
      "priceRange": "€€",
      "mapsUrl": "https://maps.google.com/?q=55.7018024,12.5501604",
      "lat": 55.7018024,
      "lng": 12.5501604,
      "halalConfidence": "likely",
      "source": "osm"
    },
    {
      "nom": "Flamingo Kebab",
      "type": "kebab",
      "priceRange": "€€",
      "mapsUrl": "https://maps.google.com/?q=55.6993892,12.5409218",
      "lat": 55.6993892,
      "lng": 12.5409218,
      "halalConfidence": "likely",
      "source": "osm"
    },
    {
      "nom": "City Kebab",
      "type": "kebab",
      "priceRange": "€€",
      "mapsUrl": "https://maps.google.com/?q=55.6585095,12.6075243",
      "lat": 55.6585095,
      "lng": 12.6075243,
      "halalConfidence": "likely",
      "source": "osm"
    },
    {
      "nom": "Shirzad Persisk Restaurant",
      "type": "persian",
      "priceRange": "€€",
      "mapsUrl": "https://maps.google.com/?q=55.6814834,12.5186154",
      "lat": 55.6814834,
      "lng": 12.5186154,
      "halalConfidence": "likely",
      "source": "osm"
    },
    {
      "nom": "Kebabistan 3",
      "type": "kebab",
      "priceRange": "€€",
      "mapsUrl": "https://maps.google.com/?q=55.703068,12.5848108",
      "lat": 55.703068,
      "lng": 12.5848108,
      "halalConfidence": "likely",
      "source": "osm"
    },
    {
      "nom": "Silas Kebab",
      "type": "kebab",
      "priceRange": "€€",
      "mapsUrl": "https://maps.google.com/?q=55.657823,12.607869",
      "lat": 55.657823,
      "lng": 12.607869,
      "halalConfidence": "likely",
      "source": "osm"
    },
    {
      "nom": "Dar Atlas",
      "type": "moroccan",
      "priceRange": "€€",
      "mapsUrl": "https://maps.google.com/?q=55.6667096,12.5196882",
      "lat": 55.6667096,
      "lng": 12.5196882,
      "halalConfidence": "likely",
      "source": "osm"
    },
    {
      "nom": "Awasana",
      "type": "afghan",
      "priceRange": "€€",
      "mapsUrl": "https://maps.google.com/?q=55.6938851,12.6093468",
      "lat": 55.6938851,
      "lng": 12.6093468,
      "halalConfidence": "likely",
      "source": "osm"
    },
    {
      "nom": "Metro Kebaben",
      "type": "kebab",
      "priceRange": "€€",
      "mapsUrl": "https://maps.google.com/?q=55.6602554,12.6119142",
      "lat": 55.6602554,
      "lng": 12.6119142,
      "halalConfidence": "likely",
      "source": "osm"
    },
    {
      "nom": "Zaitouna Kitchen",
      "type": "lebanese",
      "priceRange": "€€",
      "mapsUrl": "https://maps.google.com/?q=55.702898,12.5474334",
      "lat": 55.702898,
      "lng": 12.5474334,
      "halalConfidence": "likely",
      "source": "osm"
    },
    {
      "nom": "Nørrebros shawarma",
      "type": "kebab",
      "priceRange": "€€",
      "mapsUrl": "https://maps.google.com/?q=55.7003114,12.5382775",
      "lat": 55.7003114,
      "lng": 12.5382775,
      "halalConfidence": "likely",
      "source": "osm"
    },
    {
      "nom": "Istanbul Kebab Bar",
      "type": "kebab",
      "priceRange": "€€",
      "mapsUrl": "https://maps.google.com/?q=55.7033503,12.547949",
      "lat": 55.7033503,
      "lng": 12.547949,
      "halalConfidence": "likely",
      "source": "osm"
    },
    {
      "nom": "Kebabbro",
      "type": "kebab",
      "priceRange": "€€",
      "mapsUrl": "https://maps.google.com/?q=55.7004798,12.5383211",
      "lat": 55.7004798,
      "lng": 12.5383211,
      "halalConfidence": "likely",
      "source": "osm"
    },
    {
      "nom": "Ali Bageri",
      "type": "arab",
      "priceRange": "€€",
      "mapsUrl": "https://maps.google.com/?q=55.7029393,12.5443468",
      "lat": 55.7029393,
      "lng": 12.5443468,
      "halalConfidence": "likely",
      "source": "osm"
    },
    {
      "nom": "Kuku",
      "type": "persian, iranian",
      "priceRange": "€€",
      "mapsUrl": "https://maps.google.com/?q=55.7018438,12.5379062",
      "lat": 55.7018438,
      "lng": 12.5379062,
      "halalConfidence": "likely",
      "source": "osm"
    },
    {
      "nom": "Holmens Döner Kebab",
      "type": "kebab, burger",
      "priceRange": "€€",
      "mapsUrl": "https://maps.google.com/?q=55.6468784,12.549822",
      "lat": 55.6468784,
      "lng": 12.549822,
      "halalConfidence": "likely",
      "source": "osm"
    },
    {
      "nom": "Öz Konya Kebab",
      "type": "kebab",
      "priceRange": "€€",
      "mapsUrl": "https://maps.google.com/?q=55.7015059,12.5359792",
      "lat": 55.7015059,
      "lng": 12.5359792,
      "halalConfidence": "likely",
      "source": "osm"
    },
    {
      "nom": "Durum Kebab",
      "type": "kebab",
      "priceRange": "€€",
      "mapsUrl": "https://maps.google.com/?q=55.6650268,12.5163876",
      "lat": 55.6650268,
      "lng": 12.5163876,
      "halalConfidence": "likely",
      "source": "osm"
    },
    {
      "nom": "ZamZam Kebab",
      "type": "kebab",
      "priceRange": "€€",
      "mapsUrl": "https://maps.google.com/?q=55.701644,12.5351261",
      "lat": 55.701644,
      "lng": 12.5351261,
      "halalConfidence": "likely",
      "source": "osm"
    },
    {
      "nom": "KÖSK KEBAB FOOD",
      "type": "kebab",
      "priceRange": "€€",
      "mapsUrl": "https://maps.google.com/?q=55.7015101,12.534303",
      "lat": 55.7015101,
      "lng": 12.534303,
      "halalConfidence": "likely",
      "source": "osm"
    },
    {
      "nom": "Doner King",
      "type": "shawarma",
      "priceRange": "€€",
      "mapsUrl": "https://maps.google.com/?q=55.7078777,12.577074",
      "lat": 55.7078777,
      "lng": 12.577074,
      "halalConfidence": "likely",
      "source": "osm"
    },
    {
      "nom": "Sharwarma & Pizzahus",
      "type": "pizza, kebab",
      "priceRange": "€€",
      "mapsUrl": "https://maps.google.com/?q=55.7020016,12.5338734",
      "lat": 55.7020016,
      "lng": 12.5338734,
      "halalConfidence": "likely",
      "source": "osm"
    },
    {
      "nom": "Kolumbia Pizza",
      "type": "pakistani",
      "priceRange": "€€",
      "mapsUrl": "https://maps.google.com/?q=55.6535462,12.611288",
      "lat": 55.6535462,
      "lng": 12.611288,
      "halalConfidence": "likely",
      "source": "osm"
    },
    {
      "nom": "Durum Bar",
      "type": "kebab",
      "priceRange": "€€",
      "mapsUrl": "https://maps.google.com/?q=55.7025432,12.531916",
      "lat": 55.7025432,
      "lng": 12.531916,
      "halalConfidence": "likely",
      "source": "osm"
    },
    {
      "nom": "Campania",
      "type": "italian, indian, pizza, kebab",
      "priceRange": "€€",
      "mapsUrl": "https://maps.google.com/?q=55.709865,12.5720124",
      "lat": 55.709865,
      "lng": 12.5720124,
      "halalConfidence": "likely",
      "source": "osm"
    },
    {
      "nom": "Aladdin Pizza & Grillbar",
      "type": "grill, kebab, pasta, pizza",
      "priceRange": "€€",
      "mapsUrl": "https://maps.google.com/?q=55.6435084,12.5912945",
      "lat": 55.6435084,
      "lng": 12.5912945,
      "halalConfidence": "likely",
      "source": "osm"
    },
    {
      "nom": "Nordvest Berliner Döner",
      "type": "kebab",
      "priceRange": "€€",
      "mapsUrl": "https://maps.google.com/?q=55.7045642,12.526914",
      "lat": 55.7045642,
      "lng": 12.526914,
      "halalConfidence": "likely",
      "source": "osm"
    },
    {
      "nom": "Yilmaz Döner Kebab",
      "type": "kebab",
      "priceRange": "€€",
      "mapsUrl": "https://maps.google.com/?q=55.7045926,12.5267938",
      "lat": 55.7045926,
      "lng": 12.5267938,
      "halalConfidence": "likely",
      "source": "osm"
    },
    {
      "nom": "Pita Kebab",
      "type": "kebab",
      "priceRange": "€€",
      "mapsUrl": "https://maps.google.com/?q=55.6487771,12.6129833",
      "lat": 55.6487771,
      "lng": 12.6129833,
      "halalConfidence": "likely",
      "source": "osm"
    },
    {
      "nom": "Station Kebab",
      "type": "kebab",
      "priceRange": "€€",
      "mapsUrl": "https://maps.google.com/?q=55.6524699,12.5168221",
      "lat": 55.6524699,
      "lng": 12.5168221,
      "halalConfidence": "likely",
      "source": "osm"
    },
    {
      "nom": "Istanbul Kebabhouse",
      "type": "kebab",
      "priceRange": "€€",
      "mapsUrl": "https://maps.google.com/?q=55.6944,12.510206",
      "lat": 55.6944,
      "lng": 12.510206,
      "halalConfidence": "likely",
      "source": "osm"
    },
    {
      "nom": "Mahalle Amager",
      "type": "lebanese",
      "priceRange": "€€",
      "mapsUrl": "https://maps.google.com/?q=55.6618508,12.6298696",
      "lat": 55.6618508,
      "lng": 12.6298696,
      "halalConfidence": "likely",
      "source": "osm"
    },
    {
      "nom": "Elippa",
      "type": "lebanese",
      "priceRange": "€€",
      "mapsUrl": "https://maps.google.com/?q=55.6382798,12.5822251",
      "lat": 55.6382798,
      "lng": 12.5822251,
      "halalConfidence": "likely",
      "source": "osm"
    },
    {
      "nom": "Atlas Pizza Kebab",
      "type": "kebab",
      "priceRange": "€€",
      "mapsUrl": "https://maps.google.com/?q=55.7086711,12.5255659",
      "lat": 55.7086711,
      "lng": 12.5255659,
      "halalConfidence": "likely",
      "source": "osm"
    },
    {
      "nom": "The Moroccan Recipe",
      "type": "moroccan",
      "priceRange": "€€",
      "mapsUrl": "https://maps.google.com/?q=55.7088386,12.525891",
      "lat": 55.7088386,
      "lng": 12.525891,
      "halalConfidence": "likely",
      "source": "osm"
    },
    {
      "nom": "Restaurant Muma",
      "type": "turkish",
      "priceRange": "€€",
      "mapsUrl": "https://maps.google.com/?q=55.7057775,12.5110096",
      "lat": 55.7057775,
      "lng": 12.5110096,
      "halalConfidence": "likely",
      "source": "osm"
    },
    {
      "nom": "Kebabi",
      "type": "kebab",
      "priceRange": "€€",
      "mapsUrl": "https://maps.google.com/?q=55.6866983,12.4912378",
      "lat": 55.6866983,
      "lng": 12.4912378,
      "halalConfidence": "likely",
      "source": "osm"
    },
    {
      "nom": "Kebab Lab",
      "type": "kebab",
      "priceRange": "€€",
      "mapsUrl": "https://maps.google.com/?q=55.6513722,12.502046",
      "lat": 55.6513722,
      "lng": 12.502046,
      "halalConfidence": "likely",
      "source": "osm"
    },
    {
      "nom": "Shawams",
      "type": "shawarma",
      "priceRange": "€€",
      "mapsUrl": "https://maps.google.com/?q=55.6875273,12.4912483",
      "lat": 55.6875273,
      "lng": 12.4912483,
      "halalConfidence": "likely",
      "source": "osm"
    },
    {
      "nom": "Kohistan",
      "type": "afghan",
      "priceRange": "€€",
      "mapsUrl": "https://maps.google.com/?q=55.7159722,12.5314466",
      "lat": 55.7159722,
      "lng": 12.5314466,
      "halalConfidence": "likely",
      "source": "osm"
    },
    {
      "nom": "Chili Shawarma",
      "type": "shawarma, kebab, falafel",
      "priceRange": "€€",
      "mapsUrl": "https://maps.google.com/?q=55.630857,12.576179",
      "lat": 55.630857,
      "lng": 12.576179,
      "halalConfidence": "likely",
      "source": "osm"
    },
    {
      "nom": "emdrup kebab",
      "type": "kebab",
      "priceRange": "€€",
      "mapsUrl": "https://maps.google.com/?q=55.7193183,12.5427626",
      "lat": 55.7193183,
      "lng": 12.5427626,
      "halalConfidence": "likely",
      "source": "osm"
    },
    {
      "nom": "Ørestad Kebab",
      "type": "kebab",
      "priceRange": "€€",
      "mapsUrl": "https://maps.google.com/?q=55.6293433,12.5795261",
      "lat": 55.6293433,
      "lng": 12.5795261,
      "halalConfidence": "likely",
      "source": "osm"
    },
    {
      "nom": "Royal burger&shawarma",
      "type": "kebab, burger",
      "priceRange": "€€",
      "mapsUrl": "https://maps.google.com/?q=55.629271,12.578887",
      "lat": 55.629271,
      "lng": 12.578887,
      "halalConfidence": "likely",
      "source": "osm"
    },
    {
      "nom": "Zeynos kebab",
      "type": "kebab",
      "priceRange": "€€",
      "mapsUrl": "https://maps.google.com/?q=55.7042653,12.4992349",
      "lat": 55.7042653,
      "lng": 12.4992349,
      "halalConfidence": "likely",
      "source": "osm"
    },
    {
      "nom": "Kebab House Vanløse",
      "type": "kebab",
      "priceRange": "€€",
      "mapsUrl": "https://maps.google.com/?q=55.683416,12.483924",
      "lat": 55.683416,
      "lng": 12.483924,
      "halalConfidence": "likely",
      "source": "osm"
    },
    {
      "nom": "Mina Kebab Brønshøj",
      "type": "kebab",
      "priceRange": "€€",
      "mapsUrl": "https://maps.google.com/?q=55.704833,12.495703",
      "lat": 55.704833,
      "lng": 12.495703,
      "halalConfidence": "likely",
      "source": "osm"
    },
    {
      "nom": "Dehra Restaurant",
      "type": "pakistani",
      "priceRange": "€€",
      "mapsUrl": "https://maps.google.com/?q=55.6616634,12.483398",
      "lat": 55.6616634,
      "lng": 12.483398,
      "halalConfidence": "likely",
      "source": "osm"
    },
    {
      "nom": "Kebabhjørnet",
      "type": "kebab",
      "priceRange": "€€",
      "mapsUrl": "https://maps.google.com/?q=55.6613434,12.4830491",
      "lat": 55.6613434,
      "lng": 12.4830491,
      "halalConfidence": "likely",
      "source": "osm"
    },
    {
      "nom": "Seven Spices",
      "type": "pakistani",
      "priceRange": "€€",
      "mapsUrl": "https://maps.google.com/?q=55.6612485,12.4830984",
      "lat": 55.6612485,
      "lng": 12.4830984,
      "halalConfidence": "likely",
      "source": "osm"
    },
    {
      "nom": "Pølse og Grill",
      "type": "kebab",
      "priceRange": "€€",
      "mapsUrl": "https://maps.google.com/?q=55.6537908,12.4877403",
      "lat": 55.6537908,
      "lng": 12.4877403,
      "halalConfidence": "likely",
      "source": "osm"
    },
    {
      "nom": "Brønshøj Kebab",
      "type": "kebab",
      "priceRange": "€€",
      "mapsUrl": "https://maps.google.com/?q=55.7056595,12.4921195",
      "lat": 55.7056595,
      "lng": 12.4921195,
      "halalConfidence": "likely",
      "source": "osm"
    },
    {
      "nom": "Torvets Shawarma Kebab",
      "type": "kebab",
      "priceRange": "€€",
      "mapsUrl": "https://maps.google.com/?q=55.6722385,12.4738723",
      "lat": 55.6722385,
      "lng": 12.4738723,
      "halalConfidence": "likely",
      "source": "osm"
    },
    {
      "nom": "Watani Afghan Restaurant",
      "type": "afghan",
      "priceRange": "€€",
      "mapsUrl": "https://maps.google.com/?q=55.705879,12.4896534",
      "lat": 55.705879,
      "lng": 12.4896534,
      "halalConfidence": "likely",
      "source": "osm"
    },
    {
      "nom": "Kebab Klubben",
      "type": "kebab",
      "priceRange": "€€",
      "mapsUrl": "https://maps.google.com/?q=55.7304208,12.5761573",
      "lat": 55.7304208,
      "lng": 12.5761573,
      "halalConfidence": "likely",
      "source": "osm"
    },
    {
      "nom": "Kebaboss",
      "type": "kebab",
      "priceRange": "€€",
      "mapsUrl": "https://maps.google.com/?q=55.6648607,12.4735807",
      "lat": 55.6648607,
      "lng": 12.4735807,
      "halalConfidence": "likely",
      "source": "osm"
    },
    {
      "nom": "Quickstop Kebab",
      "type": "kebab",
      "priceRange": "€€",
      "mapsUrl": "https://maps.google.com/?q=55.7311382,12.5683158",
      "lat": 55.7311382,
      "lng": 12.5683158,
      "halalConfidence": "likely",
      "source": "osm"
    },
    {
      "nom": "Hellerup Kebab",
      "type": "kebab",
      "priceRange": "€€",
      "mapsUrl": "https://maps.google.com/?q=55.731885,12.5760581",
      "lat": 55.731885,
      "lng": 12.5760581,
      "halalConfidence": "likely",
      "source": "osm"
    },
    {
      "nom": "Chili grill kebab",
      "type": "kebab",
      "priceRange": "€€",
      "mapsUrl": "https://maps.google.com/?q=55.6370217,12.6420063",
      "lat": 55.6370217,
      "lng": 12.6420063,
      "halalConfidence": "likely",
      "source": "osm"
    },
    {
      "nom": "Berlin Gemüse Doner Kebab",
      "type": "kebab",
      "priceRange": "€€",
      "mapsUrl": "https://maps.google.com/?q=55.7302943,12.5212726",
      "lat": 55.7302943,
      "lng": 12.5212726,
      "halalConfidence": "likely",
      "source": "osm"
    },
    {
      "nom": "Husum Kebab",
      "type": "kebab",
      "priceRange": "€€",
      "mapsUrl": "https://maps.google.com/?q=55.7103981,12.4782775",
      "lat": 55.7103981,
      "lng": 12.4782775,
      "halalConfidence": "likely",
      "source": "osm"
    },
    {
      "nom": "Tadim Kebab",
      "type": "kebab",
      "priceRange": "€€",
      "mapsUrl": "https://maps.google.com/?q=55.710557,12.476658",
      "lat": 55.710557,
      "lng": 12.476658,
      "halalConfidence": "likely",
      "source": "osm"
    },
    {
      "nom": "MARRAKECH KEBAB GRIL",
      "type": "kebab",
      "priceRange": "€€",
      "mapsUrl": "https://maps.google.com/?q=55.7107382,12.476175",
      "lat": 55.7107382,
      "lng": 12.476175,
      "halalConfidence": "likely",
      "source": "osm"
    },
    {
      "nom": "Hvidovre Shawarma Grill",
      "type": "kebab",
      "priceRange": "€€",
      "mapsUrl": "https://maps.google.com/?q=55.6371894,12.4794672",
      "lat": 55.6371894,
      "lng": 12.4794672,
      "halalConfidence": "likely",
      "source": "osm"
    },
    {
      "nom": "Öz Konya",
      "type": "turkish",
      "priceRange": "€€",
      "mapsUrl": "https://maps.google.com/?q=55.6795894,12.4554984",
      "lat": 55.6795894,
      "lng": 12.4554984,
      "halalConfidence": "likely",
      "source": "osm"
    },
    {
      "nom": "Super Kebab",
      "type": "kebab",
      "priceRange": "€€",
      "mapsUrl": "https://maps.google.com/?q=55.7115486,12.4742558",
      "lat": 55.7115486,
      "lng": 12.4742558,
      "halalConfidence": "likely",
      "source": "osm"
    },
    {
      "nom": "Ruten Kebab House",
      "type": "kebab",
      "priceRange": "€€",
      "mapsUrl": "https://maps.google.com/?q=55.7185012,12.481836",
      "lat": 55.7185012,
      "lng": 12.481836,
      "halalConfidence": "likely",
      "source": "osm"
    },
    {
      "nom": "TASTEPOINT 2",
      "type": "pakistani, indian",
      "priceRange": "€€",
      "mapsUrl": "https://maps.google.com/?q=55.7185377,12.481683",
      "lat": 55.7185377,
      "lng": 12.481683,
      "halalConfidence": "likely",
      "source": "osm"
    },
    {
      "nom": "Patats Kebab & Grill",
      "type": "kebab",
      "priceRange": "€€",
      "mapsUrl": "https://maps.google.com/?q=55.711358,12.471566",
      "lat": 55.711358,
      "lng": 12.471566,
      "halalConfidence": "likely",
      "source": "osm"
    },
    {
      "nom": "Kebab Stationen",
      "type": "kebab",
      "priceRange": "€€",
      "mapsUrl": "https://maps.google.com/?q=55.6290296,12.4831662",
      "lat": 55.6290296,
      "lng": 12.4831662,
      "halalConfidence": "likely",
      "source": "osm"
    },
    {
      "nom": "Mirac Kebab",
      "type": "kebab",
      "priceRange": "€€",
      "mapsUrl": "https://maps.google.com/?q=55.7303863,12.4967992",
      "lat": 55.7303863,
      "lng": 12.4967992,
      "halalConfidence": "likely",
      "source": "osm"
    },
    {
      "nom": "MamasDaal",
      "type": "indian, pakistani",
      "priceRange": "€€",
      "mapsUrl": "https://maps.google.com/?q=55.6398365,12.4616384",
      "lat": 55.6398365,
      "lng": 12.4616384,
      "halalConfidence": "likely",
      "source": "osm"
    },
    {
      "nom": "Crazy kebab",
      "type": "kebab",
      "priceRange": "€€",
      "mapsUrl": "https://maps.google.com/?q=55.7461582,12.5421404",
      "lat": 55.7461582,
      "lng": 12.5421404,
      "halalConfidence": "likely",
      "source": "osm"
    },
    {
      "nom": "Brøndby Kebab grill",
      "type": "kebab",
      "priceRange": "€€",
      "mapsUrl": "https://maps.google.com/?q=55.6654197,12.4404353",
      "lat": 55.6654197,
      "lng": 12.4404353,
      "halalConfidence": "likely",
      "source": "osm"
    },
    {
      "nom": "Emils Kebab",
      "type": "kebab",
      "priceRange": "€€",
      "mapsUrl": "https://maps.google.com/?q=55.752005,12.5715911",
      "lat": 55.752005,
      "lng": 12.5715911,
      "halalConfidence": "likely",
      "source": "osm"
    },
    {
      "nom": "Doneros Herlev",
      "type": "shawarma",
      "priceRange": "€€",
      "mapsUrl": "https://maps.google.com/?q=55.7205374,12.4487105",
      "lat": 55.7205374,
      "lng": 12.4487105,
      "halalConfidence": "likely",
      "source": "osm"
    },
    {
      "nom": "Kebab huset",
      "type": "kebab",
      "priceRange": "€€",
      "mapsUrl": "https://maps.google.com/?q=55.6271116,12.4534959",
      "lat": 55.6271116,
      "lng": 12.4534959,
      "halalConfidence": "likely",
      "source": "osm"
    },
    {
      "nom": "Grill & Kebab House",
      "type": "burger, kebab",
      "priceRange": "€€",
      "mapsUrl": "https://maps.google.com/?q=55.7192966,12.4425104",
      "lat": 55.7192966,
      "lng": 12.4425104,
      "halalConfidence": "likely",
      "source": "osm"
    },
    {
      "nom": "Farfars Grill & Pizza House",
      "type": "pizza,  burger,  kebab",
      "priceRange": "€€",
      "mapsUrl": "https://maps.google.com/?q=55.7223531,12.441933",
      "lat": 55.7223531,
      "lng": 12.441933,
      "halalConfidence": "likely",
      "source": "osm"
    }
  ],
  "hotels": [
    {
      "nom": "The Square",
      "categorie": "Hôtel",
      "priceRange": "€€€€",
      "score": 4,
      "mapsUrl": "https://maps.google.com/?q=55.6761571,12.5669727",
      "lat": 55.6761571,
      "lng": 12.5669727,
      "halalFriendly": false,
      "bookingUrl": "https://www.thesquare.dk",
      "source": "osm"
    },
    {
      "nom": "Scandic Palace Hotel",
      "categorie": "Hôtel",
      "priceRange": "€€",
      "mapsUrl": "https://maps.google.com/?q=55.6762339,12.5703021",
      "lat": 55.6762339,
      "lng": 12.5703021,
      "halalFriendly": false,
      "bookingUrl": "https://www.scandichotels.dk/Hotels/Danmark/Kobenhavn/Palace-Hotel/",
      "source": "osm"
    },
    {
      "nom": "CitizenM Rådhuspladsen",
      "categorie": "Hôtel",
      "priceRange": "€€",
      "mapsUrl": "https://maps.google.com/?q=55.676601,12.566396",
      "lat": 55.676601,
      "lng": 12.566396,
      "halalFriendly": false,
      "bookingUrl": "https://www.citizenm.com/destinations/copenhagen/copenhagen-radhuspladsen-hotel",
      "source": "osm"
    },
    {
      "nom": "Hotel Bella Grande",
      "categorie": "Hôtel",
      "priceRange": "€€",
      "mapsUrl": "https://maps.google.com/?q=55.6775123,12.5676777",
      "lat": 55.6775123,
      "lng": 12.5676777,
      "halalFriendly": false,
      "bookingUrl": "https://hotelbellagrande.com/",
      "source": "osm"
    },
    {
      "nom": "Hotel Alexandra",
      "categorie": "Hôtel",
      "priceRange": "€€",
      "mapsUrl": "https://maps.google.com/?q=55.67701,12.56607",
      "lat": 55.67701,
      "lng": 12.56607,
      "halalFriendly": false,
      "bookingUrl": "https://hotelalexandra.dk/",
      "source": "osm"
    },
    {
      "nom": "Ascot Hotel",
      "categorie": "Hôtel",
      "priceRange": "€€",
      "mapsUrl": "https://maps.google.com/?q=55.67687,12.56538",
      "lat": 55.67687,
      "lng": 12.56538,
      "halalFriendly": false,
      "bookingUrl": "https://www.ascot-hotel.dk/",
      "source": "osm"
    },
    {
      "nom": "Motel One Copenhagen",
      "categorie": "Hôtel",
      "priceRange": "€€",
      "mapsUrl": "https://maps.google.com/?q=55.6752804,12.5727071",
      "lat": 55.6752804,
      "lng": 12.5727071,
      "halalFriendly": false,
      "bookingUrl": "https://www.motel-one.com/en/hotels/copenhagen/hotel-copenhagen/",
      "source": "osm"
    },
    {
      "nom": "Nimb Hotel",
      "categorie": "Hôtel",
      "priceRange": "€€",
      "mapsUrl": "https://maps.google.com/?q=55.6735259,12.5664399",
      "lat": 55.6735259,
      "lng": 12.5664399,
      "halalFriendly": false,
      "bookingUrl": "http://www.nimb.dk/",
      "source": "osm"
    },
    {
      "nom": "Hotel SP34",
      "categorie": "Hôtel",
      "priceRange": "€€",
      "mapsUrl": "https://maps.google.com/?q=55.6787261,12.566462",
      "lat": 55.6787261,
      "lng": 12.566462,
      "halalFriendly": false,
      "bookingUrl": "https://www.brochner-hotels.dk/hotel-sp34/",
      "source": "osm"
    },
    {
      "nom": "Radisson SAS Royal",
      "categorie": "Hôtel",
      "priceRange": "€€",
      "mapsUrl": "https://maps.google.com/?q=55.6750673,12.5634225",
      "lat": 55.6750673,
      "lng": 12.5634225,
      "halalFriendly": false,
      "bookingUrl": "https://www.radissonblu.com/royalhotel-copenhagen",
      "source": "osm"
    },
    {
      "nom": "Hotel Danmark",
      "categorie": "Hôtel",
      "priceRange": "€€",
      "mapsUrl": "https://maps.google.com/?q=55.6747227,12.5730368",
      "lat": 55.6747227,
      "lng": 12.5730368,
      "halalFriendly": false,
      "bookingUrl": "https://maps.google.com/?q=55.6747227,12.5730368",
      "source": "osm"
    },
    {
      "nom": "Copenhagen Plaza",
      "categorie": "Hôtel",
      "priceRange": "€€",
      "mapsUrl": "https://maps.google.com/?q=55.6738613,12.5646287",
      "lat": 55.6738613,
      "lng": 12.5646287,
      "halalFriendly": false,
      "bookingUrl": "https://ligula.se/profilhotels/copenhagen-plaza/",
      "source": "osm"
    },
    {
      "nom": "Copenhagen Downtown Hostel",
      "categorie": "Auberge",
      "priceRange": "€€",
      "mapsUrl": "https://maps.google.com/?q=55.6759488,12.5742396",
      "lat": 55.6759488,
      "lng": 12.5742396,
      "halalFriendly": false,
      "bookingUrl": "http://www.copenhagendowntown.com/",
      "source": "osm"
    },
    {
      "nom": "Mercur Hotel",
      "categorie": "Hôtel",
      "priceRange": "€€",
      "mapsUrl": "https://maps.google.com/?q=55.6765536,12.561795",
      "lat": 55.6765536,
      "lng": 12.561795,
      "halalFriendly": false,
      "bookingUrl": "https://ligula.se/profilhotels/mercur-hotel/",
      "source": "osm"
    },
    {
      "nom": "Imperial",
      "categorie": "Hôtel",
      "priceRange": "€€€€",
      "score": 4,
      "mapsUrl": "https://maps.google.com/?q=55.6756448,12.5616263",
      "lat": 55.6756448,
      "lng": 12.5616263,
      "halalFriendly": false,
      "bookingUrl": "https://www.imperial-hotel-copenhagen.com",
      "source": "osm"
    },
    {
      "nom": "Astoria",
      "categorie": "Hôtel",
      "priceRange": "€€",
      "mapsUrl": "https://maps.google.com/?q=55.6734251,12.5631089",
      "lat": 55.6734251,
      "lng": 12.5631089,
      "halalFriendly": false,
      "bookingUrl": "https://maps.google.com/?q=55.6734251,12.5631089",
      "source": "osm"
    },
    {
      "nom": "Richmond Hotel",
      "categorie": "Hôtel",
      "priceRange": "€€",
      "mapsUrl": "https://maps.google.com/?q=55.678613,12.562586",
      "lat": 55.678613,
      "lng": 12.562586,
      "halalFriendly": false,
      "bookingUrl": "https://ligula.se/profilhotels/richmond-hotel/",
      "source": "osm"
    },
    {
      "nom": "Grand Hotel",
      "categorie": "Hôtel",
      "priceRange": "€€",
      "mapsUrl": "https://maps.google.com/?q=55.6735499,12.5624651",
      "lat": 55.6735499,
      "lng": 12.5624651,
      "halalFriendly": false,
      "bookingUrl": "https://maps.google.com/?q=55.6735499,12.5624651",
      "source": "osm"
    },
    {
      "nom": "Steel House",
      "categorie": "Auberge",
      "priceRange": "€€",
      "mapsUrl": "https://maps.google.com/?q=55.676257,12.560096",
      "lat": 55.676257,
      "lng": 12.560096,
      "halalFriendly": false,
      "bookingUrl": "https://www.steelhousecopenhagen.com/",
      "source": "osm"
    },
    {
      "nom": "Villa Copenhagen",
      "categorie": "Hôtel",
      "priceRange": "€€€€",
      "score": 5,
      "mapsUrl": "https://maps.google.com/?q=55.6714034,12.5677356",
      "lat": 55.6714034,
      "lng": 12.5677356,
      "halalFriendly": false,
      "bookingUrl": "https://villacopenhagen.com/",
      "source": "osm"
    },
    {
      "nom": "Nobis Hotel Copenhagen",
      "categorie": "Hôtel",
      "priceRange": "€€",
      "mapsUrl": "https://maps.google.com/?q=55.6723955,12.5734895",
      "lat": 55.6723955,
      "lng": 12.5734895,
      "halalFriendly": false,
      "bookingUrl": "https://nobishotel.dk/",
      "source": "osm"
    },
    {
      "nom": "City Hotel Nebo",
      "categorie": "Hôtel",
      "priceRange": "€€",
      "mapsUrl": "https://maps.google.com/?q=55.6723046,12.5627761",
      "lat": 55.6723046,
      "lng": 12.5627761,
      "halalFriendly": false,
      "bookingUrl": "http://www.nebo.dk/",
      "source": "osm"
    },
    {
      "nom": "Scandic Copenhagen",
      "categorie": "Hôtel",
      "priceRange": "€€",
      "mapsUrl": "https://maps.google.com/?q=55.6749964,12.5596357",
      "lat": 55.6749964,
      "lng": 12.5596357,
      "halalFriendly": false,
      "bookingUrl": "https://www.scandichotels.com/Hotels/Denmark/Copenhagen/Scandic-Copenhagen/",
      "source": "osm"
    },
    {
      "nom": "Comfort Hotel Excelsior",
      "categorie": "Hôtel",
      "priceRange": "€€",
      "mapsUrl": "https://maps.google.com/?q=55.6726087,12.5616921",
      "lat": 55.6726087,
      "lng": 12.5616921,
      "halalFriendly": false,
      "bookingUrl": "https://maps.google.com/?q=55.6726087,12.5616921",
      "source": "osm"
    },
    {
      "nom": "Scandic Webers Hotel",
      "categorie": "Hôtel",
      "priceRange": "€€",
      "mapsUrl": "https://maps.google.com/?q=55.673118,12.5608649",
      "lat": 55.673118,
      "lng": 12.5608649,
      "halalFriendly": false,
      "bookingUrl": "https://maps.google.com/?q=55.673118,12.5608649",
      "source": "osm"
    },
    {
      "nom": "Meiniger Hotel Copenhagen (former Urban House Copenhagen)",
      "categorie": "Auberge",
      "priceRange": "€€",
      "mapsUrl": "https://maps.google.com/?q=55.6722103,12.5623271",
      "lat": 55.6722103,
      "lng": 12.5623271,
      "halalFriendly": false,
      "bookingUrl": "https://www.meininger-hotels.com/en/hotels/copenhagen/hotel-copenhagen-urban-house/",
      "source": "osm"
    },
    {
      "nom": "Turist Hotellet",
      "categorie": "Hôtel",
      "priceRange": "€€",
      "mapsUrl": "https://maps.google.com/?q=55.6716956,12.5634589",
      "lat": 55.6716956,
      "lng": 12.5634589,
      "halalFriendly": false,
      "bookingUrl": "https://maps.google.com/?q=55.6716956,12.5634589",
      "source": "osm"
    },
    {
      "nom": "1 Hotel Copenhagen",
      "categorie": "Hôtel",
      "priceRange": "€€",
      "mapsUrl": "https://maps.google.com/?q=55.6808491,12.5720614",
      "lat": 55.6808491,
      "lng": 12.5720614,
      "halalFriendly": false,
      "bookingUrl": "https://www.1hotels.com/copenhagen",
      "source": "osm"
    },
    {
      "nom": "Hotel Mayfair",
      "categorie": "Hôtel",
      "priceRange": "€€",
      "mapsUrl": "https://maps.google.com/?q=55.6727461,12.5611509",
      "lat": 55.6727461,
      "lng": 12.5611509,
      "halalFriendly": false,
      "bookingUrl": "https://www.hotelmayfair.dk/",
      "source": "osm"
    },
    {
      "nom": "Good Morning City Copenhagen Star",
      "categorie": "Hôtel",
      "priceRange": "€€",
      "mapsUrl": "https://maps.google.com/?q=55.6719041,12.5625434",
      "lat": 55.6719041,
      "lng": 12.5625434,
      "halalFriendly": false,
      "bookingUrl": "https://ligula.se/da/goodmorninghotels/copenhagen-star/",
      "source": "osm"
    },
    {
      "nom": "Axel Guldsmeden",
      "categorie": "Hôtel",
      "priceRange": "€€",
      "mapsUrl": "https://maps.google.com/?q=55.6720873,12.5620262",
      "lat": 55.6720873,
      "lng": 12.5620262,
      "halalFriendly": false,
      "bookingUrl": "https://maps.google.com/?q=55.6720873,12.5620262",
      "source": "osm"
    },
    {
      "nom": "Hotel Du Nord",
      "categorie": "Hôtel",
      "priceRange": "€€€",
      "score": 3,
      "mapsUrl": "https://maps.google.com/?q=55.6720731,12.5619597",
      "lat": 55.6720731,
      "lng": 12.5619597,
      "halalFriendly": false,
      "bookingUrl": "https://hoteldunord.dk/",
      "source": "osm"
    },
    {
      "nom": "Hebron",
      "categorie": "Hôtel",
      "priceRange": "€€",
      "mapsUrl": "https://maps.google.com/?q=55.6726211,12.5607845",
      "lat": 55.6726211,
      "lng": 12.5607845,
      "halalFriendly": false,
      "bookingUrl": "https://www.hebron.dk/",
      "source": "osm"
    },
    {
      "nom": "Go Hotel Saga",
      "categorie": "Hôtel",
      "priceRange": "€€",
      "score": 2,
      "mapsUrl": "https://maps.google.com/?q=55.6715774,12.5624497",
      "lat": 55.6715774,
      "lng": 12.5624497,
      "halalFriendly": false,
      "bookingUrl": "https://go-hotel.com/hoteller/go-hotel-saga",
      "source": "osm"
    },
    {
      "nom": "Cabinn City",
      "categorie": "Hôtel",
      "priceRange": "€€",
      "mapsUrl": "https://maps.google.com/?q=55.6705905,12.5708002",
      "lat": 55.6705905,
      "lng": 12.5708002,
      "halalFriendly": false,
      "bookingUrl": "https://www.cabinn.com/",
      "source": "osm"
    },
    {
      "nom": "Eric Vökel Boutique Apartments",
      "categorie": "Hôtel",
      "priceRange": "€€",
      "mapsUrl": "https://maps.google.com/?q=55.6709396,12.5636125",
      "lat": 55.6709396,
      "lng": 12.5636125,
      "halalFriendly": false,
      "bookingUrl": "https://ericvokel.com/en/hotel/eric-vokel-copenhagen-suites",
      "source": "osm"
    },
    {
      "nom": "Absalon Hotel",
      "categorie": "Hôtel",
      "priceRange": "€€",
      "mapsUrl": "https://maps.google.com/?q=55.6716638,12.561597",
      "lat": 55.6716638,
      "lng": 12.561597,
      "halalFriendly": false,
      "bookingUrl": "https://www.absalon-hotel.dk/",
      "source": "osm"
    },
    {
      "nom": "Manon les Suites",
      "categorie": "Hôtel",
      "priceRange": "€€",
      "mapsUrl": "https://maps.google.com/?q=55.6803806,12.5612532",
      "lat": 55.6803806,
      "lng": 12.5612532,
      "halalFriendly": false,
      "bookingUrl": "https://guldsmedenhotels.com/manon-les-suites/",
      "source": "osm"
    },
    {
      "nom": "Andersen Hotel",
      "categorie": "Hôtel",
      "priceRange": "€€",
      "mapsUrl": "https://maps.google.com/?q=55.6718769,12.561113",
      "lat": 55.6718769,
      "lng": 12.561113,
      "halalFriendly": false,
      "bookingUrl": "https://andersen-hotel.dk/",
      "source": "osm"
    },
    {
      "nom": "Ansgar",
      "categorie": "Hôtel",
      "priceRange": "€€",
      "mapsUrl": "https://maps.google.com/?q=55.6708191,12.5637437",
      "lat": 55.6708191,
      "lng": 12.5637437,
      "halalFriendly": false,
      "bookingUrl": "http://www.ansgarhotel.dk/en/",
      "source": "osm"
    },
    {
      "nom": "Tiffany",
      "categorie": "Hôtel",
      "priceRange": "€€",
      "mapsUrl": "https://maps.google.com/?q=55.6708934,12.5631637",
      "lat": 55.6708934,
      "lng": 12.5631637,
      "halalFriendly": false,
      "bookingUrl": "https://maps.google.com/?q=55.6708934,12.5631637",
      "source": "osm"
    },
    {
      "nom": "Annex Copenhagen",
      "categorie": "Hôtel",
      "priceRange": "€€",
      "mapsUrl": "https://maps.google.com/?q=55.6713478,12.5617494",
      "lat": 55.6713478,
      "lng": 12.5617494,
      "halalFriendly": false,
      "bookingUrl": "https://annexcopenhagen.dk/",
      "source": "osm"
    },
    {
      "nom": "Four Points Flex by Sheraton Copenhagen City",
      "categorie": "Hôtel",
      "priceRange": "€€",
      "mapsUrl": "https://maps.google.com/?q=55.6715632,12.5612214",
      "lat": 55.6715632,
      "lng": 12.5612214,
      "halalFriendly": false,
      "bookingUrl": "https://www.marriott.com/en-us/hotels/cphcf-four-points-flex-copenhagen-city/",
      "source": "osm"
    },
    {
      "nom": "Comfort Hotel Vesterbro",
      "categorie": "Hôtel",
      "priceRange": "€€",
      "mapsUrl": "https://maps.google.com/?q=55.6728626,12.5591356",
      "lat": 55.6728626,
      "lng": 12.5591356,
      "halalFriendly": false,
      "bookingUrl": "https://maps.google.com/?q=55.6728626,12.5591356",
      "source": "osm"
    },
    {
      "nom": "Church of Scientology Hotel",
      "categorie": "Hôtel",
      "priceRange": "€€",
      "mapsUrl": "https://maps.google.com/?q=55.6730773,12.5584646",
      "lat": 55.6730773,
      "lng": 12.5584646,
      "halalFriendly": false,
      "bookingUrl": "https://maps.google.com/?q=55.6730773,12.5584646",
      "source": "osm"
    },
    {
      "nom": "Next House",
      "categorie": "Auberge",
      "priceRange": "€€",
      "mapsUrl": "https://maps.google.com/?q=55.6696312,12.5709088",
      "lat": 55.6696312,
      "lng": 12.5709088,
      "halalFriendly": false,
      "bookingUrl": "https://www.nexthousecopenhagen.com",
      "source": "osm"
    },
    {
      "nom": "Danhostel Copenhagen City",
      "categorie": "Auberge",
      "priceRange": "€€",
      "mapsUrl": "https://maps.google.com/?q=55.6709636,12.5765245",
      "lat": 55.6709636,
      "lng": 12.5765245,
      "halalFriendly": false,
      "bookingUrl": "https://danhostelcopenhagencity.dk/",
      "source": "osm"
    },
    {
      "nom": "Woodah Boutique Hostel",
      "categorie": "Auberge",
      "priceRange": "€€",
      "mapsUrl": "https://maps.google.com/?q=55.6719237,12.5579467",
      "lat": 55.6719237,
      "lng": 12.5579467,
      "halalFriendly": false,
      "bookingUrl": "https://www.nakka.dk/woodahboutiquehostel",
      "source": "osm"
    },
    {
      "nom": "A-Hotels City",
      "categorie": "Hôtel",
      "priceRange": "€€",
      "mapsUrl": "https://maps.google.com/?q=55.6723846,12.557274",
      "lat": 55.6723846,
      "lng": 12.557274,
      "halalFriendly": false,
      "bookingUrl": "https://www.a-hotel.com/da/danmark/14696-kobenhavn/331167-1-a-hotels-city/",
      "source": "osm"
    },
    {
      "nom": "Løven",
      "categorie": "Hôtel",
      "priceRange": "€€",
      "mapsUrl": "https://maps.google.com/?q=55.6726976,12.5569343",
      "lat": 55.6726976,
      "lng": 12.5569343,
      "halalFriendly": false,
      "bookingUrl": "https://www.loevenhotel.dk/",
      "source": "osm"
    },
    {
      "nom": "Wakeup Bernstorffsgade",
      "categorie": "Hôtel",
      "priceRange": "€€",
      "mapsUrl": "https://maps.google.com/?q=55.669055,12.571691",
      "lat": 55.669055,
      "lng": 12.571691,
      "halalFriendly": false,
      "bookingUrl": "https://maps.google.com/?q=55.669055,12.571691",
      "source": "osm"
    },
    {
      "nom": "Apēron Apartment Hotel",
      "categorie": "Hôtel",
      "priceRange": "€€",
      "mapsUrl": "https://maps.google.com/?q=55.6823105,12.5754536",
      "lat": 55.6823105,
      "lng": 12.5754536,
      "halalFriendly": false,
      "bookingUrl": "https://nordcollection.dk/en/hotels/aperon-apartment-hotel/",
      "source": "osm"
    },
    {
      "nom": "25Hours",
      "categorie": "Hôtel",
      "priceRange": "€€",
      "mapsUrl": "https://maps.google.com/?q=55.6816539,12.5771263",
      "lat": 55.6816539,
      "lng": 12.5771263,
      "halalFriendly": false,
      "bookingUrl": "https://www.25hours-hotels.com/dansk/hotels/kobenhavn/indre-by",
      "source": "osm"
    },
    {
      "nom": "DGI-byens Hotel",
      "categorie": "Hôtel",
      "priceRange": "€€",
      "mapsUrl": "https://maps.google.com/?q=55.6689142,12.5640943",
      "lat": 55.6689142,
      "lng": 12.5640943,
      "halalFriendly": false,
      "bookingUrl": "https://maps.google.com/?q=55.6689142,12.5640943",
      "source": "osm"
    },
    {
      "nom": "CPH Hotel",
      "categorie": "Hôtel",
      "priceRange": "€€",
      "mapsUrl": "https://maps.google.com/?q=55.6689146,12.5640893",
      "lat": 55.6689146,
      "lng": 12.5640893,
      "halalFriendly": false,
      "bookingUrl": "https://maps.google.com/?q=55.6689146,12.5640893",
      "source": "osm"
    },
    {
      "nom": "Coco Hotel",
      "categorie": "Hôtel",
      "priceRange": "€€",
      "mapsUrl": "https://maps.google.com/?q=55.6723901,12.556593",
      "lat": 55.6723901,
      "lng": 12.556593,
      "halalFriendly": false,
      "bookingUrl": "https://maps.google.com/?q=55.6723901,12.556593",
      "source": "osm"
    },
    {
      "nom": "Savoy",
      "categorie": "Hôtel",
      "priceRange": "€€",
      "mapsUrl": "https://maps.google.com/?q=55.6725796,12.5563501",
      "lat": 55.6725796,
      "lng": 12.5563501,
      "halalFriendly": false,
      "bookingUrl": "https://www.savoyhotel.dk/",
      "source": "osm"
    },
    {
      "nom": "Scandic Nørreport",
      "categorie": "Hôtel",
      "priceRange": "€€",
      "mapsUrl": "https://maps.google.com/?q=55.6838015,12.5717839",
      "lat": 55.6838015,
      "lng": 12.5717839,
      "halalFriendly": false,
      "bookingUrl": "https://www.scandichotels.com",
      "source": "osm"
    },
    {
      "nom": "Copenhagen Marriott Hotel",
      "categorie": "Hôtel",
      "priceRange": "€€€€",
      "score": 5,
      "mapsUrl": "https://maps.google.com/?q=55.6685574,12.5737511",
      "lat": 55.6685574,
      "lng": 12.5737511,
      "halalFriendly": false,
      "bookingUrl": "https://www.marriott.com/hotels/travel/cphdk-copenhagen-marriott-hotel/",
      "source": "osm"
    },
    {
      "nom": "Boutique Hotel Herman K",
      "categorie": "Hôtel",
      "priceRange": "€€",
      "mapsUrl": "https://maps.google.com/?q=55.6789094,12.5827018",
      "lat": 55.6789094,
      "lng": 12.5827018,
      "halalFriendly": false,
      "bookingUrl": "https://hermank.dk/",
      "source": "osm"
    },
    {
      "nom": "Cab-Inn Scandinavia",
      "categorie": "Hôtel",
      "priceRange": "€€",
      "mapsUrl": "https://maps.google.com/?q=55.6808153,12.5555225",
      "lat": 55.6808153,
      "lng": 12.5555225,
      "halalFriendly": false,
      "bookingUrl": "https://www.cabinn.com/",
      "source": "osm"
    },
    {
      "nom": "Ibsens Hotel",
      "categorie": "Hôtel",
      "priceRange": "€€",
      "mapsUrl": "https://maps.google.com/?q=55.6846523,12.566266",
      "lat": 55.6846523,
      "lng": 12.566266,
      "halalFriendly": false,
      "bookingUrl": "https://www.arthurhotels.dk/ibsens-hotel/",
      "source": "osm"
    },
    {
      "nom": "Kong Arthur",
      "categorie": "Hôtel",
      "priceRange": "€€",
      "mapsUrl": "https://maps.google.com/?q=55.6847597,12.5649941",
      "lat": 55.6847597,
      "lng": 12.5649941,
      "halalFriendly": false,
      "bookingUrl": "https://www.arthurhotels.dk/dk/hotel-kong-arthur/",
      "source": "osm"
    },
    {
      "nom": "CPH Living",
      "categorie": "Hôtel",
      "priceRange": "€€",
      "mapsUrl": "https://maps.google.com/?q=55.6701818,12.5800651",
      "lat": 55.6701818,
      "lng": 12.5800651,
      "halalFriendly": false,
      "bookingUrl": "https://www.cphliving.com/",
      "source": "osm"
    },
    {
      "nom": "Mar-k Waterside",
      "categorie": "Maison d'hôtes",
      "priceRange": "€€",
      "mapsUrl": "https://maps.google.com/?q=55.670626,12.5807653",
      "lat": 55.670626,
      "lng": 12.5807653,
      "halalFriendly": false,
      "bookingUrl": "https://www.mar-k-waterside.dk/",
      "source": "osm"
    },
    {
      "nom": "Wakeup Copenhagen",
      "categorie": "Hôtel",
      "priceRange": "€€",
      "mapsUrl": "https://maps.google.com/?q=55.6669898,12.5665957",
      "lat": 55.6669898,
      "lng": 12.5665957,
      "halalFriendly": false,
      "bookingUrl": "https://www.wakeupcopenhagen.dk",
      "source": "osm"
    },
    {
      "nom": "Carlton Guldsmeden",
      "categorie": "Hôtel",
      "priceRange": "€€",
      "mapsUrl": "https://maps.google.com/?q=55.672976,12.5525497",
      "lat": 55.672976,
      "lng": 12.5525497,
      "halalFriendly": false,
      "bookingUrl": "https://www.hotelguldsmeden.com/carlton/",
      "source": "osm"
    },
    {
      "nom": "City Public Hostel",
      "categorie": "Auberge",
      "priceRange": "€€",
      "mapsUrl": "https://maps.google.com/?q=55.6717017,12.5532398",
      "lat": 55.6717017,
      "lng": 12.5532398,
      "halalFriendly": false,
      "bookingUrl": "https://www.vesterbro-ungdomsgaard.dk/",
      "source": "osm"
    },
    {
      "nom": "Guldsmeden København",
      "categorie": "Hôtel",
      "priceRange": "€€",
      "mapsUrl": "https://maps.google.com/?q=55.6727216,12.5524159",
      "lat": 55.6727216,
      "lng": 12.5524159,
      "halalFriendly": false,
      "bookingUrl": "https://maps.google.com/?q=55.6727216,12.5524159",
      "source": "osm"
    },
    {
      "nom": "Central Hotel & Cafe",
      "categorie": "Hôtel",
      "priceRange": "€€",
      "mapsUrl": "https://maps.google.com/?q=55.6739396,12.5515186",
      "lat": 55.6739396,
      "lng": 12.5515186,
      "halalFriendly": false,
      "bookingUrl": "http://www.centralhotelogcafe.dk/",
      "source": "osm"
    },
    {
      "nom": "Hotel d’Angleterre",
      "categorie": "Hôtel",
      "priceRange": "€€",
      "mapsUrl": "https://maps.google.com/?q=55.6805531,12.5840798",
      "lat": 55.6805531,
      "lng": 12.5840798,
      "halalFriendly": false,
      "bookingUrl": "http://www.dangleterre.dk/",
      "source": "osm"
    },
    {
      "nom": "Hotel West",
      "categorie": "Hôtel",
      "priceRange": "€€",
      "mapsUrl": "https://maps.google.com/?q=55.6718007,12.5523627",
      "lat": 55.6718007,
      "lng": 12.5523627,
      "halalFriendly": false,
      "bookingUrl": "https://maps.google.com/?q=55.6718007,12.5523627",
      "source": "osm"
    },
    {
      "nom": "Tivoli Hotel og Konferencecenter",
      "categorie": "Hôtel",
      "priceRange": "€€",
      "mapsUrl": "https://maps.google.com/?q=55.6659801,12.5666083",
      "lat": 55.6659801,
      "lng": 12.5666083,
      "halalFriendly": false,
      "bookingUrl": "https://www.tivolihotel.dk/",
      "source": "osm"
    },
    {
      "nom": "Generator Copenhagen",
      "categorie": "Auberge",
      "priceRange": "€€",
      "mapsUrl": "https://maps.google.com/?q=55.6829255,12.5826069",
      "lat": 55.6829255,
      "lng": 12.5826069,
      "halalFriendly": false,
      "bookingUrl": "https://generatorhostels.com/destinations/copenhagen",
      "source": "osm"
    },
    {
      "nom": "Cab-Inn",
      "categorie": "Hôtel",
      "priceRange": "€€",
      "mapsUrl": "https://maps.google.com/?q=55.6795619,12.5503985",
      "lat": 55.6795619,
      "lng": 12.5503985,
      "halalFriendly": false,
      "bookingUrl": "https://maps.google.com/?q=55.6795619,12.5503985",
      "source": "osm"
    },
    {
      "nom": "Hotel Euroglobe",
      "categorie": "Hôtel",
      "priceRange": "€€",
      "mapsUrl": "https://maps.google.com/?q=55.6784566,12.5497563",
      "lat": 55.6784566,
      "lng": 12.5497563,
      "halalFriendly": false,
      "bookingUrl": "https://www.hoteleuroglobe.dk/en",
      "source": "osm"
    },
    {
      "nom": "Hotel Sanders",
      "categorie": "Hôtel",
      "priceRange": "€€€€",
      "score": 5,
      "mapsUrl": "https://maps.google.com/?q=55.6784296,12.5875614",
      "lat": 55.6784296,
      "lng": 12.5875614,
      "halalFriendly": false,
      "bookingUrl": "https://hotelsanders.com/",
      "source": "osm"
    },
    {
      "nom": "Wakeup Borgergade",
      "categorie": "Hôtel",
      "priceRange": "€€",
      "score": 2,
      "mapsUrl": "https://maps.google.com/?q=55.6829851,12.5841218",
      "lat": 55.6829851,
      "lng": 12.5841218,
      "halalFriendly": false,
      "bookingUrl": "https://maps.google.com/?q=55.6829851,12.5841218",
      "source": "osm"
    },
    {
      "nom": "NH Collection Copenhagen",
      "categorie": "Hôtel",
      "priceRange": "€€€€",
      "score": 5,
      "mapsUrl": "https://maps.google.com/?q=55.6737765,12.5879999",
      "lat": 55.6737765,
      "lng": 12.5879999,
      "halalFriendly": false,
      "bookingUrl": "https://www.nh-collection.com/en/hotel/nh-collection-copenhagen",
      "source": "osm"
    },
    {
      "nom": "Hotellet",
      "categorie": "Hôtel",
      "priceRange": "€€",
      "mapsUrl": "https://maps.google.com/?q=55.670911,12.549967",
      "lat": 55.670911,
      "lng": 12.549967,
      "halalFriendly": false,
      "bookingUrl": "https://hotellet-vesterbro.kk.dk/",
      "source": "osm"
    },
    {
      "nom": "Hotel City",
      "categorie": "Hôtel",
      "priceRange": "€€€€",
      "score": 4,
      "mapsUrl": "https://maps.google.com/?q=55.6773527,12.5889809",
      "lat": 55.6773527,
      "lng": 12.5889809,
      "halalFriendly": false,
      "bookingUrl": "https://www.hotelcity.dk/",
      "source": "osm"
    },
    {
      "nom": "Sanct Thomas",
      "categorie": "Hôtel",
      "priceRange": "€€",
      "mapsUrl": "https://maps.google.com/?q=55.672848,12.548297",
      "lat": 55.672848,
      "lng": 12.548297,
      "halalFriendly": false,
      "bookingUrl": "https://www.hotelsctthomas.dk/",
      "source": "osm"
    },
    {
      "nom": "Petra",
      "categorie": "Hôtel",
      "priceRange": "€€",
      "mapsUrl": "https://maps.google.com/?q=55.6845384,12.5834327",
      "lat": 55.6845384,
      "lng": 12.5834327,
      "halalFriendly": false,
      "bookingUrl": "https://hotel-petra.com/",
      "source": "osm"
    },
    {
      "nom": "Hotel Maritime",
      "categorie": "Hôtel",
      "priceRange": "€€€",
      "score": 3,
      "mapsUrl": "https://maps.google.com/?q=55.6775061,12.5894719",
      "lat": 55.6775061,
      "lng": 12.5894719,
      "halalFriendly": false,
      "bookingUrl": "https://hotel-maritime.dk/",
      "source": "osm"
    },
    {
      "nom": "YMCA Interpoint Hostel",
      "categorie": "Auberge",
      "priceRange": "€€",
      "mapsUrl": "https://maps.google.com/?q=55.6709188,12.5487885",
      "lat": 55.6709188,
      "lng": 12.5487885,
      "halalFriendly": false,
      "bookingUrl": "http://www.ymca-interpoint.dk",
      "source": "osm"
    },
    {
      "nom": "Copenhagen Strand",
      "categorie": "Hôtel",
      "priceRange": "€€€€",
      "score": 4,
      "mapsUrl": "https://maps.google.com/?q=55.67723,12.590152",
      "lat": 55.67723,
      "lng": 12.590152,
      "halalFriendly": false,
      "bookingUrl": "https://www.copenhagenstrand.dk/",
      "source": "osm"
    },
    {
      "nom": "Hotel Hans",
      "categorie": "Hôtel",
      "priceRange": "€€",
      "mapsUrl": "https://maps.google.com/?q=55.6847889,12.5525697",
      "lat": 55.6847889,
      "lng": 12.5525697,
      "halalFriendly": false,
      "bookingUrl": "https://www.brochner-hotels.dk/vores-locations/hotel-hans/",
      "source": "osm"
    },
    {
      "nom": "Hotel Nora",
      "categorie": "Hôtel",
      "priceRange": "€€",
      "mapsUrl": "https://maps.google.com/?q=55.6881862,12.560604",
      "lat": 55.6881862,
      "lng": 12.560604,
      "halalFriendly": false,
      "bookingUrl": "https://maps.google.com/?q=55.6881862,12.560604",
      "source": "osm"
    },
    {
      "nom": "Hotel Copenhagen",
      "categorie": "Hôtel",
      "priceRange": "€€",
      "mapsUrl": "https://maps.google.com/?q=55.665246,12.5807473",
      "lat": 55.665246,
      "lng": 12.5807473,
      "halalFriendly": false,
      "bookingUrl": "http://www.hotelcopenhagen.dk/",
      "source": "osm"
    },
    {
      "nom": "CityHub",
      "categorie": "Auberge",
      "priceRange": "€€",
      "mapsUrl": "https://maps.google.com/?q=55.671656,12.546626",
      "lat": 55.671656,
      "lng": 12.546626,
      "halalFriendly": false,
      "bookingUrl": "https://cityhub.com/copenhagen/",
      "source": "osm"
    },
    {
      "nom": "Copenhagen Island",
      "categorie": "Hôtel",
      "priceRange": "€€",
      "mapsUrl": "https://maps.google.com/?q=55.6633682,12.5632675",
      "lat": 55.6633682,
      "lng": 12.5632675,
      "halalFriendly": false,
      "bookingUrl": "https://www.copenhagenisland.com/",
      "source": "osm"
    },
    {
      "nom": "Globalhagen Hostel",
      "categorie": "Auberge",
      "priceRange": "€€",
      "mapsUrl": "https://maps.google.com/?q=55.6886922,12.5619414",
      "lat": 55.6886922,
      "lng": 12.5619414,
      "halalFriendly": false,
      "bookingUrl": "https://www.globalhagen.dk",
      "source": "osm"
    },
    {
      "nom": "Hotel Bethel",
      "categorie": "Hôtel",
      "priceRange": "€€",
      "mapsUrl": "https://maps.google.com/?q=55.6794823,12.5907444",
      "lat": 55.6794823,
      "lng": 12.5907444,
      "halalFriendly": false,
      "bookingUrl": "https://maps.google.com/?q=55.6794823,12.5907444",
      "source": "osm"
    },
    {
      "nom": "Phoenix Copenhagen",
      "categorie": "Hôtel",
      "priceRange": "€€€€",
      "score": 4,
      "mapsUrl": "https://maps.google.com/?q=55.6829397,12.5889295",
      "lat": 55.6829397,
      "lng": 12.5889295,
      "halalFriendly": false,
      "bookingUrl": "https://www.phoenixcopenhagen.dk/",
      "source": "osm"
    },
    {
      "nom": "Radisson Blu",
      "categorie": "Hôtel",
      "priceRange": "€€",
      "mapsUrl": "https://maps.google.com/?q=55.6671214,12.5862404",
      "lat": 55.6671214,
      "lng": 12.5862404,
      "halalFriendly": false,
      "bookingUrl": "https://www.radissonblu.com/scandinaviahotel-copenhagen",
      "source": "osm"
    },
    {
      "nom": "Hotel Sankt Annæ",
      "categorie": "Hôtel",
      "priceRange": "€€€€",
      "score": 4,
      "mapsUrl": "https://maps.google.com/?q=55.6812356,12.5917532",
      "lat": 55.6812356,
      "lng": 12.5917532,
      "halalFriendly": false,
      "bookingUrl": "https://hotelsktannae.dk/",
      "source": "osm"
    },
    {
      "nom": "MS Mary",
      "categorie": "Hôtel",
      "priceRange": "€€",
      "mapsUrl": "https://maps.google.com/?q=55.6792814,12.5929566",
      "lat": 55.6792814,
      "lng": 12.5929566,
      "halalFriendly": false,
      "bookingUrl": "http://ms-mary-nyhavn.copenhagen-hotel.net/",
      "source": "osm"
    },
    {
      "nom": "Nyhavn63",
      "categorie": "Auberge",
      "priceRange": "€€",
      "mapsUrl": "https://maps.google.com/?q=55.6799751,12.5927888",
      "lat": 55.6799751,
      "lng": 12.5927888,
      "halalFriendly": false,
      "bookingUrl": "https://www.nyhavn63.com/",
      "source": "osm"
    },
    {
      "nom": "Sleep in Heaven",
      "categorie": "Auberge",
      "priceRange": "€€",
      "mapsUrl": "https://maps.google.com/?q=55.6867883,12.5505333",
      "lat": 55.6867883,
      "lng": 12.5505333,
      "halalFriendly": false,
      "bookingUrl": "https://www.sleepinheaven.com/",
      "source": "osm"
    },
    {
      "nom": "71 Nyhavn Hotel",
      "categorie": "Hôtel",
      "priceRange": "€€",
      "mapsUrl": "https://maps.google.com/?q=55.6794329,12.5937018",
      "lat": 55.6794329,
      "lng": 12.5937018,
      "halalFriendly": false,
      "bookingUrl": "https://www.71nyhavnhotel.dk/",
      "source": "osm"
    },
    {
      "nom": "Bryggen Guldesmeden Hotel",
      "categorie": "Hôtel",
      "priceRange": "€€",
      "mapsUrl": "https://maps.google.com/?q=55.6624151,12.5791082",
      "lat": 55.6624151,
      "lng": 12.5791082,
      "halalFriendly": false,
      "bookingUrl": "https://guldsmedenhotels.com/bryggen-guldsmeden/",
      "source": "osm"
    },
    {
      "nom": "Scandic Front",
      "categorie": "Hôtel",
      "priceRange": "€€€€",
      "score": 4,
      "mapsUrl": "https://maps.google.com/?q=55.6813212,12.593295",
      "lat": 55.6813212,
      "lng": 12.593295,
      "halalFriendly": false,
      "bookingUrl": "https://maps.google.com/?q=55.6813212,12.593295",
      "source": "osm"
    },
    {
      "nom": "Kanalhuset",
      "categorie": "Hôtel",
      "priceRange": "€€",
      "mapsUrl": "https://maps.google.com/?q=55.67452,12.595033",
      "lat": 55.67452,
      "lng": 12.595033,
      "halalFriendly": false,
      "bookingUrl": "https://kanalhusetcph.com/",
      "source": "osm"
    },
    {
      "nom": "Vogelkop",
      "categorie": "Maison d'hôtes",
      "priceRange": "€€",
      "mapsUrl": "https://maps.google.com/?q=55.6663792,12.5473684",
      "lat": 55.6663792,
      "lng": 12.5473684,
      "halalFriendly": false,
      "bookingUrl": "https://vogelkop.dk/",
      "source": "osm"
    },
    {
      "nom": "Admiral",
      "categorie": "Hôtel",
      "priceRange": "€€€€",
      "score": 4,
      "mapsUrl": "https://maps.google.com/?q=55.6819022,12.5938049",
      "lat": 55.6819022,
      "lng": 12.5938049,
      "halalFriendly": false,
      "bookingUrl": "https://admiralhotel.dk/",
      "source": "osm"
    },
    {
      "nom": "25hours Hotel Paper Island",
      "categorie": "Hôtel",
      "priceRange": "€€",
      "mapsUrl": "https://maps.google.com/?q=55.6793152,12.5996598",
      "lat": 55.6793152,
      "lng": 12.5996598,
      "halalFriendly": false,
      "bookingUrl": "https://25hours-hotels.com/copenhagen/paper-island/",
      "source": "osm"
    },
    {
      "nom": "Comfort Hotel Esplanaden",
      "categorie": "Hôtel",
      "priceRange": "€€",
      "mapsUrl": "https://maps.google.com/?q=55.6873256,12.5932342",
      "lat": 55.6873256,
      "lng": 12.5932342,
      "halalFriendly": false,
      "bookingUrl": "https://maps.google.com/?q=55.6873256,12.5932342",
      "source": "osm"
    },
    {
      "nom": "Babette Guldsmeden Hotel",
      "categorie": "Hôtel",
      "priceRange": "€€€",
      "score": 3,
      "mapsUrl": "https://maps.google.com/?q=55.6874714,12.5931312",
      "lat": 55.6874714,
      "lng": 12.5931312,
      "halalFriendly": false,
      "bookingUrl": "https://guldsmedenhotels.com",
      "source": "osm"
    },
    {
      "nom": "Rent a Room",
      "categorie": "Hôtel",
      "priceRange": "€€",
      "mapsUrl": "https://maps.google.com/?q=55.6678939,12.5967924",
      "lat": 55.6678939,
      "lng": 12.5967924,
      "halalFriendly": false,
      "bookingUrl": "https://maps.google.com/?q=55.6678939,12.5967924",
      "source": "osm"
    },
    {
      "nom": "Go Hotel Østerport",
      "categorie": "Hôtel",
      "priceRange": "€€€",
      "score": 3,
      "mapsUrl": "https://maps.google.com/?q=55.6912543,12.5860894",
      "lat": 55.6912543,
      "lng": 12.5860894,
      "halalFriendly": false,
      "bookingUrl": "https://go-hotel.com/en/hotels/go-hotel-oesterport",
      "source": "osm"
    },
    {
      "nom": "Scandic Falkoner",
      "categorie": "Hôtel",
      "priceRange": "€€",
      "mapsUrl": "https://maps.google.com/?q=55.6797621,12.5328459",
      "lat": 55.6797621,
      "lng": 12.5328459,
      "halalFriendly": false,
      "bookingUrl": "https://www.scandichotels.dk/hoteller/danmark/kobenhavn/scandic-falkoner",
      "source": "osm"
    },
    {
      "nom": "Hotel Amager",
      "categorie": "Hôtel",
      "priceRange": "€€",
      "mapsUrl": "https://maps.google.com/?q=55.6657036,12.599445",
      "lat": 55.6657036,
      "lng": 12.599445,
      "halalFriendly": false,
      "bookingUrl": "https://maps.google.com/?q=55.6657036,12.599445",
      "source": "osm"
    },
    {
      "nom": "Patienthotellet",
      "categorie": "Hôtel",
      "priceRange": "€€",
      "mapsUrl": "https://maps.google.com/?q=55.6969474,12.5635731",
      "lat": 55.6969474,
      "lng": 12.5635731,
      "halalFriendly": false,
      "bookingUrl": "https://www.rigshospitalet.dk/praktisk-information/dit-ophold/patienthotellet/Sider/default.aspx",
      "source": "osm"
    },
    {
      "nom": "Hotel & Restaurant Josty",
      "categorie": "Hôtel",
      "priceRange": "€€",
      "mapsUrl": "https://maps.google.com/?q=55.6737829,12.5298827",
      "lat": 55.6737829,
      "lng": 12.5298827,
      "halalFriendly": false,
      "bookingUrl": "https://www.foodstudio.dk/venues/josty",
      "source": "osm"
    },
    {
      "nom": "Hotel Ottilia",
      "categorie": "Hôtel",
      "priceRange": "€€",
      "mapsUrl": "https://maps.google.com/?q=55.6668782,12.5330838",
      "lat": 55.6668782,
      "lng": 12.5330838,
      "halalFriendly": false,
      "bookingUrl": "https://www.brochner-hotels.dk/hotel-ottilia/",
      "source": "osm"
    },
    {
      "nom": "Rye115",
      "categorie": "Hôtel",
      "priceRange": "€€",
      "mapsUrl": "https://maps.google.com/?q=55.6977279,12.5763723",
      "lat": 55.6977279,
      "lng": 12.5763723,
      "halalFriendly": false,
      "bookingUrl": "https://rye115.com/",
      "source": "osm"
    },
    {
      "nom": "Hotel 9 små hjem",
      "categorie": "Hôtel",
      "priceRange": "€€",
      "mapsUrl": "https://maps.google.com/?q=55.6972305,12.5844639",
      "lat": 55.6972305,
      "lng": 12.5844639,
      "halalFriendly": false,
      "bookingUrl": "https://www.9smaahjem.dk/",
      "source": "osm"
    },
    {
      "nom": "Zoku Copenhagen",
      "categorie": "Hôtel",
      "priceRange": "€€",
      "mapsUrl": "https://maps.google.com/?q=55.6566126,12.5918803",
      "lat": 55.6566126,
      "lng": 12.5918803,
      "halalFriendly": false,
      "bookingUrl": "https://livezoku.com/copenhagen",
      "source": "osm"
    },
    {
      "nom": "Livjæger Hotel Pension",
      "categorie": "Hôtel",
      "priceRange": "€€",
      "mapsUrl": "https://maps.google.com/?q=55.6971357,12.5875014",
      "lat": 55.6971357,
      "lng": 12.5875014,
      "halalFriendly": false,
      "bookingUrl": "http://www.livjaegerhotel.dk/",
      "source": "osm"
    }
  ],
  "mosqueesPrincipales": [
    {
      "id": "m25451190",
      "nom": "Vor Frue Kirke",
      "type": "Mosquée",
      "adresse": "",
      "description": "Lieu de prière (OpenStreetMap).",
      "mapsUrl": "https://maps.google.com/?q=55.6793765,12.5727306",
      "lat": 55.6793765,
      "lng": 12.5727306,
      "source": "osm"
    },
    {
      "id": "m26436022",
      "nom": "Sankt Petri Kirke",
      "type": "Mosquée",
      "adresse": "",
      "description": "Lieu de prière (OpenStreetMap).",
      "mapsUrl": "https://maps.google.com/?q=55.6800166,12.5708323",
      "lat": 55.6800166,
      "lng": 12.5708323,
      "source": "osm"
    },
    {
      "id": "m133104582",
      "nom": "Helligåndskirken",
      "type": "Mosquée",
      "adresse": "",
      "description": "Lieu de prière (OpenStreetMap).",
      "mapsUrl": "https://maps.google.com/?q=55.6790374,12.57697",
      "lat": 55.6790374,
      "lng": 12.57697,
      "source": "osm"
    },
    {
      "id": "m26363619",
      "nom": "Synagogen",
      "type": "Mosquée",
      "adresse": "",
      "description": "Lieu de prière (OpenStreetMap).",
      "mapsUrl": "https://maps.google.com/?q=55.6811348,12.5735197",
      "lat": 55.6811348,
      "lng": 12.5735197,
      "source": "osm"
    },
    {
      "id": "m264362254",
      "nom": "Holmens Kirke",
      "type": "Mosquée",
      "adresse": "",
      "description": "Lieu de prière (OpenStreetMap).",
      "mapsUrl": "https://maps.google.com/?q=55.6766156,12.583508",
      "lat": 55.6766156,
      "lng": 12.583508,
      "source": "osm"
    },
    {
      "id": "m40106991",
      "nom": "Christians Kirke",
      "type": "Mosquée",
      "adresse": "",
      "description": "Lieu de prière (OpenStreetMap).",
      "mapsUrl": "https://maps.google.com/?q=55.6723431,12.5871524",
      "lat": 55.6723431,
      "lng": 12.5871524,
      "source": "osm"
    },
    {
      "id": "m138577704",
      "nom": "København Islamisk Menighed",
      "type": "Mosquée",
      "adresse": "",
      "description": "Lieu de prière (OpenStreetMap).",
      "mapsUrl": "https://maps.google.com/?q=55.6707309,12.5488951",
      "lat": 55.6707309,
      "lng": 12.5488951,
      "source": "osm"
    },
    {
      "id": "m3287971364",
      "nom": "Masjid Al-Nour",
      "type": "Mosquée",
      "adresse": "",
      "description": "Lieu de prière (OpenStreetMap).",
      "mapsUrl": "https://maps.google.com/?q=55.687307,12.5590413",
      "lat": 55.687307,
      "lng": 12.5590413,
      "source": "osm"
    },
    {
      "id": "m25524833",
      "nom": "Marmorkirken",
      "type": "Mosquée",
      "adresse": "",
      "description": "Lieu de prière (OpenStreetMap).",
      "mapsUrl": "https://maps.google.com/?q=55.6849756,12.5895749",
      "lat": 55.6849756,
      "lng": 12.5895749,
      "source": "osm"
    },
    {
      "id": "m25607908",
      "nom": "Vor Frelsers Kirke",
      "type": "Mosquée",
      "adresse": "",
      "description": "Lieu de prière (OpenStreetMap).",
      "mapsUrl": "https://maps.google.com/?q=55.6729081,12.5942516",
      "lat": 55.6729081,
      "lng": 12.5942516,
      "source": "osm"
    },
    {
      "id": "m25813625",
      "nom": "Kastelskirken",
      "type": "Mosquée",
      "adresse": "",
      "description": "Lieu de prière (OpenStreetMap).",
      "mapsUrl": "https://maps.google.com/?q=55.6913935,12.5928251",
      "lat": 55.6913935,
      "lng": 12.5928251,
      "source": "osm"
    },
    {
      "id": "m13544084501",
      "nom": "Masjid al-Faruq",
      "type": "Mosquée",
      "adresse": "",
      "description": "Lieu de prière (OpenStreetMap).",
      "mapsUrl": "https://maps.google.com/?q=55.7029011,12.5444429",
      "lat": 55.7029011,
      "lng": 12.5444429,
      "source": "osm"
    },
    {
      "id": "m117918884",
      "nom": "Det Islamiske Forbund i Danmark",
      "type": "Mosquée",
      "adresse": "",
      "description": "Lieu de prière (OpenStreetMap).",
      "mapsUrl": "https://maps.google.com/?q=55.700955,12.5346913",
      "lat": 55.700955,
      "lng": 12.5346913,
      "source": "osm"
    },
    {
      "id": "m313161162",
      "nom": "Imam Ali Moskeen",
      "type": "Mosquée",
      "adresse": "",
      "description": "Lieu de prière (OpenStreetMap).",
      "mapsUrl": "https://maps.google.com/?q=55.7000587,12.531938",
      "lat": 55.7000587,
      "lng": 12.531938,
      "source": "osm"
    },
    {
      "id": "m155189605",
      "nom": "Hamad Bin Khalifa Civilisation Center",
      "type": "Mosquée",
      "adresse": "",
      "description": "Lieu de prière (OpenStreetMap).",
      "mapsUrl": "https://maps.google.com/?q=55.7083471,12.5488391",
      "lat": 55.7083471,
      "lng": 12.5488391,
      "source": "osm"
    },
    {
      "id": "m1043641227",
      "nom": "Tauba Moskeen",
      "type": "Mosquée",
      "adresse": "",
      "description": "Lieu de prière (OpenStreetMap).",
      "mapsUrl": "https://maps.google.com/?q=55.7082992,12.5253743",
      "lat": 55.7082992,
      "lng": 12.5253743,
      "source": "osm"
    },
    {
      "id": "m8515571559",
      "nom": "Madina-Tul-Ilm Education Center",
      "type": "Mosquée",
      "adresse": "",
      "description": "Lieu de prière (OpenStreetMap).",
      "mapsUrl": "https://maps.google.com/?q=55.6530133,12.5027531",
      "lat": 55.6530133,
      "lng": 12.5027531,
      "source": "osm"
    },
    {
      "id": "m25523430",
      "nom": "Grundtvigs Kirke",
      "type": "Mosquée",
      "adresse": "",
      "description": "Lieu de prière (OpenStreetMap).",
      "mapsUrl": "https://maps.google.com/?q=55.7165844,12.5338941",
      "lat": 55.7165844,
      "lng": 12.5338941,
      "source": "osm"
    },
    {
      "id": "m9604826456",
      "nom": "Islamisk Kulturcenter",
      "type": "Mosquée",
      "adresse": "",
      "description": "Lieu de prière (OpenStreetMap).",
      "mapsUrl": "https://maps.google.com/?q=55.711306,12.5148735",
      "lat": 55.711306,
      "lng": 12.5148735,
      "source": "osm"
    },
    {
      "id": "m1373352061",
      "nom": "Nusrat Djahan Moske",
      "type": "Mosquée",
      "adresse": "",
      "description": "Lieu de prière (OpenStreetMap).",
      "mapsUrl": "https://maps.google.com/?q=55.6509755,12.479088",
      "lat": 55.6509755,
      "lng": 12.479088,
      "source": "osm"
    },
    {
      "id": "m403174335",
      "nom": "Dansk Islamisk Trossamfund",
      "type": "Mosquée",
      "adresse": "",
      "description": "Lieu de prière (OpenStreetMap).",
      "mapsUrl": "https://maps.google.com/?q=55.6407239,12.4662763",
      "lat": 55.6407239,
      "lng": 12.4662763,
      "source": "osm"
    },
    {
      "id": "m556984550",
      "nom": "Pakistansk Moské",
      "type": "Mosquée",
      "adresse": "",
      "description": "Lieu de prière (OpenStreetMap).",
      "mapsUrl": "https://maps.google.com/?q=55.619538,12.425308",
      "lat": 55.619538,
      "lng": 12.425308,
      "source": "osm"
    }
  ],
  "activites": [
    {
      "id": "a549543686",
      "nom": "Rådhuspladsen",
      "categorie": "attraction",
      "description": "",
      "prix": "",
      "duree": "",
      "mapsUrl": "https://maps.google.com/?q=55.6760449,12.5688281",
      "lat": 55.6760449,
      "lng": 12.5688281,
      "source": "osm"
    },
    {
      "id": "a312711626",
      "nom": "Vejrpigerne",
      "categorie": "artwork",
      "description": "",
      "prix": "",
      "duree": "",
      "mapsUrl": "https://maps.google.com/?q=55.6758389,12.5674097",
      "lat": 55.6758389,
      "lng": 12.5674097,
      "source": "osm"
    },
    {
      "id": "a6280600666",
      "nom": "Landsoldaten med den lille hornblæser",
      "categorie": "artwork",
      "description": "",
      "prix": "",
      "duree": "",
      "mapsUrl": "https://maps.google.com/?q=55.676646,12.5672288",
      "lat": 55.676646,
      "lng": 12.5672288,
      "source": "osm"
    },
    {
      "id": "a2189107530",
      "nom": "Absalon",
      "categorie": "artwork",
      "description": "",
      "prix": "",
      "duree": "",
      "mapsUrl": "https://maps.google.com/?q=55.6756453,12.5695407",
      "lat": 55.6756453,
      "lng": 12.5695407,
      "source": "osm"
    },
    {
      "id": "a12961134226",
      "nom": "Jens Olsens Verdensur",
      "categorie": "attraction",
      "description": "",
      "prix": "",
      "duree": "",
      "mapsUrl": "https://maps.google.com/?q=55.6755396,12.5694732",
      "lat": 55.6755396,
      "lng": 12.5694732,
      "source": "osm"
    },
    {
      "id": "a1465456751",
      "nom": "H.C. Andersen",
      "categorie": "artwork",
      "description": "",
      "prix": "",
      "duree": "",
      "mapsUrl": "https://maps.google.com/?q=55.6753143,12.5691198",
      "lat": 55.6753143,
      "lng": 12.5691198,
      "source": "osm"
    },
    {
      "id": "a687303281",
      "nom": "Ripley's Believe It or Not",
      "categorie": "museum",
      "description": "",
      "prix": "",
      "duree": "",
      "mapsUrl": "https://maps.google.com/?q=55.6763244,12.5699496",
      "lat": 55.6763244,
      "lng": 12.5699496,
      "source": "osm"
    },
    {
      "id": "a4575935485",
      "nom": "H.C. Andersen Museum",
      "categorie": "museum",
      "description": "",
      "prix": "",
      "duree": "",
      "mapsUrl": "https://maps.google.com/?q=55.6762498,12.5701546",
      "lat": 55.6762498,
      "lng": 12.5701546,
      "source": "osm"
    },
    {
      "id": "a3732130076",
      "nom": "Lurblæserne",
      "categorie": "artwork",
      "description": "",
      "prix": "",
      "duree": "",
      "mapsUrl": "https://maps.google.com/?q=55.6760347,12.5702013",
      "lat": 55.6760347,
      "lng": 12.5702013,
      "source": "osm"
    },
    {
      "id": "a9090526686",
      "nom": "Museum of Illusions Copenhagen",
      "categorie": "museum",
      "description": "",
      "prix": "",
      "duree": "",
      "mapsUrl": "https://maps.google.com/?q=55.6771718,12.5706746",
      "lat": 55.6771718,
      "lng": 12.5706746,
      "source": "osm"
    },
    {
      "id": "a9582589305",
      "nom": "Talerstol",
      "categorie": "artwork",
      "description": "",
      "prix": "",
      "duree": "",
      "mapsUrl": "https://maps.google.com/?q=55.6756773,12.5713294",
      "lat": 55.6756773,
      "lng": 12.5713294,
      "source": "osm"
    },
    {
      "id": "a13690726163",
      "nom": "Genforeningstavle",
      "categorie": "memorial",
      "description": "",
      "prix": "",
      "duree": "",
      "mapsUrl": "https://maps.google.com/?q=55.6775146,12.5656026",
      "lat": 55.6775146,
      "lng": 12.5656026,
      "source": "osm"
    },
    {
      "id": "a7500397481",
      "nom": "N. F. S. Grundtvig",
      "categorie": "artwork",
      "description": "",
      "prix": "",
      "duree": "",
      "mapsUrl": "https://maps.google.com/?q=55.6754451,12.5719401",
      "lat": 55.6754451,
      "lng": 12.5719401,
      "source": "osm"
    },
    {
      "id": "a13727475905",
      "nom": "Børge Thing",
      "categorie": "memorial",
      "description": "",
      "prix": "",
      "duree": "",
      "mapsUrl": "https://maps.google.com/?q=55.6754653,12.5645104",
      "lat": 55.6754653,
      "lng": 12.5645104,
      "source": "osm"
    },
    {
      "id": "a5287291907",
      "nom": "Pjerrot",
      "categorie": "artwork",
      "description": "",
      "prix": "",
      "duree": "",
      "mapsUrl": "https://maps.google.com/?q=55.6741891,12.5660932",
      "lat": 55.6741891,
      "lng": 12.5660932,
      "source": "osm"
    },
    {
      "id": "a4365470753",
      "nom": "De syv aksler",
      "categorie": "artwork",
      "description": "",
      "prix": "",
      "duree": "",
      "mapsUrl": "https://maps.google.com/?q=55.6760928,12.5642418",
      "lat": 55.6760928,
      "lng": 12.5642418,
      "source": "osm"
    },
    {
      "id": "a12127907619",
      "nom": "Georg Carstensen",
      "categorie": "memorial",
      "description": "",
      "prix": "",
      "duree": "",
      "mapsUrl": "https://maps.google.com/?q=55.6740353,12.5664371",
      "lat": 55.6740353,
      "lng": 12.5664371,
      "source": "osm"
    },
    {
      "id": "a2712714149",
      "nom": "Væggen",
      "categorie": "museum",
      "description": "",
      "prix": "",
      "duree": "",
      "mapsUrl": "https://maps.google.com/?q=55.6762959,12.5640628",
      "lat": 55.6762959,
      "lng": 12.5640628,
      "source": "osm"
    },
    {
      "id": "a314752241",
      "nom": "Tivoli",
      "categorie": "theme park",
      "description": "",
      "prix": "",
      "duree": "",
      "mapsUrl": "https://maps.google.com/?q=55.6734275,12.5685701",
      "lat": 55.6734275,
      "lng": 12.5685701,
      "source": "osm"
    },
    {
      "id": "a2169730515",
      "nom": "Farvesætning af Paladsteatret",
      "categorie": "artwork",
      "description": "",
      "prix": "",
      "duree": "",
      "mapsUrl": "https://maps.google.com/?q=55.6764955,12.5635153",
      "lat": 55.6764955,
      "lng": 12.5635153,
      "source": "osm"
    },
    {
      "id": "a148223101",
      "nom": "Københavns Museum",
      "categorie": "museum",
      "description": "",
      "prix": "",
      "duree": "",
      "mapsUrl": "https://maps.google.com/?q=55.6743821,12.5724848",
      "lat": 55.6743821,
      "lng": 12.5724848,
      "source": "osm"
    },
    {
      "id": "a25822563",
      "nom": "Gammeltorv",
      "categorie": "attraction",
      "description": "",
      "prix": "",
      "duree": "",
      "mapsUrl": "https://maps.google.com/?q=55.6781422,12.572079",
      "lat": 55.6781422,
      "lng": 12.572079,
      "source": "osm"
    },
    {
      "id": "a446824825",
      "nom": "Marking of old town hall",
      "categorie": "memorial",
      "description": "",
      "prix": "",
      "duree": "",
      "mapsUrl": "https://maps.google.com/?q=55.6776995,12.5728645",
      "lat": 55.6776995,
      "lng": 12.5728645,
      "source": "osm"
    },
    {
      "id": "a6168137587",
      "nom": "H.C. Lumbye",
      "categorie": "artwork",
      "description": "",
      "prix": "",
      "duree": "",
      "mapsUrl": "https://maps.google.com/?q=55.6730564,12.5682029",
      "lat": 55.6730564,
      "lng": 12.5682029,
      "source": "osm"
    },
    {
      "id": "a446824826",
      "nom": "tidl. skafot",
      "categorie": "memorial",
      "description": "",
      "prix": "",
      "duree": "",
      "mapsUrl": "https://maps.google.com/?q=55.6774201,12.5731886",
      "lat": 55.6774201,
      "lng": 12.5731886,
      "source": "osm"
    },
    {
      "id": "a3772083764",
      "nom": "Løve og Løvinde",
      "categorie": "artwork",
      "description": "",
      "prix": "",
      "duree": "",
      "mapsUrl": "https://maps.google.com/?q=55.6786811,12.5653317",
      "lat": 55.6786811,
      "lng": 12.5653317,
      "source": "osm"
    },
    {
      "id": "a26435422",
      "nom": "Jarmers Tårn",
      "categorie": "ruins",
      "description": "",
      "prix": "",
      "duree": "",
      "mapsUrl": "https://maps.google.com/?q=55.6788152,12.5656801",
      "lat": 55.6788152,
      "lng": 12.5656801,
      "source": "osm"
    },
    {
      "id": "a13844008549",
      "nom": "Tivolis Akvarium",
      "categorie": "aquarium",
      "description": "",
      "prix": "",
      "duree": "",
      "mapsUrl": "https://maps.google.com/?q=55.6730064,12.5690825",
      "lat": 55.6730064,
      "lng": 12.5690825,
      "source": "osm"
    },
    {
      "id": "a5071042620",
      "nom": "Arkæologisk Værksted",
      "categorie": "museum",
      "description": "",
      "prix": "",
      "duree": "",
      "mapsUrl": "https://maps.google.com/?q=55.6739045,12.5722525",
      "lat": 55.6739045,
      "lng": 12.5722525,
      "source": "osm"
    },
    {
      "id": "a11365151159",
      "nom": "Gallery Nybro",
      "categorie": "gallery",
      "description": "",
      "prix": "",
      "duree": "",
      "mapsUrl": "https://maps.google.com/?q=55.6792575,12.5696947",
      "lat": 55.6792575,
      "lng": 12.5696947,
      "source": "osm"
    },
    {
      "id": "a27226058",
      "nom": "Frihedsstøtten",
      "categorie": "monument",
      "description": "",
      "prix": "",
      "duree": "",
      "mapsUrl": "https://maps.google.com/?q=55.6742032,12.5632937",
      "lat": 55.6742032,
      "lng": 12.5632937,
      "source": "osm"
    },
    {
      "id": "a4042082383",
      "nom": "Thorvald Stauning",
      "categorie": "memorial",
      "description": "",
      "prix": "",
      "duree": "",
      "mapsUrl": "https://maps.google.com/?q=55.6780807,12.5629657",
      "lat": 55.6780807,
      "lng": 12.5629657,
      "source": "osm"
    },
    {
      "id": "a6898564691",
      "nom": "Georg Zoëga",
      "categorie": "artwork",
      "description": "",
      "prix": "",
      "duree": "",
      "mapsUrl": "https://maps.google.com/?q=55.6730389,12.5717746",
      "lat": 55.6730389,
      "lng": 12.5717746,
      "source": "osm"
    },
    {
      "id": "a289670954",
      "nom": "Reformationsmonument",
      "categorie": "memorial",
      "description": "",
      "prix": "",
      "duree": "",
      "mapsUrl": "https://maps.google.com/?q=55.6791988,12.5717541",
      "lat": 55.6791988,
      "lng": 12.5717541,
      "source": "osm"
    },