{
 "slug": "cracovie",
 "nom": "Cracovie",
 "pays": "Pologne",
 "pays_slug": "pologne",
 "continent": "Europe",
 "region": "Pologne",
 "coordonnees": {
  "lat": 50.0647,
  "lng": 19.945
 },
 "codeISO": "PL",
 "score_halal": 2.8,
 "halalScore": 5.6,
 "villeNonMusulmane": true,
 "description": "Joyau médiéval de la Pologne. Quelques restaurants halal et kebabs certifiés autour de la vieille ville.",
 "metaDescription": "Joyau médiéval de la Pologne. Quelques restaurants halal et kebabs certifiés autour de la vieille ville.",
 "image": "https://upload.wikimedia.org/wikipedia/commons/thumb/a/a3/Krakow_Rynek_Glowny_panorama_2.jpg/1600px-Krakow_Rynek_Glowny_panorama_2.jpg",
 "image_hero": "https://upload.wikimedia.org/wikipedia/commons/thumb/a/a3/Krakow_Rynek_Glowny_panorama_2.jpg/1600px-Krakow_Rynek_Glowny_panorama_2.jpg",
 "imageCredit": "Wikimedia Commons",
 "statistiques": {
  "restaurants_halal": 60,
  "mosquees": 10,
  "hotels": 30
 },
 "infoPratique": {
  "transport": "Accessible par avion et transports en commun locaux.",
  "meilleureEpoque": "Printemps et automne (climat tempéré).",
  "conseilHalal": "Ville non-musulmane : repérez les restaurants halal certifiés et les mosquées via l'application avant votre visite."
 },
 "tags": [
  "halal",
  "ville non-musulmane",
  "europe"
 ],
 "restaurants": [
  {
   "nom": "Kebab Hamis",
   "type": "kebab",
   "priceRange": "€€",
   "mapsUrl": "https://maps.google.com/?q=50.068382,19.9135394",
   "lat": 50.068382,
   "lng": 19.9135394,
   "halalConfidence": "yes",
   "source": "osm"
  },
  {
   "nom": "Ali Baba",
   "type": "kebab",
   "priceRange": "€€",
   "mapsUrl": "https://maps.google.com/?q=50.0737076,19.9114393",
   "lat": 50.0737076,
   "lng": 19.9114393,
   "halalConfidence": "yes",
   "source": "osm"
  },
  {
   "nom": "Fast Kebab",
   "type": "kebab",
   "priceRange": "€€",
   "mapsUrl": "https://maps.google.com/?q=50.0645806,19.9449741",
   "lat": 50.0645806,
   "lng": 19.9449741,
   "halalConfidence": "likely",
   "source": "osm"
  },
  {
   "nom": "Ciro",
   "type": "kebab",
   "priceRange": "€€",
   "mapsUrl": "https://maps.google.com/?q=50.0641232,19.9420779",
   "lat": 50.0641232,
   "lng": 19.9420779,
   "halalConfidence": "likely",
   "source": "osm"
  },
  {
   "nom": "Beirut Shawarma Kebab & Falafel",
   "type": "kebab",
   "priceRange": "€€",
   "mapsUrl": "https://maps.google.com/?q=50.0644284,19.9411693",
   "lat": 50.0644284,
   "lng": 19.9411693,
   "halalConfidence": "likely",
   "source": "osm"
  },
  {
   "nom": "Efendi",
   "type": "turkish",
   "priceRange": "€€",
   "mapsUrl": "https://maps.google.com/?q=50.0673452,19.9446193",
   "lat": 50.0673452,
   "lng": 19.9446193,
   "halalConfidence": "likely",
   "source": "osm"
  },
  {
   "nom": "Berlin Döner Kebap",
   "type": "kebab",
   "priceRange": "€€",
   "mapsUrl": "https://maps.google.com/?q=50.0672802,19.9465471",
   "lat": 50.0672802,
   "lng": 19.9465471,
   "halalConfidence": "likely",
   "source": "osm"
  },
  {
   "nom": "Istanbul",
   "type": "turkish",
   "priceRange": "€€",
   "mapsUrl": "https://maps.google.com/?q=50.0620384,19.9422394",
   "lat": 50.0620384,
   "lng": 19.9422394,
   "halalConfidence": "likely",
   "source": "osm"
  },
  {
   "nom": "Kebab Królewski",
   "type": "kebab",
   "priceRange": "€€",
   "mapsUrl": "https://maps.google.com/?q=50.0635389,19.940227",
   "lat": 50.0635389,
   "lng": 19.940227,
   "halalConfidence": "likely",
   "source": "osm"
  },
  {
   "nom": "Efes",
   "type": "kebab, grill, salad",
   "priceRange": "€€",
   "mapsUrl": "https://maps.google.com/?q=50.0663549,19.9401631",
   "lat": 50.0663549,
   "lng": 19.9401631,
   "halalConfidence": "likely",
   "source": "osm"
  },
  {
   "nom": "Sevi Kebab",
   "type": "kebab",
   "priceRange": "€€",
   "mapsUrl": "https://maps.google.com/?q=50.0681883,19.9463164",
   "lat": 50.0681883,
   "lng": 19.9463164,
   "halalConfidence": "likely",
   "source": "osm"
  },
  {
   "nom": "Arabia",
   "type": "kebab",
   "priceRange": "€€",
   "mapsUrl": "https://maps.google.com/?q=50.0665404,19.9396264",
   "lat": 50.0665404,
   "lng": 19.9396264,
   "halalConfidence": "likely",
   "source": "osm"
  },
  {
   "nom": "U Szwagra",
   "type": "kebab",
   "priceRange": "€€",
   "mapsUrl": "https://maps.google.com/?q=50.0671798,19.9499875",
   "lat": 50.0671798,
   "lng": 19.9499875,
   "halalConfidence": "likely",
   "source": "osm"
  },
  {
   "nom": "Butcher grill",
   "type": "kebab",
   "priceRange": "€€",
   "mapsUrl": "https://maps.google.com/?q=50.0625977,19.9394993",
   "lat": 50.0625977,
   "lng": 19.9394993,
   "halalConfidence": "likely",
   "source": "osm"
  },
  {
   "nom": "Soltan Kebab",
   "type": "kebab",
   "priceRange": "€€",
   "mapsUrl": "https://maps.google.com/?q=50.0697226,19.9434616",
   "lat": 50.0697226,
   "lng": 19.9434616,
   "halalConfidence": "likely",
   "source": "osm"
  },
  {
   "nom": "Mersin Tantuni",
   "type": "kebab",
   "priceRange": "€€",
   "mapsUrl": "https://maps.google.com/?q=50.0637615,19.9370824",
   "lat": 50.0637615,
   "lng": 19.9370824,
   "halalConfidence": "likely",
   "source": "osm"
  },
  {
   "nom": "Kraft Kebab",
   "type": "kebab",
   "priceRange": "€€",
   "mapsUrl": "https://maps.google.com/?q=50.0698876,19.9435052",
   "lat": 50.0698876,
   "lng": 19.9435052,
   "halalConfidence": "likely",
   "source": "osm"
  },
  {
   "nom": "Ali Baba",
   "type": "kebab",
   "priceRange": "€€",
   "mapsUrl": "https://maps.google.com/?q=50.0703141,19.943511",
   "lat": 50.0703141,
   "lng": 19.943511,
   "halalConfidence": "likely",
   "source": "osm"
  },
  {
   "nom": "Ali Baba",
   "type": "kebab",
   "priceRange": "€€",
   "mapsUrl": "https://maps.google.com/?q=50.0625372,19.9351647",
   "lat": 50.0625372,
   "lng": 19.9351647,
   "halalConfidence": "likely",
   "source": "osm"
  },
  {
   "nom": "Mazaya Falafel",
   "type": "turkish, arab",
   "priceRange": "€€",
   "mapsUrl": "https://maps.google.com/?q=50.0580012,19.9439519",
   "lat": 50.0580012,
   "lng": 19.9439519,
   "halalConfidence": "likely",
   "source": "osm"
  },
  {
   "nom": "Akropolis",
   "type": "kebab",
   "priceRange": "€€",
   "mapsUrl": "https://maps.google.com/?q=50.0597321,19.9376383",
   "lat": 50.0597321,
   "lng": 19.9376383,
   "halalConfidence": "likely",
   "source": "osm"
  },
  {
   "nom": "Kebab King",
   "type": "kebab",
   "priceRange": "€€",
   "mapsUrl": "https://maps.google.com/?q=50.0627603,19.9346149",
   "lat": 50.0627603,
   "lng": 19.9346149,
   "halalConfidence": "likely",
   "source": "osm"
  },
  {
   "nom": "Faraon",
   "type": "kebab",
   "priceRange": "€€",
   "mapsUrl": "https://maps.google.com/?q=50.0628678,19.934341",
   "lat": 50.0628678,
   "lng": 19.934341,
   "halalConfidence": "likely",
   "source": "osm"
  },
  {
   "nom": "Shawerma",
   "type": "kebab",
   "priceRange": "€€",
   "mapsUrl": "https://maps.google.com/?q=50.0610882,19.9351056",
   "lat": 50.0610882,
   "lng": 19.9351056,
   "halalConfidence": "likely",
   "source": "osm"
  },
  {
   "nom": "Ugur Döner",
   "type": "kebab",
   "priceRange": "€€",
   "mapsUrl": "https://maps.google.com/?q=50.0603049,19.934655",
   "lat": 50.0603049,
   "lng": 19.934655,
   "halalConfidence": "likely",
   "source": "osm"
  },
  {
   "nom": "Faraon",
   "type": "kebab",
   "priceRange": "€€",
   "mapsUrl": "https://maps.google.com/?q=50.0579177,19.9379059",
   "lat": 50.0579177,
   "lng": 19.9379059,
   "halalConfidence": "likely",
   "source": "osm"
  },
  {
   "nom": "Ali Baba",
   "type": "kebab",
   "priceRange": "€€",
   "mapsUrl": "https://maps.google.com/?q=50.0634251,19.9317239",
   "lat": 50.0634251,
   "lng": 19.9317239,
   "halalConfidence": "likely",
   "source": "osm"
  },
  {
   "nom": "Zaytouna",
   "type": "syrian",
   "priceRange": "€€",
   "mapsUrl": "https://maps.google.com/?q=50.0634278,19.9313269",
   "lat": 50.0634278,
   "lng": 19.9313269,
   "halalConfidence": "likely",
   "source": "osm"
  },
  {
   "nom": "Ali Baba",
   "type": "kebab",
   "priceRange": "€€",
   "mapsUrl": "https://maps.google.com/?q=50.0651115,19.9310572",
   "lat": 50.0651115,
   "lng": 19.9310572,
   "halalConfidence": "likely",
   "source": "osm"
  },
  {
   "nom": "Zaytouna",
   "type": "syrian",
   "priceRange": "€€",
   "mapsUrl": "https://maps.google.com/?q=50.0553792,19.9467711",
   "lat": 50.0553792,
   "lng": 19.9467711,
   "halalConfidence": "likely",
   "source": "osm"
  },
  {
   "nom": "Türk Döner Kebap",
   "type": "kebab",
   "priceRange": "€€",
   "mapsUrl": "https://maps.google.com/?q=50.0672335,19.9597855",
   "lat": 50.0672335,
   "lng": 19.9597855,
   "halalConfidence": "likely",
   "source": "osm"
  },
  {
   "nom": "Premium Kebab",
   "type": "kebab",
   "priceRange": "€€",
   "mapsUrl": "https://maps.google.com/?q=50.072814,19.9362157",
   "lat": 50.072814,
   "lng": 19.9362157,
   "halalConfidence": "likely",
   "source": "osm"
  },
  {
   "nom": "Istanbul Kebab",
   "type": "kebab",
   "priceRange": "€€",
   "mapsUrl": "https://maps.google.com/?q=50.0727269,19.9356325",
   "lat": 50.0727269,
   "lng": 19.9356325,
   "halalConfidence": "likely",
   "source": "osm"
  },
  {
   "nom": "Mazaya",
   "type": "arabic",
   "priceRange": "€€",
   "mapsUrl": "https://maps.google.com/?q=50.0633953,19.9289802",
   "lat": 50.0633953,
   "lng": 19.9289802,
   "halalConfidence": "likely",
   "source": "osm"
  },
  {
   "nom": "Kebab Asia",
   "type": "kebab",
   "priceRange": "€€",
   "mapsUrl": "https://maps.google.com/?q=50.0736583,19.9360886",
   "lat": 50.0736583,
   "lng": 19.9360886,
   "halalConfidence": "likely",
   "source": "osm"
  },
  {
   "nom": "Dian Kebab & Falafel",
   "type": "kebab",
   "priceRange": "€€",
   "mapsUrl": "https://maps.google.com/?q=50.0669243,19.9288071",
   "lat": 50.0669243,
   "lng": 19.9288071,
   "halalConfidence": "likely",
   "source": "osm"
  },
  {
   "nom": "Polenez",
   "type": "turkish, kebab",
   "priceRange": "€€",
   "mapsUrl": "https://maps.google.com/?q=50.0640331,19.9278484",
   "lat": 50.0640331,
   "lng": 19.9278484,
   "halalConfidence": "likely",
   "source": "osm"
  },
  {
   "nom": "Doon Kebab",
   "type": "kebab",
   "priceRange": "€€",
   "mapsUrl": "https://maps.google.com/?q=50.0580004,19.93122",
   "lat": 50.0580004,
   "lng": 19.93122,
   "halalConfidence": "likely",
   "source": "osm"
  },
  {
   "nom": "Viral",
   "type": "kebab",
   "priceRange": "€€",
   "mapsUrl": "https://maps.google.com/?q=50.0675351,19.9280875",
   "lat": 50.0675351,
   "lng": 19.9280875,
   "halalConfidence": "likely",
   "source": "osm"
  },
  {
   "nom": "Nogor Kebab",
   "type": "kebab",
   "priceRange": "€€",
   "mapsUrl": "https://maps.google.com/?q=50.0630919,19.9274828",
   "lat": 50.0630919,
   "lng": 19.9274828,
   "halalConfidence": "likely",
   "source": "osm"
  },
  {
   "nom": "Petarda u Aliego",
   "type": "kebab",
   "priceRange": "€€",
   "mapsUrl": "https://maps.google.com/?q=50.0533968,19.9468312",
   "lat": 50.0533968,
   "lng": 19.9468312,
   "halalConfidence": "likely",
   "source": "osm"
  },
  {
   "nom": "Sjeti Kebab",
   "type": "kebab",
   "priceRange": "€€",
   "mapsUrl": "https://maps.google.com/?q=50.068,19.9279913",
   "lat": 50.068,
   "lng": 19.9279913,
   "halalConfidence": "likely",
   "source": "osm"
  },
  {
   "nom": "Berlin Döner Kebap",
   "type": "kebab",
   "priceRange": "€€",
   "mapsUrl": "https://maps.google.com/?q=50.054041,19.9542697",
   "lat": 50.054041,
   "lng": 19.9542697,
   "halalConfidence": "likely",
   "source": "osm"
  },
  {
   "nom": "House Of Kebab",
   "type": "kebab",
   "priceRange": "€€",
   "mapsUrl": "https://maps.google.com/?q=50.0522267,19.9430852",
   "lat": 50.0522267,
   "lng": 19.9430852,
   "halalConfidence": "likely",
   "source": "osm"
  },
  {
   "nom": "Ali Baba",
   "type": "kebab",
   "priceRange": "€€",
   "mapsUrl": "https://maps.google.com/?q=50.0518395,19.9447213",
   "lat": 50.0518395,
   "lng": 19.9447213,
   "halalConfidence": "likely",
   "source": "osm"
  },
  {
   "nom": "Piri-Piri",
   "type": "kebab",
   "priceRange": "€€",
   "mapsUrl": "https://maps.google.com/?q=50.0569544,19.9611084",
   "lat": 50.0569544,
   "lng": 19.9611084,
   "halalConfidence": "likely",
   "source": "osm"
  },
  {
   "nom": "Petarda u Aliego",
   "type": "kebab",
   "priceRange": "€€",
   "mapsUrl": "https://maps.google.com/?q=50.0517684,19.944591",
   "lat": 50.0517684,
   "lng": 19.944591,
   "halalConfidence": "likely",
   "source": "osm"
  },
  {
   "nom": "Kebab Cezar",
   "type": "kebab",
   "priceRange": "€€",
   "mapsUrl": "https://maps.google.com/?q=50.0692849,19.9258586",
   "lat": 50.0692849,
   "lng": 19.9258586,
   "halalConfidence": "likely",
   "source": "osm"
  },
  {
   "nom": "Ali Baba",
   "type": "kebab",
   "priceRange": "€€",
   "mapsUrl": "https://maps.google.com/?q=50.0515389,19.9451498",
   "lat": 50.0515389,
   "lng": 19.9451498,
   "halalConfidence": "likely",
   "source": "osm"
  },
  {
   "nom": "Kebab Pasja",
   "type": "kebab",
   "priceRange": "€€",
   "mapsUrl": "https://maps.google.com/?q=50.0514795,19.9449143",
   "lat": 50.0514795,
   "lng": 19.9449143,
   "halalConfidence": "likely",
   "source": "osm"
  },
  {
   "nom": "Merhaba Döner Kebap",
   "type": "kebab",
   "priceRange": "€€",
   "mapsUrl": "https://maps.google.com/?q=50.0600456,19.9251119",
   "lat": 50.0600456,
   "lng": 19.9251119,
   "halalConfidence": "likely",
   "source": "osm"
  },
  {
   "nom": "U Szwagra",
   "type": "kebab",
   "priceRange": "€€",
   "mapsUrl": "https://maps.google.com/?q=50.056069,19.928587",
   "lat": 50.056069,
   "lng": 19.928587,
   "halalConfidence": "likely",
   "source": "osm"
  },
  {
   "nom": "Oyche Döner",
   "type": "kebab",
   "priceRange": "€€",
   "mapsUrl": "https://maps.google.com/?q=50.0508045,19.9448658",
   "lat": 50.0508045,
   "lng": 19.9448658,
   "halalConfidence": "likely",
   "source": "osm"
  },
  {
   "nom": "Kebaber",
   "type": "kebab",
   "priceRange": "€€",
   "mapsUrl": "https://maps.google.com/?q=50.0503936,19.942726",
   "lat": 50.0503936,
   "lng": 19.942726,
   "halalConfidence": "likely",
   "source": "osm"
  },
  {
   "nom": "Tandoor",
   "type": "kebab",
   "priceRange": "€€",
   "mapsUrl": "https://maps.google.com/?q=50.0506106,19.9514535",
   "lat": 50.0506106,
   "lng": 19.9514535,
   "halalConfidence": "likely",
   "source": "osm"
  },
  {
   "nom": "Shawarma 31",
   "type": "kebab",
   "priceRange": "€€",
   "mapsUrl": "https://maps.google.com/?q=50.0493884,19.9431539",
   "lat": 50.0493884,
   "lng": 19.9431539,
   "halalConfidence": "likely",
   "source": "osm"
  },
  {
   "nom": "Jerusalem Kebab",
   "type": "kebab",
   "priceRange": "€€",
   "mapsUrl": "https://maps.google.com/?q=50.0492502,19.9432459",
   "lat": 50.0492502,
   "lng": 19.9432459,
   "halalConfidence": "likely",
   "source": "osm"
  },
  {
   "nom": "Kebab pod 13",
   "type": "kebab",
   "priceRange": "€€",
   "mapsUrl": "https://maps.google.com/?q=50.0482908,19.9440097",
   "lat": 50.0482908,
   "lng": 19.9440097,
   "halalConfidence": "likely",
   "source": "osm"
  },
  {
   "nom": "Kebab u Pajdy Wroclawska",
   "type": "kebab",
   "priceRange": "€€",
   "mapsUrl": "https://maps.google.com/?q=50.0768966,19.9275992",
   "lat": 50.0768966,
   "lng": 19.9275992,
   "halalConfidence": "likely",
   "source": "osm"
  },
  {
   "nom": "Crystal",
   "type": "kebab",
   "priceRange": "€€",
   "mapsUrl": "https://maps.google.com/?q=50.0724713,19.9221155",
   "lat": 50.0724713,
   "lng": 19.9221155,
   "halalConfidence": "likely",
   "source": "osm"
  }
 ],
 "hotels": [
  {
   "nom": "Hotel Polonia",
   "categorie": "Hôtel",
   "priceRange": "€€",
   "mapsUrl": "https://maps.google.com/?q=50.064886,19.9447502",
   "lat": 50.064886,
   "lng": 19.9447502,
   "halalFriendly": false,
   "bookingUrl": "https://hotel-polonia.com.pl/hotel-polonia",
   "source": "osm"
  },
  {
   "nom": "Hotel Warszawski",
   "categorie": "Hôtel",
   "priceRange": "€€",
   "mapsUrl": "https://maps.google.com/?q=50.0652058,19.9448223",
   "lat": 50.0652058,
   "lng": 19.9448223,
   "halalFriendly": false,
   "bookingUrl": "https://maps.google.com/?q=50.0652058,19.9448223",
   "source": "osm"
  },
  {
   "nom": "Aparthotel Basztowa",
   "categorie": "Hôtel",
   "priceRange": "€€",
   "mapsUrl": "https://maps.google.com/?q=50.0650052,19.9442545",
   "lat": 50.0650052,
   "lng": 19.9442545,
   "halalFriendly": false,
   "bookingUrl": "https://maps.google.com/?q=50.0650052,19.9442545",
   "source": "osm"
  },
  {
   "nom": "Hotel Europejski",
   "categorie": "Hôtel",
   "priceRange": "€€",
   "mapsUrl": "https://maps.google.com/?q=50.0644771,19.9461619",
   "lat": 50.0644771,
   "lng": 19.9461619,
   "halalFriendly": false,
   "bookingUrl": "https://maps.google.com/?q=50.0644771,19.9461619",
   "source": "osm"
  },
  {
   "nom": "Apartamenty Winnicy Kresy",
   "categorie": "Appartement",
   "priceRange": "€€",
   "mapsUrl": "https://maps.google.com/?q=50.0639152,19.9452281",
   "lat": 50.0639152,
   "lng": 19.9452281,
   "halalFriendly": false,
   "bookingUrl": "https://maps.google.com/?q=50.0639152,19.9452281",
   "source": "osm"
  },
  {
   "nom": "Greg & Tom",
   "categorie": "Auberge",
   "priceRange": "€€",
   "mapsUrl": "https://maps.google.com/?q=50.0657498,19.9447995",
   "lat": 50.0657498,
   "lng": 19.9447995,
   "halalFriendly": false,
   "bookingUrl": "https://maps.google.com/?q=50.0657498,19.9447995",
   "source": "osm"
  },
  {
   "nom": "Sky Hotel Kraków",
   "categorie": "Hôtel",
   "priceRange": "€€€€",
   "score": 4,
   "mapsUrl": "https://maps.google.com/?q=50.0644776,19.9471713",
   "lat": 50.0644776,
   "lng": 19.9471713,
   "halalFriendly": false,
   "bookingUrl": "https://skyhotelkrakow.pl",
   "source": "osm"
  },
  {
   "nom": "One World Hostel",
   "categorie": "Auberge",
   "priceRange": "€€",
   "mapsUrl": "https://maps.google.com/?q=50.0629926,19.9452176",
   "lat": 50.0629926,
   "lng": 19.9452176,
   "halalFriendly": false,
   "bookingUrl": "http://oneworldhostel.eu/",
   "source": "osm"
  },
  {
   "nom": "Downtown Kraków",
   "categorie": "Hôtel",
   "priceRange": "€€",
   "mapsUrl": "https://maps.google.com/?q=50.0637322,19.9472219",
   "lat": 50.0637322,
   "lng": 19.9472219,
   "halalFriendly": false,
   "bookingUrl": "https://maps.google.com/?q=50.0637322,19.9472219",
   "source": "osm"
  },
  {
   "nom": "Tribe",
   "categorie": "Hôtel",
   "priceRange": "€€€€",
   "score": 4,
   "mapsUrl": "https://maps.google.com/?q=50.0664119,19.9441681",
   "lat": 50.0664119,
   "lng": 19.9441681,
   "halalFriendly": false,
   "bookingUrl": "https://maps.google.com/?q=50.0664119,19.9441681",
   "source": "osm"
  },
  {
   "nom": "Sky Hostel",
   "categorie": "Auberge",
   "priceRange": "€€",
   "mapsUrl": "https://maps.google.com/?q=50.0642694,19.9421139",
   "lat": 50.0642694,
   "lng": 19.9421139,
   "halalFriendly": false,
   "bookingUrl": "https://maps.google.com/?q=50.0642694,19.9421139",
   "source": "osm"
  },
  {
   "nom": "Hotel Teatr",
   "categorie": "Hôtel",
   "priceRange": "€€",
   "mapsUrl": "https://maps.google.com/?q=50.0629326,19.9431919",
   "lat": 50.0629326,
   "lng": 19.9431919,
   "halalFriendly": false,
   "bookingUrl": "https://maps.google.com/?q=50.0629326,19.9431919",
   "source": "osm"
  },
  {
   "nom": "Brama",
   "categorie": "Auberge",
   "priceRange": "€€",
   "mapsUrl": "https://maps.google.com/?q=50.0644894,19.9413743",
   "lat": 50.0644894,
   "lng": 19.9413743,
   "halalFriendly": false,
   "bookingUrl": "https://maps.google.com/?q=50.0644894,19.9413743",
   "source": "osm"
  },
  {
   "nom": "Mercure",
   "categorie": "Hôtel",
   "priceRange": "€€",
   "mapsUrl": "https://maps.google.com/?q=50.067036,19.9448875",
   "lat": 50.067036,
   "lng": 19.9448875,
   "halalFriendly": false,
   "bookingUrl": "https://all.accor.com/hotel/9627/index.pl.shtml",
   "source": "osm"
  },
  {
   "nom": "Amber Design Residence",
   "categorie": "Hôtel",
   "priceRange": "€€",
   "mapsUrl": "https://maps.google.com/?q=50.0625959,19.9433227",
   "lat": 50.0625959,
   "lng": 19.9433227,
   "halalFriendly": false,
   "bookingUrl": "https://maps.google.com/?q=50.0625959,19.9433227",
   "source": "osm"
  },
  {
   "nom": "Fresh Apartments",
   "categorie": "Appartement",
   "priceRange": "€€",
   "mapsUrl": "https://maps.google.com/?q=50.0626827,19.9471389",
   "lat": 50.0626827,
   "lng": 19.9471389,
   "halalFriendly": false,
   "bookingUrl": "https://www.freshapartments.pl/",
   "source": "osm"
  },
  {
   "nom": "Roller Apartments",
   "categorie": "Appartement",
   "priceRange": "€€",
   "mapsUrl": "https://maps.google.com/?q=50.0667047,19.9427939",
   "lat": 50.0667047,
   "lng": 19.9427939,
   "halalFriendly": false,
   "bookingUrl": "https://maps.google.com/?q=50.0667047,19.9427939",
   "source": "osm"
  },
  {
   "nom": "Dom gościnny UJ",
   "categorie": "Appartement",
   "priceRange": "€€",
   "mapsUrl": "https://maps.google.com/?q=50.0642702,19.9411312",
   "lat": 50.0642702,
   "lng": 19.9411312,
   "halalFriendly": false,
   "bookingUrl": "https://dg.uj.edu.pl/florianska/cennik-goscie",
   "source": "osm"
  },
  {
   "nom": "Pollera",
   "categorie": "Hôtel",
   "priceRange": "€€€",
   "score": 3,
   "mapsUrl": "https://maps.google.com/?q=50.0635367,19.9415045",
   "lat": 50.0635367,
   "lng": 19.9415045,
   "halalFriendly": false,
   "bookingUrl": "https://pollera.pl/",
   "source": "osm"
  },
  {
   "nom": "Red Brick Apartments",
   "categorie": "Appartement",
   "priceRange": "€€",
   "mapsUrl": "https://maps.google.com/?q=50.0671706,19.9434368",
   "lat": 50.0671706,
   "lng": 19.9434368,
   "halalFriendly": false,
   "bookingUrl": "https://maps.google.com/?q=50.0671706,19.9434368",
   "source": "osm"
  },
  {
   "nom": "Greg&Tom Beer House Hostel",
   "categorie": "Auberge",
   "priceRange": "€€",
   "mapsUrl": "https://maps.google.com/?q=50.0639942,19.9409347",
   "lat": 50.0639942,
   "lng": 19.9409347,
   "halalFriendly": false,
   "bookingUrl": "https://maps.google.com/?q=50.0639942,19.9409347",
   "source": "osm"
  },
  {
   "nom": "Matejko",
   "categorie": "Hôtel",
   "priceRange": "€€",
   "mapsUrl": "https://maps.google.com/?q=50.067138,19.9431302",
   "lat": 50.067138,
   "lng": 19.9431302,
   "halalFriendly": false,
   "bookingUrl": "http://www.matejkohotel.pl/",
   "source": "osm"
  },
  {
   "nom": "Hotel Floryan",
   "categorie": "Hôtel",
   "priceRange": "€€",
   "mapsUrl": "https://maps.google.com/?q=50.0644376,19.940776",
   "lat": 50.0644376,
   "lng": 19.940776,
   "halalFriendly": false,
   "bookingUrl": "https://maps.google.com/?q=50.0644376,19.940776",
   "source": "osm"
  },
  {
   "nom": "Cracow Central Aparthotel",
   "categorie": "Hôtel",
   "priceRange": "€€",
   "mapsUrl": "https://maps.google.com/?q=50.0674538,19.9442133",
   "lat": 50.0674538,
   "lng": 19.9442133,
   "halalFriendly": false,
   "bookingUrl": "https://maps.google.com/?q=50.0674538,19.9442133",
   "source": "osm"
  },
  {
   "nom": "BD Kraków",
   "categorie": "Appartement",
   "priceRange": "€€",
   "mapsUrl": "https://maps.google.com/?q=50.0675104,19.94463",
   "lat": 50.0675104,
   "lng": 19.94463,
   "halalFriendly": false,
   "bookingUrl": "https://maps.google.com/?q=50.0675104,19.94463",
   "source": "osm"
  },
  {
   "nom": "Hotel Polski",
   "categorie": "Hôtel",
   "priceRange": "€€",
   "mapsUrl": "https://maps.google.com/?q=50.0647283,19.9405801",
   "lat": 50.0647283,
   "lng": 19.9405801,
   "halalFriendly": false,
   "bookingUrl": "http://www.donimirski.com/hotel-polski/hotel",
   "source": "osm"
  },
  {
   "nom": "Elektor",
   "categorie": "Hôtel",
   "priceRange": "€€€",
   "score": 3,
   "mapsUrl": "https://maps.google.com/?q=50.0631939,19.9412087",
   "lat": 50.0631939,
   "lng": 19.9412087,
   "halalFriendly": false,
   "bookingUrl": "https://www.hotelelektor.com/",
   "source": "osm"
  },
  {
   "nom": "Landmark Apartments",
   "categorie": "Appartement",
   "priceRange": "€€",
   "mapsUrl": "https://maps.google.com/?q=50.0646346,19.9495391",
   "lat": 50.0646346,
   "lng": 19.9495391,
   "halalFriendly": false,
   "bookingUrl": "https://www.landmarkapartments.pl/",
   "source": "osm"
  },
  {
   "nom": "Unicus Hotel",
   "categorie": "Hôtel",
   "priceRange": "€€€€",
   "score": 4,
   "mapsUrl": "https://maps.google.com/?q=50.0636034,19.9407569",
   "lat": 50.0636034,
   "lng": 19.9407569,
   "halalFriendly": false,
   "bookingUrl": "https://maps.google.com/?q=50.0636034,19.9407569",
   "source": "osm"
  },
  {
   "nom": "Mały Kraków",
   "categorie": "Hôtel",
   "priceRange": "€€",
   "mapsUrl": "https://maps.google.com/?q=50.0676392,19.9442169",
   "lat": 50.0676392,
   "lng": 19.9442169,
   "halalFriendly": false,
   "bookingUrl": "https://www.larishotels.com/maly-krakow-aparthotel",
   "source": "osm"
  }
 ],
 "mosqueesPrincipales": [
  {
   "id": "m26195267",
   "nom": "Bazylika Wniebowzięcia Najświętszej Maryi Panny",
   "type": "Mosquée",
   "adresse": "Plac Mariacki, Kraków",
   "description": "Lieu de prière (OpenStreetMap).",
   "mapsUrl": "https://maps.google.com/?q=50.0616572,19.93945",
   "lat": 50.0616572,
   "lng": 19.93945,
   "source": "osm"
  },
  {
   "id": "m138365337",
   "nom": "Kościół pw. Świętej Barbary",
   "type": "Mosquée",
   "adresse": "Mały Rynek, Kraków",
   "description": "Lieu de prière (OpenStreetMap).",
   "mapsUrl": "https://maps.google.com/?q=50.0613121,19.9398407",
   "lat": 50.0613121,
   "lng": 19.9398407,
   "source": "osm"
  },
  {
   "id": "m29271113",
   "nom": "Kościół pw. Świętego Wojciecha Biskupa i Męczennika",
   "type": "Mosquée",
   "adresse": "",
   "description": "Lieu de prière (OpenStreetMap).",
   "mapsUrl": "https://maps.google.com/?q=50.060888,19.9377429",
   "lat": 50.060888,
   "lng": 19.9377429,
   "source": "osm"
  },
  {
   "id": "m5537610769",
   "nom": "I Centrum Muzułmańskie",
   "type": "Mosquée",
   "adresse": "Jana Sobieskiego, Kraków",
   "description": "Lieu de prière (OpenStreetMap).",
   "mapsUrl": "https://maps.google.com/?q=50.0681994,19.9310387",
   "lat": 50.0681994,
   "lng": 19.9310387,
   "source": "osm"
  },
  {
   "id": "m85151350",
   "nom": "Kościół pw. Świętych Stanisława i Wacława",
   "type": "Mosquée",
   "adresse": "Kraków",
   "description": "Lieu de prière (OpenStreetMap).",
   "mapsUrl": "https://maps.google.com/?q=50.0546439,19.9354796",
   "lat": 50.0546439,
   "lng": 19.9354796,
   "source": "osm"
  },
  {
   "id": "m33291029",
   "nom": "Kościół pw. Bożego Ciała",
   "type": "Mosquée",
   "adresse": "",
   "description": "Lieu de prière (OpenStreetMap).",
   "mapsUrl": "https://maps.google.com/?q=50.0497673,19.9449767",
   "lat": 50.0497673,
   "lng": 19.9449767,
   "source": "osm"
  },
  {
   "id": "m231922142",
   "nom": "Kościół pw. Najświętszego Salwatora",
   "type": "Mosquée",
   "adresse": "Świętej Bronisławy, Kraków",
   "description": "Lieu de prière (OpenStreetMap).",
   "mapsUrl": "https://maps.google.com/?q=50.0534265,19.9123321",
   "lat": 50.0534265,
   "lng": 19.9123321,
   "source": "osm"
  },
  {
   "id": "m231919306",
   "nom": "Kaplica Świętej Małgorzaty i Świętej Judyty",
   "type": "Mosquée",
   "adresse": "",
   "description": "Lieu de prière (OpenStreetMap).",
   "mapsUrl": "https://maps.google.com/?q=50.0525566,19.9126736",
   "lat": 50.0525566,
   "lng": 19.9126736,
   "source": "osm"
  },
  {
   "id": "m231922023",
   "nom": "Kaplica pw. Błogosławionej Bronisławy",
   "type": "Mosquée",
   "adresse": "Aleja Jerzego Waszyngtona, Kraków",
   "description": "Lieu de prière (OpenStreetMap).",
   "mapsUrl": "https://maps.google.com/?q=50.0548884,19.892714",
   "lat": 50.0548884,
   "lng": 19.892714,
   "source": "osm"
  },
  {
   "id": "m231216865",
   "nom": "II Centrum Muzułmańskie",
   "type": "Mosquée",
   "adresse": "Groszkowa, Kraków",
   "description": "Lieu de prière (OpenStreetMap).",
   "mapsUrl": "https://maps.google.com/?q=50.0889355,19.8837178",
   "lat": 50.0889355,
   "lng": 19.8837178,
   "source": "osm"
  }
 ],
 "activites": [
  {
   "id": "a273536893",
   "nom": "Florian Straszewski",
   "categorie": "memorial",
   "description": "",
   "prix": "",
   "duree": "",
   "mapsUrl": "https://maps.google.com/?q=50.0643367,19.9443353",
   "lat": 50.0643367,
   "lng": 19.9443353,
   "source": "osm"
  },
  {
   "id": "a12381936480",
   "nom": "Legendy Krakowa",
   "categorie": "attraction",
   "description": "",
   "prix": "",
   "duree": "",
   "mapsUrl": "https://maps.google.com/?q=50.0654291,19.9448428",
   "lat": 50.0654291,
   "lng": 19.9448428,
   "source": "osm"
  },
  {
   "id": "a279024104",
   "nom": "Zajścia Krakowskie 1936 r.",
   "categorie": "memorial",
   "description": "",
   "prix": "",
   "duree": "",
   "mapsUrl": "https://maps.google.com/?q=50.0648716,19.9433911",
   "lat": 50.0648716,
   "lng": 19.9433911,
   "source": "osm"
  },
  {
   "id": "a11330042315",
   "nom": "Skwer Andrzeja Wajdy",
   "categorie": "memorial",
   "description": "",
   "prix": "",
   "duree": "",
   "mapsUrl": "https://maps.google.com/?q=50.0646449,19.9431982",
   "lat": 50.0646449,
   "lng": 19.9431982,
   "source": "osm"
  },
  {
   "id": "a5601369239",
   "nom": "Ryszard Kukliński",
   "categorie": "memorial",
   "description": "",
   "prix": "",
   "duree": "",
   "mapsUrl": "https://maps.google.com/?q=50.0652205,19.9466322",
   "lat": 50.0652205,
   "lng": 19.9466322,
   "source": "osm"
  },
  {
   "id": "a11718099151",
   "nom": "Wisława Szymborska",
   "categorie": "memorial",
   "description": "",
   "prix": "",
   "duree": "",
   "mapsUrl": "https://maps.google.com/?q=50.0640447,19.9467344",
   "lat": 50.0640447,
   "lng": 19.9467344,
   "source": "osm"
  },
  {
   "id": "a277498336",
   "nom": "Michał Bałucki",
   "categorie": "memorial",
   "description": "",
   "prix": "",
   "duree": "",
   "mapsUrl": "https://maps.google.com/?q=50.0633678,19.9440087",
   "lat": 50.0633678,
   "lng": 19.9440087,
   "source": "osm"
  },
  {
   "id": "a51790158",
   "nom": "Zabytkowy Dworzec Główny",
   "categorie": "attraction",
   "description": "",
   "prix": "",
   "duree": "",
   "mapsUrl": "https://maps.google.com/?q=50.0655079,19.9471442",
   "lat": 50.0655079,
   "lng": 19.9471442,
   "source": "osm"
  },
  {
   "id": "a3083014623",
   "nom": "Aleksander Fredro",
   "categorie": "memorial",
   "description": "",
   "prix": "",
   "duree": "",
   "mapsUrl": "https://maps.google.com/?q=50.0641418,19.9424572",
   "lat": 50.0641418,
   "lng": 19.9424572,
   "source": "osm"
  },
  {
   "id": "a200814803",
   "nom": "Baszta Pasamoników",
   "categorie": "attraction",
   "description": "",
   "prix": "",
   "duree": "",
   "mapsUrl": "https://maps.google.com/?q=50.0647421,19.9422443",
   "lat": 50.0647421,
   "lng": 19.9422443,
   "source": "osm"
  },
  {
   "id": "a11360712316",
   "nom": "Mury Obronne",
   "categorie": "museum",
   "description": "",
   "prix": "",
   "duree": "",
   "mapsUrl": "https://maps.google.com/?q=50.064753,19.9422405",
   "lat": 50.064753,
   "lng": 19.9422405,
   "source": "osm"
  },
  {
   "id": "a7293805858",
   "nom": "Skwer Zbigniewa Wodeckiego",
   "categorie": "memorial",
   "description": "",
   "prix": "",
   "duree": "",
   "mapsUrl": "https://maps.google.com/?q=50.0628888,19.9444579",
   "lat": 50.0628888,
   "lng": 19.9444579,
   "source": "osm"
  },
  {
   "id": "a1013618099",
   "nom": "Floriańska",
   "categorie": "attraction",
   "description": "",
   "prix": "",
   "duree": "",
   "mapsUrl": "https://maps.google.com/?q=50.0651968,19.9414982",
   "lat": 50.0651968,
   "lng": 19.9414982,
   "source": "osm"
  },
  {
   "id": "a359169341",
   "nom": "Floriańska",
   "categorie": "attraction",
   "description": "",
   "prix": "",
   "duree": "",
   "mapsUrl": "https://maps.google.com/?q=50.0650456,19.9414328",
   "lat": 50.0650456,
   "lng": 19.9414328,
   "source": "osm"
  },
  {
   "id": "a234974342",
   "nom": "Floriańska",
   "categorie": "attraction",
   "description": "",
   "prix": "",
   "duree": "",
   "mapsUrl": "https://maps.google.com/?q=50.0648564,19.941353",
   "lat": 50.0648564,
   "lng": 19.941353,
   "source": "osm"
  },
  {
   "id": "a39357538",
   "nom": "Brama Floriańska",
   "categorie": "attraction",
   "description": "",
   "prix": "",
   "duree": "",
   "mapsUrl": "https://maps.google.com/?q=50.0648565,19.941353",
   "lat": 50.0648565,
   "lng": 19.941353,
   "source": "osm"
  },
  {
   "id": "a274088761",
   "nom": "Grób Nieznanego Żołnierza",
   "categorie": "memorial",
   "description": "",
   "prix": "",
   "duree": "",
   "mapsUrl": "https://maps.google.com/?q=50.0662689,19.9420508",
   "lat": 50.0662689,
   "lng": 19.9420508,
   "source": "osm"
  },
  {
   "id": "a274088760",
   "nom": "Pomnik Grunwaldzki",
   "categorie": "memorial",
   "description": "",
   "prix": "",
   "duree": "",
   "mapsUrl": "https://maps.google.com/?q=50.0664155,19.942144",
   "lat": 50.0664155,
   "lng": 19.942144,
   "source": "osm"
  },
  {
   "id": "a12651963791",
   "nom": "Centrum Interpretacji Niematerialnego Dziedzictwa Krakowa",
   "categorie": "museum",
   "description": "",
   "prix": "",
   "duree": "",
   "mapsUrl": "https://maps.google.com/?q=50.0632933,19.9417396",
   "lat": 50.0632933,
   "lng": 19.9417396,
   "source": "osm"
  },
  {
   "id": "a12441447985",
   "nom": "Bolesław Roja",
   "categorie": "memorial",
   "description": "",
   "prix": "",
   "duree": "",
   "mapsUrl": "https://maps.google.com/?q=50.0652552,19.9488469",
   "lat": 50.0652552,
   "lng": 19.9488469,
   "source": "osm"
  },
  {
   "id": "a3352845943",
   "nom": "Jan Matejko",
   "categorie": "memorial",
   "description": "",
   "prix": "",
   "duree": "",
   "mapsUrl": "https://maps.google.com/?q=50.0653877,19.9410499",
   "lat": 50.0653877,
   "lng": 19.9410499,
   "source": "osm"
  },
  {
   "id": "a153158172",
   "nom": "Dom Jana Matejki",
   "categorie": "museum",
   "description": "",
   "prix": "",
   "duree": "",
   "mapsUrl": "https://maps.google.com/?q=50.0638373,19.9410239",
   "lat": 50.0638373,
   "lng": 19.9410239,
   "source": "osm"
  },
  {
   "id": "a490986302",
   "nom": "Art Gallery 36",
   "categorie": "gallery",
   "description": "",
   "prix": "",
   "duree": "",
   "mapsUrl": "https://maps.google.com/?q=50.0643231,19.9408221",
   "lat": 50.0643231,
   "lng": 19.9408221,
   "source": "osm"
  },
  {
   "id": "a200499486",
   "nom": "Baszta Stolarska",
   "categorie": "attraction",
   "description": "",
   "prix": "",
   "duree": "",
   "mapsUrl": "https://maps.google.com/?q=50.0650161,19.9406375",
   "lat": 50.0650161,
   "lng": 19.9406375,
   "source": "osm"
  },
  {
   "id": "a8787175360",
   "nom": "Wax Museum",
   "categorie": "museum",
   "description": "",
   "prix": "",
   "duree": "",
   "mapsUrl": "https://maps.google.com/?q=50.0640409,19.9406218",
   "lat": 50.0640409,
   "lng": 19.9406218,
   "source": "osm"
  },
  {
   "id": "a30807865",
   "nom": "Celestat",
   "categorie": "museum",
   "description": "",
   "prix": "",
   "duree": "",
   "mapsUrl": "https://maps.google.com/?q=50.0654484,19.9493704",
   "lat": 50.0654484,
   "lng": 19.9493704,
   "source": "osm"
  },
  {
   "id": "a692494301",
   "nom": "Galeria ASP w Krakowie",
   "categorie": "gallery",
   "description": "",
   "prix": "",
   "duree": "",
   "mapsUrl": "https://maps.google.com/?q=50.0661486,19.9410709",
   "lat": 50.0661486,
   "lng": 19.9410709,
   "source": "osm"
  },
  {
   "id": "a6077795789",
   "nom": "Marcin Oracewicz",
   "categorie": "memorial",
   "description": "",
   "prix": "",
   "duree": "",
   "mapsUrl": "https://maps.google.com/?q=50.0652925,19.9494596",
   "lat": 50.0652925,
   "lng": 19.9494596,
   "source": "osm"
  },
  {
   "id": "a5751039807",
   "nom": "Muzeum Anatomii",
   "categorie": "museum",
   "description": "",
   "prix": "",
   "duree": "",
   "mapsUrl": "https://maps.google.com/?q=50.0617966,19.9459505",
   "lat": 50.0617966,
   "lng": 19.9459505,
   "source": "osm"
  },
  {
   "id": "a1334317116",
   "nom": "Muzeum Książąt Czartoryskich w Krakowie",
   "categorie": "museum",
   "description": "",
   "prix": "",
   "duree": "",
   "mapsUrl": "https://maps.google.com/?q=50.0648136,19.9402301",
   "lat": 50.0648136,
   "lng": 19.9402301,
   "source": "osm"
  }
 ],
 "scoreIndicatif": true,
 "osmEnriched": true,
 "osmEnrichedAt": "2026-06-30"
}
