{
  "slug": "cracovie",
  "nom": "Cracovie",
  "pays": "Pologne",
  "pays_slug": "pologne",
  "continent": "Europe",
  "region": "Pologne",
  "coordonnees": {
    "lat": 50.0647,
    "lng": 19.945
  },
  "codeISO": "PL",
  "score_halal": 2.8,
  "halalScore": 5.6,
  "villeNonMusulmane": true,
  "description": "Joyau médiéval de la Pologne. Quelques restaurants halal et kebabs certifiés autour de la vieille ville.",
  "metaDescription": "Joyau médiéval de la Pologne. Quelques restaurants halal et kebabs certifiés autour de la vieille ville.",
  "image": "https://upload.wikimedia.org/wikipedia/commons/thumb/a/a3/Krakow_Rynek_Glowny_panorama_2.jpg/1600px-Krakow_Rynek_Glowny_panorama_2.jpg",
  "image_hero": "https://upload.wikimedia.org/wikipedia/commons/thumb/a/a3/Krakow_Rynek_Glowny_panorama_2.jpg/1600px-Krakow_Rynek_Glowny_panorama_2.jpg",
  "imageCredit": "Wikimedia Commons",
  "statistiques": {
    "restaurants_halal": 152,
    "mosquees": 11,
    "hotels": 120
  },
  "infoPratique": {
    "transport": "Accessible par avion et transports en commun locaux.",
    "meilleureEpoque": "Printemps et automne (climat tempéré).",
    "conseilHalal": "Ville non-musulmane : repérez les restaurants halal certifiés et les mosquées via l'application avant votre visite."
  },
  "tags": [
    "halal",
    "ville non-musulmane",
    "europe"
  ],
  "restaurants": [
    {
      "nom": "Kebab Hamis",
      "type": "kebab",
      "priceRange": "€€",
      "mapsUrl": "https://maps.google.com/?q=50.068382,19.9135394",
      "lat": 50.068382,
      "lng": 19.9135394,
      "halalConfidence": "yes",
      "source": "osm"
    },
    {
      "nom": "Ali Baba",
      "type": "kebab",
      "priceRange": "€€",
      "mapsUrl": "https://maps.google.com/?q=50.0737076,19.9114393",
      "lat": 50.0737076,
      "lng": 19.9114393,
      "halalConfidence": "yes",
      "source": "osm"
    },
    {
      "nom": "Fast Kebab",
      "type": "kebab",
      "priceRange": "€€",
      "mapsUrl": "https://maps.google.com/?q=50.0645806,19.9449741",
      "lat": 50.0645806,
      "lng": 19.9449741,
      "halalConfidence": "likely",
      "source": "osm"
    },
    {
      "nom": "Ciro",
      "type": "kebab",
      "priceRange": "€€",
      "mapsUrl": "https://maps.google.com/?q=50.0641232,19.9420779",
      "lat": 50.0641232,
      "lng": 19.9420779,
      "halalConfidence": "likely",
      "source": "osm"
    },
    {
      "nom": "Beirut Shawarma Kebab & Falafel",
      "type": "kebab",
      "priceRange": "€€",
      "mapsUrl": "https://maps.google.com/?q=50.0644284,19.9411693",
      "lat": 50.0644284,
      "lng": 19.9411693,
      "halalConfidence": "likely",
      "source": "osm"
    },
    {
      "nom": "Efendi",
      "type": "turkish",
      "priceRange": "€€",
      "mapsUrl": "https://maps.google.com/?q=50.0673452,19.9446193",
      "lat": 50.0673452,
      "lng": 19.9446193,
      "halalConfidence": "likely",
      "source": "osm"
    },
    {
      "nom": "Berlin Döner Kebap",
      "type": "kebab",
      "priceRange": "€€",
      "mapsUrl": "https://maps.google.com/?q=50.0672802,19.9465471",
      "lat": 50.0672802,
      "lng": 19.9465471,
      "halalConfidence": "likely",
      "source": "osm"
    },
    {
      "nom": "Istanbul",
      "type": "turkish",
      "priceRange": "€€",
      "mapsUrl": "https://maps.google.com/?q=50.0620384,19.9422394",
      "lat": 50.0620384,
      "lng": 19.9422394,
      "halalConfidence": "likely",
      "source": "osm"
    },
    {
      "nom": "Kebab Królewski",
      "type": "kebab",
      "priceRange": "€€",
      "mapsUrl": "https://maps.google.com/?q=50.0635389,19.940227",
      "lat": 50.0635389,
      "lng": 19.940227,
      "halalConfidence": "likely",
      "source": "osm"
    },
    {
      "nom": "Efes",
      "type": "kebab, grill, salad",
      "priceRange": "€€",
      "mapsUrl": "https://maps.google.com/?q=50.0663549,19.9401631",
      "lat": 50.0663549,
      "lng": 19.9401631,
      "halalConfidence": "likely",
      "source": "osm"
    },
    {
      "nom": "Sevi Kebab",
      "type": "kebab",
      "priceRange": "€€",
      "mapsUrl": "https://maps.google.com/?q=50.0681883,19.9463164",
      "lat": 50.0681883,
      "lng": 19.9463164,
      "halalConfidence": "likely",
      "source": "osm"
    },
    {
      "nom": "Arabia",
      "type": "kebab",
      "priceRange": "€€",
      "mapsUrl": "https://maps.google.com/?q=50.0665404,19.9396264",
      "lat": 50.0665404,
      "lng": 19.9396264,
      "halalConfidence": "likely",
      "source": "osm"
    },
    {
      "nom": "U Szwagra",
      "type": "kebab",
      "priceRange": "€€",
      "mapsUrl": "https://maps.google.com/?q=50.0671798,19.9499875",
      "lat": 50.0671798,
      "lng": 19.9499875,
      "halalConfidence": "likely",
      "source": "osm"
    },
    {
      "nom": "Butcher grill",
      "type": "kebab",
      "priceRange": "€€",
      "mapsUrl": "https://maps.google.com/?q=50.0625977,19.9394993",
      "lat": 50.0625977,
      "lng": 19.9394993,
      "halalConfidence": "likely",
      "source": "osm"
    },
    {
      "nom": "Soltan Kebab",
      "type": "kebab",
      "priceRange": "€€",
      "mapsUrl": "https://maps.google.com/?q=50.0697226,19.9434616",
      "lat": 50.0697226,
      "lng": 19.9434616,
      "halalConfidence": "likely",
      "source": "osm"
    },
    {
      "nom": "Mersin Tantuni",
      "type": "kebab",
      "priceRange": "€€",
      "mapsUrl": "https://maps.google.com/?q=50.0637615,19.9370824",
      "lat": 50.0637615,
      "lng": 19.9370824,
      "halalConfidence": "likely",
      "source": "osm"
    },
    {
      "nom": "Kraft Kebab",
      "type": "kebab",
      "priceRange": "€€",
      "mapsUrl": "https://maps.google.com/?q=50.0698876,19.9435052",
      "lat": 50.0698876,
      "lng": 19.9435052,
      "halalConfidence": "likely",
      "source": "osm"
    },
    {
      "nom": "Mazaya Falafel",
      "type": "turkish, arab",
      "priceRange": "€€",
      "mapsUrl": "https://maps.google.com/?q=50.0580012,19.9439519",
      "lat": 50.0580012,
      "lng": 19.9439519,
      "halalConfidence": "likely",
      "source": "osm"
    },
    {
      "nom": "Akropolis",
      "type": "kebab",
      "priceRange": "€€",
      "mapsUrl": "https://maps.google.com/?q=50.0597321,19.9376383",
      "lat": 50.0597321,
      "lng": 19.9376383,
      "halalConfidence": "likely",
      "source": "osm"
    },
    {
      "nom": "Kebab King",
      "type": "kebab",
      "priceRange": "€€",
      "mapsUrl": "https://maps.google.com/?q=50.0627603,19.9346149",
      "lat": 50.0627603,
      "lng": 19.9346149,
      "halalConfidence": "likely",
      "source": "osm"
    },
    {
      "nom": "Faraon",
      "type": "kebab",
      "priceRange": "€€",
      "mapsUrl": "https://maps.google.com/?q=50.0628678,19.934341",
      "lat": 50.0628678,
      "lng": 19.934341,
      "halalConfidence": "likely",
      "source": "osm"
    },
    {
      "nom": "Shawerma",
      "type": "kebab",
      "priceRange": "€€",
      "mapsUrl": "https://maps.google.com/?q=50.0610882,19.9351056",
      "lat": 50.0610882,
      "lng": 19.9351056,
      "halalConfidence": "likely",
      "source": "osm"
    },
    {
      "nom": "Ugur Döner",
      "type": "kebab",
      "priceRange": "€€",
      "mapsUrl": "https://maps.google.com/?q=50.0603049,19.934655",
      "lat": 50.0603049,
      "lng": 19.934655,
      "halalConfidence": "likely",
      "source": "osm"
    },
    {
      "nom": "Zaytouna",
      "type": "syrian",
      "priceRange": "€€",
      "mapsUrl": "https://maps.google.com/?q=50.0634278,19.9313269",
      "lat": 50.0634278,
      "lng": 19.9313269,
      "halalConfidence": "likely",
      "source": "osm"
    },
    {
      "nom": "Türk Döner Kebap",
      "type": "kebab",
      "priceRange": "€€",
      "mapsUrl": "https://maps.google.com/?q=50.0672335,19.9597855",
      "lat": 50.0672335,
      "lng": 19.9597855,
      "halalConfidence": "likely",
      "source": "osm"
    },
    {
      "nom": "Premium Kebab",
      "type": "kebab",
      "priceRange": "€€",
      "mapsUrl": "https://maps.google.com/?q=50.072814,19.9362157",
      "lat": 50.072814,
      "lng": 19.9362157,
      "halalConfidence": "likely",
      "source": "osm"
    },
    {
      "nom": "Istanbul Kebab",
      "type": "kebab",
      "priceRange": "€€",
      "mapsUrl": "https://maps.google.com/?q=50.0727269,19.9356325",
      "lat": 50.0727269,
      "lng": 19.9356325,
      "halalConfidence": "likely",
      "source": "osm"
    },
    {
      "nom": "Mazaya",
      "type": "arabic",
      "priceRange": "€€",
      "mapsUrl": "https://maps.google.com/?q=50.0633953,19.9289802",
      "lat": 50.0633953,
      "lng": 19.9289802,
      "halalConfidence": "likely",
      "source": "osm"
    },
    {
      "nom": "Kebab Asia",
      "type": "kebab",
      "priceRange": "€€",
      "mapsUrl": "https://maps.google.com/?q=50.0736583,19.9360886",
      "lat": 50.0736583,
      "lng": 19.9360886,
      "halalConfidence": "likely",
      "source": "osm"
    },
    {
      "nom": "Dian Kebab & Falafel",
      "type": "kebab",
      "priceRange": "€€",
      "mapsUrl": "https://maps.google.com/?q=50.0669243,19.9288071",
      "lat": 50.0669243,
      "lng": 19.9288071,
      "halalConfidence": "likely",
      "source": "osm"
    },
    {
      "nom": "Polenez",
      "type": "turkish, kebab",
      "priceRange": "€€",
      "mapsUrl": "https://maps.google.com/?q=50.0640331,19.9278484",
      "lat": 50.0640331,
      "lng": 19.9278484,
      "halalConfidence": "likely",
      "source": "osm"
    },
    {
      "nom": "Doon Kebab",
      "type": "kebab",
      "priceRange": "€€",
      "mapsUrl": "https://maps.google.com/?q=50.0580004,19.93122",
      "lat": 50.0580004,
      "lng": 19.93122,
      "halalConfidence": "likely",
      "source": "osm"
    },
    {
      "nom": "Viral",
      "type": "kebab",
      "priceRange": "€€",
      "mapsUrl": "https://maps.google.com/?q=50.0675351,19.9280875",
      "lat": 50.0675351,
      "lng": 19.9280875,
      "halalConfidence": "likely",
      "source": "osm"
    },
    {
      "nom": "Nogor Kebab",
      "type": "kebab",
      "priceRange": "€€",
      "mapsUrl": "https://maps.google.com/?q=50.0630919,19.9274828",
      "lat": 50.0630919,
      "lng": 19.9274828,
      "halalConfidence": "likely",
      "source": "osm"
    },
    {
      "nom": "Petarda u Aliego",
      "type": "kebab",
      "priceRange": "€€",
      "mapsUrl": "https://maps.google.com/?q=50.0533968,19.9468312",
      "lat": 50.0533968,
      "lng": 19.9468312,
      "halalConfidence": "likely",
      "source": "osm"
    },
    {
      "nom": "Sjeti Kebab",
      "type": "kebab",
      "priceRange": "€€",
      "mapsUrl": "https://maps.google.com/?q=50.068,19.9279913",
      "lat": 50.068,
      "lng": 19.9279913,
      "halalConfidence": "likely",
      "source": "osm"
    },
    {
      "nom": "House Of Kebab",
      "type": "kebab",
      "priceRange": "€€",
      "mapsUrl": "https://maps.google.com/?q=50.0522267,19.9430852",
      "lat": 50.0522267,
      "lng": 19.9430852,
      "halalConfidence": "likely",
      "source": "osm"
    },
    {
      "nom": "Piri-Piri",
      "type": "kebab",
      "priceRange": "€€",
      "mapsUrl": "https://maps.google.com/?q=50.0569544,19.9611084",
      "lat": 50.0569544,
      "lng": 19.9611084,
      "halalConfidence": "likely",
      "source": "osm"
    },
    {
      "nom": "Kebab Cezar",
      "type": "kebab",
      "priceRange": "€€",
      "mapsUrl": "https://maps.google.com/?q=50.0692849,19.9258586",
      "lat": 50.0692849,
      "lng": 19.9258586,
      "halalConfidence": "likely",
      "source": "osm"
    },
    {
      "nom": "Kebab Pasja",
      "type": "kebab",
      "priceRange": "€€",
      "mapsUrl": "https://maps.google.com/?q=50.0514795,19.9449143",
      "lat": 50.0514795,
      "lng": 19.9449143,
      "halalConfidence": "likely",
      "source": "osm"
    },
    {
      "nom": "Merhaba Döner Kebap",
      "type": "kebab",
      "priceRange": "€€",
      "mapsUrl": "https://maps.google.com/?q=50.0600456,19.9251119",
      "lat": 50.0600456,
      "lng": 19.9251119,
      "halalConfidence": "likely",
      "source": "osm"
    },
    {
      "nom": "Oyche Döner",
      "type": "kebab",
      "priceRange": "€€",
      "mapsUrl": "https://maps.google.com/?q=50.0508045,19.9448658",
      "lat": 50.0508045,
      "lng": 19.9448658,
      "halalConfidence": "likely",
      "source": "osm"
    },
    {
      "nom": "Kebaber",
      "type": "kebab",
      "priceRange": "€€",
      "mapsUrl": "https://maps.google.com/?q=50.0503936,19.942726",
      "lat": 50.0503936,
      "lng": 19.942726,
      "halalConfidence": "likely",
      "source": "osm"
    },
    {
      "nom": "Tandoor",
      "type": "kebab",
      "priceRange": "€€",
      "mapsUrl": "https://maps.google.com/?q=50.0506106,19.9514535",
      "lat": 50.0506106,
      "lng": 19.9514535,
      "halalConfidence": "likely",
      "source": "osm"
    },
    {
      "nom": "Shawarma 31",
      "type": "kebab",
      "priceRange": "€€",
      "mapsUrl": "https://maps.google.com/?q=50.0493884,19.9431539",
      "lat": 50.0493884,
      "lng": 19.9431539,
      "halalConfidence": "likely",
      "source": "osm"
    },
    {
      "nom": "Jerusalem Kebab",
      "type": "kebab",
      "priceRange": "€€",
      "mapsUrl": "https://maps.google.com/?q=50.0492502,19.9432459",
      "lat": 50.0492502,
      "lng": 19.9432459,
      "halalConfidence": "likely",
      "source": "osm"
    },
    {
      "nom": "Kebab pod 13",
      "type": "kebab",
      "priceRange": "€€",
      "mapsUrl": "https://maps.google.com/?q=50.0482908,19.9440097",
      "lat": 50.0482908,
      "lng": 19.9440097,
      "halalConfidence": "likely",
      "source": "osm"
    },
    {
      "nom": "Kebab u Pajdy Wroclawska",
      "type": "kebab",
      "priceRange": "€€",
      "mapsUrl": "https://maps.google.com/?q=50.0768966,19.9275992",
      "lat": 50.0768966,
      "lng": 19.9275992,
      "halalConfidence": "likely",
      "source": "osm"
    },
    {
      "nom": "Crystal",
      "type": "kebab",
      "priceRange": "€€",
      "mapsUrl": "https://maps.google.com/?q=50.0724713,19.9221155",
      "lat": 50.0724713,
      "lng": 19.9221155,
      "halalConfidence": "likely",
      "source": "osm"
    },
    {
      "nom": "Kebab Maas",
      "type": "kebab",
      "priceRange": "€€",
      "mapsUrl": "https://maps.google.com/?q=50.0769167,19.9272152",
      "lat": 50.0769167,
      "lng": 19.9272152,
      "halalConfidence": "likely",
      "source": "osm"
    },
    {
      "nom": "Jamra",
      "type": "kebab, syrian",
      "priceRange": "€€",
      "mapsUrl": "https://maps.google.com/?q=50.0501943,19.9615137",
      "lat": 50.0501943,
      "lng": 19.9615137,
      "halalConfidence": "likely",
      "source": "osm"
    },
    {
      "nom": "Baron",
      "type": "lebanese, oriental",
      "priceRange": "€€",
      "mapsUrl": "https://maps.google.com/?q=50.048969,19.9596465",
      "lat": 50.048969,
      "lng": 19.9596465,
      "halalConfidence": "likely",
      "source": "osm"
    },
    {
      "nom": "Diamond Kebab",
      "type": "burger, kebab",
      "priceRange": "€€",
      "mapsUrl": "https://maps.google.com/?q=50.0655664,19.9132641",
      "lat": 50.0655664,
      "lng": 19.9132641,
      "halalConfidence": "likely",
      "source": "osm"
    },
    {
      "nom": "Jamra - Syrian Grill",
      "type": "kebab",
      "priceRange": "€€",
      "mapsUrl": "https://maps.google.com/?q=50.0439761,19.9464326",
      "lat": 50.0439761,
      "lng": 19.9464326,
      "halalConfidence": "likely",
      "source": "osm"
    },
    {
      "nom": "Koosk Kebab",
      "type": "turkish, kebab",
      "priceRange": "€€",
      "mapsUrl": "https://maps.google.com/?q=50.0528554,19.917089",
      "lat": 50.0528554,
      "lng": 19.917089,
      "halalConfidence": "likely",
      "source": "osm"
    },
    {
      "nom": "Keblab",
      "type": "kebab",
      "priceRange": "€€",
      "mapsUrl": "https://maps.google.com/?q=50.0427903,19.9448647",
      "lat": 50.0427903,
      "lng": 19.9448647,
      "halalConfidence": "likely",
      "source": "osm"
    },
    {
      "nom": "Lav",
      "type": "kebab",
      "priceRange": "€€",
      "mapsUrl": "https://maps.google.com/?q=50.0865038,19.9380533",
      "lat": 50.0865038,
      "lng": 19.9380533,
      "halalConfidence": "likely",
      "source": "osm"
    },
    {
      "nom": "Mohy Twój Kebab",
      "type": "kebab",
      "priceRange": "€€",
      "mapsUrl": "https://maps.google.com/?q=50.0844182,19.9284885",
      "lat": 50.0844182,
      "lng": 19.9284885,
      "halalConfidence": "likely",
      "source": "osm"
    },
    {
      "nom": "Moza Kebab",
      "type": "kebab",
      "priceRange": "€€",
      "mapsUrl": "https://maps.google.com/?q=50.0800567,19.9191078",
      "lat": 50.0800567,
      "lng": 19.9191078,
      "halalConfidence": "likely",
      "source": "osm"
    },
    {
      "nom": "Kawiory Park",
      "type": "burger, kebab, pancake, pizza",
      "priceRange": "€€",
      "mapsUrl": "https://maps.google.com/?q=50.0680797,19.9101013",
      "lat": 50.0680797,
      "lng": 19.9101013,
      "halalConfidence": "likely",
      "source": "osm"
    },
    {
      "nom": "Well Kebab",
      "type": "kebab",
      "priceRange": "€€",
      "mapsUrl": "https://maps.google.com/?q=50.0865389,19.9554554",
      "lat": 50.0865389,
      "lng": 19.9554554,
      "halalConfidence": "likely",
      "source": "osm"
    },
    {
      "nom": "Moon Star Kebab",
      "type": "kebab",
      "priceRange": "€€",
      "mapsUrl": "https://maps.google.com/?q=50.0680602,19.9097274",
      "lat": 50.0680602,
      "lng": 19.9097274,
      "halalConfidence": "likely",
      "source": "osm"
    },
    {
      "nom": "U Wiśni",
      "type": "kebab",
      "priceRange": "€€",
      "mapsUrl": "https://maps.google.com/?q=50.0460209,19.9660882",
      "lat": 50.0460209,
      "lng": 19.9660882,
      "halalConfidence": "likely",
      "source": "osm"
    },
    {
      "nom": "Zahir Kebab",
      "type": "kebab",
      "priceRange": "€€",
      "mapsUrl": "https://maps.google.com/?q=50.0885583,19.9343223",
      "lat": 50.0885583,
      "lng": 19.9343223,
      "halalConfidence": "likely",
      "source": "osm"
    },
    {
      "nom": "Freedom Kebab",
      "type": "kebab",
      "priceRange": "€€",
      "mapsUrl": "https://maps.google.com/?q=50.06988,19.9061074",
      "lat": 50.06988,
      "lng": 19.9061074,
      "halalConfidence": "likely",
      "source": "osm"
    },
    {
      "nom": "Efes Kebab",
      "type": "kebab",
      "priceRange": "€€",
      "mapsUrl": "https://maps.google.com/?q=50.090403,19.9439515",
      "lat": 50.090403,
      "lng": 19.9439515,
      "halalConfidence": "likely",
      "source": "osm"
    },
    {
      "nom": "British Kebab",
      "type": "kebab",
      "priceRange": "€€",
      "mapsUrl": "https://maps.google.com/?q=50.0383709,19.9416782",
      "lat": 50.0383709,
      "lng": 19.9416782,
      "halalConfidence": "likely",
      "source": "osm"
    },
    {
      "nom": "Grill & Go Kebab",
      "type": "kebab",
      "priceRange": "€€",
      "mapsUrl": "https://maps.google.com/?q=50.037809,19.9395496",
      "lat": 50.037809,
      "lng": 19.9395496,
      "halalConfidence": "likely",
      "source": "osm"
    },
    {
      "nom": "Lion Kebab",
      "type": "kebab",
      "priceRange": "€€",
      "mapsUrl": "https://maps.google.com/?q=50.0398747,19.9255956",
      "lat": 50.0398747,
      "lng": 19.9255956,
      "halalConfidence": "likely",
      "source": "osm"
    },
    {
      "nom": "Dian kebab house",
      "type": "kebab",
      "priceRange": "€€",
      "mapsUrl": "https://maps.google.com/?q=50.0886328,19.9679124",
      "lat": 50.0886328,
      "lng": 19.9679124,
      "halalConfidence": "likely",
      "source": "osm"
    },
    {
      "nom": "Grube Rollo",
      "type": "kebab",
      "priceRange": "€€",
      "mapsUrl": "https://maps.google.com/?q=50.0359653,19.939929",
      "lat": 50.0359653,
      "lng": 19.939929,
      "halalConfidence": "likely",
      "source": "osm"
    },
    {
      "nom": "Lisan",
      "type": "kebab",
      "priceRange": "€€",
      "mapsUrl": "https://maps.google.com/?q=50.0765952,19.9030594",
      "lat": 50.0765952,
      "lng": 19.9030594,
      "halalConfidence": "likely",
      "source": "osm"
    },
    {
      "nom": "Łoś Kebab",
      "type": "kebab",
      "priceRange": "€€",
      "mapsUrl": "https://maps.google.com/?q=50.0829364,19.9081098",
      "lat": 50.0829364,
      "lng": 19.9081098,
      "halalConfidence": "likely",
      "source": "osm"
    },
    {
      "nom": "Kebab u Buły",
      "type": "kebab",
      "priceRange": "€€",
      "mapsUrl": "https://maps.google.com/?q=50.0929074,19.9636224",
      "lat": 50.0929074,
      "lng": 19.9636224,
      "halalConfidence": "likely",
      "source": "osm"
    },
    {
      "nom": "Telo Kebab",
      "type": "kebab",
      "priceRange": "€€",
      "mapsUrl": "https://maps.google.com/?q=50.0859946,19.9089403",
      "lat": 50.0859946,
      "lng": 19.9089403,
      "halalConfidence": "likely",
      "source": "osm"
    },
    {
      "nom": "Mr Meat",
      "type": "pizza, kebab",
      "priceRange": "€€",
      "mapsUrl": "https://maps.google.com/?q=50.0449598,19.9832679",
      "lat": 50.0449598,
      "lng": 19.9832679,
      "halalConfidence": "likely",
      "source": "osm"
    },
    {
      "nom": "MEAH Kebab",
      "type": "kebab",
      "priceRange": "€€",
      "mapsUrl": "https://maps.google.com/?q=50.0984628,19.9601532",
      "lat": 50.0984628,
      "lng": 19.9601532,
      "halalConfidence": "likely",
      "source": "osm"
    },
    {
      "nom": "Mustafa",
      "type": "kebab",
      "priceRange": "€€",
      "mapsUrl": "https://maps.google.com/?q=50.0328423,19.9695797",
      "lat": 50.0328423,
      "lng": 19.9695797,
      "halalConfidence": "likely",
      "source": "osm"
    },
    {
      "nom": "Zohaib Kebab",
      "type": "kebab",
      "priceRange": "€€",
      "mapsUrl": "https://maps.google.com/?q=50.0963233,19.972935",
      "lat": 50.0963233,
      "lng": 19.972935,
      "halalConfidence": "likely",
      "source": "osm"
    },
    {
      "nom": "Kebab Noor",
      "type": "kebab",
      "priceRange": "€€",
      "mapsUrl": "https://maps.google.com/?q=50.0855214,19.8969585",
      "lat": 50.0855214,
      "lng": 19.8969585,
      "halalConfidence": "likely",
      "source": "osm"
    },
    {
      "nom": "Kebab u Mazura",
      "type": "kebab",
      "priceRange": "€€",
      "mapsUrl": "https://maps.google.com/?q=50.0402042,19.9909472",
      "lat": 50.0402042,
      "lng": 19.9909472,
      "halalConfidence": "likely",
      "source": "osm"
    },
    {
      "nom": "Kebab u Pajdy",
      "type": "kebab",
      "priceRange": "€€",
      "mapsUrl": "https://maps.google.com/?q=50.0410552,19.9930179",
      "lat": 50.0410552,
      "lng": 19.9930179,
      "halalConfidence": "likely",
      "source": "osm"
    },
    {
      "nom": "Byczek",
      "type": "kebab",
      "priceRange": "€€",
      "mapsUrl": "https://maps.google.com/?q=50.0814225,20.0018239",
      "lat": 50.0814225,
      "lng": 20.0018239,
      "halalConfidence": "likely",
      "source": "osm"
    },
    {
      "nom": "Znowu Kebab",
      "type": "kebab",
      "priceRange": "€€",
      "mapsUrl": "https://maps.google.com/?q=50.0991496,19.911774",
      "lat": 50.0991496,
      "lng": 19.911774,
      "halalConfidence": "likely",
      "source": "osm"
    },
    {
      "nom": "Przystanek smaków",
      "type": "kebab, fries",
      "priceRange": "€€",
      "mapsUrl": "https://maps.google.com/?q=50.0846046,20.0006689",
      "lat": 50.0846046,
      "lng": 20.0006689,
      "halalConfidence": "likely",
      "source": "osm"
    },
    {
      "nom": "Lisan Kebab",
      "type": "kebab",
      "priceRange": "€€",
      "mapsUrl": "https://maps.google.com/?q=50.0812648,19.8838221",
      "lat": 50.0812648,
      "lng": 19.8838221,
      "halalConfidence": "likely",
      "source": "osm"
    },
    {
      "nom": "Kebab Byczek",
      "type": "kebab",
      "priceRange": "€€",
      "mapsUrl": "https://maps.google.com/?q=50.0281748,19.9102755",
      "lat": 50.0281748,
      "lng": 19.9102755,
      "halalConfidence": "likely",
      "source": "osm"
    },
    {
      "nom": "Smak Kebab",
      "type": "kebab",
      "priceRange": "€€",
      "mapsUrl": "https://maps.google.com/?q=50.0280708,19.9100302",
      "lat": 50.0280708,
      "lng": 19.9100302,
      "halalConfidence": "likely",
      "source": "osm"
    },
    {
      "nom": "Kebab Dobra Szama",
      "type": "kebab",
      "priceRange": "€€",
      "mapsUrl": "https://maps.google.com/?q=50.0783175,19.8809035",
      "lat": 50.0783175,
      "lng": 19.8809035,
      "halalConfidence": "likely",
      "source": "osm"
    },
    {
      "nom": "Sto Jeden Kebab",
      "type": "kebab",
      "priceRange": "€€",
      "mapsUrl": "https://maps.google.com/?q=50.0685573,20.0124713",
      "lat": 50.0685573,
      "lng": 20.0124713,
      "halalConfidence": "likely",
      "source": "osm"
    },
    {
      "nom": "Przystanek kebab",
      "type": "kebab",
      "priceRange": "€€",
      "mapsUrl": "https://maps.google.com/?q=50.0815597,19.8817132",
      "lat": 50.0815597,
      "lng": 19.8817132,
      "halalConfidence": "likely",
      "source": "osm"
    },
    {
      "nom": "Zahir",
      "type": "kebab",
      "priceRange": "€€",
      "mapsUrl": "https://maps.google.com/?q=50.078882,20.0107399",
      "lat": 50.078882,
      "lng": 20.0107399,
      "halalConfidence": "likely",
      "source": "osm"
    },
    {
      "nom": "Ocean Sushi",
      "type": "kebab, burger, fast food",
      "priceRange": "€€",
      "mapsUrl": "https://maps.google.com/?q=50.0238774,19.9104122",
      "lat": 50.0238774,
      "lng": 19.9104122,
      "halalConfidence": "likely",
      "source": "osm"
    },
    {
      "nom": "Mera Kebab",
      "type": "kebab",
      "priceRange": "€€",
      "mapsUrl": "https://maps.google.com/?q=50.0233255,19.9814432",
      "lat": 50.0233255,
      "lng": 19.9814432,
      "halalConfidence": "likely",
      "source": "osm"
    },
    {
      "nom": "Kebab na Bronxie",
      "type": "kebab",
      "priceRange": "€€",
      "mapsUrl": "https://maps.google.com/?q=50.0984261,19.8897467",
      "lat": 50.0984261,
      "lng": 19.8897467,
      "halalConfidence": "likely",
      "source": "osm"
    },
    {
      "nom": "Ancymon kebab",
      "type": "kebab",
      "priceRange": "€€",
      "mapsUrl": "https://maps.google.com/?q=50.0157382,19.9518391",
      "lat": 50.0157382,
      "lng": 19.9518391,
      "halalConfidence": "likely",
      "source": "osm"
    },
    {
      "nom": "Good Kebab",
      "type": "kebab",
      "priceRange": "€€",
      "mapsUrl": "https://maps.google.com/?q=50.08849,20.01417",
      "lat": 50.08849,
      "lng": 20.01417,
      "halalConfidence": "likely",
      "source": "osm"
    },
    {
      "nom": "Zohaib",
      "type": "kebab",
      "priceRange": "€€",
      "mapsUrl": "https://maps.google.com/?q=50.0841494,20.0204147",
      "lat": 50.0841494,
      "lng": 20.0204147,
      "halalConfidence": "likely",
      "source": "osm"
    },
    {
      "nom": "Krakowski Kebab",
      "type": "kebab",
      "priceRange": "€€",
      "mapsUrl": "https://maps.google.com/?q=50.0148889,19.970908",
      "lat": 50.0148889,
      "lng": 19.970908,
      "halalConfidence": "likely",
      "source": "osm"
    },
    {
      "nom": "Kebab Kordiana",
      "type": "kebab",
      "priceRange": "€€",
      "mapsUrl": "https://maps.google.com/?q=50.0133561,19.9655533",
      "lat": 50.0133561,
      "lng": 19.9655533,
      "halalConfidence": "likely",
      "source": "osm"
    },
    {
      "nom": "ToKebab",
      "type": "kebab",
      "priceRange": "€€",
      "mapsUrl": "https://maps.google.com/?q=50.0785178,20.0248816",
      "lat": 50.0785178,
      "lng": 20.0248816,
      "halalConfidence": "likely",
      "source": "osm"
    },
    {
      "nom": "King Bar",
      "type": "kebab",
      "priceRange": "€€",
      "mapsUrl": "https://maps.google.com/?q=50.0181691,19.9855191",
      "lat": 50.0181691,
      "lng": 19.9855191,
      "halalConfidence": "likely",
      "source": "osm"
    },
    {
      "nom": "Original",
      "type": "kebab",
      "priceRange": "€€",
      "mapsUrl": "https://maps.google.com/?q=50.0958958,20.0130943",
      "lat": 50.0958958,
      "lng": 20.0130943,
      "halalConfidence": "likely",
      "source": "osm"
    },
    {
      "nom": "Rato kebab",
      "type": "kebab",
      "priceRange": "€€",
      "mapsUrl": "https://maps.google.com/?q=50.0735531,20.029089",
      "lat": 50.0735531,
      "lng": 20.029089,
      "halalConfidence": "likely",
      "source": "osm"
    },
    {
      "nom": "Habibi",
      "type": "kebab",
      "priceRange": "€€",
      "mapsUrl": "https://maps.google.com/?q=50.0105591,19.9291239",
      "lat": 50.0105591,
      "lng": 19.9291239,
      "halalConfidence": "likely",
      "source": "osm"
    },
    {
      "nom": "Byczek Kebab",
      "type": "kebab",
      "priceRange": "€€",
      "mapsUrl": "https://maps.google.com/?q=50.0095647,19.953736",
      "lat": 50.0095647,
      "lng": 19.953736,
      "halalConfidence": "likely",
      "source": "osm"
    },
    {
      "nom": "Super Star",
      "type": "kebab",
      "priceRange": "€€",
      "mapsUrl": "https://maps.google.com/?q=50.0790204,20.0286297",
      "lat": 50.0790204,
      "lng": 20.0286297,
      "halalConfidence": "likely",
      "source": "osm"
    },
    {
      "nom": "Kebab u Żaby",
      "type": "kebab",
      "priceRange": "€€",
      "mapsUrl": "https://maps.google.com/?q=50.08999,20.0235455",
      "lat": 50.08999,
      "lng": 20.0235455,
      "halalConfidence": "likely",
      "source": "osm"
    },
    {
      "nom": "Piastów Kebab",
      "type": "kebab",
      "priceRange": "€€",
      "mapsUrl": "https://maps.google.com/?q=50.1016005,20.0135015",
      "lat": 50.1016005,
      "lng": 20.0135015,
      "halalConfidence": "likely",
      "source": "osm"
    },
    {
      "nom": "Kebab u Mogla",
      "type": "diner, kebab",
      "priceRange": "€€",
      "mapsUrl": "https://maps.google.com/?q=50.0889795,20.0274686",
      "lat": 50.0889795,
      "lng": 20.0274686,
      "halalConfidence": "likely",
      "source": "osm"
    },
    {
      "nom": "Baba",
      "type": "turkish",
      "priceRange": "€€",
      "mapsUrl": "https://maps.google.com/?q=50.0075313,19.974559",
      "lat": 50.0075313,
      "lng": 19.974559,
      "halalConfidence": "likely",
      "source": "osm"
    },
    {
      "nom": "Fast Food Corner & Kebab",
      "type": "kebab",
      "priceRange": "€€",
      "mapsUrl": "https://maps.google.com/?q=50.0166704,19.8860531",
      "lat": 50.0166704,
      "lng": 19.8860531,
      "halalConfidence": "likely",
      "source": "osm"
    },
    {
      "nom": "Huzur Kebab",
      "type": "kebab",
      "priceRange": "€€",
      "mapsUrl": "https://maps.google.com/?q=50.0146929,20.0000593",
      "lat": 50.0146929,
      "lng": 20.0000593,
      "halalConfidence": "likely",
      "source": "osm"
    },
    {
      "nom": "Layali",
      "type": "kebab, falafel",
      "priceRange": "€€",
      "mapsUrl": "https://maps.google.com/?q=50.0701543,20.0421985",
      "lat": 50.0701543,
      "lng": 20.0421985,
      "halalConfidence": "likely",
      "source": "osm"
    },
    {
      "nom": "Ankara Kebab",
      "type": "kebab",
      "priceRange": "€€",
      "mapsUrl": "https://maps.google.com/?q=50.083275,19.8476184",
      "lat": 50.083275,
      "lng": 19.8476184,
      "halalConfidence": "likely",
      "source": "osm"
    },
    {
      "nom": "Kebab King Bar",
      "type": "burger, kebab",
      "priceRange": "€€",
      "mapsUrl": "https://maps.google.com/?q=50.0107425,20.008719",
      "lat": 50.0107425,
      "lng": 20.008719,
      "halalConfidence": "likely",
      "source": "osm"
    },
    {
      "nom": "Lav Kebab",
      "type": "kebab, chicken",
      "priceRange": "€€",
      "mapsUrl": "https://maps.google.com/?q=50.0688281,20.0524796",
      "lat": 50.0688281,
      "lng": 20.0524796,
      "halalConfidence": "likely",
      "source": "osm"
    },
    {
      "nom": "Showarma Royal",
      "type": "kebab",
      "priceRange": "€€",
      "mapsUrl": "https://maps.google.com/?q=50.0146725,20.0196261",
      "lat": 50.0146725,
      "lng": 20.0196261,
      "halalConfidence": "likely",
      "source": "osm"
    },
    {
      "nom": "Pycha Kebs",
      "type": "kebab",
      "priceRange": "€€",
      "mapsUrl": "https://maps.google.com/?q=50.0012065,19.9006569",
      "lat": 50.0012065,
      "lng": 19.9006569,
      "halalConfidence": "likely",
      "source": "osm"
    },
    {
      "nom": "Szama",
      "type": "kebab",
      "priceRange": "€€",
      "mapsUrl": "https://maps.google.com/?q=50.0158937,20.0244763",
      "lat": 50.0158937,
      "lng": 20.0244763,
      "halalConfidence": "likely",
      "source": "osm"
    },
    {
      "nom": "kebab 360",
      "type": "kebab",
      "priceRange": "€€",
      "mapsUrl": "https://maps.google.com/?q=49.9913065,20.0406093",
      "lat": 49.9913065,
      "lng": 20.0406093,
      "halalConfidence": "likely",
      "source": "osm"
    },
    {
      "nom": "Mexicana",
      "type": "pizza, kebab, polish",
      "priceRange": "€€",
      "mapsUrl": "https://maps.google.com/?q=49.9959869,20.0571647",
      "lat": 49.9959869,
      "lng": 20.0571647,
      "halalConfidence": "likely",
      "source": "osm"
    },
    {
      "nom": "Z jakim sosem",
      "type": "kebab",
      "priceRange": "€€",
      "mapsUrl": "https://maps.google.com/?q=50.042521,19.791509",
      "lat": 50.042521,
      "lng": 19.791509,
      "halalConfidence": "likely",
      "source": "osm"
    }
  ],
  "hotels": [
    {
      "nom": "Hotel Polonia",
      "categorie": "Hôtel",
      "priceRange": "€€",
      "mapsUrl": "https://maps.google.com/?q=50.064886,19.9447502",
      "lat": 50.064886,
      "lng": 19.9447502,
      "halalFriendly": false,
      "bookingUrl": "https://hotel-polonia.com.pl/hotel-polonia",
      "source": "osm"
    },
    {
      "nom": "Hotel Warszawski",
      "categorie": "Hôtel",
      "priceRange": "€€",
      "mapsUrl": "https://maps.google.com/?q=50.0652058,19.9448223",
      "lat": 50.0652058,
      "lng": 19.9448223,
      "halalFriendly": false,
      "bookingUrl": "https://maps.google.com/?q=50.0652058,19.9448223",
      "source": "osm"
    },
    {
      "nom": "Aparthotel Basztowa",
      "categorie": "Hôtel",
      "priceRange": "€€",
      "mapsUrl": "https://maps.google.com/?q=50.0650052,19.9442545",
      "lat": 50.0650052,
      "lng": 19.9442545,
      "halalFriendly": false,
      "bookingUrl": "https://maps.google.com/?q=50.0650052,19.9442545",
      "source": "osm"
    },
    {
      "nom": "Hotel Europejski",
      "categorie": "Hôtel",
      "priceRange": "€€",
      "mapsUrl": "https://maps.google.com/?q=50.0644771,19.9461619",
      "lat": 50.0644771,
      "lng": 19.9461619,
      "halalFriendly": false,
      "bookingUrl": "https://maps.google.com/?q=50.0644771,19.9461619",
      "source": "osm"
    },
    {
      "nom": "Apartamenty Winnicy Kresy",
      "categorie": "Appartement",
      "priceRange": "€€",
      "mapsUrl": "https://maps.google.com/?q=50.0639152,19.9452281",
      "lat": 50.0639152,
      "lng": 19.9452281,
      "halalFriendly": false,
      "bookingUrl": "https://maps.google.com/?q=50.0639152,19.9452281",
      "source": "osm"
    },
    {
      "nom": "Greg & Tom",
      "categorie": "Auberge",
      "priceRange": "€€",
      "mapsUrl": "https://maps.google.com/?q=50.0657498,19.9447995",
      "lat": 50.0657498,
      "lng": 19.9447995,
      "halalFriendly": false,
      "bookingUrl": "https://maps.google.com/?q=50.0657498,19.9447995",
      "source": "osm"
    },
    {
      "nom": "Sky Hotel Kraków",
      "categorie": "Hôtel",
      "priceRange": "€€€€",
      "score": 4,
      "mapsUrl": "https://maps.google.com/?q=50.0644776,19.9471713",
      "lat": 50.0644776,
      "lng": 19.9471713,
      "halalFriendly": false,
      "bookingUrl": "https://skyhotelkrakow.pl",
      "source": "osm"
    },
    {
      "nom": "One World Hostel",
      "categorie": "Auberge",
      "priceRange": "€€",
      "mapsUrl": "https://maps.google.com/?q=50.0629926,19.9452176",
      "lat": 50.0629926,
      "lng": 19.9452176,
      "halalFriendly": false,
      "bookingUrl": "http://oneworldhostel.eu/",
      "source": "osm"
    },
    {
      "nom": "Downtown Kraków",
      "categorie": "Hôtel",
      "priceRange": "€€",
      "mapsUrl": "https://maps.google.com/?q=50.0637322,19.9472219",
      "lat": 50.0637322,
      "lng": 19.9472219,
      "halalFriendly": false,
      "bookingUrl": "https://maps.google.com/?q=50.0637322,19.9472219",
      "source": "osm"
    },
    {
      "nom": "Tribe",
      "categorie": "Hôtel",
      "priceRange": "€€€€",
      "score": 4,
      "mapsUrl": "https://maps.google.com/?q=50.0664119,19.9441681",
      "lat": 50.0664119,
      "lng": 19.9441681,
      "halalFriendly": false,
      "bookingUrl": "https://maps.google.com/?q=50.0664119,19.9441681",
      "source": "osm"
    },
    {
      "nom": "Sky Hostel",
      "categorie": "Auberge",
      "priceRange": "€€",
      "mapsUrl": "https://maps.google.com/?q=50.0642694,19.9421139",
      "lat": 50.0642694,
      "lng": 19.9421139,
      "halalFriendly": false,
      "bookingUrl": "https://maps.google.com/?q=50.0642694,19.9421139",
      "source": "osm"
    },
    {
      "nom": "Hotel Teatr",
      "categorie": "Hôtel",
      "priceRange": "€€",
      "mapsUrl": "https://maps.google.com/?q=50.0629326,19.9431919",
      "lat": 50.0629326,
      "lng": 19.9431919,
      "halalFriendly": false,
      "bookingUrl": "https://maps.google.com/?q=50.0629326,19.9431919",
      "source": "osm"
    },
    {
      "nom": "Brama",
      "categorie": "Auberge",
      "priceRange": "€€",
      "mapsUrl": "https://maps.google.com/?q=50.0644894,19.9413743",
      "lat": 50.0644894,
      "lng": 19.9413743,
      "halalFriendly": false,
      "bookingUrl": "https://maps.google.com/?q=50.0644894,19.9413743",
      "source": "osm"
    },
    {
      "nom": "Mercure",
      "categorie": "Hôtel",
      "priceRange": "€€",
      "mapsUrl": "https://maps.google.com/?q=50.067036,19.9448875",
      "lat": 50.067036,
      "lng": 19.9448875,
      "halalFriendly": false,
      "bookingUrl": "https://all.accor.com/hotel/9627/index.pl.shtml",
      "source": "osm"
    },
    {
      "nom": "Amber Design Residence",
      "categorie": "Hôtel",
      "priceRange": "€€",
      "mapsUrl": "https://maps.google.com/?q=50.0625959,19.9433227",
      "lat": 50.0625959,
      "lng": 19.9433227,
      "halalFriendly": false,
      "bookingUrl": "https://maps.google.com/?q=50.0625959,19.9433227",
      "source": "osm"
    },
    {
      "nom": "Fresh Apartments",
      "categorie": "Appartement",
      "priceRange": "€€",
      "mapsUrl": "https://maps.google.com/?q=50.0626827,19.9471389",
      "lat": 50.0626827,
      "lng": 19.9471389,
      "halalFriendly": false,
      "bookingUrl": "https://www.freshapartments.pl/",
      "source": "osm"
    },
    {
      "nom": "Roller Apartments",
      "categorie": "Appartement",
      "priceRange": "€€",
      "mapsUrl": "https://maps.google.com/?q=50.0667047,19.9427939",
      "lat": 50.0667047,
      "lng": 19.9427939,
      "halalFriendly": false,
      "bookingUrl": "https://maps.google.com/?q=50.0667047,19.9427939",
      "source": "osm"
    },
    {
      "nom": "Dom gościnny UJ",
      "categorie": "Appartement",
      "priceRange": "€€",
      "mapsUrl": "https://maps.google.com/?q=50.0642702,19.9411312",
      "lat": 50.0642702,
      "lng": 19.9411312,
      "halalFriendly": false,
      "bookingUrl": "https://dg.uj.edu.pl/florianska/cennik-goscie",
      "source": "osm"
    },
    {
      "nom": "Pollera",
      "categorie": "Hôtel",
      "priceRange": "€€€",
      "score": 3,
      "mapsUrl": "https://maps.google.com/?q=50.0635367,19.9415045",
      "lat": 50.0635367,
      "lng": 19.9415045,
      "halalFriendly": false,
      "bookingUrl": "https://pollera.pl/",
      "source": "osm"
    },
    {
      "nom": "Red Brick Apartments",
      "categorie": "Appartement",
      "priceRange": "€€",
      "mapsUrl": "https://maps.google.com/?q=50.0671706,19.9434368",
      "lat": 50.0671706,
      "lng": 19.9434368,
      "halalFriendly": false,
      "bookingUrl": "https://maps.google.com/?q=50.0671706,19.9434368",
      "source": "osm"
    },
    {
      "nom": "Greg&Tom Beer House Hostel",
      "categorie": "Auberge",
      "priceRange": "€€",
      "mapsUrl": "https://maps.google.com/?q=50.0639942,19.9409347",
      "lat": 50.0639942,
      "lng": 19.9409347,
      "halalFriendly": false,
      "bookingUrl": "https://maps.google.com/?q=50.0639942,19.9409347",
      "source": "osm"
    },
    {
      "nom": "Matejko",
      "categorie": "Hôtel",
      "priceRange": "€€",
      "mapsUrl": "https://maps.google.com/?q=50.067138,19.9431302",
      "lat": 50.067138,
      "lng": 19.9431302,
      "halalFriendly": false,
      "bookingUrl": "http://www.matejkohotel.pl/",
      "source": "osm"
    },
    {
      "nom": "Hotel Floryan",
      "categorie": "Hôtel",
      "priceRange": "€€",
      "mapsUrl": "https://maps.google.com/?q=50.0644376,19.940776",
      "lat": 50.0644376,
      "lng": 19.940776,
      "halalFriendly": false,
      "bookingUrl": "https://maps.google.com/?q=50.0644376,19.940776",
      "source": "osm"
    },
    {
      "nom": "Cracow Central Aparthotel",
      "categorie": "Hôtel",
      "priceRange": "€€",
      "mapsUrl": "https://maps.google.com/?q=50.0674538,19.9442133",
      "lat": 50.0674538,
      "lng": 19.9442133,
      "halalFriendly": false,
      "bookingUrl": "https://maps.google.com/?q=50.0674538,19.9442133",
      "source": "osm"
    },
    {
      "nom": "BD Kraków",
      "categorie": "Appartement",
      "priceRange": "€€",
      "mapsUrl": "https://maps.google.com/?q=50.0675104,19.94463",
      "lat": 50.0675104,
      "lng": 19.94463,
      "halalFriendly": false,
      "bookingUrl": "https://maps.google.com/?q=50.0675104,19.94463",
      "source": "osm"
    },
    {
      "nom": "Hotel Polski",
      "categorie": "Hôtel",
      "priceRange": "€€",
      "mapsUrl": "https://maps.google.com/?q=50.0647283,19.9405801",
      "lat": 50.0647283,
      "lng": 19.9405801,
      "halalFriendly": false,
      "bookingUrl": "http://www.donimirski.com/hotel-polski/hotel",
      "source": "osm"
    },
    {
      "nom": "Elektor",
      "categorie": "Hôtel",
      "priceRange": "€€€",
      "score": 3,
      "mapsUrl": "https://maps.google.com/?q=50.0631939,19.9412087",
      "lat": 50.0631939,
      "lng": 19.9412087,
      "halalFriendly": false,
      "bookingUrl": "https://www.hotelelektor.com/",
      "source": "osm"
    },
    {
      "nom": "Landmark Apartments",
      "categorie": "Appartement",
      "priceRange": "€€",
      "mapsUrl": "https://maps.google.com/?q=50.0646346,19.9495391",
      "lat": 50.0646346,
      "lng": 19.9495391,
      "halalFriendly": false,
      "bookingUrl": "https://www.landmarkapartments.pl/",
      "source": "osm"
    },
    {
      "nom": "Unicus Hotel",
      "categorie": "Hôtel",
      "priceRange": "€€€€",
      "score": 4,
      "mapsUrl": "https://maps.google.com/?q=50.0636034,19.9407569",
      "lat": 50.0636034,
      "lng": 19.9407569,
      "halalFriendly": false,
      "bookingUrl": "https://maps.google.com/?q=50.0636034,19.9407569",
      "source": "osm"
    },
    {
      "nom": "Mały Kraków",
      "categorie": "Hôtel",
      "priceRange": "€€",
      "mapsUrl": "https://maps.google.com/?q=50.0676392,19.9442169",
      "lat": 50.0676392,
      "lng": 19.9442169,
      "halalFriendly": false,
      "bookingUrl": "https://www.larishotels.com/maly-krakow-aparthotel",
      "source": "osm"
    },
    {
      "nom": "Hotel Campanile",
      "categorie": "Hôtel",
      "priceRange": "€€",
      "score": 2,
      "mapsUrl": "https://maps.google.com/?q=50.0619244,19.9431644",
      "lat": 50.0619244,
      "lng": 19.9431644,
      "halalFriendly": false,
      "bookingUrl": "http://www.campanile-cracovie.pl/",
      "source": "osm"
    },
    {
      "nom": "H12",
      "categorie": "Hôtel",
      "priceRange": "€€",
      "mapsUrl": "https://maps.google.com/?q=50.0620213,19.9427845",
      "lat": 50.0620213,
      "lng": 19.9427845,
      "halalFriendly": false,
      "bookingUrl": "https://maps.google.com/?q=50.0620213,19.9427845",
      "source": "osm"
    },
    {
      "nom": "Wyndham Grand Krakow Old Town",
      "categorie": "Hôtel",
      "priceRange": "€€€€",
      "score": 5,
      "mapsUrl": "https://maps.google.com/?q=50.0638819,19.9404196",
      "lat": 50.0638819,
      "lng": 19.9404196,
      "halalFriendly": false,
      "bookingUrl": "https://www.wyndhamgrandkrakowot.com/",
      "source": "osm"
    },
    {
      "nom": "Tutti Frutti",
      "categorie": "Auberge",
      "priceRange": "€€",
      "mapsUrl": "https://maps.google.com/?q=50.0633754,19.940547",
      "lat": 50.0633754,
      "lng": 19.940547,
      "halalFriendly": false,
      "bookingUrl": "https://tuttifruttihostel.com/",
      "source": "osm"
    },
    {
      "nom": "Euro Hostel",
      "categorie": "Auberge",
      "priceRange": "€€",
      "mapsUrl": "https://maps.google.com/?q=50.0615453,19.9445763",
      "lat": 50.0615453,
      "lng": 19.9445763,
      "halalFriendly": false,
      "bookingUrl": "https://maps.google.com/?q=50.0615453,19.9445763",
      "source": "osm"
    },
    {
      "nom": "Hotel Ferreus",
      "categorie": "Hôtel",
      "priceRange": "€€€€",
      "score": 5,
      "mapsUrl": "https://maps.google.com/?q=50.0614179,19.945193",
      "lat": 50.0614179,
      "lng": 19.945193,
      "halalFriendly": false,
      "bookingUrl": "https://www.hotelferreus.pl/",
      "source": "osm"
    },
    {
      "nom": "Mikołaj",
      "categorie": "Hôtel",
      "priceRange": "€€€",
      "score": 3,
      "mapsUrl": "https://maps.google.com/?q=50.0615805,19.9428922",
      "lat": 50.0615805,
      "lng": 19.9428922,
      "halalFriendly": false,
      "bookingUrl": "https://www.hotelmikolaj.pl/",
      "source": "osm"
    },
    {
      "nom": "Bubble Hostel",
      "categorie": "Auberge",
      "priceRange": "€€",
      "mapsUrl": "https://maps.google.com/?q=50.0663545,19.9403474",
      "lat": 50.0663545,
      "lng": 19.9403474,
      "halalFriendly": false,
      "bookingUrl": "http://bubblehostel.com/",
      "source": "osm"
    },
    {
      "nom": "Artesse",
      "categorie": "Hôtel",
      "priceRange": "€€",
      "mapsUrl": "https://maps.google.com/?q=50.0643812,19.9396976",
      "lat": 50.0643812,
      "lng": 19.9396976,
      "halalFriendly": false,
      "bookingUrl": "https://maps.google.com/?q=50.0643812,19.9396976",
      "source": "osm"
    },
    {
      "nom": "Wit Stwosz",
      "categorie": "Hôtel",
      "priceRange": "€€€",
      "score": 3,
      "mapsUrl": "https://maps.google.com/?q=50.0616012,19.9427352",
      "lat": 50.0616012,
      "lng": 19.9427352,
      "halalFriendly": false,
      "bookingUrl": "http://www.wit-stwosz.com.pl/",
      "source": "osm"
    },
    {
      "nom": "H15 Palace, a Luxury Collection",
      "categorie": "Hôtel",
      "priceRange": "€€",
      "mapsUrl": "https://maps.google.com/?q=50.0644409,19.9396634",
      "lat": 50.0644409,
      "lng": 19.9396634,
      "halalFriendly": false,
      "bookingUrl": "https://www.marriott.com/en-us/hotels/krkhp-h15-palace-a-luxury-collection-hotel-krakow/overview/",
      "source": "osm"
    },
    {
      "nom": "Ascot Premium Hotel",
      "categorie": "Hôtel",
      "priceRange": "€€€€",
      "score": 4,
      "mapsUrl": "https://maps.google.com/?q=50.0616211,19.9473955",
      "lat": 50.0616211,
      "lng": 19.9473955,
      "halalFriendly": false,
      "bookingUrl": "https://ascotpremium.pl/",
      "source": "osm"
    },
    {
      "nom": "Portal House",
      "categorie": "Appartement",
      "priceRange": "€€",
      "mapsUrl": "https://maps.google.com/?q=50.0618107,19.9420623",
      "lat": 50.0618107,
      "lng": 19.9420623,
      "halalFriendly": false,
      "bookingUrl": "https://maps.google.com/?q=50.0618107,19.9420623",
      "source": "osm"
    },
    {
      "nom": "ParkSide",
      "categorie": "Appartement",
      "priceRange": "€€",
      "mapsUrl": "https://maps.google.com/?q=50.0612272,19.9455511",
      "lat": 50.0612272,
      "lng": 19.9455511,
      "halalFriendly": false,
      "bookingUrl": "https://www.parksidekrakow.pl/",
      "source": "osm"
    },
    {
      "nom": "Submarine Hostel",
      "categorie": "Auberge",
      "priceRange": "€€",
      "mapsUrl": "https://maps.google.com/?q=50.0663995,19.9401792",
      "lat": 50.0663995,
      "lng": 19.9401792,
      "halalFriendly": false,
      "bookingUrl": "https://maps.google.com/?q=50.0663995,19.9401792",
      "source": "osm"
    },
    {
      "nom": "Indigo",
      "categorie": "Hôtel",
      "priceRange": "€€",
      "mapsUrl": "https://maps.google.com/?q=50.06765,19.9419277",
      "lat": 50.06765,
      "lng": 19.9419277,
      "halalFriendly": false,
      "bookingUrl": "https://indigokrakow.com/",
      "source": "osm"
    },
    {
      "nom": "Great Polonia Kraków Old Town",
      "categorie": "Hôtel",
      "priceRange": "€€",
      "mapsUrl": "https://maps.google.com/?q=50.0615748,19.942218",
      "lat": 50.0615748,
      "lng": 19.942218,
      "halalFriendly": false,
      "bookingUrl": "https://oldkrakow.greatpolonia.pl/",
      "source": "osm"
    },
    {
      "nom": "Mosquito Hostel",
      "categorie": "Auberge",
      "priceRange": "€€",
      "mapsUrl": "https://maps.google.com/?q=50.0665888,19.9401897",
      "lat": 50.0665888,
      "lng": 19.9401897,
      "halalFriendly": false,
      "bookingUrl": "https://mosquitohostel.com/",
      "source": "osm"
    },
    {
      "nom": "Old Town Residence",
      "categorie": "Hôtel",
      "priceRange": "€€",
      "mapsUrl": "https://maps.google.com/?q=50.0613486,19.9427912",
      "lat": 50.0613486,
      "lng": 19.9427912,
      "halalFriendly": false,
      "bookingUrl": "http://www.oldtownresidence.pl/",
      "source": "osm"
    },
    {
      "nom": "Krakow Town House",
      "categorie": "Auberge",
      "priceRange": "€€",
      "mapsUrl": "https://maps.google.com/?q=50.064039,19.9505995",
      "lat": 50.064039,
      "lng": 19.9505995,
      "halalFriendly": false,
      "bookingUrl": "https://maps.google.com/?q=50.064039,19.9505995",
      "source": "osm"
    },
    {
      "nom": "Laiko Apartments",
      "categorie": "Hôtel",
      "priceRange": "€€",
      "mapsUrl": "https://maps.google.com/?q=50.0682605,19.9433333",
      "lat": 50.0682605,
      "lng": 19.9433333,
      "halalFriendly": false,
      "bookingUrl": "https://laikoapartments.pl/",
      "source": "osm"
    },
    {
      "nom": "Pod Różą",
      "categorie": "Hôtel",
      "priceRange": "€€",
      "mapsUrl": "https://maps.google.com/?q=50.0630042,19.9397311",
      "lat": 50.0630042,
      "lng": 19.9397311,
      "halalFriendly": false,
      "bookingUrl": "https://maps.google.com/?q=50.0630042,19.9397311",
      "source": "osm"
    },
    {
      "nom": "Hostel u Kmity",
      "categorie": "Auberge",
      "priceRange": "€€",
      "mapsUrl": "https://maps.google.com/?q=50.0624202,19.9402831",
      "lat": 50.0624202,
      "lng": 19.9402831,
      "halalFriendly": false,
      "bookingUrl": "https://ukmity.insta-hostel.com/",
      "source": "osm"
    },
    {
      "nom": "Wyspiański",
      "categorie": "Hôtel",
      "priceRange": "€€",
      "mapsUrl": "https://maps.google.com/?q=50.0606925,19.9448506",
      "lat": 50.0606925,
      "lng": 19.9448506,
      "halalFriendly": false,
      "bookingUrl": "https://www.hotel-wyspianski.pl/",
      "source": "osm"
    },
    {
      "nom": "Hotel Puro Kraków",
      "categorie": "Hôtel",
      "priceRange": "€€€€",
      "score": 4,
      "mapsUrl": "https://maps.google.com/?q=50.0687912,19.9448313",
      "lat": 50.0687912,
      "lng": 19.9448313,
      "halalFriendly": false,
      "bookingUrl": "https://purohotel.pl",
      "source": "osm"
    },
    {
      "nom": "Hotel Gródek",
      "categorie": "Hôtel",
      "priceRange": "€€",
      "mapsUrl": "https://maps.google.com/?q=50.060954,19.942317",
      "lat": 50.060954,
      "lng": 19.942317,
      "halalFriendly": false,
      "bookingUrl": "http://www.donimirski.com/hotel-grodek",
      "source": "osm"
    },
    {
      "nom": "Hostel Residence Floriańska",
      "categorie": "Auberge",
      "priceRange": "€€",
      "mapsUrl": "https://maps.google.com/?q=50.062659,19.9393575",
      "lat": 50.062659,
      "lng": 19.9393575,
      "halalFriendly": false,
      "bookingUrl": "https://maps.google.com/?q=50.062659,19.9393575",
      "source": "osm"
    },
    {
      "nom": "Hostel Gardenhouse",
      "categorie": "Auberge",
      "priceRange": "€€",
      "mapsUrl": "https://maps.google.com/?q=50.0622546,19.9396822",
      "lat": 50.0622546,
      "lng": 19.9396822,
      "halalFriendly": false,
      "bookingUrl": "https://maps.google.com/?q=50.0622546,19.9396822",
      "source": "osm"
    },
    {
      "nom": "Milu",
      "categorie": "Appartement",
      "priceRange": "€€",
      "mapsUrl": "https://maps.google.com/?q=50.0659836,19.9512494",
      "lat": 50.0659836,
      "lng": 19.9512494,
      "halalFriendly": false,
      "bookingUrl": "https://maps.google.com/?q=50.0659836,19.9512494",
      "source": "osm"
    },
    {
      "nom": "Rakowicka Residence",
      "categorie": "Hôtel",
      "priceRange": "€€",
      "mapsUrl": "https://maps.google.com/?q=50.0657064,19.9515091",
      "lat": 50.0657064,
      "lng": 19.9515091,
      "halalFriendly": false,
      "bookingUrl": "https://rakowickaresidence.pl",
      "source": "osm"
    },
    {
      "nom": "Station Aparthotel",
      "categorie": "Maison d'hôtes",
      "priceRange": "€€",
      "mapsUrl": "https://maps.google.com/?q=50.0675179,19.9501508",
      "lat": 50.0675179,
      "lng": 19.9501508,
      "halalFriendly": false,
      "bookingUrl": "https://www.aparthotelstation.pl/",
      "source": "osm"
    },
    {
      "nom": "Atrium",
      "categorie": "Hôtel",
      "priceRange": "€€€",
      "score": 3,
      "mapsUrl": "https://maps.google.com/?q=50.0675017,19.9395373",
      "lat": 50.0675017,
      "lng": 19.9395373,
      "halalFriendly": false,
      "bookingUrl": "http://www.hotelatrium.com.pl",
      "source": "osm"
    },
    {
      "nom": "Old Town Hotel",
      "categorie": "Hôtel",
      "priceRange": "€€",
      "mapsUrl": "https://maps.google.com/?q=50.0638689,19.9379901",
      "lat": 50.0638689,
      "lng": 19.9379901,
      "halalFriendly": false,
      "bookingUrl": "https://maps.google.com/?q=50.0638689,19.9379901",
      "source": "osm"
    },
    {
      "nom": "ApartHotel Maria",
      "categorie": "Maison d'hôtes",
      "priceRange": "€€",
      "mapsUrl": "https://maps.google.com/?q=50.0668656,19.9386982",
      "lat": 50.0668656,
      "lng": 19.9386982,
      "halalFriendly": false,
      "bookingUrl": "http://www.aparthotelmaria.pl/",
      "source": "osm"
    },
    {
      "nom": "Betmanowska",
      "categorie": "Hôtel",
      "priceRange": "€€",
      "mapsUrl": "https://maps.google.com/?q=50.0624289,19.9386097",
      "lat": 50.0624289,
      "lng": 19.9386097,
      "halalFriendly": false,
      "bookingUrl": "https://betmanowska.com/eng/",
      "source": "osm"
    },
    {
      "nom": "Jordan Guest Rooms",
      "categorie": "Auberge",
      "priceRange": "€€",
      "mapsUrl": "https://maps.google.com/?q=50.0673626,19.9389342",
      "lat": 50.0673626,
      "lng": 19.9389342,
      "halalFriendly": false,
      "bookingUrl": "https://nocleg.jordan.pl/",
      "source": "osm"
    },
    {
      "nom": "My Krakow",
      "categorie": "Appartement",
      "priceRange": "€€",
      "mapsUrl": "https://maps.google.com/?q=50.0674732,19.9510064",
      "lat": 50.0674732,
      "lng": 19.9510064,
      "halalFriendly": false,
      "bookingUrl": "https://mykrakow.pl",
      "source": "osm"
    },
    {
      "nom": "Grand Hotel",
      "categorie": "Hôtel",
      "priceRange": "€€€€",
      "score": 5,
      "mapsUrl": "https://maps.google.com/?q=50.0636094,19.9377729",
      "lat": 50.0636094,
      "lng": 19.9377729,
      "halalFriendly": false,
      "bookingUrl": "https://maps.google.com/?q=50.0636094,19.9377729",
      "source": "osm"
    },
    {
      "nom": "Amber",
      "categorie": "Auberge",
      "priceRange": "€€",
      "mapsUrl": "https://maps.google.com/?q=50.0667679,19.9383018",
      "lat": 50.0667679,
      "lng": 19.9383018,
      "halalFriendly": false,
      "bookingUrl": "https://www.amber.krakow.pl/",
      "source": "osm"
    },
    {
      "nom": "Fragola Apartments",
      "categorie": "Appartement",
      "priceRange": "€€",
      "mapsUrl": "https://maps.google.com/?q=50.0627443,19.9381805",
      "lat": 50.0627443,
      "lng": 19.9381805,
      "halalFriendly": false,
      "bookingUrl": "https://maps.google.com/?q=50.0627443,19.9381805",
      "source": "osm"
    },
    {
      "nom": "Morning elegance",
      "categorie": "Appartement",
      "priceRange": "€€",
      "mapsUrl": "https://maps.google.com/?q=50.0674766,19.9510939",
      "lat": 50.0674766,
      "lng": 19.9510939,
      "halalFriendly": false,
      "bookingUrl": "https://maps.google.com/?q=50.0674766,19.9510939",
      "source": "osm"
    },
    {
      "nom": "The Bonerowski Palace",
      "categorie": "Hôtel",
      "priceRange": "€€€€",
      "score": 5,
      "mapsUrl": "https://maps.google.com/?q=50.0625916,19.9382762",
      "lat": 50.0625916,
      "lng": 19.9382762,
      "halalFriendly": false,
      "bookingUrl": "https://www.palacbonerowski.pl/",
      "source": "osm"
    },
    {
      "nom": "Comfort beauty",
      "categorie": "Appartement",
      "priceRange": "€€",
      "mapsUrl": "https://maps.google.com/?q=50.0674986,19.9511023",
      "lat": 50.0674986,
      "lng": 19.9511023,
      "halalFriendly": false,
      "bookingUrl": "https://maps.google.com/?q=50.0674986,19.9511023",
      "source": "osm"
    },
    {
      "nom": "Novumhouse",
      "categorie": "Appartement",
      "priceRange": "€€",
      "mapsUrl": "https://maps.google.com/?q=50.067521,19.9511124",
      "lat": 50.067521,
      "lng": 19.9511124,
      "halalFriendly": false,
      "bookingUrl": "https://novumhouse.pl/topolowa/topolowa-studio-apartment-2/",
      "source": "osm"
    },
    {
      "nom": "Krakow central",
      "categorie": "Appartement",
      "priceRange": "€€",
      "mapsUrl": "https://maps.google.com/?q=50.0675121,19.9511913",
      "lat": 50.0675121,
      "lng": 19.9511913,
      "halalFriendly": false,
      "bookingUrl": "https://krakowcentral.com",
      "source": "osm"
    },
    {
      "nom": "Dom Franciszkański San Antonio",
      "categorie": "Hôtel",
      "priceRange": "€€",
      "mapsUrl": "https://maps.google.com/?q=50.0669491,19.9382534",
      "lat": 50.0669491,
      "lng": 19.9382534,
      "halalFriendly": false,
      "bookingUrl": "http://www.sanantonio.com.pl/pl",
      "source": "osm"
    },
    {
      "nom": "Siesta",
      "categorie": "Hôtel",
      "priceRange": "€€",
      "mapsUrl": "https://maps.google.com/?q=50.0598508,19.9466089",
      "lat": 50.0598508,
      "lng": 19.9466089,
      "halalFriendly": false,
      "bookingUrl": "https://maps.google.com/?q=50.0598508,19.9466089",
      "source": "osm"
    },
    {
      "nom": "Agava Guest Rooms",
      "categorie": "Auberge",
      "priceRange": "€€",
      "mapsUrl": "https://maps.google.com/?q=50.0653275,19.9373153",
      "lat": 50.0653275,
      "lng": 19.9373153,
      "halalFriendly": false,
      "bookingUrl": "https://maps.google.com/?q=50.0653275,19.9373153",
      "source": "osm"
    },
    {
      "nom": "Greg&Tom Party Hostel",
      "categorie": "Auberge",
      "priceRange": "€€",
      "mapsUrl": "https://maps.google.com/?q=50.0597127,19.945688",
      "lat": 50.0597127,
      "lng": 19.945688,
      "halalFriendly": false,
      "bookingUrl": "https://maps.google.com/?q=50.0597127,19.945688",
      "source": "osm"
    },
    {
      "nom": "Lounge Apartments",
      "categorie": "Maison d'hôtes",
      "priceRange": "€€",
      "mapsUrl": "https://maps.google.com/?q=50.0671266,19.9381488",
      "lat": 50.0671266,
      "lng": 19.9381488,
      "halalFriendly": false,
      "bookingUrl": "http://www.loungeapartments.com/",
      "source": "osm"
    },
    {
      "nom": "Hotel Saski Krakow, Curio Collection by Hilton",
      "categorie": "Hôtel",
      "priceRange": "€€€€",
      "score": 5,
      "mapsUrl": "https://maps.google.com/?q=50.0633379,19.9374505",
      "lat": 50.0633379,
      "lng": 19.9374505,
      "halalFriendly": false,
      "bookingUrl": "https://www.hilton.com/en/hotels/krkshqq-hotel-saski-krakow",
      "source": "osm"
    },
    {
      "nom": "Pink Panther's Hostel",
      "categorie": "Auberge",
      "priceRange": "€€",
      "mapsUrl": "https://maps.google.com/?q=50.0639276,19.9369206",
      "lat": 50.0639276,
      "lng": 19.9369206,
      "halalFriendly": false,
      "bookingUrl": "https://maps.google.com/?q=50.0639276,19.9369206",
      "source": "osm"
    },
    {
      "nom": "La Fontaine",
      "categorie": "Auberge",
      "priceRange": "€€",
      "mapsUrl": "https://maps.google.com/?q=50.0630225,19.9372384",
      "lat": 50.0630225,
      "lng": 19.9372384,
      "halalFriendly": false,
      "bookingUrl": "https://maps.google.com/?q=50.0630225,19.9372384",
      "source": "osm"
    },
    {
      "nom": "Platinum Aparthotel",
      "categorie": "Appartement",
      "priceRange": "€€",
      "mapsUrl": "https://maps.google.com/?q=50.067209,19.9522474",
      "lat": 50.067209,
      "lng": 19.9522474,
      "halalFriendly": false,
      "bookingUrl": "https://maps.google.com/?q=50.067209,19.9522474",
      "source": "osm"
    },
    {
      "nom": "Hostel Kolejowego Towarzystwa Kultury",
      "categorie": "Maison d'hôtes",
      "priceRange": "€€",
      "mapsUrl": "https://maps.google.com/?q=50.0684827,19.9392456",
      "lat": 50.0684827,
      "lng": 19.9392456,
      "halalFriendly": false,
      "bookingUrl": "http://www.ktkdkk.pl/index.php?action=noclegi",
      "source": "osm"
    },
    {
      "nom": "sereno apartments",
      "categorie": "Hôtel",
      "priceRange": "€€",
      "mapsUrl": "https://maps.google.com/?q=50.0669941,19.9372728",
      "lat": 50.0669941,
      "lng": 19.9372728,
      "halalFriendly": false,
      "bookingUrl": "https://maps.google.com/?q=50.0669941,19.9372728",
      "source": "osm"
    },
    {
      "nom": "Aparthotel Pergamin",
      "categorie": "Hôtel",
      "priceRange": "€€",
      "mapsUrl": "https://maps.google.com/?q=50.0681892,19.9383205",
      "lat": 50.0681892,
      "lng": 19.9383205,
      "halalFriendly": false,
      "bookingUrl": "https://maps.google.com/?q=50.0681892,19.9383205",
      "source": "osm"
    },
    {
      "nom": "Globtroter",
      "categorie": "Maison d'hôtes",
      "priceRange": "€€",
      "mapsUrl": "https://maps.google.com/?q=50.0643243,19.9363055",
      "lat": 50.0643243,
      "lng": 19.9363055,
      "halalFriendly": false,
      "bookingUrl": "https://www.globtroter-krakow.com/",
      "source": "osm"
    },
    {
      "nom": "Hotel Stary",
      "categorie": "Hôtel",
      "priceRange": "€€",
      "mapsUrl": "https://maps.google.com/?q=50.0631806,19.9365572",
      "lat": 50.0631806,
      "lng": 19.9365572,
      "halalFriendly": false,
      "bookingUrl": "https://stary.hotel.com.pl",
      "source": "osm"
    },
    {
      "nom": "Cracow Elite Suites",
      "categorie": "Appartement",
      "priceRange": "€€",
      "mapsUrl": "https://maps.google.com/?q=50.0682786,19.9382223",
      "lat": 50.0682786,
      "lng": 19.9382223,
      "halalFriendly": false,
      "bookingUrl": "https://www.booking.com/hotel/pl/palace-apartments-krakow-dluga.pl.html",
      "source": "osm"
    },
    {
      "nom": "Batory",
      "categorie": "Hôtel",
      "priceRange": "€€€",
      "score": 3,
      "mapsUrl": "https://maps.google.com/?q=50.0603063,19.950533",
      "lat": 50.0603063,
      "lng": 19.950533,
      "halalFriendly": false,
      "bookingUrl": "https://maps.google.com/?q=50.0603063,19.950533",
      "source": "osm"
    },
    {
      "nom": "Holiday Inn",
      "categorie": "Hôtel",
      "priceRange": "€€",
      "mapsUrl": "https://maps.google.com/?q=50.0590694,19.9438863",
      "lat": 50.0590694,
      "lng": 19.9438863,
      "halalFriendly": false,
      "bookingUrl": "https://maps.google.com/?q=50.0590694,19.9438863",
      "source": "osm"
    },
    {
      "nom": "Exclusive Aparthotel",
      "categorie": "Hôtel",
      "priceRange": "€€",
      "mapsUrl": "https://maps.google.com/?q=50.0656043,19.9538578",
      "lat": 50.0656043,
      "lng": 19.9538578,
      "halalFriendly": false,
      "bookingUrl": "https://maps.google.com/?q=50.0656043,19.9538578",
      "source": "osm"
    },
    {
      "nom": "Hotel Wielopole",
      "categorie": "Hôtel",
      "priceRange": "€€",
      "mapsUrl": "https://maps.google.com/?q=50.0588621,19.9434881",
      "lat": 50.0588621,
      "lng": 19.9434881,
      "halalFriendly": false,
      "bookingUrl": "https://www.wielopole.pl/",
      "source": "osm"
    },
    {
      "nom": "Renesans",
      "categorie": "Auberge",
      "priceRange": "€€",
      "mapsUrl": "https://maps.google.com/?q=50.0607355,19.9381497",
      "lat": 50.0607355,
      "lng": 19.9381497,
      "halalFriendly": false,
      "bookingUrl": "https://maps.google.com/?q=50.0607355,19.9381497",
      "source": "osm"
    },
    {
      "nom": "City Moon Apartment",
      "categorie": "Appartement",
      "priceRange": "€€",
      "mapsUrl": "https://maps.google.com/?q=50.0683082,19.9374644",
      "lat": 50.0683082,
      "lng": 19.9374644,
      "halalFriendly": false,
      "bookingUrl": "https://www.booking.com/hotel/pl/city-apartment.html",
      "source": "osm"
    },
    {
      "nom": "ibis Kraków Stare Miasto",
      "categorie": "Hôtel",
      "priceRange": "€€",
      "mapsUrl": "https://maps.google.com/?q=50.0707715,19.9455584",
      "lat": 50.0707715,
      "lng": 19.9455584,
      "halalFriendly": false,
      "bookingUrl": "https://maps.google.com/?q=50.0707715,19.9455584",
      "source": "osm"
    },
    {
      "nom": "Venetian House",
      "categorie": "Auberge",
      "priceRange": "€€",
      "mapsUrl": "https://maps.google.com/?q=50.060523,19.9380972",
      "lat": 50.060523,
      "lng": 19.9380972,
      "halalFriendly": false,
      "bookingUrl": "https://maps.google.com/?q=50.060523,19.9380972",
      "source": "osm"
    },
    {
      "nom": "Alex & Tsa",
      "categorie": "Auberge",
      "priceRange": "€€",
      "mapsUrl": "https://maps.google.com/?q=50.0662709,19.9541975",
      "lat": 50.0662709,
      "lng": 19.9541975,
      "halalFriendly": false,
      "bookingUrl": "https://hostel-alextsa.hotelsofkrakow.net/pl/#main",
      "source": "osm"
    },
    {
      "nom": "ibis budget Kraków Stare Miasto",
      "categorie": "Hôtel",
      "priceRange": "€€",
      "mapsUrl": "https://maps.google.com/?q=50.0708016,19.9461155",
      "lat": 50.0708016,
      "lng": 19.9461155,
      "halalFriendly": false,
      "bookingUrl": "https://maps.google.com/?q=50.0708016,19.9461155",
      "source": "osm"
    },
    {
      "nom": "Art Mont",
      "categorie": "Maison d'hôtes",
      "priceRange": "€€",
      "mapsUrl": "https://maps.google.com/?q=50.0684378,19.9373858",
      "lat": 50.0684378,
      "lng": 19.9373858,
      "halalFriendly": false,
      "bookingUrl": "http://www.art-mont.com/",
      "source": "osm"
    },
    {
      "nom": "RPG Hostel",
      "categorie": "Auberge",
      "priceRange": "€€",
      "mapsUrl": "https://maps.google.com/?q=50.0585422,19.9444149",
      "lat": 50.0585422,
      "lng": 19.9444149,
      "halalFriendly": false,
      "bookingUrl": "https://www.rpghostel.pl",
      "source": "osm"
    },
    {
      "nom": "Kosmopolita Pokoje Gościnne",
      "categorie": "Maison d'hôtes",
      "priceRange": "€€",
      "mapsUrl": "https://maps.google.com/?q=50.0691625,19.9381861",
      "lat": 50.0691625,
      "lng": 19.9381861,
      "halalFriendly": false,
      "bookingUrl": "https://maps.google.com/?q=50.0691625,19.9381861",
      "source": "osm"
    },
    {
      "nom": "Turnau City Aparthotel",
      "categorie": "Hôtel",
      "priceRange": "€€",
      "mapsUrl": "https://maps.google.com/?q=50.0709315,19.9442301",
      "lat": 50.0709315,
      "lng": 19.9442301,
      "halalFriendly": false,
      "bookingUrl": "https://www.turnau.eu/",
      "source": "osm"
    },
    {
      "nom": "City Express Hostel",
      "categorie": "Auberge",
      "priceRange": "€€",
      "mapsUrl": "https://maps.google.com/?q=50.0595306,19.9504913",
      "lat": 50.0595306,
      "lng": 19.9504913,
      "halalFriendly": false,
      "bookingUrl": "http://expresshostel.pl/index.php/pl/",
      "source": "osm"
    },
    {
      "nom": "Lorf Hostel&Coffee",
      "categorie": "Auberge",
      "priceRange": "€€",
      "mapsUrl": "https://maps.google.com/?q=50.0686969,19.9373359",
      "lat": 50.0686969,
      "lng": 19.9373359,
      "halalFriendly": false,
      "bookingUrl": "https://lorf.pl/",
      "source": "osm"
    },
    {
      "nom": "OK Apartments",
      "categorie": "Appartement",
      "priceRange": "€€",
      "mapsUrl": "https://maps.google.com/?q=50.0597265,19.9387347",
      "lat": 50.0597265,
      "lng": 19.9387347,
      "halalFriendly": false,
      "bookingUrl": "https://maps.google.com/?q=50.0597265,19.9387347",
      "source": "osm"
    },
    {
      "nom": "P&J Tourist Apartments",
      "categorie": "Appartement",
      "priceRange": "€€",
      "mapsUrl": "https://maps.google.com/?q=50.0596976,19.938667",
      "lat": 50.0596976,
      "lng": 19.938667,
      "halalFriendly": false,
      "bookingUrl": "https://maps.google.com/?q=50.0596976,19.938667",
      "source": "osm"
    },
    {
      "nom": "Cracow",
      "categorie": "Auberge",
      "priceRange": "€€",
      "mapsUrl": "https://maps.google.com/?q=50.0606452,19.9370985",
      "lat": 50.0606452,
      "lng": 19.9370985,
      "halalFriendly": false,
      "bookingUrl": "https://maps.google.com/?q=50.0606452,19.9370985",
      "source": "osm"
    },
    {
      "nom": "Meininger",
      "categorie": "Auberge",
      "priceRange": "€€",
      "mapsUrl": "https://maps.google.com/?q=50.058948,19.949696",
      "lat": 50.058948,
      "lng": 19.949696,
      "halalFriendly": false,
      "bookingUrl": "https://maps.google.com/?q=50.058948,19.949696",
      "source": "osm"
    },
    {
      "nom": "Hotel Wentzl",
      "categorie": "Hôtel",
      "priceRange": "€€€€",
      "score": 4,
      "mapsUrl": "https://maps.google.com/?q=50.0607812,19.936909",
      "lat": 50.0607812,
      "lng": 19.936909,
      "halalFriendly": false,
      "bookingUrl": "https://wentzl.pl",
      "source": "osm"
    },
    {
      "nom": "Words & Swords",
      "categorie": "Auberge",
      "priceRange": "€€",
      "mapsUrl": "https://maps.google.com/?q=50.0662609,19.9351583",
      "lat": 50.0662609,
      "lng": 19.9351583,
      "halalFriendly": false,
      "bookingUrl": "https://maps.google.com/?q=50.0662609,19.9351583",
      "source": "osm"
    },
    {
      "nom": "Residence9",
      "categorie": "Hôtel",
      "priceRange": "€€",
      "mapsUrl": "https://maps.google.com/?q=50.0625095,19.9353005",
      "lat": 50.0625095,
      "lng": 19.9353005,
      "halalFriendly": false,
      "bookingUrl": "https://www.residence9.pl/",
      "source": "osm"
    },
    {
      "nom": "Dizzy Daisy Downtown Hostel",
      "categorie": "Auberge",
      "priceRange": "€€",
      "mapsUrl": "https://maps.google.com/?q=50.0700343,19.9388874",
      "lat": 50.0700343,
      "lng": 19.9388874,
      "halalFriendly": false,
      "bookingUrl": "https://www.krakowhostel.pl",
      "source": "osm"
    },
    {
      "nom": "Red Kurka",
      "categorie": "Appartement",
      "priceRange": "€€",
      "mapsUrl": "https://maps.google.com/?q=50.0584371,19.9414977",
      "lat": 50.0584371,
      "lng": 19.9414977,
      "halalFriendly": false,
      "bookingUrl": "https://maps.google.com/?q=50.0584371,19.9414977",
      "source": "osm"
    },
    {
      "nom": "Pergamin Royal Apartments",
      "categorie": "Hôtel",
      "priceRange": "€€",
      "mapsUrl": "https://maps.google.com/?q=50.0596751,19.9380755",
      "lat": 50.0596751,
      "lng": 19.9380755,
      "halalFriendly": false,
      "bookingUrl": "https://maps.google.com/?q=50.0596751,19.9380755",
      "source": "osm"
    },
    {
      "nom": "Hostel Flamingo",
      "categorie": "Auberge",
      "priceRange": "€€",
      "mapsUrl": "https://maps.google.com/?q=50.0622644,19.9352097",
      "lat": 50.0622644,
      "lng": 19.9352097,
      "halalFriendly": false,
      "bookingUrl": "https://maps.google.com/?q=50.0622644,19.9352097",
      "source": "osm"
    },
    {
      "nom": "Scharffenberg Apartments",
      "categorie": "Appartement",
      "priceRange": "€€",
      "mapsUrl": "https://maps.google.com/?q=50.0600272,19.9374227",
      "lat": 50.0600272,
      "lng": 19.9374227,
      "halalFriendly": false,
      "bookingUrl": "https://www.scharffenberg.pl/",
      "source": "osm"
    },
    {
      "nom": "The Loft",
      "categorie": "Hôtel",
      "priceRange": "€€",
      "mapsUrl": "https://maps.google.com/?q=50.058055,19.9472632",
      "lat": 50.058055,
      "lng": 19.9472632,
      "halalFriendly": false,
      "bookingUrl": "https://maps.google.com/?q=50.058055,19.9472632",
      "source": "osm"
    }
  ],
  "mosqueesPrincipales": [
    {
      "id": "m26195267",
      "nom": "Bazylika Wniebowzięcia Najświętszej Maryi Panny",
      "type": "Mosquée",
      "adresse": "Plac Mariacki, Kraków",
      "description": "Lieu de prière (OpenStreetMap).",
      "mapsUrl": "https://maps.google.com/?q=50.0616572,19.93945",
      "lat": 50.0616572,
      "lng": 19.93945,
      "source": "osm"
    },
    {
      "id": "m138365337",
      "nom": "Kościół pw. Świętej Barbary",
      "type": "Mosquée",
      "adresse": "Mały Rynek, Kraków",
      "description": "Lieu de prière (OpenStreetMap).",
      "mapsUrl": "https://maps.google.com/?q=50.0613121,19.9398407",
      "lat": 50.0613121,
      "lng": 19.9398407,
      "source": "osm"
    },
    {
      "id": "m29271113",
      "nom": "Kościół pw. Świętego Wojciecha Biskupa i Męczennika",
      "type": "Mosquée",
      "adresse": "",
      "description": "Lieu de prière (OpenStreetMap).",
      "mapsUrl": "https://maps.google.com/?q=50.060888,19.9377429",
      "lat": 50.060888,
      "lng": 19.9377429,
      "source": "osm"
    },
    {
      "id": "m5537610769",
      "nom": "I Centrum Muzułmańskie",
      "type": "Mosquée",
      "adresse": "Jana Sobieskiego, Kraków",
      "description": "Lieu de prière (OpenStreetMap).",
      "mapsUrl": "https://maps.google.com/?q=50.0681994,19.9310387",
      "lat": 50.0681994,
      "lng": 19.9310387,
      "source": "osm"
    },
    {
      "id": "m85151350",
      "nom": "Kościół pw. Świętych Stanisława i Wacława",
      "type": "Mosquée",
      "adresse": "Kraków",
      "description": "Lieu de prière (OpenStreetMap).",
      "mapsUrl": "https://maps.google.com/?q=50.0546439,19.9354796",
      "lat": 50.0546439,
      "lng": 19.9354796,
      "source": "osm"
    },
    {
      "id": "m33291029",
      "nom": "Kościół pw. Bożego Ciała",
      "type": "Mosquée",
      "adresse": "",
      "description": "Lieu de prière (OpenStreetMap).",
      "mapsUrl": "https://maps.google.com/?q=50.0497673,19.9449767",
      "lat": 50.0497673,
      "lng": 19.9449767,
      "source": "osm"
    },
    {
      "id": "m231922142",
      "nom": "Kościół pw. Najświętszego Salwatora",
      "type": "Mosquée",
      "adresse": "Świętej Bronisławy, Kraków",
      "description": "Lieu de prière (OpenStreetMap).",
      "mapsUrl": "https://maps.google.com/?q=50.0534265,19.9123321",
      "lat": 50.0534265,
      "lng": 19.9123321,
      "source": "osm"
    },
    {
      "id": "m231919306",
      "nom": "Kaplica Świętej Małgorzaty i Świętej Judyty",
      "type": "Mosquée",
      "adresse": "",
      "description": "Lieu de prière (OpenStreetMap).",
      "mapsUrl": "https://maps.google.com/?q=50.0525566,19.9126736",
      "lat": 50.0525566,
      "lng": 19.9126736,
      "source": "osm"
    },
    {
      "id": "m231922023",
      "nom": "Kaplica pw. Błogosławionej Bronisławy",
      "type": "Mosquée",
      "adresse": "Aleja Jerzego Waszyngtona, Kraków",
      "description": "Lieu de prière (OpenStreetMap).",
      "mapsUrl": "https://maps.google.com/?q=50.0548884,19.892714",
      "lat": 50.0548884,
      "lng": 19.892714,
      "source": "osm"
    },
    {
      "id": "m231216865",
      "nom": "II Centrum Muzułmańskie",
      "type": "Mosquée",
      "adresse": "Groszkowa, Kraków",
      "description": "Lieu de prière (OpenStreetMap).",
      "mapsUrl": "https://maps.google.com/?q=50.0889355,19.8837178",
      "lat": 50.0889355,
      "lng": 19.8837178,
      "source": "osm"
    },
    {
      "id": "m39449011",
      "nom": "Kościół pw. Najświętszej Maryi Panny Królowej Polski",
      "type": "Mosquée",
      "adresse": "Obrońców Krzyża, Kraków",
      "description": "Lieu de prière (OpenStreetMap).",
      "mapsUrl": "https://maps.google.com/?q=50.0849915,20.0293498",
      "lat": 50.0849915,
      "lng": 20.0293498,
      "source": "osm"
    }
  ],
  "activites": [
    {
      "id": "a273536893",
      "nom": "Florian Straszewski",
      "categorie": "memorial",
      "description": "",
      "prix": "",
      "duree": "",
      "mapsUrl": "https://maps.google.com/?q=50.0643367,19.9443353",
      "lat": 50.0643367,
      "lng": 19.9443353,
      "source": "osm"
    },
    {
      "id": "a12381936480",
      "nom": "Legendy Krakowa",
      "categorie": "attraction",
      "description": "",
      "prix": "",
      "duree": "",
      "mapsUrl": "https://maps.google.com/?q=50.0654291,19.9448428",
      "lat": 50.0654291,
      "lng": 19.9448428,
      "source": "osm"
    },
    {
      "id": "a279024104",
      "nom": "Zajścia Krakowskie 1936 r.",
      "categorie": "memorial",
      "description": "",
      "prix": "",
      "duree": "",
      "mapsUrl": "https://maps.google.com/?q=50.0648716,19.9433911",
      "lat": 50.0648716,
      "lng": 19.9433911,
      "source": "osm"
    },
    {
      "id": "a11330042315",
      "nom": "Skwer Andrzeja Wajdy",
      "categorie": "memorial",
      "description": "",
      "prix": "",
      "duree": "",
      "mapsUrl": "https://maps.google.com/?q=50.0646449,19.9431982",
      "lat": 50.0646449,
      "lng": 19.9431982,
      "source": "osm"
    },
    {
      "id": "a5601369239",
      "nom": "Ryszard Kukliński",
      "categorie": "memorial",
      "description": "",
      "prix": "",
      "duree": "",
      "mapsUrl": "https://maps.google.com/?q=50.0652205,19.9466322",
      "lat": 50.0652205,
      "lng": 19.9466322,
      "source": "osm"
    },
    {
      "id": "a11718099151",
      "nom": "Wisława Szymborska",
      "categorie": "memorial",
      "description": "",
      "prix": "",
      "duree": "",
      "mapsUrl": "https://maps.google.com/?q=50.0640447,19.9467344",
      "lat": 50.0640447,
      "lng": 19.9467344,
      "source": "osm"
    },
    {
      "id": "a277498336",
      "nom": "Michał Bałucki",
      "categorie": "memorial",
      "description": "",
      "prix": "",
      "duree": "",
      "mapsUrl": "https://maps.google.com/?q=50.0633678,19.9440087",
      "lat": 50.0633678,
      "lng": 19.9440087,
      "source": "osm"
    },
    {
      "id": "a12084021638",
      "nom": "Miraculum",
      "categorie": "artwork",
      "description": "",
      "prix": "",
      "duree": "",
      "mapsUrl": "https://maps.google.com/?q=50.0661838,19.9446551",
      "lat": 50.0661838,
      "lng": 19.9446551,
      "source": "osm"
    },
    {
      "id": "a51790158",
      "nom": "Zabytkowy Dworzec Główny",
      "categorie": "attraction",
      "description": "",
      "prix": "",
      "duree": "",
      "mapsUrl": "https://maps.google.com/?q=50.0655079,19.9471442",
      "lat": 50.0655079,
      "lng": 19.9471442,
      "source": "osm"
    },
    {
      "id": "a3083014623",
      "nom": "Aleksander Fredro",
      "categorie": "memorial",
      "description": "",
      "prix": "",
      "duree": "",
      "mapsUrl": "https://maps.google.com/?q=50.0641418,19.9424572",
      "lat": 50.0641418,
      "lng": 19.9424572,
      "source": "osm"
    },
    {
      "id": "a200814803",
      "nom": "Baszta Pasamoników",
      "categorie": "attraction",
      "description": "",
      "prix": "",
      "duree": "",
      "mapsUrl": "https://maps.google.com/?q=50.0647421,19.9422443",
      "lat": 50.0647421,
      "lng": 19.9422443,
      "source": "osm"
    },
    {
      "id": "a11360712316",
      "nom": "Mury Obronne",
      "categorie": "museum",
      "description": "",
      "prix": "",
      "duree": "",
      "mapsUrl": "https://maps.google.com/?q=50.064753,19.9422405",
      "lat": 50.064753,
      "lng": 19.9422405,
      "source": "osm"
    },
    {
      "id": "a7293805858",
      "nom": "Skwer Zbigniewa Wodeckiego",
      "categorie": "memorial",
      "description": "",
      "prix": "",
      "duree": "",
      "mapsUrl": "https://maps.google.com/?q=50.0628888,19.9444579",
      "lat": 50.0628888,
      "lng": 19.9444579,
      "source": "osm"
    },
    {
      "id": "a8533401278",
      "nom": "HistoryczneEtykiety",
      "categorie": "artwork",
      "description": "",
      "prix": "",
      "duree": "",
      "mapsUrl": "https://maps.google.com/?q=50.0644065,19.9479441",
      "lat": 50.0644065,
      "lng": 19.9479441,
      "source": "osm"
    },
    {
      "id": "a1013618099",
      "nom": "Floriańska",
      "categorie": "attraction",
      "description": "",
      "prix": "",
      "duree": "",
      "mapsUrl": "https://maps.google.com/?q=50.0651968,19.9414982",
      "lat": 50.0651968,
      "lng": 19.9414982,
      "source": "osm"
    },
    {
      "id": "a39357538",
      "nom": "Brama Floriańska",
      "categorie": "attraction",
      "description": "",
      "prix": "",
      "duree": "",
      "mapsUrl": "https://maps.google.com/?q=50.0648565,19.941353",
      "lat": 50.0648565,
      "lng": 19.941353,
      "source": "osm"
    },
    {
      "id": "a274088761",
      "nom": "Grób Nieznanego Żołnierza",
      "categorie": "memorial",
      "description": "",
      "prix": "",
      "duree": "",
      "mapsUrl": "https://maps.google.com/?q=50.0662689,19.9420508",
      "lat": 50.0662689,
      "lng": 19.9420508,
      "source": "osm"
    },
    {
      "id": "a274088760",
      "nom": "Pomnik Grunwaldzki",
      "categorie": "memorial",
      "description": "",
      "prix": "",
      "duree": "",
      "mapsUrl": "https://maps.google.com/?q=50.0664155,19.942144",
      "lat": 50.0664155,
      "lng": 19.942144,
      "source": "osm"
    },
    {
      "id": "a12651963791",
      "nom": "Centrum Interpretacji Niematerialnego Dziedzictwa Krakowa",
      "categorie": "museum",
      "description": "",
      "prix": "",
      "duree": "",
      "mapsUrl": "https://maps.google.com/?q=50.0632933,19.9417396",
      "lat": 50.0632933,
      "lng": 19.9417396,
      "source": "osm"
    },
    {
      "id": "a12441447985",
      "nom": "Bolesław Roja",
      "categorie": "memorial",
      "description": "",
      "prix": "",
      "duree": "",
      "mapsUrl": "https://maps.google.com/?q=50.0652552,19.9488469",
      "lat": 50.0652552,
      "lng": 19.9488469,
      "source": "osm"
    },
    {
      "id": "a3352845943",
      "nom": "Jan Matejko",
      "categorie": "memorial",
      "description": "",
      "prix": "",
      "duree": "",
      "mapsUrl": "https://maps.google.com/?q=50.0653877,19.9410499",
      "lat": 50.0653877,
      "lng": 19.9410499,
      "source": "osm"
    },
    {
      "id": "a153158172",
      "nom": "Dom Jana Matejki",
      "categorie": "museum",
      "description": "",
      "prix": "",
      "duree": "",
      "mapsUrl": "https://maps.google.com/?q=50.0638373,19.9410239",
      "lat": 50.0638373,
      "lng": 19.9410239,
      "source": "osm"
    },
    {
      "id": "a490986302",
      "nom": "Art Gallery 36",
      "categorie": "gallery",
      "description": "",
      "prix": "",
      "duree": "",
      "mapsUrl": "https://maps.google.com/?q=50.0643231,19.9408221",
      "lat": 50.0643231,
      "lng": 19.9408221,
      "source": "osm"
    },
    {
      "id": "a471557518",
      "nom": "Merkury",
      "categorie": "artwork",
      "description": "",
      "prix": "",
      "duree": "",
      "mapsUrl": "https://maps.google.com/?q=50.0649411,19.9406793",
      "lat": 50.0649411,
      "lng": 19.9406793,
      "source": "osm"
    },
    {
      "id": "a200499486",
      "nom": "Baszta Stolarska",
      "categorie": "attraction",
      "description": "",
      "prix": "",
      "duree": "",
      "mapsUrl": "https://maps.google.com/?q=50.0650161,19.9406375",
      "lat": 50.0650161,
      "lng": 19.9406375,
      "source": "osm"
    },
    {
      "id": "a152334095",
      "nom": "Pałac Rzewuskich w Krakowie",
      "categorie": "castle",
      "description": "",
      "prix": "",
      "duree": "",
      "mapsUrl": "https://maps.google.com/?q=50.0618665,19.9449081",
      "lat": 50.0618665,
      "lng": 19.9449081,
      "source": "osm"
    },
    {
      "id": "a8787175360",
      "nom": "Wax Museum",
      "categorie": "museum",
      "description": "",
      "prix": "",
      "duree": "",
      "mapsUrl": "https://maps.google.com/?q=50.0640409,19.9406218",
      "lat": 50.0640409,
      "lng": 19.9406218,
      "source": "osm"
    },
    {
      "id": "a30807865",
      "nom": "Celestat",
      "categorie": "museum",
      "description": "",
      "prix": "",
      "duree": "",
      "mapsUrl": "https://maps.google.com/?q=50.0654484,19.9493704",
      "lat": 50.0654484,
      "lng": 19.9493704,
      "source": "osm"
    },
    {
      "id": "a692494301",
      "nom": "Galeria ASP w Krakowie",
      "categorie": "gallery",
      "description": "",
      "prix": "",
      "duree": "",
      "mapsUrl": "https://maps.google.com/?q=50.0661486,19.9410709",
      "lat": 50.0661486,
      "lng": 19.9410709,
      "source": "osm"
    },
    {
      "id": "a6077795789",
      "nom": "Marcin Oracewicz",
      "categorie": "memorial",
      "description": "",
      "prix": "",
      "duree": "",
      "mapsUrl": "https://maps.google.com/?q=50.0652925,19.9494596",
      "lat": 50.0652925,
      "lng": 19.9494596,
      "source": "osm"
    },
    {
      "id": "a5751039807",
      "nom": "Muzeum Anatomii",
      "categorie": "museum",
      "description": "",
      "prix": "",
      "duree": "",
      "mapsUrl": "https://maps.google.com/?q=50.0617966,19.9459505",
      "lat": 50.0617966,
      "lng": 19.9459505,
      "source": "osm"
    },
    {
      "id": "a6077795791",
      "nom": "Królowie Kurkowi 1834-1914",
      "categorie": "artwork",
      "description": "",
      "prix": "",
      "duree": "",
      "mapsUrl": "https://maps.google.com/?q=50.0652559,19.9495552",
      "lat": 50.0652559,
      "lng": 19.9495552,
      "source": "osm"
    },
    {
      "id": "a6077795790",
      "nom": "Księga Królów Kurkowych",
      "categorie": "artwork",
      "description": "",
      "prix": "",
      "duree": "",
      "mapsUrl": "https://maps.google.com/?q=50.0653131,19.9495701",
      "lat": 50.0653131,
      "lng": 19.9495701,
      "source": "osm"
    },
    {
      "id": "a200499484",
      "nom": "Arsenał Miejski",
      "categorie": "castle",
      "description": "",
      "prix": "",
      "duree": "",
      "mapsUrl": "https://maps.google.com/?q=50.0651236,19.9403391",
      "lat": 50.0651236,
      "lng": 19.9403391,
      "source": "osm"
    },
    {
      "id": "a1334317116",
      "nom": "Muzeum Książąt Czartoryskich w Krakowie",
      "categorie": "museum",
      "description": "",
      "prix": "",
      "duree": "",
      "mapsUrl": "https://maps.google.com/?q=50.0648136,19.9402301",
      "lat": 50.0648136,
      "lng": 19.9402301,
      "source": "osm"
    },
    {
      "id": "a152334111",
      "nom": "Dom Rzemiosł Teatralnych",
      "categorie": "museum",
      "description": "",
      "prix": "",
      "duree": "",
      "mapsUrl": "https://maps.google.com/?q=50.0618806,19.947344",
      "lat": 50.0618806,
      "lng": 19.947344,
      "source": "osm"
    },
    {
      "id": "a200499485",
      "nom": "Baszta Ciesielska",
      "categorie": "attraction",
      "description": "",
      "prix": "",
      "duree": "",
      "mapsUrl": "https://maps.google.com/?q=50.0651864,19.9400215",
      "lat": 50.0651864,
      "lng": 19.9400215,
      "source": "osm"
    },
    {
      "id": "a2290487938",
      "nom": "Jan III Sobieski",
      "categorie": "memorial",
      "description": "",
      "prix": "",
      "duree": "",
      "mapsUrl": "https://maps.google.com/?q=50.0655732,19.9498591",
      "lat": 50.0655732,
      "lng": 19.9498591,
      "source": "osm"
    },
    {
      "id": "a274088838",
      "nom": "Harfiarz",
      "categorie": "memorial",
      "description": "",
      "prix": "",
      "duree": "",
      "mapsUrl": "https://maps.google.com/?q=50.0659432,19.9403073",
      "lat": 50.0659432,
      "lng": 19.9403073,
      "source": "osm"
    },
    {
      "id": "a472086915",
      "nom": "Jan Paweł II",
      "categorie": "memorial",
      "description": "",
      "prix": "",
      "duree": "",
      "mapsUrl": "https://maps.google.com/?q=50.0653916,19.9499717",
      "lat": 50.0653916,
      "lng": 19.9499717,
      "source": "osm"
    },
    {
      "id": "a5199949834",
      "nom": "Żywe Muzeum Obwarzanka",
      "categorie": "museum",
      "description": "",
      "prix": "",
      "duree": "",
      "mapsUrl": "https://maps.google.com/?q=50.0666305,19.9408143",
      "lat": 50.0666305,
      "lng": 19.9408143,
      "source": "osm"
    },
    {
      "id": "a13155137901",
      "nom": "Galeria Krypta",
      "categorie": "gallery",
      "description": "",
      "prix": "",
      "duree": "",
      "mapsUrl": "https://maps.google.com/?q=50.0648855,19.9398468",
      "lat": 50.0648855,
      "lng": 19.9398468,
      "source": "osm"
    },
    {
      "id": "a471557535",
      "nom": "Muzeum Farmacji UJ",
      "categorie": "museum",
      "description": "",
      "prix": "",
      "duree": "",
      "mapsUrl": "https://maps.google.com/?q=50.0632264,19.9403302",
      "lat": 50.0632264,
      "lng": 19.9403302,
      "source": "osm"
    },
    {
      "id": "a11572384758",
      "nom": "Józef Louis",
      "categorie": "memorial",
      "description": "",
      "prix": "",
      "duree": "",
      "mapsUrl": "https://maps.google.com/?q=50.0652197,19.9501478",
      "lat": 50.0652197,
      "lng": 19.9501478,
      "source": "osm"
    },
    {
      "id": "a2290487939",
      "nom": "Zygmunt II August",
      "categorie": "memorial",
      "description": "",
      "prix": "",
      "duree": "",
      "mapsUrl": "https://maps.google.com/?q=50.0655309,19.9501686",
      "lat": 50.0655309,
      "lng": 19.9501686,
      "source": "osm"
    },
    {
      "id": "a11097762396",
      "nom": "Galeria pod Pawiem",
      "categorie": "gallery",
      "description": "",
      "prix": "",
      "duree": "",
      "mapsUrl": "https://maps.google.com/?q=50.064629,19.939531",
      "lat": 50.064629,
      "lng": 19.939531,
      "source": "osm"
    },
    {
      "id": "a12068859617",
      "nom": "Zuzanna Ginczanka",
      "categorie": "memorial",
      "description": "",
      "prix": "",
      "duree": "",
      "mapsUrl": "https://maps.google.com/?q=50.0615027,19.9425936",
      "lat": 50.0615027,
      "lng": 19.9425936,
      "source": "osm"
    },
    {
      "id": "a11145601702",
      "nom": "Krzysztof Komeda",
      "categorie": "artwork",
      "description": "",
      "prix": "",
      "duree": "",
      "mapsUrl": "https://maps.google.com/?q=50.0616248,19.947944",
      "lat": 50.0616248,
      "lng": 19.947944,
      "source": "osm"
    },
    {
      "id": "a10711731145",
      "nom": "Parowóz Riesa T2-73",
      "categorie": "attraction",
      "description": "",
      "prix": "",
      "duree": "",
      "mapsUrl": "https://maps.google.com/?q=50.0613479,19.9471486",
      "lat": 50.0613479,
      "lng": 19.9471486,
      "source": "osm"
    },
    {
      "id": "a2290487937",
      "nom": "Ignacy Jan Paderewski",
      "categorie": "memorial",
      "description": "",
      "prix": "",
      "duree": "",
      "mapsUrl": "https://maps.google.com/?q=50.0662913,19.9502051",
      "lat": 50.0662913,
      "lng": 19.9502051,
      "source": "osm"
    },
    {
      "id": "a3278162768",
      "nom": "Fresk dawnej kaplicy",
      "categorie": "artwork",
      "description": "",
      "prix": "",
      "duree": "",
      "mapsUrl": "https://maps.google.com/?q=50.0641955,19.9392289",
      "lat": 50.0641955,
      "lng": 19.9392289,
      "source": "osm"
    },
    {
      "id": "a9071151228",
      "nom": "Maciej Józef Drodowicz",
      "categorie": "memorial",
      "description": "",
      "prix": "",
      "duree": "",
      "mapsUrl": "https://maps.google.com/?q=50.0636789,19.950698",
      "lat": 50.0636789,
      "lng": 19.950698,
      "source": "osm"
    },
    {
      "id": "a6077795793",
      "nom": "750 lat Krakowskiego Bractwa Kurkowego",
      "categorie": "memorial",
      "description": "",
      "prix": "",
      "duree": "",
      "mapsUrl": "https://maps.google.com/?q=50.0664996,19.9502757",
      "lat": 50.0664996,
      "lng": 19.9502757,
      "source": "osm"
    },
    {
      "id": "a12150162218",
      "nom": "Smok z metrem",
      "categorie": "artwork",
      "description": "",
      "prix": "",
      "duree": "",
      "mapsUrl": "https://maps.google.com/?q=50.0611503,19.9472682",
      "lat": 50.0611503,
      "lng": 19.9472682,
      "source": "osm"
    },
    {
      "id": "a13379256001",
      "nom": "Muzeum Tortur",
      "categorie": "museum",
      "description": "",
      "prix": "",
      "duree": "",
      "mapsUrl": "https://maps.google.com/?q=50.0628509,19.9396943",
      "lat": 50.0628509,
      "lng": 19.9396943,
      "source": "osm"
    },
    {
      "id": "a6077795794",
      "nom": "Grunwald 1410",
      "categorie": "memorial",
      "description": "",
      "prix": "",
      "duree": "",
      "mapsUrl": "https://maps.google.com/?q=50.066782,19.9501863",
      "lat": 50.066782,
      "lng": 19.9501863,
      "source": "osm"
    },
    {
      "id": "a12852863501",
      "nom": "original fragment of Berlin Wall",
      "categorie": "memorial",
      "description": "",
      "prix": "",
      "duree": "",
      "mapsUrl": "https://maps.google.com/?q=50.06664,19.9503204",
      "lat": 50.06664,
      "lng": 19.9503204,
      "source": "osm"
    },
    {
      "id": "a4281228578",
      "nom": "Muzeum i Archiwum Marii Angeli Truszkowskiej",
      "categorie": "museum",
      "description": "",
      "prix": "",
      "duree": "",
      "mapsUrl": "https://maps.google.com/?q=50.0613744,19.9417126",
      "lat": 50.0613744,
      "lng": 19.9417126,
      "source": "osm"
    },
    {
      "id": "a6723197798",
      "nom": "Pamięci Krakowian zabitych przez smog",
      "categorie": "memorial",
      "description": "",
      "prix": "",
      "duree": "",
      "mapsUrl": "https://maps.google.com/?q=50.0651975,19.9386978",
      "lat": 50.0651975,
      "lng": 19.9386978,
      "source": "osm"
    },
    {
      "id": "a7816441306",
      "nom": "Stanisław Kutrzeba",
      "categorie": "memorial",
      "description": "",
      "prix": "",
      "duree": "",
      "mapsUrl": "https://maps.google.com/?q=50.0645015,19.9386263",
      "lat": 50.0645015,
      "lng": 19.9386263,
      "source": "osm"
    },
    {
      "id": "a2628685541",
      "nom": "Galeria Ogrodowa",
      "categorie": "gallery",
      "description": "",
      "prix": "",
      "duree": "",
      "mapsUrl": "https://maps.google.com/?q=50.0687306,19.9434672",
      "lat": 50.0687306,
      "lng": 19.9434672,
      "source": "osm"
    },
    {
      "id": "a8261763064",
      "nom": "Kamienica Hipolitów",
      "categorie": "museum",
      "description": "",
      "prix": "",
      "duree": "",
      "mapsUrl": "https://maps.google.com/?q=50.0619534,19.9401204",
      "lat": 50.0619534,
      "lng": 19.9401204,
      "source": "osm"
    },
    {
      "id": "a6077795796",
      "nom": "333 rocznica Wiktorii Wiedeńskiej",
      "categorie": "memorial",
      "description": "",
      "prix": "",
      "duree": "",
      "mapsUrl": "https://maps.google.com/?q=50.067032,19.9504364",
      "lat": 50.067032,
      "lng": 19.9504364,
      "source": "osm"
    },
    {
      "id": "a10878068105",
      "nom": "Dom Strachu - Lost Souls Alley",
      "categorie": "attraction",
      "description": "",
      "prix": "",
      "duree": "",
      "mapsUrl": "https://maps.google.com/?q=50.0627394,19.9391578",
      "lat": 50.0627394,
      "lng": 19.9391578,
      "source": "osm"
    },
    {
      "id": "a274088837",
      "nom": "Jadwiga i Jagiełło",
      "categorie": "memorial",
      "description": "",
      "prix": "",
      "duree": "",
      "mapsUrl": "https://maps.google.com/?q=50.0659595,19.9385155",
      "lat": 50.0659595,
      "lng": 19.9385155,
      "source": "osm"
    },
    {
      "id": "a10829813177",
      "nom": "Ołtarz Wita Stwosza",
      "categorie": "attraction",
      "description": "",
      "prix": "",
      "duree": "",
      "mapsUrl": "https://maps.google.com/?q=50.0616386,19.9399988",
      "lat": 50.0616386,
      "lng": 19.9399988,
      "source": "osm"
    },
    {
      "id": "a490986503",
      "nom": "Galeria Nautilus",
      "categorie": "gallery",
      "description": "",
      "prix": "",
      "duree": "",
      "mapsUrl": "https://maps.google.com/?q=50.0652135,19.9380022",
      "lat": 50.0652135,
      "lng": 19.9380022,
      "source": "osm"
    },
    {
      "id": "a12068815122",
      "nom": "Komenda Główna Organizacji Orła Białego",
      "categorie": "memorial",
      "description": "",
      "prix": "",
      "duree": "",
      "mapsUrl": "https://maps.google.com/?q=50.0607165,19.9415955",
      "lat": 50.0607165,
      "lng": 19.9415955,
      "source": "osm"
    },
    {
      "id": "a10858062938",
      "nom": "Womai",
      "categorie": "museum",
      "description": "",
      "prix": "",
      "duree": "",
      "mapsUrl": "https://maps.google.com/?q=50.0692604,19.9449224",
      "lat": 50.0692604,
      "lng": 19.9449224,
      "source": "osm"
    },