{
 "slug": "da-nang",
 "nom": "Da Nang",
 "pays": "Vietnam",
 "pays_slug": "vietnam",
 "continent": "Asie",
 "region": "Vietnam",
 "coordonnees": {
  "lat": 16.0544,
  "lng": 108.2022
 },
 "codeISO": "VN",
 "score_halal": 3.2,
 "halalScore": 6.4,
 "description": "Da Nang, Vietnam. Repérez les restaurants halal et les mosquées via l'application.",
 "metaDescription": "Da Nang, Vietnam. Repérez les restaurants halal et les mosquées via l'application.",
 "image": "https://upload.wikimedia.org/wikipedia/commons/2/21/Da_Nang_Montage.jpg",
 "image_hero": "https://upload.wikimedia.org/wikipedia/commons/2/21/Da_Nang_Montage.jpg",
 "imageCredit": "Wikimedia Commons",
 "scoreIndicatif": true,
 "statistiques": {
  "restaurants_halal": 6,
  "mosquees": 2,
  "hotels": 120
 },
 "infoPratique": {
  "transport": "Accessible par avion et transports locaux.",
  "meilleureEpoque": "Selon la saison.",
  "conseilHalal": "Repérez restaurants halal et mosquées via l'application."
 },
 "tags": [
  "halal",
  "asie"
 ],
 "restaurants": [
  {
   "nom": "Quán ăn ngon Thìa Gỗ Danang-style",
   "type": "vietnamese",
   "priceRange": "€€",
   "mapsUrl": "https://maps.google.com/?q=16.0760522,108.2183879",
   "lat": 16.0760522,
   "lng": 108.2183879,
   "halalConfidence": "yes",
   "source": "osm"
  },
  {
   "nom": "Mumtaz",
   "type": "indian",
   "priceRange": "€€",
   "mapsUrl": "https://maps.google.com/?q=16.0484899,108.2371823",
   "lat": 16.0484899,
   "lng": 108.2371823,
   "halalConfidence": "yes",
   "source": "osm"
  },
  {
   "nom": "Simpur",
   "type": "asian",
   "priceRange": "€€",
   "mapsUrl": "https://maps.google.com/?q=16.0792103,108.2290755",
   "lat": 16.0792103,
   "lng": 108.2290755,
   "halalConfidence": "yes",
   "source": "osm"
  },
  {
   "nom": "Kebab ngon",
   "type": "burger, coffee shop, kebab",
   "priceRange": "€€",
   "mapsUrl": "https://maps.google.com/?q=16.0552866,108.2447033",
   "lat": 16.0552866,
   "lng": 108.2447033,
   "halalConfidence": "likely",
   "source": "osm"
  },
  {
   "nom": "Istanbul Kebab",
   "type": "turkish, pizza, grill",
   "priceRange": "€€",
   "mapsUrl": "https://maps.google.com/?q=16.0511553,108.2451145",
   "lat": 16.0511553,
   "lng": 108.2451145,
   "halalConfidence": "likely",
   "source": "osm"
  },
  {
   "nom": "Trường Thọ Ha Noi KeBab Rice Noodlse®",
   "type": "kebab, coffee shop, vietnamese, rice nood",
   "priceRange": "€€",
   "mapsUrl": "https://maps.google.com/?q=16.0818056,108.247242",
   "lat": 16.0818056,
   "lng": 108.247242,
   "halalConfidence": "likely",
   "source": "osm"
  }
 ],
 "hotels": [
  {
   "nom": "Landing house",
   "categorie": "Appartement",
   "priceRange": "€€",
   "mapsUrl": "https://maps.google.com/?q=16.0541957,108.2063052",
   "lat": 16.0541957,
   "lng": 108.2063052,
   "halalFriendly": false,
   "bookingUrl": "https://maps.google.com/?q=16.0541957,108.2063052",
   "source": "osm"
  },
  {
   "nom": "Nhà Khách Quân Chủng Phòng Không- Không Quân",
   "categorie": "Hôtel",
   "priceRange": "€€",
   "mapsUrl": "https://maps.google.com/?q=16.0516072,108.2059173",
   "lat": 16.0516072,
   "lng": 108.2059173,
   "halalFriendly": false,
   "bookingUrl": "https://maps.google.com/?q=16.0516072,108.2059173",
   "source": "osm"
  },
  {
   "nom": "Khoi Nguon",
   "categorie": "Hôtel",
   "priceRange": "€€",
   "mapsUrl": "https://maps.google.com/?q=16.0565733,108.2081824",
   "lat": 16.0565733,
   "lng": 108.2081824,
   "halalFriendly": false,
   "bookingUrl": "https://maps.google.com/?q=16.0565733,108.2081824",
   "source": "osm"
  },
  {
   "nom": "quan quan hotel",
   "categorie": "Hôtel",
   "priceRange": "€€",
   "mapsUrl": "https://maps.google.com/?q=16.0536081,108.2089282",
   "lat": 16.0536081,
   "lng": 108.2089282,
   "halalFriendly": false,
   "bookingUrl": "https://maps.google.com/?q=16.0536081,108.2089282",
   "source": "osm"
  },
  {
   "nom": "quan quan hotel",
   "categorie": "Hôtel",
   "priceRange": "€€",
   "mapsUrl": "https://maps.google.com/?q=16.0536953,108.2096156",
   "lat": 16.0536953,
   "lng": 108.2096156,
   "halalFriendly": false,
   "bookingUrl": "https://maps.google.com/?q=16.0536953,108.2096156",
   "source": "osm"
  },
  {
   "nom": "CaPhe Giai Khat 78",
   "categorie": "Hôtel",
   "priceRange": "€€",
   "mapsUrl": "https://maps.google.com/?q=16.0593521,108.2084405",
   "lat": 16.0593521,
   "lng": 108.2084405,
   "halalFriendly": false,
   "bookingUrl": "https://maps.google.com/?q=16.0593521,108.2084405",
   "source": "osm"
  },
  {
   "nom": "ChiPa Homestay",
   "categorie": "Maison d'hôtes",
   "priceRange": "€€",
   "mapsUrl": "https://maps.google.com/?q=16.0589381,108.2094602",
   "lat": 16.0589381,
   "lng": 108.2094602,
   "halalFriendly": false,
   "bookingUrl": "https://maps.google.com/?q=16.0589381,108.2094602",
   "source": "osm"
  },
  {
   "nom": "King Garden Hotel",
   "categorie": "Hôtel",
   "priceRange": "€€",
   "mapsUrl": "https://maps.google.com/?q=16.0514417,108.2114422",
   "lat": 16.0514417,
   "lng": 108.2114422,
   "halalFriendly": false,
   "bookingUrl": "https://maps.google.com/?q=16.0514417,108.2114422",
   "source": "osm"
  },
  {
   "nom": "Red Palace Hotel",
   "categorie": "Hôtel",
   "priceRange": "€€",
   "mapsUrl": "https://maps.google.com/?q=16.0516704,108.211934",
   "lat": 16.0516704,
   "lng": 108.211934,
   "halalFriendly": false,
   "bookingUrl": "https://maps.google.com/?q=16.0516704,108.211934",
   "source": "osm"
  },
  {
   "nom": "Nhà trọ VTV",
   "categorie": "Maison d'hôtes",
   "priceRange": "€€",
   "mapsUrl": "https://maps.google.com/?q=16.0614403,108.2101891",
   "lat": 16.0614403,
   "lng": 108.2101891,
   "halalFriendly": false,
   "bookingUrl": "https://maps.google.com/?q=16.0614403,108.2101891",
   "source": "osm"
  },
  {
   "nom": "139nguyễn đucedm",
   "categorie": "Maison d'hôtes",
   "priceRange": "€€",
   "mapsUrl": "https://maps.google.com/?q=16.062815,108.2101633",
   "lat": 16.062815,
   "lng": 108.2101633,
   "halalFriendly": false,
   "bookingUrl": "https://maps.google.com/?q=16.062815,108.2101633",
   "source": "osm"
  },
  {
   "nom": "Nhà nghỉ 126",
   "categorie": "Maison d'hôtes",
   "priceRange": "€€",
   "mapsUrl": "https://maps.google.com/?q=16.0659426,108.1996534",
   "lat": 16.0659426,
   "lng": 108.1996534,
   "halalFriendly": false,
   "bookingUrl": "https://maps.google.com/?q=16.0659426,108.1996534",
   "source": "osm"
  },
  {
   "nom": "Thanh Long Hotel",
   "categorie": "Hôtel",
   "priceRange": "€€",
   "mapsUrl": "https://maps.google.com/?q=16.0659572,108.1991292",
   "lat": 16.0659572,
   "lng": 108.1991292,
   "halalFriendly": false,
   "bookingUrl": "https://maps.google.com/?q=16.0659572,108.1991292",
   "source": "osm"
  },
  {
   "nom": "Lu peaceful homestay",
   "categorie": "Maison d'hôtes",
   "priceRange": "€€",
   "mapsUrl": "https://maps.google.com/?q=16.0551135,108.189185",
   "lat": 16.0551135,
   "lng": 108.189185,
   "halalFriendly": false,
   "bookingUrl": "https://maps.google.com/?q=16.0551135,108.189185",
   "source": "osm"
  },
  {
   "nom": "Do Hai",
   "categorie": "Hôtel",
   "priceRange": "€€",
   "mapsUrl": "https://maps.google.com/?q=16.0601454,108.2139664",
   "lat": 16.0601454,
   "lng": 108.2139664,
   "halalFriendly": false,
   "bookingUrl": "https://maps.google.com/?q=16.0601454,108.2139664",
   "source": "osm"
  },
  {
   "nom": "Dai Long hotel",
   "categorie": "Hôtel",
   "priceRange": "€€",
   "mapsUrl": "https://maps.google.com/?q=16.0623771,108.1918861",
   "lat": 16.0623771,
   "lng": 108.1918861,
   "halalFriendly": false,
   "bookingUrl": "https://maps.google.com/?q=16.0623771,108.1918861",
   "source": "osm"
  },
  {
   "nom": "Nơi ở",
   "categorie": "Hôtel",
   "priceRange": "€€",
   "mapsUrl": "https://maps.google.com/?q=16.0608379,108.2136384",
   "lat": 16.0608379,
   "lng": 108.2136384,
   "halalFriendly": false,
   "bookingUrl": "https://maps.google.com/?q=16.0608379,108.2136384",
   "source": "osm"
  },
  {
   "nom": "Oc Tien Sa Hotel",
   "categorie": "Hôtel",
   "priceRange": "€€",
   "mapsUrl": "https://maps.google.com/?q=16.0606999,108.2137377",
   "lat": 16.0606999,
   "lng": 108.2137377,
   "halalFriendly": false,
   "bookingUrl": "https://maps.google.com/?q=16.0606999,108.2137377",
   "source": "osm"
  },
  {
   "nom": "Little Home Hotel",
   "categorie": "Hôtel",
   "priceRange": "€€",
   "mapsUrl": "https://maps.google.com/?q=16.0663852,108.2087596",
   "lat": 16.0663852,
   "lng": 108.2087596,
   "halalFriendly": false,
   "bookingUrl": "https://maps.google.com/?q=16.0663852,108.2087596",
   "source": "osm"
  },
  {
   "nom": "Khách sạn Bốn Mùa",
   "categorie": "Hôtel",
   "priceRange": "€€",
   "mapsUrl": "https://maps.google.com/?q=16.0428944,108.2100876",
   "lat": 16.0428944,
   "lng": 108.2100876,
   "halalFriendly": false,
   "bookingUrl": "https://maps.google.com/?q=16.0428944,108.2100876",
   "source": "osm"
  },
  {
   "nom": "Leila House - DaNang Central - 3BRs - Free Airport Shuttle",
   "categorie": "Maison d'hôtes",
   "priceRange": "€€",
   "mapsUrl": "https://maps.google.com/?q=16.0582534,108.2162134",
   "lat": 16.0582534,
   "lng": 108.2162134,
   "halalFriendly": false,
   "bookingUrl": "https://maps.google.com/?q=16.0582534,108.2162134",
   "source": "osm"
  },
  {
   "nom": "Fedora Hostel",
   "categorie": "Auberge",
   "priceRange": "€€",
   "mapsUrl": "https://maps.google.com/?q=16.0663013,108.1939386",
   "lat": 16.0663013,
   "lng": 108.1939386,
   "halalFriendly": false,
   "bookingUrl": "https://maps.google.com/?q=16.0663013,108.1939386",
   "source": "osm"
  },
  {
   "nom": "Mercury",
   "categorie": "Hôtel",
   "priceRange": "€€",
   "mapsUrl": "https://maps.google.com/?q=16.0603892,108.2158377",
   "lat": 16.0603892,
   "lng": 108.2158377,
   "halalFriendly": false,
   "bookingUrl": "https://maps.google.com/?q=16.0603892,108.2158377",
   "source": "osm"
  },
  {
   "nom": "Homestay Heo Đất",
   "categorie": "Maison d'hôtes",
   "priceRange": "€€",
   "mapsUrl": "https://maps.google.com/?q=16.0434346,108.212103",
   "lat": 16.0434346,
   "lng": 108.212103,
   "halalFriendly": false,
   "bookingUrl": "https://maps.google.com/?q=16.0434346,108.212103",
   "source": "osm"
  },
  {
   "nom": "Homestay Halley",
   "categorie": "Maison d'hôtes",
   "priceRange": "€€",
   "mapsUrl": "https://maps.google.com/?q=16.043357,108.2120125",
   "lat": 16.043357,
   "lng": 108.2120125,
   "halalFriendly": false,
   "bookingUrl": "https://maps.google.com/?q=16.043357,108.2120125",
   "source": "osm"
  },
  {
   "nom": "Quốc Cường Center Hotel",
   "categorie": "Hôtel",
   "priceRange": "€€",
   "mapsUrl": "https://maps.google.com/?q=16.057696,108.2169606",
   "lat": 16.057696,
   "lng": 108.2169606,
   "halalFriendly": false,
   "bookingUrl": "https://maps.google.com/?q=16.057696,108.2169606",
   "source": "osm"
  },
  {
   "nom": "Hoàng Phương Hotel",
   "categorie": "Hôtel",
   "priceRange": "€€",
   "mapsUrl": "https://maps.google.com/?q=16.040909,108.2107662",
   "lat": 16.040909,
   "lng": 108.2107662,
   "halalFriendly": false,
   "bookingUrl": "https://maps.google.com/?q=16.040909,108.2107662",
   "source": "osm"
  },
  {
   "nom": "Flóra Hotel",
   "categorie": "Hôtel",
   "priceRange": "€€",
   "mapsUrl": "https://maps.google.com/?q=16.0607119,108.2184792",
   "lat": 16.0607119,
   "lng": 108.2184792,
   "halalFriendly": false,
   "bookingUrl": "https://maps.google.com/?q=16.0607119,108.2184792",
   "source": "osm"
  },
  {
   "nom": "Malisa",
   "categorie": "Hôtel",
   "priceRange": "€€",
   "mapsUrl": "https://maps.google.com/?q=16.0607363,108.2186955",
   "lat": 16.0607363,
   "lng": 108.2186955,
   "halalFriendly": false,
   "bookingUrl": "https://maps.google.com/?q=16.0607363,108.2186955",
   "source": "osm"
  },
  {
   "nom": "Zion Hostel",
   "categorie": "Hôtel",
   "priceRange": "€€",
   "mapsUrl": "https://maps.google.com/?q=16.0628057,108.2185885",
   "lat": 16.0628057,
   "lng": 108.2185885,
   "halalFriendly": false,
   "bookingUrl": "https://maps.google.com/?q=16.0628057,108.2185885",
   "source": "osm"
  },
  {
   "nom": "Chung cư Vicoland",
   "categorie": "Appartement",
   "priceRange": "€€",
   "mapsUrl": "https://maps.google.com/?q=16.0443346,108.2176027",
   "lat": 16.0443346,
   "lng": 108.2176027,
   "halalFriendly": false,
   "bookingUrl": "https://maps.google.com/?q=16.0443346,108.2176027",
   "source": "osm"
  },
  {
   "nom": "Ocean Star",
   "categorie": "Hôtel",
   "priceRange": "€€",
   "mapsUrl": "https://maps.google.com/?q=16.0725557,108.2011233",
   "lat": 16.0725557,
   "lng": 108.2011233,
   "halalFriendly": false,
   "bookingUrl": "https://maps.google.com/?q=16.0725557,108.2011233",
   "source": "osm"
  },
  {
   "nom": "Faifo Hotel",
   "categorie": "Hôtel",
   "priceRange": "€€",
   "mapsUrl": "https://maps.google.com/?q=16.0712651,108.2098782",
   "lat": 16.0712651,
   "lng": 108.2098782,
   "halalFriendly": false,
   "bookingUrl": "https://maps.google.com/?q=16.0712651,108.2098782",
   "source": "osm"
  },
  {
   "nom": "Mitisa Hotel Da Nang",
   "categorie": "Hôtel",
   "priceRange": "€€",
   "mapsUrl": "https://maps.google.com/?q=16.0608113,108.2202705",
   "lat": 16.0608113,
   "lng": 108.2202705,
   "halalFriendly": false,
   "bookingUrl": "https://maps.google.com/?q=16.0608113,108.2202705",
   "source": "osm"
  },
  {
   "nom": "Waikiki Hotel",
   "categorie": "Hôtel",
   "priceRange": "€€",
   "mapsUrl": "https://maps.google.com/?q=16.0730869,108.2012776",
   "lat": 16.0730869,
   "lng": 108.2012776,
   "halalFriendly": false,
   "bookingUrl": "https://maps.google.com/?q=16.0730869,108.2012776",
   "source": "osm"
  },
  {
   "nom": "Iris Hotel",
   "categorie": "Hôtel",
   "priceRange": "€€",
   "mapsUrl": "https://maps.google.com/?q=16.0701554,108.2137712",
   "lat": 16.0701554,
   "lng": 108.2137712,
   "halalFriendly": false,
   "bookingUrl": "http://www.irishotel.vn",
   "source": "osm"
  },
  {
   "nom": "HÙNGđn",
   "categorie": "Appartement",
   "priceRange": "€€",
   "mapsUrl": "https://maps.google.com/?q=16.0704904,108.2133284",
   "lat": 16.0704904,
   "lng": 108.2133284,
   "halalFriendly": false,
   "bookingUrl": "https://maps.google.com/?q=16.0704904,108.2133284",
   "source": "osm"
  },
  {
   "nom": "HÙNGđn",
   "categorie": "Appartement",
   "priceRange": "€€",
   "mapsUrl": "https://maps.google.com/?q=16.0704863,108.2133763",
   "lat": 16.0704863,
   "lng": 108.2133763,
   "halalFriendly": false,
   "bookingUrl": "https://maps.google.com/?q=16.0704863,108.2133763",
   "source": "osm"
  },
  {
   "nom": "HÙNGđn",
   "categorie": "Appartement",
   "priceRange": "€€",
   "mapsUrl": "https://maps.google.com/?q=16.0705085,108.2133449",
   "lat": 16.0705085,
   "lng": 108.2133449,
   "halalFriendly": false,
   "bookingUrl": "https://maps.google.com/?q=16.0705085,108.2133449",
   "source": "osm"
  },
  {
   "nom": "chung cư số 4 nguyễn tri phương",
   "categorie": "Appartement",
   "priceRange": "€€",
   "mapsUrl": "https://maps.google.com/?q=16.0374466,108.2119179",
   "lat": 16.0374466,
   "lng": 108.2119179,
   "halalFriendly": false,
   "bookingUrl": "https://maps.google.com/?q=16.0374466,108.2119179",
   "source": "osm"
  },
  {
   "nom": "HÙNGdn",
   "categorie": "Appartement",
   "priceRange": "€€",
   "mapsUrl": "https://maps.google.com/?q=16.0705741,108.2133491",
   "lat": 16.0705741,
   "lng": 108.2133491,
   "halalFriendly": false,
   "bookingUrl": "https://maps.google.com/?q=16.0705741,108.2133491",
   "source": "osm"
  },
  {
   "nom": "Huy Hoang Hotel",
   "categorie": "Hôtel",
   "priceRange": "€€",
   "mapsUrl": "https://maps.google.com/?q=16.0721459,108.1939154",
   "lat": 16.0721459,
   "lng": 108.1939154,
   "halalFriendly": false,
   "bookingUrl": "https://maps.google.com/?q=16.0721459,108.1939154",
   "source": "osm"
  },
  {
   "nom": "Moonlight Hotel Suites & Spa",
   "categorie": "Hôtel",
   "priceRange": "€€",
   "mapsUrl": "https://maps.google.com/?q=16.0640178,108.2198533",
   "lat": 16.0640178,
   "lng": 108.2198533,
   "halalFriendly": false,
   "bookingUrl": "https://maps.google.com/?q=16.0640178,108.2198533",
   "source": "osm"
  },
  {
   "nom": "Phu An",
   "categorie": "Hôtel",
   "priceRange": "€€",
   "mapsUrl": "https://maps.google.com/?q=16.0576787,108.2222689",
   "lat": 16.0576787,
   "lng": 108.2222689,
   "halalFriendly": false,
   "bookingUrl": "https://maps.google.com/?q=16.0576787,108.2222689",
   "source": "osm"
  },
  {
   "nom": "Thanh Hoang Chau hotel",
   "categorie": "Hôtel",
   "priceRange": "€€",
   "mapsUrl": "https://maps.google.com/?q=16.0651724,108.2192072",
   "lat": 16.0651724,
   "lng": 108.2192072,
   "halalFriendly": false,
   "bookingUrl": "https://maps.google.com/?q=16.0651724,108.2192072",
   "source": "osm"
  },
  {
   "nom": "Stingray hostel",
   "categorie": "Auberge",
   "priceRange": "€€",
   "mapsUrl": "https://maps.google.com/?q=16.0608725,108.2216027",
   "lat": 16.0608725,
   "lng": 108.2216027,
   "halalFriendly": false,
   "bookingUrl": "https://maps.google.com/?q=16.0608725,108.2216027",
   "source": "osm"
  },
  {
   "nom": "Hotel Rosa",
   "categorie": "Hôtel",
   "priceRange": "€€",
   "mapsUrl": "https://maps.google.com/?q=16.0743494,108.2044562",
   "lat": 16.0743494,
   "lng": 108.2044562,
   "halalFriendly": false,
   "bookingUrl": "https://maps.google.com/?q=16.0743494,108.2044562",
   "source": "osm"
  },
  {
   "nom": "Moonlight Hotel Suites & Spa",
   "categorie": "Hôtel",
   "priceRange": "€€",
   "mapsUrl": "https://maps.google.com/?q=16.065119,108.2199896",
   "lat": 16.065119,
   "lng": 108.2199896,
   "halalFriendly": false,
   "bookingUrl": "https://maps.google.com/?q=16.065119,108.2199896",
   "source": "osm"
  },
  {
   "nom": "Cozy Danang Boutique Hotel",
   "categorie": "Hôtel",
   "priceRange": "€€",
   "mapsUrl": "https://maps.google.com/?q=16.0615571,108.2218356",
   "lat": 16.0615571,
   "lng": 108.2218356,
   "halalFriendly": false,
   "bookingUrl": "https://maps.google.com/?q=16.0615571,108.2218356",
   "source": "osm"
  },
  {
   "nom": "Fivitel Boutique da nang",
   "categorie": "Hôtel",
   "priceRange": "€€",
   "mapsUrl": "https://maps.google.com/?q=16.0643682,108.2206297",
   "lat": 16.0643682,
   "lng": 108.2206297,
   "halalFriendly": false,
   "bookingUrl": "https://maps.google.com/?q=16.0643682,108.2206297",
   "source": "osm"
  },
  {
   "nom": "Vanda",
   "categorie": "Hôtel",
   "priceRange": "€€",
   "mapsUrl": "https://maps.google.com/?q=16.0606539,108.2225133",
   "lat": 16.0606539,
   "lng": 108.2225133,
   "halalFriendly": false,
   "bookingUrl": "https://maps.google.com/?q=16.0606539,108.2225133",
   "source": "osm"
  },
  {
   "nom": "Louis luxury apartments",
   "categorie": "Hôtel",
   "priceRange": "€€",
   "mapsUrl": "https://maps.google.com/?q=16.0470752,108.222153",
   "lat": 16.0470752,
   "lng": 108.222153,
   "halalFriendly": false,
   "bookingUrl": "https://maps.google.com/?q=16.0470752,108.222153",
   "source": "osm"
  },
  {
   "nom": "Funtastic Danang Hostel",
   "categorie": "Auberge",
   "priceRange": "€€",
   "mapsUrl": "https://maps.google.com/?q=16.071774,108.214645",
   "lat": 16.071774,
   "lng": 108.214645,
   "halalFriendly": false,
   "bookingUrl": "https://maps.google.com/?q=16.071774,108.214645",
   "source": "osm"
  },
  {
   "nom": "Sanouva Danang Hotel",
   "categorie": "Hôtel",
   "priceRange": "€€",
   "mapsUrl": "https://maps.google.com/?q=16.0669848,108.220137",
   "lat": 16.0669848,
   "lng": 108.220137,
   "halalFriendly": false,
   "bookingUrl": "https://www.sanouvadanang.com",
   "source": "osm"
  },
  {
   "nom": "Thanh Thanh Hotel",
   "categorie": "Hôtel",
   "priceRange": "€€",
   "mapsUrl": "https://maps.google.com/?q=16.0673207,108.2201195",
   "lat": 16.0673207,
   "lng": 108.2201195,
   "halalFriendly": false,
   "bookingUrl": "https://maps.google.com/?q=16.0673207,108.2201195",
   "source": "osm"
  },
  {
   "nom": "Khách sạn G8 Luxury",
   "categorie": "Hôtel",
   "priceRange": "€€",
   "mapsUrl": "https://maps.google.com/?q=16.0707694,108.2172859",
   "lat": 16.0707694,
   "lng": 108.2172859,
   "halalFriendly": false,
   "bookingUrl": "https://g8luxury.com/",
   "source": "osm"
  },
  {
   "nom": "Dong Duong Hotel & Suites - Afternoon Tea Inclusive",
   "categorie": "Hôtel",
   "priceRange": "€€",
   "mapsUrl": "https://maps.google.com/?q=16.0650385,108.2223568",
   "lat": 16.0650385,
   "lng": 108.2223568,
   "halalFriendly": false,
   "bookingUrl": "https://maps.google.com/?q=16.0650385,108.2223568",
   "source": "osm"
  },
  {
   "nom": "Minh Toan Galaxy Hotel",
   "categorie": "Hôtel",
   "priceRange": "€€",
   "mapsUrl": "https://maps.google.com/?q=16.0440706,108.2226201",
   "lat": 16.0440706,
   "lng": 108.2226201,
   "halalFriendly": false,
   "bookingUrl": "https://maps.google.com/?q=16.0440706,108.2226201",
   "source": "osm"
  },
  {
   "nom": "City Hostel Danang",
   "categorie": "Auberge",
   "priceRange": "€€",
   "mapsUrl": "https://maps.google.com/?q=16.0653434,108.2223565",
   "lat": 16.0653434,
   "lng": 108.2223565,
   "halalFriendly": false,
   "bookingUrl": "https://maps.google.com/?q=16.0653434,108.2223565",
   "source": "osm"
  },
  {
   "nom": "City Hostel",
   "categorie": "Auberge",
   "priceRange": "€€",
   "mapsUrl": "https://maps.google.com/?q=16.0655088,108.2223258",
   "lat": 16.0655088,
   "lng": 108.2223258,
   "halalFriendly": false,
   "bookingUrl": "https://maps.google.com/?q=16.0655088,108.2223258",
   "source": "osm"
  },
  {
   "nom": "GIOANG",
   "categorie": "Appartement",
   "priceRange": "€€",
   "mapsUrl": "https://maps.google.com/?q=16.0754888,108.2103505",
   "lat": 16.0754888,
   "lng": 108.2103505,
   "halalFriendly": false,
   "bookingUrl": "https://maps.google.com/?q=16.0754888,108.2103505",
   "source": "osm"
  },
  {
   "nom": "Khách sạn Green Plaza",
   "categorie": "Hôtel",
   "priceRange": "€€€€",
   "score": 4,
   "mapsUrl": "https://maps.google.com/?q=16.0634704,108.2236971",
   "lat": 16.0634704,
   "lng": 108.2236971,
   "halalFriendly": false,
   "bookingUrl": "https://maps.google.com/?q=16.0634704,108.2236971",
   "source": "osm"
  },
  {
   "nom": "GIOANG",
   "categorie": "Appartement",
   "priceRange": "€€",
   "mapsUrl": "https://maps.google.com/?q=16.0756899,108.2101253",
   "lat": 16.0756899,
   "lng": 108.2101253,
   "halalFriendly": false,
   "bookingUrl": "https://maps.google.com/?q=16.0756899,108.2101253",
   "source": "osm"
  },
  {
   "nom": "Đại Á",
   "categorie": "Hôtel",
   "priceRange": "€€",
   "mapsUrl": "https://maps.google.com/?q=16.065957,108.2226034",
   "lat": 16.065957,
   "lng": 108.2226034,
   "halalFriendly": false,
   "bookingUrl": "https://maps.google.com/?q=16.065957,108.2226034",
   "source": "osm"
  },
  {
   "nom": "Chị Hoa",
   "categorie": "Maison d'hôtes",
   "priceRange": "€€",
   "mapsUrl": "https://maps.google.com/?q=16.0759094,108.2108049",
   "lat": 16.0759094,
   "lng": 108.2108049,
   "halalFriendly": false,
   "bookingUrl": "https://maps.google.com/?q=16.0759094,108.2108049",
   "source": "osm"
  },
  {
   "nom": "Rainbow",
   "categorie": "Hôtel",
   "priceRange": "€€",
   "mapsUrl": "https://maps.google.com/?q=16.064497,108.223824",
   "lat": 16.064497,
   "lng": 108.223824,
   "halalFriendly": false,
   "bookingUrl": "https://maps.google.com/?q=16.064497,108.223824",
   "source": "osm"
  },
  {
   "nom": "Luxury Hotel",
   "categorie": "Hôtel",
   "priceRange": "€€",
   "mapsUrl": "https://maps.google.com/?q=16.0652434,108.2237897",
   "lat": 16.0652434,
   "lng": 108.2237897,
   "halalFriendly": false,
   "bookingUrl": "https://maps.google.com/?q=16.0652434,108.2237897",
   "source": "osm"
  },
  {
   "nom": "Hachi Hostel",
   "categorie": "Auberge",
   "priceRange": "€€",
   "mapsUrl": "https://maps.google.com/?q=16.0720991,108.2184383",
   "lat": 16.0720991,
   "lng": 108.2184383,
   "halalFriendly": false,
   "bookingUrl": "https://maps.google.com/?q=16.0720991,108.2184383",
   "source": "osm"
  },
  {
   "nom": "Secret garden",
   "categorie": "Auberge",
   "priceRange": "€€",
   "mapsUrl": "https://maps.google.com/?q=16.0652794,108.2241673",
   "lat": 16.0652794,
   "lng": 108.2241673,
   "halalFriendly": false,
   "bookingUrl": "https://maps.google.com/?q=16.0652794,108.2241673",
   "source": "osm"
  },
  {
   "nom": "Danang Backpackers Hostel",
   "categorie": "Auberge",
   "priceRange": "€€",
   "mapsUrl": "https://maps.google.com/?q=16.0697636,108.2210638",
   "lat": 16.0697636,
   "lng": 108.2210638,
   "halalFriendly": false,
   "bookingUrl": "http://danangbackpackershostel.com",
   "source": "osm"
  },
  {
   "nom": "Pariat",
   "categorie": "Hôtel",
   "priceRange": "€€",
   "mapsUrl": "https://maps.google.com/?q=16.0653765,108.2241439",
   "lat": 16.0653765,
   "lng": 108.2241439,
   "halalFriendly": false,
   "bookingUrl": "https://maps.google.com/?q=16.0653765,108.2241439",
   "source": "osm"
  },
  {
   "nom": "Nha me Lanh",
   "categorie": "Maison d'hôtes",
   "priceRange": "€€",
   "mapsUrl": "https://maps.google.com/?q=16.0730481,108.1863864",
   "lat": 16.0730481,
   "lng": 108.1863864,
   "halalFriendly": false,
   "bookingUrl": "https://maps.google.com/?q=16.0730481,108.1863864",
   "source": "osm"
  },
  {
   "nom": "Haian",
   "categorie": "Hôtel",
   "priceRange": "€€",
   "mapsUrl": "https://maps.google.com/?q=16.0661538,108.2244655",
   "lat": 16.0661538,
   "lng": 108.2244655,
   "halalFriendly": false,
   "bookingUrl": "https://maps.google.com/?q=16.0661538,108.2244655",
   "source": "osm"
  },
  {
   "nom": "Satya Hotel",
   "categorie": "Hôtel",
   "priceRange": "€€",
   "mapsUrl": "https://maps.google.com/?q=16.0670701,108.2239631",
   "lat": 16.0670701,
   "lng": 108.2239631,
   "halalFriendly": false,
   "bookingUrl": "https://maps.google.com/?q=16.0670701,108.2239631",
   "source": "osm"
  },
  {
   "nom": "Bamboo Green",
   "categorie": "Hôtel",
   "priceRange": "€€",
   "mapsUrl": "https://maps.google.com/?q=16.0669243,108.2240932",
   "lat": 16.0669243,
   "lng": 108.2240932,
   "halalFriendly": false,
   "bookingUrl": "https://maps.google.com/?q=16.0669243,108.2240932",
   "source": "osm"
  },
  {
   "nom": "Tan Vinh",
   "categorie": "Hôtel",
   "priceRange": "€€",
   "mapsUrl": "https://maps.google.com/?q=16.0670711,108.2241611",
   "lat": 16.0670711,
   "lng": 108.2241611,
   "halalFriendly": false,
   "bookingUrl": "https://maps.google.com/?q=16.0670711,108.2241611",
   "source": "osm"
  },
  {
   "nom": "Avora Hotel",
   "categorie": "Hôtel",
   "priceRange": "€€",
   "mapsUrl": "https://maps.google.com/?q=16.0664261,108.2246379",
   "lat": 16.0664261,
   "lng": 108.2246379,
   "halalFriendly": false,
   "bookingUrl": "https://avorahotel.vn",
   "source": "osm"
  },
  {
   "nom": "Hoang Linh",
   "categorie": "Hôtel",
   "priceRange": "€€",
   "mapsUrl": "https://maps.google.com/?q=16.0672663,108.2241581",
   "lat": 16.0672663,
   "lng": 108.2241581,
   "halalFriendly": false,
   "bookingUrl": "https://maps.google.com/?q=16.0672663,108.2241581",
   "source": "osm"
  },
  {
   "nom": "Minh Anh",
   "categorie": "Hôtel",
   "priceRange": "€€",
   "mapsUrl": "https://maps.google.com/?q=16.0672628,108.2242698",
   "lat": 16.0672628,
   "lng": 108.2242698,
   "halalFriendly": false,
   "bookingUrl": "https://maps.google.com/?q=16.0672628,108.2242698",
   "source": "osm"
  },
  {
   "nom": "Brilliant Hotel",
   "categorie": "Hôtel",
   "priceRange": "€€",
   "mapsUrl": "https://maps.google.com/?q=16.0666727,108.2247119",
   "lat": 16.0666727,
   "lng": 108.2247119,
   "halalFriendly": false,
   "bookingUrl": "https://brillianthotel.vn",
   "source": "osm"
  },
  {
   "nom": "One Star",
   "categorie": "Hôtel",
   "priceRange": "€€",
   "mapsUrl": "https://maps.google.com/?q=16.0672593,108.2243807",
   "lat": 16.0672593,
   "lng": 108.2243807,
   "halalFriendly": false,
   "bookingUrl": "https://maps.google.com/?q=16.0672593,108.2243807",
   "source": "osm"
  },
  {
   "nom": "Happy Day",
   "categorie": "Hôtel",
   "priceRange": "€€",
   "mapsUrl": "https://maps.google.com/?q=16.0668209,108.2247629",
   "lat": 16.0668209,
   "lng": 108.2247629,
   "halalFriendly": false,
   "bookingUrl": "http://www.happydayhotel.com.vn",
   "source": "osm"
  },
  {
   "nom": "Tru by Hilton Da Nang City Centre",
   "categorie": "Hôtel",
   "priceRange": "€€",
   "mapsUrl": "https://maps.google.com/?q=16.0713171,108.2215014",
   "lat": 16.0713171,
   "lng": 108.2215014,
   "halalFriendly": false,
   "bookingUrl": "https://www.hilton.com/en/hotels/daddyru-tru-da-nang-city-centre/",
   "source": "osm"
  },
  {
   "nom": "Fulmar Hotel",
   "categorie": "Hôtel",
   "priceRange": "€€",
   "mapsUrl": "https://maps.google.com/?q=16.0696685,108.2229641",
   "lat": 16.0696685,
   "lng": 108.2229641,
   "halalFriendly": false,
   "bookingUrl": "https://www.fulmarhotel.com/",
   "source": "osm"
  },
  {
   "nom": "nhà riêng",
   "categorie": "Appartement",
   "priceRange": "€€",
   "mapsUrl": "https://maps.google.com/?q=16.0475207,108.1769956",
   "lat": 16.0475207,
   "lng": 108.1769956,
   "halalFriendly": false,
   "bookingUrl": "https://maps.google.com/?q=16.0475207,108.1769956",
   "source": "osm"
  },
  {
   "nom": "H.Linh",
   "categorie": "Hôtel",
   "priceRange": "€€",
   "mapsUrl": "https://maps.google.com/?q=16.0671563,108.2248192",
   "lat": 16.0671563,
   "lng": 108.2248192,
   "halalFriendly": false,
   "bookingUrl": "https://maps.google.com/?q=16.0671563,108.2248192",
   "source": "osm"
  },
  {
   "nom": "Paradise",
   "categorie": "Hôtel",
   "priceRange": "€€",
   "mapsUrl": "https://maps.google.com/?q=16.0672484,108.2248261",
   "lat": 16.0672484,
   "lng": 108.2248261,
   "halalFriendly": false,
   "bookingUrl": "https://maps.google.com/?q=16.0672484,108.2248261",
   "source": "osm"
  },
  {
   "nom": "Sun River",
   "categorie": "Hôtel",
   "priceRange": "€€",
   "mapsUrl": "https://maps.google.com/?q=16.067392,108.2248021",
   "lat": 16.067392,
   "lng": 108.2248021,
   "halalFriendly": false,
   "bookingUrl": "http://www.sunriverhoteldanang.com",
   "source": "osm"
  },
  {
   "nom": "Newmoon",
   "categorie": "Hôtel",
   "priceRange": "€€",
   "mapsUrl": "https://maps.google.com/?q=16.067647,108.224662",
   "lat": 16.067647,
   "lng": 108.224662,
   "halalFriendly": false,
   "bookingUrl": "https://maps.google.com/?q=16.067647,108.224662",
   "source": "osm"
  },
  {
   "nom": "Seahorse",
   "categorie": "Auberge",
   "priceRange": "€€",
   "mapsUrl": "https://maps.google.com/?q=16.0678023,108.2246618",
   "lat": 16.0678023,
   "lng": 108.2246618,
   "halalFriendly": false,
   "bookingUrl": "https://maps.google.com/?q=16.0678023,108.2246618",
   "source": "osm"
  },
  {
   "nom": "Evelyn Hotel",
   "categorie": "Hôtel",
   "priceRange": "€€",
   "mapsUrl": "https://maps.google.com/?q=16.0687296,108.2240722",
   "lat": 16.0687296,
   "lng": 108.2240722,
   "halalFriendly": false,
   "bookingUrl": "https://maps.google.com/?q=16.0687296,108.2240722",
   "source": "osm"
  },
  {
   "nom": "Fortune Hotel",
   "categorie": "Hôtel",
   "priceRange": "€€",
   "mapsUrl": "https://maps.google.com/?q=16.0390132,108.223326",
   "lat": 16.0390132,
   "lng": 108.223326,
   "halalFriendly": false,
   "bookingUrl": "https://maps.google.com/?q=16.0390132,108.223326",
   "source": "osm"
  },
  {
   "nom": "Ocean Flower",
   "categorie": "Hôtel",
   "priceRange": "€€",
   "mapsUrl": "https://maps.google.com/?q=16.0692472,108.2238806",
   "lat": 16.0692472,
   "lng": 108.2238806,
   "halalFriendly": false,
   "bookingUrl": "https://maps.google.com/?q=16.0692472,108.2238806",
   "source": "osm"
  },
  {
   "nom": "Brown Bean Hotel",
   "categorie": "Hôtel",
   "priceRange": "€€",
   "mapsUrl": "https://maps.google.com/?q=16.0385512,108.2233794",
   "lat": 16.0385512,
   "lng": 108.2233794,
   "halalFriendly": false,
   "bookingUrl": "https://maps.google.com/?q=16.0385512,108.2233794",
   "source": "osm"
  },
  {
   "nom": "Hoa Việt Hotel",
   "categorie": "Hôtel",
   "priceRange": "€€",
   "mapsUrl": "https://maps.google.com/?q=16.070395,108.223643",
   "lat": 16.070395,
   "lng": 108.223643,
   "halalFriendly": false,
   "bookingUrl": "https://maps.google.com/?q=16.070395,108.223643",
   "source": "osm"
  },
  {
   "nom": "FC Hotel & Coffee",
   "categorie": "Hôtel",
   "priceRange": "€€",
   "mapsUrl": "https://maps.google.com/?q=16.0697171,108.2241967",
   "lat": 16.0697171,
   "lng": 108.2241967,
   "halalFriendly": false,
   "bookingUrl": "https://maps.google.com/?q=16.0697171,108.2241967",
   "source": "osm"
  },
  {
   "nom": "Chin Stays",
   "categorie": "Hôtel",
   "priceRange": "€€",
   "mapsUrl": "https://maps.google.com/?q=16.0706016,108.2238868",
   "lat": 16.0706016,
   "lng": 108.2238868,
   "halalFriendly": false,
   "bookingUrl": "https://maps.google.com/?q=16.0706016,108.2238868",
   "source": "osm"
  },
  {
   "nom": "Tulip Hotel",
   "categorie": "Hôtel",
   "priceRange": "€€",
   "mapsUrl": "https://maps.google.com/?q=16.0706895,108.2238849",
   "lat": 16.0706895,
   "lng": 108.2238849,
   "halalFriendly": false,
   "bookingUrl": "https://maps.google.com/?q=16.0706895,108.2238849",
   "source": "osm"
  },
  {
   "nom": "Centre Point Hotel and Residence",
   "categorie": "Hôtel",
   "priceRange": "€€",
   "mapsUrl": "https://maps.google.com/?q=16.0766799,108.2174776",
   "lat": 16.0766799,
   "lng": 108.2174776,
   "halalFriendly": false,
   "bookingUrl": "https://maps.google.com/?q=16.0766799,108.2174776",
   "source": "osm"
  },
  {
   "nom": "New Life Hotel",
   "categorie": "Hôtel",
   "priceRange": "€€",
   "mapsUrl": "https://maps.google.com/?q=16.0335638,108.2206857",
   "lat": 16.0335638,
   "lng": 108.2206857,
   "halalFriendly": false,
   "bookingUrl": "https://maps.google.com/?q=16.0335638,108.2206857",
   "source": "osm"
  },
  {
   "nom": "Bamboo Green Riverside",
   "categorie": "Hôtel",
   "priceRange": "€€",
   "mapsUrl": "https://maps.google.com/?q=16.0712338,108.2249566",
   "lat": 16.0712338,
   "lng": 108.2249566,
   "halalFriendly": false,
   "bookingUrl": "https://maps.google.com/?q=16.0712338,108.2249566",
   "source": "osm"
  },
  {
   "nom": "Han Riverine",
   "categorie": "Hôtel",
   "priceRange": "€€",
   "mapsUrl": "https://maps.google.com/?q=16.0713377,108.2249323",
   "lat": 16.0713377,
   "lng": 108.2249323,
   "halalFriendly": false,
   "bookingUrl": "https://maps.google.com/?q=16.0713377,108.2249323",
   "source": "osm"
  },
  {
   "nom": "Marriott Executive Apartments",
   "categorie": "Appartement",
   "priceRange": "€€",
   "mapsUrl": "https://maps.google.com/?q=16.0722264,108.2242748",
   "lat": 16.0722264,
   "lng": 108.2242748,
   "halalFriendly": false,
   "bookingUrl": "https://maps.google.com/?q=16.0722264,108.2242748",
   "source": "osm"
  },
  {
   "nom": "Courtyard Danang Han River",
   "categorie": "Hôtel",
   "priceRange": "€€",
   "mapsUrl": "https://maps.google.com/?q=16.0721989,108.2244418",
   "lat": 16.0721989,
   "lng": 108.2244418,
   "halalFriendly": false,
   "bookingUrl": "https://maps.google.com/?q=16.0721989,108.2244418",
   "source": "osm"
  },
  {
   "nom": "Bay Capital Da Nang Hotel",
   "categorie": "Hôtel",
   "priceRange": "€€",
   "mapsUrl": "https://maps.google.com/?q=16.0750141,108.221755",
   "lat": 16.0750141,
   "lng": 108.221755,
   "halalFriendly": false,
   "bookingUrl": "https://www.baycapitaldanang.com",
   "source": "osm"
  },
  {
   "nom": "Hilton Da Nang",
   "categorie": "Hôtel",
   "priceRange": "€€",
   "mapsUrl": "https://maps.google.com/?q=16.0725924,108.2244044",
   "lat": 16.0725924,
   "lng": 108.2244044,
   "halalFriendly": false,
   "bookingUrl": "https://www.hilton.com/en/hotels/daddvhi-hilton-da-nang/",
   "source": "osm"
  },
  {
   "nom": "Otium hostel danang",
   "categorie": "Auberge",
   "priceRange": "€€",
   "mapsUrl": "https://maps.google.com/?q=16.0762739,108.2205138",
   "lat": 16.0762739,
   "lng": 108.2205138,
   "halalFriendly": false,
   "bookingUrl": "https://maps.google.com/?q=16.0762739,108.2205138",
   "source": "osm"
  },
  {
   "nom": "Xenia",
   "categorie": "Hôtel",
   "priceRange": "€€",
   "mapsUrl": "https://maps.google.com/?q=16.0565373,108.2313682",
   "lat": 16.0565373,
   "lng": 108.2313682,
   "halalFriendly": false,
   "bookingUrl": "https://maps.google.com/?q=16.0565373,108.2313682",
   "source": "osm"
  },
  {
   "nom": "Danang Riverside",
   "categorie": "Hôtel",
   "priceRange": "€€",
   "mapsUrl": "https://maps.google.com/?q=16.0624934,108.2304346",
   "lat": 16.0624934,
   "lng": 108.2304346,
   "halalFriendly": false,
   "bookingUrl": "https://maps.google.com/?q=16.0624934,108.2304346",
   "source": "osm"
  },
  {
   "nom": "silver hotel",
   "categorie": "Hôtel",
   "priceRange": "€€",
   "mapsUrl": "https://maps.google.com/?q=16.063868,108.2300951",
   "lat": 16.063868,
   "lng": 108.2300951,
   "halalFriendly": false,
   "bookingUrl": "https://maps.google.com/?q=16.063868,108.2300951",
   "source": "osm"
  },
  {
   "nom": "DaNa Home Hotel",
   "categorie": "Hôtel",
   "priceRange": "€€",
   "mapsUrl": "https://maps.google.com/?q=16.078329,108.2182818",
   "lat": 16.078329,
   "lng": 108.2182818,
   "halalFriendly": false,
   "bookingUrl": "https://maps.google.com/?q=16.078329,108.2182818",
   "source": "osm"
  },
  {
   "nom": "AnhTUẤN",
   "categorie": "Appartement",
   "priceRange": "€€",
   "mapsUrl": "https://maps.google.com/?q=16.0768733,108.2206099",
   "lat": 16.0768733,
   "lng": 108.2206099,
   "halalFriendly": false,
   "bookingUrl": "https://maps.google.com/?q=16.0768733,108.2206099",
   "source": "osm"
  },
  {
   "nom": "Cents Hotel",
   "categorie": "Hôtel",
   "priceRange": "€€",
   "mapsUrl": "https://maps.google.com/?q=16.0628484,108.2306558",
   "lat": 16.0628484,
   "lng": 108.2306558,
   "halalFriendly": false,
   "bookingUrl": "https://maps.google.com/?q=16.0628484,108.2306558",
   "source": "osm"
  },
  {
   "nom": "Da Nang Petro Hotel",
   "categorie": "Hôtel",
   "priceRange": "€€",
   "mapsUrl": "https://maps.google.com/?q=16.0752564,108.2226322",
   "lat": 16.0752564,
   "lng": 108.2226322,
   "halalFriendly": false,
   "bookingUrl": "https://maps.google.com/?q=16.0752564,108.2226322",
   "source": "osm"
  },
  {
   "nom": "Euro Star",
   "categorie": "Hôtel",
   "priceRange": "€€",
   "mapsUrl": "https://maps.google.com/?q=16.0564911,108.2319668",
   "lat": 16.0564911,
   "lng": 108.2319668,
   "halalFriendly": false,
   "bookingUrl": "https://maps.google.com/?q=16.0564911,108.2319668",
   "source": "osm"
  },
  {
   "nom": "ROLL hostel & pub",
   "categorie": "Auberge",
   "priceRange": "€€",
   "mapsUrl": "https://maps.google.com/?q=16.0634265,108.2305655",
   "lat": 16.0634265,
   "lng": 108.2305655,
   "halalFriendly": false,
   "bookingUrl": "https://www.booking.com/hotel/vn/roll-hostel-n-pub.html",
   "source": "osm"
  },
  {
   "nom": "Is Lam Hotel",
   "categorie": "Appartement",
   "priceRange": "€€",
   "mapsUrl": "https://maps.google.com/?q=16.0655211,108.229982",
   "lat": 16.0655211,
   "lng": 108.229982,
   "halalFriendly": false,
   "bookingUrl": "https://maps.google.com/?q=16.0655211,108.229982",
   "source": "osm"
  },
  {
   "nom": "Mai River House",
   "categorie": "Hôtel",
   "priceRange": "€€",
   "mapsUrl": "https://maps.google.com/?q=16.0661578,108.2297041",
   "lat": 16.0661578,
   "lng": 108.2297041,
   "halalFriendly": false,
   "bookingUrl": "https://maps.google.com/?q=16.0661578,108.2297041",
   "source": "osm"
  },
  {
   "nom": "Bananaflower Homestay",
   "categorie": "Maison d'hôtes",
   "priceRange": "€€",
   "mapsUrl": "https://maps.google.com/?q=16.0784393,108.2191541",
   "lat": 16.0784393,
   "lng": 108.2191541,
   "halalFriendly": false,
   "bookingUrl": "https://maps.google.com/?q=16.0784393,108.2191541",
   "source": "osm"
  },
  {
   "nom": "Banana Homestay",
   "categorie": "Maison d'hôtes",
   "priceRange": "€€",
   "mapsUrl": "https://maps.google.com/?q=16.0784639,108.21915",
   "lat": 16.0784639,
   "lng": 108.21915,
   "halalFriendly": false,
   "bookingUrl": "https://maps.google.com/?q=16.0784639,108.21915",
   "source": "osm"
  }
 ],
 "mosqueesPrincipales": [
  {
   "id": "m12404434601",
   "nom": "Khu Văn hóa Tâm linh Đà Sơn",
   "type": "Mosquée",
   "adresse": "Đà Nẵng",
   "description": "Lieu de prière (OpenStreetMap).",
   "mapsUrl": "https://maps.google.com/?q=16.0418575,108.1477778",
   "lat": 16.0418575,
   "lng": 108.1477778,
   "source": "osm"
  },
  {
   "id": "m11359603957",
   "nom": "Nam Son Pagoda",
   "type": "Mosquée",
   "adresse": "",
   "description": "Lieu de prière (OpenStreetMap).",
   "mapsUrl": "https://maps.google.com/?q=15.9987986,108.2051036",
   "lat": 15.9987986,
   "lng": 108.2051036,
   "source": "osm"
  }
 ],
 "activites": [
  {
   "id": "a6330431498",
   "nom": "Hero Statue",
   "categorie": "artwork",
   "description": "",
   "prix": "",
   "duree": "",
   "mapsUrl": "https://maps.google.com/?q=16.0653638,108.2045114",
   "lat": 16.0653638,
   "lng": 108.2045114,
   "source": "osm"
  },
  {
   "id": "a4326118127",
   "nom": "milano cafe 233 nguyen van linh",
   "categorie": "artwork",
   "description": "",
   "prix": "",
   "duree": "",
   "mapsUrl": "https://maps.google.com/?q=16.0605495,108.2140182",
   "lat": 16.0605495,
   "lng": 108.2140182,
   "source": "osm"
  },
  {
   "id": "a10603622205",
   "nom": "Pont main",
   "categorie": "attraction",
   "description": "",
   "prix": "",
   "duree": "",
   "mapsUrl": "https://maps.google.com/?q=16.0520775,108.2156357",
   "lat": 16.0520775,
   "lng": 108.2156357,
   "source": "osm"
  },
  {
   "id": "a118691767",
   "nom": "Bảo tàng Quân khu 5",
   "categorie": "museum",
   "description": "",
   "prix": "",
   "duree": "",
   "mapsUrl": "https://maps.google.com/?q=16.0478741,108.2173603",
   "lat": 16.0478741,
   "lng": 108.2173603,
   "source": "osm"
  },
  {
   "id": "a11606548802",
   "nom": "Lady Buddha",
   "categorie": "artwork",
   "description": "",
   "prix": "",
   "duree": "",
   "mapsUrl": "https://maps.google.com/?q=16.0609832,108.2178549",
   "lat": 16.0609832,
   "lng": 108.2178549,
   "source": "osm"
  },
  {
   "id": "a303341669",
   "nom": "Bảo tàng Hồ Chí Minh",
   "categorie": "museum",
   "description": "",
   "prix": "",
   "duree": "",
   "mapsUrl": "https://maps.google.com/?q=16.0464824,108.2182471",
   "lat": 16.0464824,
   "lng": 108.2182471,
   "source": "osm"
  },
  {
   "id": "a4717753291",
   "nom": "Cát Việt Travel & Media",
   "categorie": "artwork",
   "description": "",
   "prix": "",
   "duree": "",
   "mapsUrl": "https://maps.google.com/?q=16.0580155,108.2206803",
   "lat": 16.0580155,
   "lng": 108.2206803,
   "source": "osm"
  },
  {
   "id": "a4674226290",
   "nom": "Nhà cậu Hồng",
   "categorie": "artwork",
   "description": "",
   "prix": "",
   "duree": "",
   "mapsUrl": "https://maps.google.com/?q=16.0609924,108.1846072",
   "lat": 16.0609924,
   "lng": 108.1846072,
   "source": "osm"
  },
  {
   "id": "a204790989",
   "nom": "Chợ Cồn",
   "categorie": "attraction",
   "description": "",
   "prix": "",
   "duree": "",
   "mapsUrl": "https://maps.google.com/?q=16.0681703,108.2145338",
   "lat": 16.0681703,
   "lng": 108.2145338,
   "source": "osm"
  },
  {
   "id": "a11176025737",
   "nom": "Lang Bich hoa Da Nang",
   "categorie": "attraction",
   "description": "",
   "prix": "",
   "duree": "",
   "mapsUrl": "https://maps.google.com/?q=16.0607097,108.2200254",
   "lat": 16.0607097,
   "lng": 108.2200254,
   "source": "osm"
  },
  {
   "id": "a4297498393",
   "nom": "Ngã tư Quân Đoàn",
   "categorie": "artwork",
   "description": "",
   "prix": "",
   "duree": "",
   "mapsUrl": "https://maps.google.com/?q=16.0494977,108.2223405",
   "lat": 16.0494977,
   "lng": 108.2223405,
   "source": "osm"
  },
  {
   "id": "a302872188",
   "nom": "Bảo tàng Nghệ thuật Điêu khắc Chăm Đà Nẵng",
   "categorie": "museum",
   "description": "",
   "prix": "",
   "duree": "",
   "mapsUrl": "https://maps.google.com/?q=16.0601964,108.223168",
   "lat": 16.0601964,
   "lng": 108.223168,
   "source": "osm"
  },
  {
   "id": "a11555496744",
   "nom": "Tượng Mẹ Nhu",
   "categorie": "monument",
   "description": "",
   "prix": "",
   "duree": "",
   "mapsUrl": "https://maps.google.com/?q=16.0652606,108.1833538",
   "lat": 16.0652606,
   "lng": 108.1833538,
   "source": "osm"
  },
  {
   "id": "a4294056396",
   "nom": "Bảo tàng Mỹ Thuật Đà nẵng",
   "categorie": "artwork",
   "description": "",
   "prix": "",
   "duree": "",
   "mapsUrl": "https://maps.google.com/?q=16.0712623,108.2177145",
   "lat": 16.0712623,
   "lng": 108.2177145,
   "source": "osm"
  },
  {
   "id": "a5272117924",
   "nom": "Dragon Bridge West Viewpoint",
   "categorie": "viewpoint",
   "description": "",
   "prix": "",
   "duree": "",
   "mapsUrl": "https://maps.google.com/?q=16.0616142,108.2245243",
   "lat": 16.0616142,
   "lng": 108.2245243,
   "source": "osm"
  },
  {
   "id": "a11161070774",
   "nom": "Dragon's Tail",
   "categorie": "attraction",
   "description": "",
   "prix": "",
   "duree": "",
   "mapsUrl": "https://maps.google.com/?q=16.06108,108.2248167",
   "lat": 16.06108,
   "lng": 108.2248167,
   "source": "osm"
  },
  {
   "id": "a5282058922",
   "nom": "Various Statues",
   "categorie": "artwork",
   "description": "",
   "prix": "",
   "duree": "",
   "mapsUrl": "https://maps.google.com/?q=16.0642925,108.2243232",
   "lat": 16.0642925,
   "lng": 108.2243232,
   "source": "osm"
  },
  {
   "id": "a4675903989",
   "nom": "BHXH quận Hải Châu",
   "categorie": "artwork",
   "description": "",
   "prix": "",
   "duree": "",
   "mapsUrl": "https://maps.google.com/?q=16.0700185,108.2205141",
   "lat": 16.0700185,
   "lng": 108.2205141,
   "source": "osm"
  },
  {
   "id": "a1331565206",
   "nom": "Đài Tưởng niệm Liệt sỹ thành phố Đà Nẵng",
   "categorie": "monument",
   "description": "",
   "prix": "",
   "duree": "",
   "mapsUrl": "https://maps.google.com/?q=16.0409714,108.2243231",
   "lat": 16.0409714,
   "lng": 108.2243231,
   "source": "osm"
  },
  {
   "id": "a11934169470",
   "nom": "Queen Cobra",
   "categorie": "attraction",
   "description": "",
   "prix": "",
   "duree": "",
   "mapsUrl": "https://maps.google.com/?q=16.0432987,108.22599",
   "lat": 16.0432987,
   "lng": 108.22599,
   "source": "osm"
  },
  {
   "id": "a694831926",
   "nom": "Cầu Rồng",
   "categorie": "attraction",
   "description": "",
   "prix": "",
   "duree": "",
   "mapsUrl": "https://maps.google.com/?q=16.0611683,108.2278981",
   "lat": 16.0611683,
   "lng": 108.2278981,
   "source": "osm"
  },
  {
   "id": "a4294060394",
   "nom": "cầu vượt Ngã Ba Huế",
   "categorie": "artwork",
   "description": "",
   "prix": "",
   "duree": "",
   "mapsUrl": "https://maps.google.com/?q=16.0600652,108.1761573",
   "lat": 16.0600652,
   "lng": 108.1761573,
   "source": "osm"
  },
  {
   "id": "a5276547123",
   "nom": "Cau Nguyen Van Troi Bridge",
   "categorie": "attraction",
   "description": "",
   "prix": "",
   "duree": "",
   "mapsUrl": "https://maps.google.com/?q=16.0510888,108.2292466",
   "lat": 16.0510888,
   "lng": 108.2292466,
   "source": "osm"
  },
  {
   "id": "a5273998823",
   "nom": "Cầu Trần Thị Lý",
   "categorie": "attraction",
   "description": "",
   "prix": "",
   "duree": "",
   "mapsUrl": "https://maps.google.com/?q=16.050179,108.2293814",
   "lat": 16.050179,
   "lng": 108.2293814,
   "source": "osm"
  },
  {
   "id": "a5273998830",
   "nom": "Day & Night Viewpoint",
   "categorie": "viewpoint",
   "description": "",
   "prix": "",
   "duree": "",
   "mapsUrl": "https://maps.google.com/?q=16.0577748,108.2296131",
   "lat": 16.0577748,
   "lng": 108.2296131,
   "source": "osm"
  },
  {
   "id": "a11161070775",
   "nom": "Dragon's Head (Fire Show)",
   "categorie": "attraction",
   "description": "",
   "prix": "",
   "duree": "",
   "mapsUrl": "https://maps.google.com/?q=16.0612476,108.2296554",
   "lat": 16.0612476,
   "lng": 108.2296554,
   "source": "osm"
  },
  {
   "id": "a5272119321",
   "nom": "Dragon Bridge East Viewpoint",
   "categorie": "viewpoint",
   "description": "",
   "prix": "",
   "duree": "",
   "mapsUrl": "https://maps.google.com/?q=16.0618067,108.2298562",
   "lat": 16.0618067,
   "lng": 108.2298562,
   "source": "osm"
  },
  {
   "id": "a5072875821",
   "nom": "Love Bridge",
   "categorie": "attraction",
   "description": "",
   "prix": "",
   "duree": "",
   "mapsUrl": "https://maps.google.com/?q=16.0513135,108.2309046",
   "lat": 16.0513135,
   "lng": 108.2309046,
   "source": "osm"
  },
  {
   "id": "a7301996085",
   "nom": "Chợ đêm Helio",
   "categorie": "attraction",
   "description": "",
   "prix": "",
   "duree": "",
   "mapsUrl": "https://maps.google.com/?q=16.0370944,108.2248186",
   "lat": 16.0370944,
   "lng": 108.2248186,
   "source": "osm"
  },
  {
   "id": "a5272119221",
   "nom": "Ca Chep Hoa Rong",
   "categorie": "artwork",
   "description": "",
   "prix": "",
   "duree": "",
   "mapsUrl": "https://maps.google.com/?q=16.062925,108.2298159",
   "lat": 16.062925,
   "lng": 108.2298159,
   "source": "osm"
  },
  {
   "id": "a4807957148",
   "nom": "Trung tâm Giải trí Phức hợp Helio Center",
   "categorie": "theme park",
   "description": "",
   "prix": "",
   "duree": "",
   "mapsUrl": "https://maps.google.com/?q=16.0364559,108.2246715",
   "lat": 16.0364559,
   "lng": 108.2246715,
   "source": "osm"
  },
  {
   "id": "a5272117925",
   "nom": "Fishing Boats",
   "categorie": "attraction",
   "description": "",
   "prix": "",
   "duree": "",
   "mapsUrl": "https://maps.google.com/?q=16.0661735,108.2294201",
   "lat": 16.0661735,
   "lng": 108.2294201,
   "source": "osm"
  },
  {
   "id": "a302618031",
   "nom": "Bảo tàng Đà Nẵng",
   "categorie": "museum",
   "description": "",
   "prix": "",
   "duree": "",
   "mapsUrl": "https://maps.google.com/?q=16.0763269,108.221568",
   "lat": 16.0763269,
   "lng": 108.221568,
   "source": "osm"
  },
  {
   "id": "a4294060393",
   "nom": "bến xe Đà Nẵng",
   "categorie": "artwork",
   "description": "",
   "prix": "",
   "duree": "",
   "mapsUrl": "https://maps.google.com/?q=16.0572378,108.1723285",
   "lat": 16.0572378,
   "lng": 108.1723285,
   "source": "osm"
  },
  {
   "id": "a118609193",
   "nom": "Thành Điện Hải",
   "categorie": "ruins",
   "description": "",
   "prix": "",
   "duree": "",
   "mapsUrl": "https://maps.google.com/?q=16.0763542,108.2217691",
   "lat": 16.0763542,
   "lng": 108.2217691,
   "source": "osm"
  },
  {
   "id": "a1368599361",
   "nom": "Bảo tàng Đà Nẵng",
   "categorie": "museum",
   "description": "",
   "prix": "",
   "duree": "",
   "mapsUrl": "https://maps.google.com/?q=16.0748319,108.2239805",
   "lat": 16.0748319,
   "lng": 108.2239805,
   "source": "osm"
  },
  {
   "id": "a7276380289",
   "nom": "Cầu Sông Hàn",
   "categorie": "attraction",
   "description": "",
   "prix": "",
   "duree": "",
   "mapsUrl": "https://maps.google.com/?q=16.0721398,108.2268106",
   "lat": 16.0721398,
   "lng": 108.2268106,
   "source": "osm"
  },
  {
   "id": "a5273999621",
   "nom": "Giant Egg Plants",
   "categorie": "attraction",
   "description": "",
   "prix": "",
   "duree": "",
   "mapsUrl": "https://maps.google.com/?q=16.0748758,108.2245799",
   "lat": 16.0748758,
   "lng": 108.2245799,
   "source": "osm"
  },
  {
   "id": "a5273999125",
   "nom": "River Viewpoint",
   "categorie": "viewpoint",
   "description": "",
   "prix": "",
   "duree": "",
   "mapsUrl": "https://maps.google.com/?q=16.0749403,108.2247139",
   "lat": 16.0749403,
   "lng": 108.2247139,
   "source": "osm"
  },
  {
   "id": "a5319399622",
   "nom": "Giant Lady Buddha",
   "categorie": "artwork",
   "description": "",
   "prix": "",
   "duree": "",
   "mapsUrl": "https://maps.google.com/?q=16.0657551,108.1723943",
   "lat": 16.0657551,
   "lng": 108.1723943,
   "source": "osm"
  },
  {
   "id": "a6528451001",
   "nom": "Cây đa Đò Xu",
   "categorie": "attraction",
   "description": "",
   "prix": "",
   "duree": "",
   "mapsUrl": "https://maps.google.com/?q=16.0276784,108.2218873",
   "lat": 16.0276784,
   "lng": 108.2218873,
   "source": "osm"
  },
  {
   "id": "a554812139",
   "nom": "Tượng Bồ Câu",
   "categorie": "monument",
   "description": "",
   "prix": "",
   "duree": "",
   "mapsUrl": "https://maps.google.com/?q=16.0823325,108.2231946",
   "lat": 16.0823325,
   "lng": 108.2231946,
   "source": "osm"
  },
  {
   "id": "a7095169367",
   "nom": "Art Gallery",
   "categorie": "gallery",
   "description": "",
   "prix": "",
   "duree": "",
   "mapsUrl": "https://maps.google.com/?q=16.0857203,108.2194277",
   "lat": 16.0857203,
   "lng": 108.2194277,
   "source": "osm"
  },
  {
   "id": "a5273998822",
   "nom": "Cầu Tiên Sơn",
   "categorie": "attraction",
   "description": "",
   "prix": "",
   "duree": "",
   "mapsUrl": "https://maps.google.com/?q=16.0352694,108.2352722",
   "lat": 16.0352694,
   "lng": 108.2352722,
   "source": "osm"
  },
  {
   "id": "a4294147089",
   "nom": "khách sạn Xanh - đường Hoàng văn Thái",
   "categorie": "artwork",
   "description": "",
   "prix": "",
   "duree": "",
   "mapsUrl": "https://maps.google.com/?q=16.0553852,108.1631626",
   "lat": 16.0553852,
   "lng": 108.1631626,
   "source": "osm"
  },
  {
   "id": "a4294143994",
   "nom": "chi nhánh Travel Indochina tại Đà nẵng",
   "categorie": "artwork",
   "description": "",
   "prix": "",
   "duree": "",
   "mapsUrl": "https://maps.google.com/?q=16.048629,108.2409543",
   "lat": 16.048629,
   "lng": 108.2409543,
   "source": "osm"
  },
  {
   "id": "a8260978117",
   "nom": "View of Son Tra and Asia Park",
   "categorie": "viewpoint",
   "description": "",
   "prix": "",
   "duree": "",
   "mapsUrl": "https://maps.google.com/?q=16.0266322,108.2302676",
   "lat": 16.0266322,
   "lng": 108.2302676,
   "source": "osm"
  },
  {
   "id": "a8483041852",
   "nom": "View of Quarry and Son Tra",
   "categorie": "viewpoint",
   "description": "",
   "prix": "",
   "duree": "",
   "mapsUrl": "https://maps.google.com/?q=16.0342414,108.1675414",
   "lat": 16.0342414,
   "lng": 108.1675414,
   "source": "osm"
  },
  {
   "id": "a5272119721",
   "nom": "Chu Dai Bi",
   "categorie": "artwork",
   "description": "",
   "prix": "",
   "duree": "",
   "mapsUrl": "https://maps.google.com/?q=16.0643389,108.2429817",
   "lat": 16.0643389,
   "lng": 108.2429817,
   "source": "osm"
  },
  {
   "id": "a7505801985",
   "nom": "Great Viewpoint",
   "categorie": "viewpoint",
   "description": "",
   "prix": "",
   "duree": "",
   "mapsUrl": "https://maps.google.com/?q=16.0922667,108.224322",
   "lat": 16.0922667,
   "lng": 108.224322,
   "source": "osm"
  },
  {
   "id": "a13417754301",
   "nom": "DaNang Beach",
   "categorie": "artwork",
   "description": "",
   "prix": "",
   "duree": "",
   "mapsUrl": "https://maps.google.com/?q=16.0639766,108.24639",
   "lat": 16.0639766,
   "lng": 108.24639,
   "source": "osm"
  },
  {
   "id": "a7656839986",
   "nom": "Valley Viewpoint",
   "categorie": "viewpoint",
   "description": "",
   "prix": "",
   "duree": "",
   "mapsUrl": "https://maps.google.com/?q=16.0308424,108.1638905",
   "lat": 16.0308424,
   "lng": 108.1638905,
   "source": "osm"
  },
  {
   "id": "a5273999121",
   "nom": "Cầu Thuận Phước",
   "categorie": "attraction",
   "description": "",
   "prix": "",
   "duree": "",
   "mapsUrl": "https://maps.google.com/?q=16.0948084,108.2200134",
   "lat": 16.0948084,
   "lng": 108.2200134,
   "source": "osm"
  },
  {
   "id": "a8018411485",
   "nom": "View of Da Nang",
   "categorie": "viewpoint",
   "description": "",
   "prix": "",
   "duree": "",
   "mapsUrl": "https://maps.google.com/?q=16.0279178,108.1655731",
   "lat": 16.0279178,
   "lng": 108.1655731,
   "source": "osm"
  },
  {
   "id": "a8018411385",
   "nom": "View of Da Nang",
   "categorie": "viewpoint",
   "description": "",
   "prix": "",
   "duree": "",
   "mapsUrl": "https://maps.google.com/?q=16.0282976,108.1647004",
   "lat": 16.0282976,
   "lng": 108.1647004,
   "source": "osm"
  },
  {
   "id": "a4761152563",
   "nom": "Tượng Mẹ Âu Cơ",
   "categorie": "artwork",
   "description": "",
   "prix": "",
   "duree": "",
   "mapsUrl": "https://maps.google.com/?q=16.0703195,108.2456156",
   "lat": 16.0703195,
   "lng": 108.2456156,
   "source": "osm"
  },
  {
   "id": "a4692968491",
   "nom": "Cong an My An",
   "categorie": "artwork",
   "description": "",
   "prix": "",
   "duree": "",
   "mapsUrl": "https://maps.google.com/?q=16.0426203,108.2481811",
   "lat": 16.0426203,
   "lng": 108.2481811,
   "source": "osm"
  },
  {
   "id": "a8670521333",
   "nom": "Valley and Quarry Viewpoint",
   "categorie": "viewpoint",
   "description": "",
   "prix": "",
   "duree": "",
   "mapsUrl": "https://maps.google.com/?q=16.0336845,108.1575175",
   "lat": 16.0336845,
   "lng": 108.1575175,
   "source": "osm"
  },
  {
   "id": "a1484919510",
   "nom": "Xanh Design DN Tiệm Cây và Nước",
   "categorie": "zoo",
   "description": "",
   "prix": "",
   "duree": "",
   "mapsUrl": "https://maps.google.com/?q=16.0201637,108.236873",
   "lat": 16.0201637,
   "lng": 108.236873,
   "source": "osm"
  },
  {
   "id": "a12815941401",
   "nom": "7 wonders",
   "categorie": "attraction",
   "description": "",
   "prix": "",
   "duree": "",
   "mapsUrl": "https://maps.google.com/?q=16.0988101,108.2244144",
   "lat": 16.0988101,
   "lng": 108.2244144,
   "source": "osm"
  },
  {
   "id": "a4301384195",
   "nom": "Nhà hàng sinh thái Chân Trời Góc Bể",
   "categorie": "artwork",
   "description": "",
   "prix": "",
   "duree": "",
   "mapsUrl": "https://maps.google.com/?q=16.1006744,108.2244954",
   "lat": 16.1006744,
   "lng": 108.2244954,
   "source": "osm"
  },
  {
   "id": "a13734880501",
   "nom": "Tượng Phật Phước Lý",
   "categorie": "attraction",
   "description": "",
   "prix": "",
   "duree": "",
   "mapsUrl": "https://maps.google.com/?q=16.0405625,108.1489375",
   "lat": 16.0405625,
   "lng": 108.1489375,
   "source": "osm"
  },
  {
   "id": "a4706189591",
   "nom": "To Quoc Ghi Cong",
   "categorie": "monument",
   "description": "",
   "prix": "",
   "duree": "",
   "mapsUrl": "https://maps.google.com/?q=16.023789,108.2477299",
   "lat": 16.023789,
   "lng": 108.2477299,
   "source": "osm"
  },
  {
   "id": "a5817580453",
   "nom": "Art in Paradise Da Nang 3D Museum",
   "categorie": "museum",
   "description": "",
   "prix": "",
   "duree": "",
   "mapsUrl": "https://maps.google.com/?q=16.0953807,108.2430769",
   "lat": 16.0953807,
   "lng": 108.2430769,
   "source": "osm"
  },
  {
   "id": "a8841060117",
   "nom": "Great Views of Son Tra and Da Nang Graveyard",
   "categorie": "viewpoint",
   "description": "",
   "prix": "",
   "duree": "",
   "mapsUrl": "https://maps.google.com/?q=16.0354157,108.1452889",
   "lat": 16.0354157,
   "lng": 108.1452889,
   "source": "osm"
  },
  {
   "id": "a11876463269",
   "nom": "Fishing harbor",
   "categorie": "viewpoint",
   "description": "",
   "prix": "",
   "duree": "",
   "mapsUrl": "https://maps.google.com/?q=16.1034054,108.2392611",
   "lat": 16.1034054,
   "lng": 108.2392611,
   "source": "osm"
  },
  {
   "id": "a1474583779",
   "nom": "Nhà Trưng bày Hoàng Sa",
   "categorie": "museum",
   "description": "",
   "prix": "",
   "duree": "",
   "mapsUrl": "https://maps.google.com/?q=16.0934685,108.2512057",
   "lat": 16.0934685,
   "lng": 108.2512057,
   "source": "osm"
  },
  {
   "id": "a1474610279",
   "nom": "Old Water Tower",
   "categorie": "attraction",
   "description": "",
   "prix": "",
   "duree": "",
   "mapsUrl": "https://maps.google.com/?q=16.1021807,108.2472638",
   "lat": 16.1021807,
   "lng": 108.2472638,
   "source": "osm"
  },
  {
   "id": "a8260988017",
   "nom": "View of Marble Mountain (Ngu Hanh Son)",
   "categorie": "viewpoint",
   "description": "",
   "prix": "",
   "duree": "",
   "mapsUrl": "https://maps.google.com/?q=16.0076609,108.2499612",
   "lat": 16.0076609,
   "lng": 108.2499612,
   "source": "osm"
  },
  {
   "id": "a4294143690",
   "nom": "đèo Đại La - xã Hòa Sơn",
   "categorie": "artwork",
   "description": "",
   "prix": "",
   "duree": "",
   "mapsUrl": "https://maps.google.com/?q=16.042982,108.1348727",
   "lat": 16.042982,
   "lng": 108.1348727,
   "source": "osm"
  },
  {
   "id": "a8848902317",
   "nom": "Great Panorama of Hoa Phat, Ba Na Hills, Hai Van and Da Nang Bay (no view - overgrown)",
   "categorie": "viewpoint",
   "description": "",
   "prix": "",
   "duree": "",
   "mapsUrl": "https://maps.google.com/?q=16.0319732,108.137228",
   "lat": 16.0319732,
   "lng": 108.137228,
   "source": "osm"
  },
  {
   "id": "a4172034499",
   "nom": "Non Nuoc Beach",
   "categorie": "attraction",
   "description": "",
   "prix": "",
   "duree": "",
   "mapsUrl": "https://maps.google.com/?q=16.0205336,108.261744",
   "lat": 16.0205336,
   "lng": 108.261744,
   "source": "osm"
  },
  {
   "id": "a8348252918",
   "nom": "View of Hai Van Mountains and Son Tra",
   "categorie": "viewpoint",
   "description": "",
   "prix": "",
   "duree": "",
   "mapsUrl": "https://maps.google.com/?q=16.0636169,108.1331034",
   "lat": 16.0636169,
   "lng": 108.1331034,
   "source": "osm"
  },
  {
   "id": "a8348252917",
   "nom": "View of Da Nang Bay and Son Tra",
   "categorie": "viewpoint",
   "description": "",
   "prix": "",
   "duree": "",
   "mapsUrl": "https://maps.google.com/?q=16.06347,108.1315558",
   "lat": 16.06347,
   "lng": 108.1315558,
   "source": "osm"
  },
  {
   "id": "a6512888885",
   "nom": "Cementerio militar franco-español de Y Pha Nho",
   "categorie": "memorial",
   "description": "",
   "prix": "",
   "duree": "",
   "mapsUrl": "https://maps.google.com/?q=16.1223304,108.2200384",
   "lat": 16.1223304,
   "lng": 108.2200384,
   "source": "osm"
  },
  {
   "id": "a10709738005",
   "nom": "Làng chiếu Cẩm Nê",
   "categorie": "attraction",
   "description": "",
   "prix": "",
   "duree": "",
   "mapsUrl": "https://maps.google.com/?q=15.9867322,108.1772823",
   "lat": 15.9867322,
   "lng": 108.1772823,
   "source": "osm"
  },
  {
   "id": "a4924323121",
   "nom": "Fishing Village and Fleet",
   "categorie": "attraction",
   "description": "",
   "prix": "",
   "duree": "",
   "mapsUrl": "https://maps.google.com/?q=16.1017543,108.2589632",
   "lat": 16.1017543,
   "lng": 108.2589632,
   "source": "osm"
  },
  {
   "id": "a12701646101",
   "nom": "Son Tra view",
   "categorie": "viewpoint",
   "description": "",
   "prix": "",
   "duree": "",
   "mapsUrl": "https://maps.google.com/?q=16.109214,108.2517721",
   "lat": 16.109214,
   "lng": 108.2517721,
   "source": "osm"
  },
  {
   "id": "a5281444722",
   "nom": "Basket Boats",
   "categorie": "attraction",
   "description": "",
   "prix": "",
   "duree": "",
   "mapsUrl": "https://maps.google.com/?q=16.1020467,108.2602185",
   "lat": 16.1020467,
   "lng": 108.2602185,
   "source": "osm"
  },
  {
   "id": "a8474743417",
   "nom": "Bảo tàng Phật giáo",
   "categorie": "museum",
   "description": "",
   "prix": "",
   "duree": "",
   "mapsUrl": "https://maps.google.com/?q=15.9994308,108.2545831",
   "lat": 15.9994308,
   "lng": 108.2545831,
   "source": "osm"
  },
  {
   "id": "a13525483883",
   "nom": "Dragon",
   "categorie": "artwork",
   "description": "",
   "prix": "",
   "duree": "",
   "mapsUrl": "https://maps.google.com/?q=15.9985903,108.2542991",
   "lat": 15.9985903,
   "lng": 108.2542991,
   "source": "osm"
  },
  {
   "id": "a11171035936",
   "nom": "Buddha",
   "categorie": "artwork",
   "description": "",
   "prix": "",
   "duree": "",
   "mapsUrl": "https://maps.google.com/?q=16.0043207,108.2622067",
   "lat": 16.0043207,
   "lng": 108.2622067,
   "source": "osm"
  },
  {
   "id": "a13525483886",
   "nom": "Buddha",
   "categorie": "artwork",
   "description": "",
   "prix": "",
   "duree": "",
   "mapsUrl": "https://maps.google.com/?q=16.0043147,108.2622574",
   "lat": 16.0043147,
   "lng": 108.2622574,
   "source": "osm"
  },
  {
   "id": "a1758586662",
   "nom": "Thuỷ Sơn",
   "categorie": "attraction",
   "description": "",
   "prix": "",
   "duree": "",
   "mapsUrl": "https://maps.google.com/?q=16.0043044,108.263527",
   "lat": 16.0043044,
   "lng": 108.263527,
   "source": "osm"
  },
  {
   "id": "a13525483833",
   "nom": "Hard to climb",
   "categorie": "viewpoint",
   "description": "",
   "prix": "",
   "duree": "",
   "mapsUrl": "https://maps.google.com/?q=16.0039418,108.2633507",
   "lat": 16.0039418,
   "lng": 108.2633507,
   "source": "osm"
  },
  {
   "id": "a12424938201",
   "nom": "Buddha",
   "categorie": "artwork",
   "description": "",
   "prix": "",
   "duree": "",
   "mapsUrl": "https://maps.google.com/?q=16.0044679,108.2639436",
   "lat": 16.0044679,
   "lng": 108.2639436,
   "source": "osm"
  },
  {
   "id": "a11171038441",
   "nom": "Buddha",
   "categorie": "artwork",
   "description": "",
   "prix": "",
   "duree": "",
   "mapsUrl": "https://maps.google.com/?q=16.004402,108.2638971",
   "lat": 16.004402,
   "lng": 108.2638971,
   "source": "osm"
  },
  {
   "id": "a5922491536",
   "nom": "Buddha",
   "categorie": "artwork",
   "description": "",
   "prix": "",
   "duree": "",
   "mapsUrl": "https://maps.google.com/?q=16.0043609,108.2645787",
   "lat": 16.0043609,
   "lng": 108.2645787,
   "source": "osm"
  },
  {
   "id": "a12701675501",
   "nom": "Small waterfall",
   "categorie": "viewpoint",
   "description": "",
   "prix": "",
   "duree": "",
   "mapsUrl": "https://maps.google.com/?q=16.1145234,108.2556163",
   "lat": 16.1145234,
   "lng": 108.2556163,
   "source": "osm"
  },
  {
   "id": "a12622064034",
   "nom": "Marble Mountains Museum",
   "categorie": "museum",
   "description": "",
   "prix": "",
   "duree": "",
   "mapsUrl": "https://maps.google.com/?q=16.003907,108.2660314",
   "lat": 16.003907,
   "lng": 108.2660314,
   "source": "osm"
  }
 ],
 "villeNonMusulmane": true,
 "osmEnriched": true,
 "osmEnrichedAt": "2026-06-30"
}