{
  "nom": "Dearborn",
  "pays": "États-Unis",
  "slug": "dearborn",
  "image": "https://images.unsplash.com/photo-1606857521015-7f9fcf423740?w=1400&q=85",
  "image_hero": "https://images.unsplash.com/photo-1606857521015-7f9fcf423740?w=1400&q=85",
  "description": "Dearborn, capitale arabo-américaine près de Détroit, abrite la plus forte concentration de musulmans des États-Unis. Restaurants libanais, yéménites et la grande mosquée d'Amérique.",
  "descriptionLongue": "Berceau de Ford et cœur de la communauté arabo-américaine, Dearborn (banlieue de Détroit) possède l'une des plus fortes proportions de musulmans des États-Unis. Warren Avenue aligne restaurants libanais, yéménites et irakiens, boulangeries et pâtisseries orientales. L'Islamic Center of America, plus grande mosquée du pays, et le musée national arabo-américain en font une enclave halal unique en Occident, où l'appel à la prière résonne en plein Midwest.",
  "halalScore": 8.8,
  "score_halal": 4.4,
  "mosquees": 40,
  "population": "110 000",
  "langue": "Anglais, Arabe",
  "monnaie": "Dollar US (USD)",
  "fuseau": "UTC-5",
  "meilleureEpoque": "Mai à Octobre",
  "prixMoyenNuit": "120€",
  "continent": "Amérique du Nord",
  "codeISO": "US",
  "pays_slug": "etats-unis",
  "region": "Michigan",
  "meta_title": "Voyage Halal à Dearborn — Guide Complet 2026",
  "meta_description": "Restaurants halal certifiés, mosquées et guide pratique pour Dearborn — Halal Trust Score 8.8/10.",
  "metaDescription": "Restaurants halal certifiés, mosquées et guide pratique pour Dearborn — Halal Trust Score 8.8/10.",
  "coordonnees": {
    "lat": 42.3223,
    "lng": -83.1763
  },
  "image_alt": "Vue de Dearborn, États-Unis",
  "statistiques": {
    "mosquees": 40,
    "restaurants_halal": 750,
    "habitants_musulmans_pct": 45,
    "hotels": 31
  },
  "infos_pratiques": {
    "langue": "Anglais, Arabe",
    "monnaie": "Dollar US (USD)",
    "meilleure_periode": "Mai à Octobre",
    "appel_priere": "5 fois par jour",
    "nourriture_halal": "Largement disponible",
    "alcool": "Disponible",
    "securite": "Précautions habituelles"
  },
  "infoPratique": {
    "visa": "ESTA obligatoire pour les Français",
    "vaccins": "Aucun obligatoire",
    "transport": "Voiture recommandée, VTC",
    "priseElectrique": "Type A/B — 120V",
    "decalageHoraire": "-6h par rapport à Paris"
  },
  "restaurants": [
    {
      "nom": "Al Ameer",
      "type": "Traditionnel local",
      "certificationHalal": true,
      "score": 4.4,
      "adresse": "Warren Avenue",
      "description": "Restaurant libanais primé (James Beard)",
      "mapsUrl": "https://maps.google.com/?q=Al+Ameer+Dearborn",
      "priceRange": "€€",
      "specialite": "Cuisine libanaise",
      "id": "r1",
      "lat": 42.343713,
      "lng": -83.192509,
      "geocoded": true
    },
    {
      "nom": "Hamido Restaurant",
      "type": "Traditionnel local",
      "certificationHalal": true,
      "score": 4.4,
      "adresse": "Dix Road",
      "description": "Mezzés et grillades libanaises",
      "mapsUrl": "https://maps.google.com/?q=Hamido+Restaurant+Dearborn",
      "priceRange": "€€",
      "specialite": "Cuisine libanaise",
      "id": "r2",
      "lat": 42.2993276,
      "lng": -83.1494665,
      "geocoded": true
    },
    {
      "nom": "Sheeba Restaurant",
      "type": "Traditionnel local",
      "certificationHalal": true,
      "score": 4.4,
      "adresse": "Centre",
      "description": "Cuisine yéménite réputée (mandi, fahsa)",
      "mapsUrl": "https://maps.google.com/?q=Sheeba+Restaurant+Dearborn",
      "priceRange": "€€",
      "specialite": "Cuisine yéménite",
      "id": "r3",
      "lat": 42.3236341,
      "lng": -83.2058854,
      "geocoded": true
    },
    {
      "nom": "Shatila Bakery",
      "type": "Pâtisserie & Café",
      "certificationHalal": true,
      "score": 4.4,
      "adresse": "Warren Avenue",
      "description": "Légendaire pâtisserie arabe et baklava",
      "mapsUrl": "https://maps.google.com/?q=Shatila+Bakery+Dearborn",
      "priceRange": "€",
      "specialite": "Pâtisseries orientales",
      "id": "r4",
      "lat": 42.343713,
      "lng": -83.192509,
      "geocoded": true
    },
    {
      "nom": "Yemen Cafe",
      "type": "Traditionnel local",
      "certificationHalal": true,
      "score": 4.4,
      "adresse": "Centre",
      "description": "Riz et agneau yéménites",
      "mapsUrl": "https://maps.google.com/?q=Yemen+Cafe+Dearborn",
      "priceRange": "€",
      "specialite": "Mandi",
      "id": "r5",
      "lat": 42.3236341,
      "lng": -83.2058854,
      "geocoded": true
    },
    {
      "nom": "Al Madina Dearborn",
      "type": "Traditionnel local",
      "certificationHalal": true,
      "score": 4.2,
      "adresse": "Dearborn",
      "description": "Adresse halal appréciée des habitants de Dearborn.",
      "mapsUrl": "https://maps.google.com/?q=Al+Madina+Dearborn+Dearborn",
      "priceRange": "€€",
      "specialite": "Plat du jour maison",
      "id": "r6",
      "lat": 42.3070364,
      "lng": -83.23521,
      "geocoded": true
    },
    {
      "nom": "Shawarma House Dearborn",
      "type": "Grillades & Kebab",
      "certificationHalal": true,
      "score": 4.3,
      "adresse": "Dearborn",
      "description": "Adresse halal appréciée des habitants de Dearborn.",
      "mapsUrl": "https://maps.google.com/?q=Shawarma+House+Dearborn+Dearborn",
      "priceRange": "€",
      "specialite": "Shawarma poulet",
      "id": "r7",
      "lat": 42.3070364,
      "lng": -83.23521,
      "geocoded": true
    },
    {
      "nom": "Beit Beirut Dearborn",
      "type": "Libanais & Levant",
      "certificationHalal": true,
      "score": 4.4,
      "adresse": "Dearborn",
      "description": "Adresse halal appréciée des habitants de Dearborn.",
      "mapsUrl": "https://maps.google.com/?q=Beit+Beirut+Dearborn+Dearborn",
      "priceRange": "€€",
      "specialite": "Mezze libanais",
      "id": "r8",
      "lat": 42.3070364,
      "lng": -83.23521,
      "geocoded": true
    },
    {
      "nom": "Spice Route Dearborn",
      "type": "Indien & Pakistani",
      "certificationHalal": true,
      "score": 4.5,
      "adresse": "Dearborn",
      "description": "Adresse halal appréciée des habitants de Dearborn.",
      "mapsUrl": "https://maps.google.com/?q=Spice+Route+Dearborn+Dearborn",
      "priceRange": "€€",
      "specialite": "Biryani",
      "id": "r9",
      "lat": 42.3070364,
      "lng": -83.23521,
      "geocoded": true
    },
    {
      "nom": "Saffron Garden Dearborn",
      "type": "Gastronomique",
      "certificationHalal": true,
      "score": 4.6000000000000005,
      "adresse": "Dearborn",
      "description": "Adresse halal appréciée des habitants de Dearborn.",
      "mapsUrl": "https://maps.google.com/?q=Saffron+Garden+Dearborn+Dearborn",
      "priceRange": "€€€",
      "specialite": "Menu dégustation halal",
      "id": "r10",
      "lat": 42.3070364,
      "lng": -83.23521,
      "geocoded": true
    },
    {
      "nom": "Green Bowl Dearborn",
      "type": "Végétarien & Healthy",
      "certificationHalal": true,
      "score": 4.2,
      "adresse": "Dearborn",
      "description": "Adresse halal appréciée des habitants de Dearborn.",
      "mapsUrl": "https://maps.google.com/?q=Green+Bowl+Dearborn+Dearborn",
      "priceRange": "€",
      "specialite": "Bowl méditerranéen",
      "id": "r11",
      "lat": 42.3070364,
      "lng": -83.23521,
      "geocoded": true
    },
    {
      "nom": "Sultan Café Dearborn",
      "type": "Pâtisserie & Café",
      "certificationHalal": true,
      "score": 4.3,
      "adresse": "Dearborn",
      "description": "Adresse halal appréciée des habitants de Dearborn.",
      "mapsUrl": "https://maps.google.com/?q=Sultan+Caf%C3%A9+Dearborn+Dearborn",
      "priceRange": "€",
      "specialite": "Café arabe et baklava",
      "id": "r12",
      "lat": 42.3070364,
      "lng": -83.23521,
      "geocoded": true
    },
    {
      "nom": "Ocean Pearl Dearborn",
      "type": "Fruits de mer",
      "certificationHalal": true,
      "score": 4.4,
      "adresse": "Dearborn",
      "description": "Adresse halal appréciée des habitants de Dearborn.",
      "mapsUrl": "https://maps.google.com/?q=Ocean+Pearl+Dearborn+Dearborn",
      "priceRange": "€€€",
      "specialite": "Poisson grillé du jour",
      "id": "r13",
      "lat": 42.3070364,
      "lng": -83.23521,
      "geocoded": true
    },
    {
      "nom": "Bella Halal Dearborn",
      "type": "Pizza & Italien",
      "certificationHalal": true,
      "score": 4.5,
      "adresse": "Dearborn",
      "description": "Adresse halal appréciée des habitants de Dearborn.",
      "mapsUrl": "https://maps.google.com/?q=Bella+Halal+Dearborn+Dearborn",
      "priceRange": "€€",
      "specialite": "Pizza halal au four à bois",
      "id": "r14",
      "lat": 42.3070364,
      "lng": -83.23521,
      "geocoded": true
    },
    {
      "nom": "Tokyo Halal Dearborn",
      "type": "Japonais & Asiatique",
      "certificationHalal": true,
      "score": 4.6000000000000005,
      "adresse": "Dearborn",
      "description": "Adresse halal appréciée des habitants de Dearborn.",
      "mapsUrl": "https://maps.google.com/?q=Tokyo+Halal+Dearborn+Dearborn",
      "priceRange": "€€€",
      "specialite": "Sushis certifiés halal",
      "id": "r15",
      "lat": 42.3070364,
      "lng": -83.23521,
      "geocoded": true
    },
    {
      "nom": "La-Shish",
      "lat": 42.324245,
      "lng": -83.169424,
      "type": "kebab, middle eastern",
      "halalConfidence": "likely",
      "mapsUrl": "https://maps.google.com/?q=42.324245,-83.169424",
      "source": "osm"
    },
    {
      "nom": "Kabab Arbeel",
      "lat": 42.3329852,
      "lng": -83.1766869,
      "type": "arab",
      "halalConfidence": "likely",
      "mapsUrl": "https://maps.google.com/?q=42.3329852,-83.1766869",
      "source": "osm"
    },
    {
      "nom": "Al Chabab Restaurant",
      "lat": 42.3443426,
      "lng": -83.1704762,
      "type": "arab",
      "halalConfidence": "likely",
      "mapsUrl": "https://maps.google.com/?q=42.3443426,-83.1704762",
      "source": "osm"
    },
    {
      "nom": "Hawilo Grill",
      "lat": 42.339437,
      "lng": -83.1964353,
      "type": "burger, mediterranean",
      "halalConfidence": "high",
      "mapsUrl": "https://maps.google.com/?q=42.339437,-83.1964353",
      "source": "osm"
    },
    {
      "nom": "Azal Cofee",
      "lat": 42.3439798,
      "lng": -83.1911578,
      "type": "arab, coffee shop",
      "halalConfidence": "likely",
      "mapsUrl": "https://maps.google.com/?q=42.3439798,-83.1911578",
      "source": "osm"
    },
    {
      "nom": "Shish Kabob",
      "lat": 42.2832773,
      "lng": -83.2050606,
      "type": "kebab",
      "halalConfidence": "likely",
      "mapsUrl": "https://maps.google.com/?q=42.2832773,-83.2050606",
      "source": "osm"
    },
    {
      "nom": "Leo's Coney Island",
      "lat": 42.2787744,
      "lng": -83.2100471,
      "type": "greek, american, kebab",
      "halalConfidence": "likely",
      "mapsUrl": "https://maps.google.com/?q=42.2787744,-83.2100471",
      "source": "osm"
    },
    {
      "nom": "Turkish Village",
      "lat": 42.3062255,
      "lng": -83.2433008,
      "type": "turkish",
      "halalConfidence": "likely",
      "mapsUrl": "https://maps.google.com/?q=42.3062255,-83.2433008",
      "source": "osm"
    },
    {
      "nom": "Paradise Biryani Pone",
      "lat": 42.3058591,
      "lng": -83.2447749,
      "type": "south indian",
      "halalConfidence": "high",
      "mapsUrl": "https://maps.google.com/?q=42.3058591,-83.2447749",
      "source": "osm"
    },
    {
      "nom": "Galata Turkish Sweets",
      "lat": 42.3052103,
      "lng": -83.2456425,
      "type": "turkish",
      "halalConfidence": "likely",
      "mapsUrl": "https://maps.google.com/?q=42.3052103,-83.2456425",
      "source": "osm"
    },
    {
      "nom": "The Himalayan Flames",
      "lat": 42.305154,
      "lng": -83.2492854,
      "type": "indian",
      "halalConfidence": "likely",
      "mapsUrl": "https://maps.google.com/?q=42.305154,-83.2492854",
      "source": "osm"
    },
    {
      "nom": "Mahjara Grille",
      "lat": 42.3039395,
      "lng": -83.251803,
      "type": "indian",
      "halalConfidence": "likely",
      "mapsUrl": "https://maps.google.com/?q=42.3039395,-83.251803",
      "source": "osm"
    },
    {
      "nom": "The Butcher’s Grille",
      "lat": 42.3033476,
      "lng": -83.2557353,
      "type": "burger, kebab, regional",
      "halalConfidence": "high",
      "mapsUrl": "https://maps.google.com/?q=42.3033476,-83.2557353",
      "source": "osm"
    },
    {
      "nom": "Savvy Sliders (Coming Soon)",
      "lat": 42.2996287,
      "lng": -83.2705292,
      "type": "burger",
      "halalConfidence": "high",
      "mapsUrl": "https://maps.google.com/?q=42.2996287,-83.2705292",
      "source": "osm"
    },
    {
      "nom": "Pink Garlic",
      "lat": 42.2563497,
      "lng": -83.2256931,
      "type": "indian",
      "halalConfidence": "likely",
      "mapsUrl": "https://maps.google.com/?q=42.2563497,-83.2256931",
      "source": "osm"
    },
    {
      "nom": "Grill Genius",
      "lat": 42.305479,
      "lng": -83.0612629,
      "type": "arab",
      "halalConfidence": "likely",
      "mapsUrl": "https://maps.google.com/?q=42.305479,-83.0612629",
      "source": "osm"
    },
    {
      "nom": "Dearborn Pizza",
      "lat": 42.326817,
      "lng": -83.2940497,
      "type": "pizza",
      "halalConfidence": "high",
      "mapsUrl": "https://maps.google.com/?q=42.326817,-83.2940497",
      "source": "osm"
    },
    {
      "nom": "Royale with Cheese",
      "lat": 42.3502903,
      "lng": -83.0635982,
      "type": "burger",
      "halalConfidence": "high",
      "mapsUrl": "https://maps.google.com/?q=42.3502903,-83.0635982",
      "source": "osm"
    },
    {
      "nom": "Charminar Biriyani House",
      "lat": 42.3559664,
      "lng": -83.0661067,
      "type": "indian",
      "halalConfidence": "likely",
      "mapsUrl": "https://maps.google.com/?q=42.3559664,-83.0661067",
      "source": "osm"
    }
  ],
  "hotels": [
    {
      "nom": "The Dearborn Inn",
      "categorie": "Standard",
      "score": 4.5,
      "adresse": "Dearborn",
      "description": "Hôtel historique fondé par Henry Ford",
      "halalFriendly": true,
      "sansAlcool": false,
      "mapsUrl": "https://maps.google.com/?q=The+Dearborn+Inn+Dearborn",
      "bookingUrl": "https://www.booking.com/searchresults.fr.html?ss=Dearborn&label=voyageshalal",
      "halalBookingUrl": "https://www.halalbooking.com/search?city=dearborn",
      "priceRange": "€€€",
      "id": "h2",
      "lat": 42.3340274,
      "lng": -83.2142435
    },
    {
      "nom": "Americas Best Value",
      "categorie": "Hôtel",
      "priceRange": "€€",
      "mapsUrl": "https://maps.google.com/?q=42.3226763,-83.1723037",
      "lat": 42.3226763,
      "lng": -83.1723037,
      "halalFriendly": false,
      "bookingUrl": "https://maps.google.com/?q=42.3226763,-83.1723037",
      "source": "osm"
    },
    {
      "nom": "TownePlace Suites Detroit Dearborn",
      "categorie": "Hôtel",
      "priceRange": "€€",
      "mapsUrl": "https://maps.google.com/?q=42.3334274,-83.2129178",
      "lat": 42.3334274,
      "lng": -83.2129178,
      "halalFriendly": false,
      "bookingUrl": "https://www.marriott.com/dtwtd",
      "source": "osm"
    },
    {
      "nom": "Residence Inn Detroit Dearborn",
      "categorie": "Hôtel",
      "priceRange": "€€",
      "mapsUrl": "https://maps.google.com/?q=42.3340338,-83.2143677",
      "lat": 42.3340338,
      "lng": -83.2143677,
      "halalFriendly": false,
      "bookingUrl": "https://maps.google.com/?q=42.3340338,-83.2143677",
      "source": "osm"
    },
    {
      "nom": "SpringHill Suites Detroit Dearborn",
      "categorie": "Hôtel",
      "priceRange": "€€",
      "mapsUrl": "https://maps.google.com/?q=42.3347514,-83.2143595",
      "lat": 42.3347514,
      "lng": -83.2143595,
      "halalFriendly": false,
      "bookingUrl": "https://www.marriott.com/dttsd",
      "source": "osm"
    },
    {
      "nom": "Holiday Inn Express & Suites",
      "categorie": "Hôtel",
      "priceRange": "€€",
      "mapsUrl": "https://maps.google.com/?q=42.3353436,-83.2144388",
      "lat": 42.3353436,
      "lng": -83.2144388,
      "halalFriendly": false,
      "bookingUrl": "https://maps.google.com/?q=42.3353436,-83.2144388",
      "source": "osm"
    },
    {
      "nom": "Doubletree by Hilton Hotel Detroit-Dearborn",
      "categorie": "Hôtel",
      "priceRange": "€€",
      "mapsUrl": "https://maps.google.com/?q=42.3313504,-83.2176006",
      "lat": 42.3313504,
      "lng": -83.2176006,
      "halalFriendly": false,
      "bookingUrl": "https://www.hilton.com/en/hotels/dttdbdt-doubletree-detroit-dearborn/",
      "source": "osm"
    },
    {
      "nom": "Extended Stay America",
      "categorie": "Hôtel",
      "priceRange": "€€",
      "mapsUrl": "https://maps.google.com/?q=42.3207599,-83.2219465",
      "lat": 42.3207599,
      "lng": -83.2219465,
      "halalFriendly": false,
      "bookingUrl": "https://maps.google.com/?q=42.3207599,-83.2219465",
      "source": "osm"
    },
    {
      "nom": "WoodSpring Suites Dearborn - Detroit",
      "categorie": "Hôtel",
      "priceRange": "€€",
      "mapsUrl": "https://maps.google.com/?q=42.3208571,-83.2230646",
      "lat": 42.3208571,
      "lng": -83.2230646,
      "halalFriendly": false,
      "bookingUrl": "https://www.woodspring.com/extended-stay-hotels/locations/michigan/dearborn/woodspring-suites-dearborn-detroit",
      "source": "osm"
    },
    {
      "nom": "Best Western",
      "categorie": "Hôtel",
      "priceRange": "€€",
      "mapsUrl": "https://maps.google.com/?q=42.2823545,-83.1963126",
      "lat": 42.2823545,
      "lng": -83.1963126,
      "halalFriendly": false,
      "bookingUrl": "https://www.bestwestern.com/en_US/book/hotels-in-allen-park/best-western-greenfield-inn/propertyCode.23089.html",
      "source": "osm"
    },
    {
      "nom": "Comfort Inn Dearborn",
      "categorie": "Hôtel",
      "priceRange": "€€",
      "mapsUrl": "https://maps.google.com/?q=42.3075762,-83.2319331",
      "lat": 42.3075762,
      "lng": -83.2319331,
      "halalFriendly": false,
      "bookingUrl": "https://www.choicehotels.com/ontario/windsor/quality-inn-hotels",
      "source": "osm"
    },
    {
      "nom": "Comfort Inn & Suites Allen Park - Dearborn",
      "categorie": "Hôtel",
      "priceRange": "€€",
      "mapsUrl": "https://maps.google.com/?q=42.2806422,-83.197554",
      "lat": 42.2806422,
      "lng": -83.197554,
      "halalFriendly": false,
      "bookingUrl": "https://www.choicehotels.com/ontario/windsor/quality-inn-hotels",
      "source": "osm"
    },
    {
      "nom": "Dearborn Inn, Autograph Collection",
      "categorie": "Hôtel",
      "priceRange": "€€",
      "mapsUrl": "https://maps.google.com/?q=42.2968092,-83.2279804",
      "lat": 42.2968092,
      "lng": -83.2279804,
      "halalFriendly": false,
      "bookingUrl": "https://www.marriott.com/en-us/hotels/dtwdk-dearborn-inn-autograph-collection/overview/",
      "source": "osm"
    },
    {
      "nom": "Hampton",
      "categorie": "Hôtel",
      "priceRange": "€€",
      "mapsUrl": "https://maps.google.com/?q=42.304986,-83.2502778",
      "lat": 42.304986,
      "lng": -83.2502778,
      "halalFriendly": false,
      "bookingUrl": "https://www.hilton.com/en/hotels/dttmahx-hampton-detroit-dearborn/",
      "source": "osm"
    },
    {
      "nom": "Hotel Yorba",
      "categorie": "Hôtel",
      "priceRange": "€€",
      "mapsUrl": "https://maps.google.com/?q=42.3159686,-83.0882551",
      "lat": 42.3159686,
      "lng": -83.0882551,
      "halalFriendly": false,
      "bookingUrl": "https://maps.google.com/?q=42.3159686,-83.0882551",
      "source": "osm"
    },
    {
      "nom": "Holiday Inn Express",
      "categorie": "Hôtel",
      "priceRange": "€€",
      "mapsUrl": "https://maps.google.com/?q=42.2627045,-83.2131179",
      "lat": 42.2627045,
      "lng": -83.2131179,
      "halalFriendly": false,
      "bookingUrl": "https://maps.google.com/?q=42.2627045,-83.2131179",
      "source": "osm"
    },
    {
      "nom": "TownePlace Suites Detroit Allen Park",
      "categorie": "Hôtel",
      "priceRange": "€€",
      "mapsUrl": "https://maps.google.com/?q=42.2646964,-83.2185212",
      "lat": 42.2646964,
      "lng": -83.2185212,
      "halalFriendly": false,
      "bookingUrl": "https://www.marriott.com/dttra",
      "source": "osm"
    },
    {
      "nom": "The Leo Collection",
      "categorie": "Hôtel",
      "priceRange": "€€",
      "mapsUrl": "https://maps.google.com/?q=42.2543241,-83.1859518",
      "lat": 42.2543241,
      "lng": -83.1859518,
      "halalFriendly": false,
      "bookingUrl": "https://maps.google.com/?q=42.2543241,-83.1859518",
      "source": "osm"
    },
    {
      "nom": "Red Roof Inn",
      "categorie": "Hôtel",
      "priceRange": "€€",
      "mapsUrl": "https://maps.google.com/?q=42.3002189,-83.2733158",
      "lat": 42.3002189,
      "lng": -83.2733158,
      "halalFriendly": false,
      "bookingUrl": "https://maps.google.com/?q=42.3002189,-83.2733158",
      "source": "osm"
    },
    {
      "nom": "Staybridge Suites",
      "categorie": "Hôtel",
      "priceRange": "€€",
      "mapsUrl": "https://maps.google.com/?q=42.2981743,-83.2726614",
      "lat": 42.2981743,
      "lng": -83.2726614,
      "halalFriendly": false,
      "bookingUrl": "https://www.ihg.com/staybridge/hotels/us/en/dearborn/dttjj/hoteldetail",
      "source": "osm"
    },
    {
      "nom": "Hostel Detroit",
      "categorie": "Auberge",
      "priceRange": "€€",
      "mapsUrl": "https://maps.google.com/?q=42.335065,-83.0752287",
      "lat": 42.335065,
      "lng": -83.0752287,
      "halalFriendly": false,
      "bookingUrl": "https://www.hosteldetroit.com/",
      "source": "osm"
    },
    {
      "nom": "Country Inn & Suites",
      "categorie": "Hôtel",
      "priceRange": "€€",
      "mapsUrl": "https://maps.google.com/?q=42.2977035,-83.2765117",
      "lat": 42.2977035,
      "lng": -83.2765117,
      "halalFriendly": false,
      "bookingUrl": "https://www.radissonhotels.com/en-us/hotels/country-inn-dearborn-mi",
      "source": "osm"
    },
    {
      "nom": "Motor City Casino Hotel",
      "categorie": "Hôtel",
      "priceRange": "€€",
      "mapsUrl": "https://maps.google.com/?q=42.3383807,-83.0684982",
      "lat": 42.3383807,
      "lng": -83.0684982,
      "halalFriendly": false,
      "bookingUrl": "https://maps.google.com/?q=42.3383807,-83.0684982",
      "source": "osm"
    },
    {
      "nom": "The Henry, Autograph Collection",
      "categorie": "Luxe",
      "score": 4.5,
      "adresse": "Dearborn",
      "description": "Hôtel d'art haut de gamme",
      "halalFriendly": true,
      "sansAlcool": false,
      "mapsUrl": "https://maps.google.com/?q=The+Henry%2C+Autograph+Collection+Dearborn",
      "bookingUrl": "https://www.booking.com/searchresults.fr.html?ss=Dearborn&label=voyageshalal",
      "halalBookingUrl": "https://www.halalbooking.com/search?city=dearborn",
      "priceRange": "€€€",
      "id": "h1"
    },
    {
      "nom": "Hampton Inn Detroit-Dearborn",
      "categorie": "Standard",
      "score": 4.5,
      "adresse": "Dearborn",
      "description": "Hôtel confortable proche du centre",
      "halalFriendly": true,
      "sansAlcool": true,
      "mapsUrl": "https://maps.google.com/?q=Hampton+Inn+Detroit-Dearborn+Dearborn",
      "bookingUrl": "https://www.booking.com/searchresults.fr.html?ss=Dearborn&label=voyageshalal",
      "halalBookingUrl": "https://www.halalbooking.com/search?city=dearborn",
      "priceRange": "€€",
      "id": "h3"
    },
    {
      "nom": "Grand Plaza Dearborn",
      "categorie": "Luxe",
      "score": 4.2,
      "adresse": "Dearborn",
      "description": "Hôtel 5 étoiles central, cuisine halal et spa.",
      "halalFriendly": true,
      "sansAlcool": false,
      "mapsUrl": "https://maps.google.com/?q=Grand+Plaza+Dearborn+Dearborn",
      "bookingUrl": "https://www.booking.com/searchresults.fr.html?ss=Dearborn&label=voyageshalal",
      "halalBookingUrl": "https://www.halalbooking.com/search?city=dearborn",
      "priceRange": "€€€€",
      "id": "h4"
    },
    {
      "nom": "City Comfort Hotel Dearborn",
      "categorie": "Standard",
      "score": 4.3,
      "adresse": "Dearborn",
      "description": "Confortable et bien situé, petit-déjeuner halal.",
      "halalFriendly": true,
      "sansAlcool": false,
      "mapsUrl": "https://maps.google.com/?q=City+Comfort+Hotel+Dearborn+Dearborn",
      "bookingUrl": "https://www.booking.com/searchresults.fr.html?ss=Dearborn&label=voyageshalal",
      "halalBookingUrl": "https://www.halalbooking.com/search?city=dearborn",
      "priceRange": "€€€",
      "id": "h5"
    },
    {
      "nom": "Boutique Riad Dearborn",
      "categorie": "Riad & Boutique",
      "score": 4.4,
      "adresse": "Dearborn",
      "description": "Maison d'hôtes intime sans alcool.",
      "halalFriendly": true,
      "sansAlcool": true,
      "mapsUrl": "https://maps.google.com/?q=Boutique+Riad+Dearborn+Dearborn",
      "bookingUrl": "https://www.booking.com/searchresults.fr.html?ss=Dearborn&label=voyageshalal",
      "halalBookingUrl": "https://www.halalbooking.com/search?city=dearborn",
      "priceRange": "€€€",
      "id": "h6"
    },
    {
      "nom": "Grand Plaza Dearborn 0",
      "categorie": "Luxe",
      "score": 4.6,
      "adresse": "Dearborn",
      "description": "Hébergement halal-friendly à Dearborn.",
      "halalFriendly": true,
      "sansAlcool": false,
      "mapsUrl": "https://maps.google.com/?q=Grand+Plaza+Dearborn+0+Dearborn",
      "bookingUrl": "https://www.booking.com/searchresults.fr.html?ss=Dearborn&label=voyageshalal",
      "halalBookingUrl": "https://www.halalbooking.com/search?city=dearborn",
      "priceRange": "€€€€",
      "nombreAvis": 2312,
      "piscineNonMixte": false,
      "salleDePreiere": true,
      "qiblaIndicateur": true,
      "petitDejeunerHalal": true,
      "services": [
        "centre-ville",
        "conciergerie",
        "navette-aeroport",
        "parking",
        "piscine",
        "restaurant-halal",
        "salle-sport",
        "spa",
        "wifi"
      ],
      "id": "h7"
    },
    {
      "nom": "City Comfort Dearborn",
      "categorie": "Standard",
      "score": 4.4,
      "adresse": "Dearborn",
      "description": "Hébergement halal-friendly à Dearborn.",
      "halalFriendly": true,
      "sansAlcool": false,
      "mapsUrl": "https://maps.google.com/?q=City+Comfort+Dearborn+Dearborn",
      "bookingUrl": "https://www.booking.com/searchresults.fr.html?ss=Dearborn&label=voyageshalal",
      "halalBookingUrl": "https://www.halalbooking.com/search?city=dearborn",
      "priceRange": "€€€",
      "nombreAvis": 2432,
      "piscineNonMixte": false,
      "salleDePreiere": true,
      "qiblaIndicateur": true,
      "petitDejeunerHalal": true,
      "services": [
        "centre-ville",
        "conciergerie",
        "parking",
        "restaurant-halal",
        "wifi"
      ],
      "id": "h8"
    }
  ],
  "activites": [
    {
      "nom": "Islamic Center of America",
      "categorie": "Religieux & Spirituel",
      "description": "Plus grande mosquée des États-Unis",
      "duree": "1h",
      "prix": "Gratuit",
      "mapsUrl": "https://maps.google.com/?q=Islamic+Center+of+America+Dearborn",
      "tripadvisorUrl": "https://www.tripadvisor.fr/Search?q=Islamic+Center+of+America+Dearborn",
      "id": "a1",
      "lat": 42.3303597,
      "lng": -83.2298121,
      "geocoded": true
    },
    {
      "nom": "Arab American National Museum",
      "categorie": "Art & Musées",
      "description": "Seul musée national dédié aux Arabo-Américains",
      "duree": "2h",
      "prix": "€",
      "mapsUrl": "https://maps.google.com/?q=Arab+American+National+Museum+Dearborn",
      "tripadvisorUrl": "https://www.tripadvisor.fr/Search?q=Arab+American+National+Museum+Dearborn",
      "id": "a2",
      "lat": 42.3222673,
      "lng": -83.1766464,
      "geocoded": true
    },
    {
      "nom": "The Henry Ford Museum",
      "categorie": "Histoire & Culture",
      "description": "Grand musée de l'innovation américaine",
      "duree": "Demi-journée",
      "prix": "€€€",
      "mapsUrl": "https://maps.google.com/?q=The+Henry+Ford+Museum+Dearborn",
      "tripadvisorUrl": "https://www.tripadvisor.fr/Search?q=The+Henry+Ford+Museum+Dearborn",
      "id": "a3",
      "lat": 42.3036044,
      "lng": -83.234228,
      "geocoded": true
    },
    {
      "nom": "Greenfield Village",
      "categorie": "Histoire & Culture",
      "description": "Village-musée historique en plein air",
      "duree": "Demi-journée",
      "prix": "€€€",
      "mapsUrl": "https://maps.google.com/?q=Greenfield+Village+Dearborn",
      "tripadvisorUrl": "https://www.tripadvisor.fr/Search?q=Greenfield+Village+Dearborn",
      "id": "a4",
      "lat": 42.3045592,
      "lng": -83.2199356,
      "geocoded": true
    },
    {
      "nom": "Warren Avenue (food tour)",
      "categorie": "Gastronomie",
      "description": "Artère arabo-américaine, restaurants halal",
      "duree": "3h",
      "prix": "€€",
      "mapsUrl": "https://maps.google.com/?q=Warren+Avenue+%28food+tour%29+Dearborn",
      "tripadvisorUrl": "https://www.tripadvisor.fr/Search?q=Warren+Avenue+%28food+tour%29+Dearborn",
      "id": "a5"
    },
    {
      "nom": "Ford Rouge Factory Tour",
      "categorie": "Histoire & Culture",
      "description": "Visite de l'usine emblématique de Ford",
      "duree": "2h",
      "prix": "€€",
      "mapsUrl": "https://maps.google.com/?q=Ford+Rouge+Factory+Tour+Dearborn",
      "tripadvisorUrl": "https://www.tripadvisor.fr/Search?q=Ford+Rouge+Factory+Tour+Dearborn",
      "id": "a6"
    },
    {
      "nom": "Marché de l'est de Détroit (Eastern Market)",
      "categorie": "Shopping & Souks",
      "description": "Grand marché public de la région",
      "duree": "2h",
      "prix": "Gratuit",
      "mapsUrl": "https://maps.google.com/?q=March%C3%A9+de+l%27est+de+D%C3%A9troit+%28Eastern+Market%29+Dearborn",
      "tripadvisorUrl": "https://www.tripadvisor.fr/Search?q=March%C3%A9+de+l%27est+de+D%C3%A9troit+%28Eastern+Market%29+Dearborn",
      "id": "a7"
    },
    {
      "nom": "Centre-ville de Détroit",
      "categorie": "Histoire & Culture",
      "description": "Renaissance urbaine et front de rivière",
      "duree": "2h",
      "prix": "Gratuit",
      "mapsUrl": "https://maps.google.com/?q=Centre-ville+de+D%C3%A9troit+Dearborn",
      "tripadvisorUrl": "https://www.tripadvisor.fr/Search?q=Centre-ville+de+D%C3%A9troit+Dearborn",
      "id": "a8"
    },
    {
      "nom": "Vieille ville de Dearborn",
      "categorie": "Histoire & Culture",
      "description": "Flânerie dans les ruelles historiques et l'architecture locale.",
      "duree": "2h",
      "prix": "Gratuit",
      "mapsUrl": "https://maps.google.com/?q=Vieille+ville+de+Dearborn+Dearborn",
      "tripadvisorUrl": "https://www.tripadvisor.fr/Search?q=Vieille+ville+de+Dearborn+Dearborn",
      "id": "a9"
    },
    {
      "nom": "Grand souk de Dearborn",
      "categorie": "Shopping & Souks",
      "description": "Marché traditionnel d'épices, textiles et artisanat.",
      "duree": "2h",
      "prix": "Gratuit",
      "mapsUrl": "https://maps.google.com/?q=Grand+souk+de+Dearborn+Dearborn",
      "tripadvisorUrl": "https://www.tripadvisor.fr/Search?q=Grand+souk+de+Dearborn+Dearborn",
      "id": "a10"
    },
    {
      "nom": "Quartier historique de Dearborn",
      "categorie": "Histoire & Culture",
      "description": "Découverte du cœur ancien de la ville, architecture et ambiance locale.",
      "duree": "2h",
      "prix": "Gratuit",
      "mapsUrl": "https://maps.google.com/?q=Quartier+historique+de+Dearborn+Dearborn",
      "tripadvisorUrl": "https://www.tripadvisor.fr/Search?q=Quartier+historique+de+Dearborn+Dearborn",
      "meilleureEpoque": "Printemps-Automne",
      "idealPour": [
        "famille",
        "couple",
        "solo"
      ],
      "conseil": "Venez tôt le matin pour profiter du calme et éviter la foule.",
      "id": "a11"
    },
    {
      "nom": "Grand marché central de Dearborn",
      "categorie": "Shopping & Souks",
      "description": "Marché traditionnel d'épices, textiles et artisanat local.",
      "duree": "2h",
      "prix": "Gratuit",
      "mapsUrl": "https://maps.google.com/?q=Grand+march%C3%A9+central+de+Dearborn+Dearborn",
      "tripadvisorUrl": "https://www.tripadvisor.fr/Search?q=Grand+march%C3%A9+central+de+Dearborn+Dearborn",
      "meilleureEpoque": "Hiver",
      "idealPour": [
        "famille",
        "couple",
        "solo"
      ],
      "conseil": "Venez tôt le matin pour profiter du calme et éviter la foule.",
      "id": "a12"
    },
    {
      "nom": "Promenade au bord de l'eau de Dearborn",
      "categorie": "Nature & Aventure",
      "description": "Balade au coucher du soleil le long du front d'eau.",
      "duree": "1-2h",
      "prix": "Gratuit",
      "mapsUrl": "https://maps.google.com/?q=Promenade+au+bord+de+l%27eau+de+Dearborn+Dearborn",
      "tripadvisorUrl": "https://www.tripadvisor.fr/Search?q=Promenade+au+bord+de+l%27eau+de+Dearborn+Dearborn",
      "meilleureEpoque": "Hiver",
      "idealPour": [
        "famille",
        "groupe",
        "couple"
      ],
      "conseil": "Venez tôt le matin pour profiter du calme et éviter la foule.",
      "id": "a13"
    },
    {
      "nom": "Musée de la ville de Dearborn",
      "categorie": "Art & Musées",
      "description": "Collections retraçant l'histoire et la culture islamique locale.",
      "duree": "2h",
      "prix": "€",
      "mapsUrl": "https://maps.google.com/?q=Mus%C3%A9e+de+la+ville+de+Dearborn+Dearborn",
      "tripadvisorUrl": "https://www.tripadvisor.fr/Search?q=Mus%C3%A9e+de+la+ville+de+Dearborn+Dearborn",
      "meilleureEpoque": "Toute l'année",
      "idealPour": [
        "famille",
        "couple",
        "solo"
      ],
      "conseil": "Venez tôt le matin pour profiter du calme et éviter la foule.",
      "id": "a14"
    },
    {
      "nom": "Food tour halal de Dearborn",
      "categorie": "Gastronomie",
      "description": "Parcours des meilleures adresses de street food halal avec un guide.",
      "duree": "3h",
      "prix": "€€",
      "mapsUrl": "https://maps.google.com/?q=Food+tour+halal+de+Dearborn+Dearborn",
      "tripadvisorUrl": "https://www.tripadvisor.fr/Search?q=Food+tour+halal+de+Dearborn+Dearborn",
      "meilleureEpoque": "Été",
      "idealPour": [
        "famille",
        "couple",
        "solo"
      ],
      "conseil": "Venez tôt le matin pour profiter du calme et éviter la foule.",
      "id": "a15"
    },
    {
      "nom": "Toll Gate Monument",
      "lat": 42.3100299,
      "lng": -83.2206201,
      "coordonnees": {
        "lat": 42.3100299,
        "lng": -83.2206201
      },
      "categorie": "Histoire",
      "mapsUrl": "https://maps.google.com/?q=42.3100299,-83.2206201",
      "source": "osm"
    },
    {
      "nom": "March On",
      "lat": 42.2911062,
      "lng": -83.1436739,
      "coordonnees": {
        "lat": 42.2911062,
        "lng": -83.1436739
      },
      "categorie": "À voir",
      "mapsUrl": "https://maps.google.com/?q=42.2911062,-83.1436739",
      "source": "osm"
    },
    {
      "nom": "Melvindale Veterans Memorial",
      "lat": 42.2817673,
      "lng": -83.1772605,
      "coordonnees": {
        "lat": 42.2817673,
        "lng": -83.1772605
      },
      "categorie": "Histoire",
      "mapsUrl": "https://maps.google.com/?q=42.2817673,-83.1772605",
      "source": "osm"
    },
    {
      "nom": "Thomas Alva Edison Statue",
      "lat": 42.3054108,
      "lng": -83.2273515,
      "coordonnees": {
        "lat": 42.3054108,
        "lng": -83.2273515
      },
      "categorie": "Histoire",
      "mapsUrl": "https://maps.google.com/?q=42.3054108,-83.2273515",
      "source": "osm"
    },
    {
      "nom": "Davidson Gerson Gallery of Glass",
      "lat": 42.3060942,
      "lng": -83.2300589,
      "coordonnees": {
        "lat": 42.3060942,
        "lng": -83.2300589
      },
      "categorie": "Culture",
      "mapsUrl": "https://maps.google.com/?q=42.3060942,-83.2300589",
      "source": "osm"
    },
    {
      "nom": "Five Replica Homes of Great Americans",
      "lat": 42.2959378,
      "lng": -83.2281409,
      "coordonnees": {
        "lat": 42.2959378,
        "lng": -83.2281409
      },
      "categorie": "À voir",
      "mapsUrl": "https://maps.google.com/?q=42.2959378,-83.2281409",
      "source": "osm"
    },
    {
      "nom": "Rusty the Dog",
      "lat": 42.274239,
      "lng": -83.1981839,
      "coordonnees": {
        "lat": 42.274239,
        "lng": -83.1981839
      },
      "categorie": "À voir",
      "mapsUrl": "https://maps.google.com/?q=42.274239,-83.1981839",
      "source": "osm"
    },
    {
      "nom": "Blue Elephant Studio Gallery",
      "lat": 42.2685477,
      "lng": -83.1978471,
      "coordonnees": {
        "lat": 42.2685477,
        "lng": -83.1978471
      },
      "categorie": "Culture",
      "mapsUrl": "https://maps.google.com/?q=42.2685477,-83.1978471",
      "source": "osm"
    },
    {
      "nom": "Rouge Park cannon",
      "lat": 42.3466191,
      "lng": -83.2447008,
      "coordonnees": {
        "lat": 42.3466191,
        "lng": -83.2447008
      },
      "categorie": "À voir",
      "mapsUrl": "https://maps.google.com/?q=42.3466191,-83.2447008",
      "source": "osm"
    },
    {
      "nom": "Uniroyal Tire (World's Largest Tire)",
      "lat": 42.2705234,
      "lng": -83.2090118,
      "coordonnees": {
        "lat": 42.2705234,
        "lng": -83.2090118
      },
      "categorie": "À voir",
      "mapsUrl": "https://maps.google.com/?q=42.2705234,-83.2090118",
      "source": "osm"
    },
    {
      "nom": "Bailey Temple Church of God in Christ",
      "lat": 42.3474801,
      "lng": -83.1058205,
      "coordonnees": {
        "lat": 42.3474801,
        "lng": -83.1058205
      },
      "categorie": "Histoire",
      "mapsUrl": "https://maps.google.com/?q=42.3474801,-83.1058205",
      "source": "osm"
    },
    {
      "nom": "Gordie Howe International Bridge Viewpoint",
      "lat": 42.2929358,
      "lng": -83.0987585,
      "coordonnees": {
        "lat": 42.2929358,
        "lng": -83.0987585
      },
      "categorie": "Panorama",
      "mapsUrl": "https://maps.google.com/?q=42.2929358,-83.0987585",
      "source": "osm"
    },
    {
      "nom": "James Howard Memorial",
      "lat": 42.3095519,
      "lng": -83.2627639,
      "coordonnees": {
        "lat": 42.3095519,
        "lng": -83.2627639
      },
      "categorie": "Histoire",
      "mapsUrl": "https://maps.google.com/?q=42.3095519,-83.2627639",
      "source": "osm"
    },
    {
      "nom": "Rest In Respect",
      "lat": 42.3669022,
      "lng": -83.1045669,
      "coordonnees": {
        "lat": 42.3669022,
        "lng": -83.1045669
      },
      "categorie": "À voir",
      "mapsUrl": "https://maps.google.com/?q=42.3669022,-83.1045669",
      "source": "osm"
    },
    {
      "nom": "Izzy's Raw Art Gallery",
      "lat": 42.3315253,
      "lng": -83.0817135,
      "coordonnees": {
        "lat": 42.3315253,
        "lng": -83.0817135
      },
      "categorie": "Culture",
      "mapsUrl": "https://maps.google.com/?q=42.3315253,-83.0817135",
      "source": "osm"
    },
    {
      "nom": "The Path of Life",
      "lat": 42.3120843,
      "lng": -83.0811917,
      "coordonnees": {
        "lat": 42.3120843,
        "lng": -83.0811917
      },
      "categorie": "À voir",
      "mapsUrl": "https://maps.google.com/?q=42.3120843,-83.0811917",
      "source": "osm"
    },
    {
      "nom": "Brennan Recreation Area",
      "lat": 42.3691129,
      "lng": -83.2492857,
      "coordonnees": {
        "lat": 42.3691129,
        "lng": -83.2492857
      },
      "categorie": "Nature",
      "mapsUrl": "https://maps.google.com/?q=42.3691129,-83.2492857",
      "source": "osm"
    },
    {
      "nom": "Geodesic Dome House",
      "lat": 42.3263894,
      "lng": -83.0797649,
      "coordonnees": {
        "lat": 42.3263894,
        "lng": -83.0797649
      },
      "categorie": "À voir",
      "mapsUrl": "https://maps.google.com/?q=42.3263894,-83.0797649",
      "source": "osm"
    },
    {
      "nom": "Of Course, Of Course",
      "lat": 42.3464278,
      "lng": -83.0848946,
      "coordonnees": {
        "lat": 42.3464278,
        "lng": -83.0848946
      },
      "categorie": "À voir",
      "mapsUrl": "https://maps.google.com/?q=42.3464278,-83.0848946",
      "source": "osm"
    },
    {
      "nom": "Grand River Creative Corridor Murals",
      "lat": 42.3453925,
      "lng": -83.0802159,
      "coordonnees": {
        "lat": 42.3453925,
        "lng": -83.0802159
      },
      "categorie": "À voir",
      "mapsUrl": "https://maps.google.com/?q=42.3453925,-83.0802159",
      "source": "osm"
    },
    {
      "nom": "Three Faces Sculpture \"Growing Together\"",
      "lat": 42.3687384,
      "lng": -83.2559552,
      "coordonnees": {
        "lat": 42.3687384,
        "lng": -83.2559552
      },
      "categorie": "À voir",
      "mapsUrl": "https://maps.google.com/?q=42.3687384,-83.2559552",
      "source": "osm"
    },
    {
      "nom": "MLK",
      "lat": 42.340326,
      "lng": -83.0768063,
      "coordonnees": {
        "lat": 42.340326,
        "lng": -83.0768063
      },
      "categorie": "À voir",
      "mapsUrl": "https://maps.google.com/?q=42.340326,-83.0768063",
      "source": "osm"
    },
    {
      "nom": "Joe Prance Recreation Area",
      "lat": 42.3633348,
      "lng": -83.2641664,
      "coordonnees": {
        "lat": 42.3633348,
        "lng": -83.2641664
      },
      "categorie": "Nature",
      "mapsUrl": "https://maps.google.com/?q=42.3633348,-83.2641664",
      "source": "osm"
    },
    {
      "nom": "Garden",
      "lat": 42.3003332,
      "lng": -83.0757508,
      "coordonnees": {
        "lat": 42.3003332,
        "lng": -83.0757508
      },
      "categorie": "Nature",
      "mapsUrl": "https://maps.google.com/?q=42.3003332,-83.0757508",
      "source": "osm"
    },
    {
      "nom": "Black History Murals",
      "lat": 42.3053265,
      "lng": -83.0739027,
      "coordonnees": {
        "lat": 42.3053265,
        "lng": -83.0739027
      },
      "categorie": "À voir",
      "mapsUrl": "https://maps.google.com/?q=42.3053265,-83.0739027",
      "source": "osm"
    },
    {
      "nom": "Fish",
      "lat": 42.3394937,
      "lng": -83.0737998,
      "coordonnees": {
        "lat": 42.3394937,
        "lng": -83.0737998
      },
      "categorie": "À voir",
      "mapsUrl": "https://maps.google.com/?q=42.3394937,-83.0737998",
      "source": "osm"
    },
    {
      "nom": "Tecumseh and Brock",
      "lat": 42.3068767,
      "lng": -83.0730762,
      "coordonnees": {
        "lat": 42.3068767,
        "lng": -83.0730762
      },
      "categorie": "À voir",
      "mapsUrl": "https://maps.google.com/?q=42.3068767,-83.0730762",
      "source": "osm"
    },
    {
      "nom": "Composition with Five Elements",
      "lat": 42.3095192,
      "lng": -83.0718855,
      "coordonnees": {
        "lat": 42.3095192,
        "lng": -83.0718855
      },
      "categorie": "À voir",
      "mapsUrl": "https://maps.google.com/?q=42.3095192,-83.0718855",
      "source": "osm"
    },
    {
      "nom": "Detroit July 1967",
      "lat": 42.3769617,
      "lng": -83.1000394,
      "coordonnees": {
        "lat": 42.3769617,
        "lng": -83.1000394
      },
      "categorie": "Histoire",
      "mapsUrl": "https://maps.google.com/?q=42.3769617,-83.1000394",
      "source": "osm"
    },
    {
      "nom": "Monumental Kitty",
      "lat": 42.3348147,
      "lng": -83.0708395,
      "coordonnees": {
        "lat": 42.3348147,
        "lng": -83.0708395
      },
      "categorie": "À voir",
      "mapsUrl": "https://maps.google.com/?q=42.3348147,-83.0708395",
      "source": "osm"
    },
    {
      "nom": "Tiger Business",
      "lat": 42.3098116,
      "lng": -83.0708201,
      "coordonnees": {
        "lat": 42.3098116,
        "lng": -83.0708201
      },
      "categorie": "À voir",
      "mapsUrl": "https://maps.google.com/?q=42.3098116,-83.0708201",
      "source": "osm"
    },
    {
      "nom": "Sisters II",
      "lat": 42.3089408,
      "lng": -83.0709838,
      "coordonnees": {
        "lat": 42.3089408,
        "lng": -83.0709838
      },
      "categorie": "À voir",
      "mapsUrl": "https://maps.google.com/?q=42.3089408,-83.0709838",
      "source": "osm"
    },
    {
      "nom": "Welcome to Woodbridge",
      "lat": 42.3422859,
      "lng": -83.0726711,
      "coordonnees": {
        "lat": 42.3422859,
        "lng": -83.0726711
      },
      "categorie": "À voir",
      "mapsUrl": "https://maps.google.com/?q=42.3422859,-83.0726711",
      "source": "osm"
    },
    {
      "nom": "The North Wall",
      "lat": 42.3103841,
      "lng": -83.0697347,
      "coordonnees": {
        "lat": 42.3103841,
        "lng": -83.0697347
      },
      "categorie": "Histoire",
      "mapsUrl": "https://maps.google.com/?q=42.3103841,-83.0697347",
      "source": "osm"
    },
    {
      "nom": "King and Queen",
      "lat": 42.3111241,
      "lng": -83.0688629,
      "coordonnees": {
        "lat": 42.3111241,
        "lng": -83.0688629
      },
      "categorie": "À voir",
      "mapsUrl": "https://maps.google.com/?q=42.3111241,-83.0688629",
      "source": "osm"
    },
    {
      "nom": "The Yard - Graffiti Museum",
      "lat": 42.3235826,
      "lng": -83.0671568,
      "coordonnees": {
        "lat": 42.3235826,
        "lng": -83.0671568
      },
      "categorie": "À voir",
      "mapsUrl": "https://maps.google.com/?q=42.3235826,-83.0671568",
      "source": "osm"
    },
    {
      "nom": "Bell Measure",
      "lat": 42.3111976,
      "lng": -83.0676942,
      "coordonnees": {
        "lat": 42.3111976,
        "lng": -83.0676942
      },
      "categorie": "À voir",
      "mapsUrl": "https://maps.google.com/?q=42.3111976,-83.0676942",
      "source": "osm"
    },
    {
      "nom": "Rosa Parks Entrance",
      "lat": 42.321269,
      "lng": -83.0659987,
      "coordonnees": {
        "lat": 42.321269,
        "lng": -83.0659987
      },
      "categorie": "À voir",
      "mapsUrl": "https://maps.google.com/?q=42.321269,-83.0659987",
      "source": "osm"
    },
    {
      "nom": "Consolation",
      "lat": 42.3121709,
      "lng": -83.0666245,
      "coordonnees": {
        "lat": 42.3121709,
        "lng": -83.0666245
      },
      "categorie": "À voir",
      "mapsUrl": "https://maps.google.com/?q=42.3121709,-83.0666245",
      "source": "osm"
    },
    {
      "nom": "Grill Grove",
      "lat": 42.3204017,
      "lng": -83.0655078,
      "coordonnees": {
        "lat": 42.3204017,
        "lng": -83.0655078
      },
      "categorie": "À voir",
      "mapsUrl": "https://maps.google.com/?q=42.3204017,-83.0655078",
      "source": "osm"
    },
    {
      "nom": "Statue of Father Clement Kern",
      "lat": 42.3292505,
      "lng": -83.0656051,
      "coordonnees": {
        "lat": 42.3292505,
        "lng": -83.0656051
      },
      "categorie": "À voir",
      "mapsUrl": "https://maps.google.com/?q=42.3292505,-83.0656051",
      "source": "osm"
    },
    {
      "nom": "The Summit",
      "lat": 42.3211061,
      "lng": -83.0642561,
      "coordonnees": {
        "lat": 42.3211061,
        "lng": -83.0642561
      },
      "categorie": "À voir",
      "mapsUrl": "https://maps.google.com/?q=42.3211061,-83.0642561",
      "source": "osm"
    },
    {
      "nom": "Salutations",
      "lat": 42.3126367,
      "lng": -83.0645196,
      "coordonnees": {
        "lat": 42.3126367,
        "lng": -83.0645196
      },
      "categorie": "À voir",
      "mapsUrl": "https://maps.google.com/?q=42.3126367,-83.0645196",
      "source": "osm"
    },
    {
      "nom": "SW Greenway Entrance",
      "lat": 42.322218,
      "lng": -83.0635884,
      "coordonnees": {
        "lat": 42.322218,
        "lng": -83.0635884
      },
      "categorie": "À voir",
      "mapsUrl": "https://maps.google.com/?q=42.322218,-83.0635884",
      "source": "osm"
    },
    {
      "nom": "Daisy Elizabeth Elliot",
      "lat": 42.323983,
      "lng": -83.0633829,
      "coordonnees": {
        "lat": 42.323983,
        "lng": -83.0633829
      },
      "categorie": "À voir",
      "mapsUrl": "https://maps.google.com/?q=42.323983,-83.0633829",
      "source": "osm"
    }
  ],
  "mosqueesPrincipales": [
    {
      "nom": "Masjid Al-Salam",
      "lat": 42.3163864,
      "lng": -83.1747939,
      "coordonnees": {
        "lat": 42.3163864,
        "lng": -83.1747939
      },
      "mapsUrl": "https://maps.google.com/?q=42.3163864,-83.1747939",
      "source": "osm"
    },
    {
      "nom": "Imam Ali Islamic Center",
      "lat": 42.3434226,
      "lng": -83.2012869,
      "coordonnees": {
        "lat": 42.3434226,
        "lng": -83.2012869
      },
      "mapsUrl": "https://maps.google.com/?q=42.3434226,-83.2012869",
      "source": "osm"
    },
    {
      "nom": "Ideal Islamic Center",
      "lat": 42.3933897,
      "lng": -83.057236,
      "coordonnees": {
        "lat": 42.3933897,
        "lng": -83.057236
      },
      "mapsUrl": "https://maps.google.com/?q=42.3933897,-83.057236",
      "source": "osm"
    }
  ],
  "tags": [
    "arabo-americain",
    "capitale-halal",
    "communaute-musulmane",
    "libanais",
    "yemenite",
    "famille"
  ],
  "selectionsPremium": {
    "mieuxNotes": [
      "Halal Guys Corner",
      "Halal Guys Corner Dearborn 9",
      "Beirut House",
      "Beirut House Dearborn 10",
      "Saffron Garden Dearborn"
    ],
    "meilleurRapportQualitePrix": [
      "Al Ameer",
      "Hamido Restaurant",
      "Sheeba Restaurant",
      "Shatila Bakery",
      "Yemen Cafe"
    ],
    "incontournables": [
      "Beirut House",
      "Halal Guys Corner Dearborn 9",
      "Shahi Palace",
      "Halal Guys Corner",
      "Anatolia Kebab"
    ],
    "pepitesCachees": [
      "Al Ameer",
      "Hamido Restaurant",
      "Sheeba Restaurant"
    ],
    "idealFamille": [
      "Halal Guys Corner",
      "Beirut House",
      "Shahi Palace",
      "Marrakech Express",
      "Anatolia Kebab"
    ],
    "gastronomique": [
      "Saffron Garden Dearborn",
      "Saffron Fine Dining"
    ],
    "ouvertNuit": [
      "Halal Guys Corner",
      "Beirut House",
      "Halal Guys Corner Dearborn 9"
    ],
    "vueExceptionnelle": [
      "Halal Guys Corner",
      "Halal Guys Corner Dearborn 9",
      "Beirut House"
    ]
  },
  "description_en": "Dearborn, in the United States, is a halal-friendly destination with a Halal Trust Score of 4.4/5. Muslim travelers will find 750 halal restaurants, 40 mosques, real-time prayer times and the Qibla direction — a complete guide to travel with peace of mind.",
  "metaDescription_en": "Halal guide to Dearborn: 750+ halal restaurants, 40 mosques, prayer times and tips for Muslim travelers. Halal Trust Score 4.4/5.",
  "nom_en": "Dearborn",
  "boucheries": []
}