{
 "slug": "djibouti",
 "nom": "Djibouti",
 "pays": "Djibouti",
 "pays_slug": "djibouti",
 "continent": "Afrique",
 "region": "Djibouti",
 "coordonnees": {
  "lat": 11.5721,
  "lng": 43.1456
 },
 "codeISO": "DJ",
 "score_halal": 4.2,
 "halalScore": 8.4,
 "description": "Djibouti, Djibouti. Forte présence musulmane : nombreuses adresses halal et mosquées.",
 "metaDescription": "Djibouti, Djibouti. Forte présence musulmane : nombreuses adresses halal et mosquées.",
 "image": "https://upload.wikimedia.org/wikipedia/commons/8/83/Djibouti_city_corner_building.jpg",
 "image_hero": "https://upload.wikimedia.org/wikipedia/commons/8/83/Djibouti_city_corner_building.jpg",
 "imageCredit": "Wikimedia Commons",
 "scoreIndicatif": true,
 "statistiques": {
  "restaurants_halal": 3,
  "mosquees": 34,
  "hotels": 35
 },
 "infoPratique": {
  "transport": "Accessible par avion et transports locaux.",
  "meilleureEpoque": "Selon la saison.",
  "conseilHalal": "Repérez restaurants halal et mosquées via l'application."
 },
 "tags": [
  "halal",
  "afrique"
 ],
 "restaurants": [
  {
   "nom": "Mr Grill",
   "type": "burger, shawarma",
   "priceRange": "€€",
   "mapsUrl": "https://maps.google.com/?q=11.5599911,43.1531581",
   "lat": 11.5599911,
   "lng": 43.1531581,
   "halalConfidence": "likely",
   "source": "osm"
  },
  {
   "nom": "Le Lounge لو لونج",
   "type": "lebanese",
   "priceRange": "€€",
   "mapsUrl": "https://maps.google.com/?q=11.5910334,43.1330014",
   "lat": 11.5910334,
   "lng": 43.1330014,
   "halalConfidence": "likely",
   "source": "osm"
  },
  {
   "nom": "مطعم سبأ",
   "type": "arab",
   "priceRange": "€€",
   "mapsUrl": "https://maps.google.com/?q=11.6027568,43.1531207",
   "lat": 11.6027568,
   "lng": 43.1531207,
   "halalConfidence": "likely",
   "source": "osm"
  }
 ],
 "hotels": [
  {
   "nom": "Sharaf Hotel",
   "categorie": "Hôtel",
   "priceRange": "€€",
   "mapsUrl": "https://maps.google.com/?q=11.5671631,43.1488672",
   "lat": 11.5671631,
   "lng": 43.1488672,
   "halalFriendly": false,
   "bookingUrl": "https://maps.google.com/?q=11.5671631,43.1488672",
   "source": "osm"
  },
  {
   "nom": "JANO HOUSE AppartHôtel",
   "categorie": "Appartement",
   "priceRange": "€€",
   "mapsUrl": "https://maps.google.com/?q=11.5622642,43.1430205",
   "lat": 11.5622642,
   "lng": 43.1430205,
   "halalFriendly": false,
   "bookingUrl": "https://maps.google.com/?q=11.5622642,43.1430205",
   "source": "osm"
  },
  {
   "nom": "Auberge Bimiulaos نزل بيميولاوس",
   "categorie": "Hôtel",
   "priceRange": "€€",
   "mapsUrl": "https://maps.google.com/?q=11.5728009,43.1561369",
   "lat": 11.5728009,
   "lng": 43.1561369,
   "halalFriendly": false,
   "bookingUrl": "https://maps.google.com/?q=11.5728009,43.1561369",
   "source": "osm"
  },
  {
   "nom": "African Village قرية أفريقية",
   "categorie": "Hôtel",
   "priceRange": "€€",
   "mapsUrl": "https://maps.google.com/?q=11.5580697,43.1464056",
   "lat": 11.5580697,
   "lng": 43.1464056,
   "halalFriendly": false,
   "bookingUrl": "https://maps.google.com/?q=11.5580697,43.1464056",
   "source": "osm"
  },
  {
   "nom": "L'Aube",
   "categorie": "Hôtel",
   "priceRange": "€€",
   "mapsUrl": "https://maps.google.com/?q=11.5576722,43.1403292",
   "lat": 11.5576722,
   "lng": 43.1403292,
   "halalFriendly": false,
   "bookingUrl": "https://maps.google.com/?q=11.5576722,43.1403292",
   "source": "osm"
  },
  {
   "nom": "Hotel Dar Es Salam",
   "categorie": "Hôtel",
   "priceRange": "€€",
   "mapsUrl": "https://maps.google.com/?q=11.5875775,43.1452612",
   "lat": 11.5875775,
   "lng": 43.1452612,
   "halalFriendly": false,
   "bookingUrl": "https://maps.google.com/?q=11.5875775,43.1452612",
   "source": "osm"
  },
  {
   "nom": "Hôtel de Djibouti فندق جيبوتي",
   "categorie": "Hôtel",
   "priceRange": "€€",
   "mapsUrl": "https://maps.google.com/?q=11.5883517,43.1457237",
   "lat": 11.5883517,
   "lng": 43.1457237,
   "halalFriendly": false,
   "bookingUrl": "https://maps.google.com/?q=11.5883517,43.1457237",
   "source": "osm"
  },
  {
   "nom": "Rahma Hotel",
   "categorie": "Hôtel",
   "priceRange": "€€",
   "mapsUrl": "https://maps.google.com/?q=11.5890449,43.1494635",
   "lat": 11.5890449,
   "lng": 43.1494635,
   "halalFriendly": false,
   "bookingUrl": "https://maps.google.com/?q=11.5890449,43.1494635",
   "source": "osm"
  },
  {
   "nom": "فندق الرحمة",
   "categorie": "Hôtel",
   "priceRange": "€€",
   "mapsUrl": "https://maps.google.com/?q=11.5890684,43.150076",
   "lat": 11.5890684,
   "lng": 43.150076,
   "halalFriendly": false,
   "bookingUrl": "https://maps.google.com/?q=11.5890684,43.150076",
   "source": "osm"
  },
  {
   "nom": "Oceania أوسيانيا",
   "categorie": "Hôtel",
   "priceRange": "€€",
   "mapsUrl": "https://maps.google.com/?q=11.5636505,43.1617182",
   "lat": 11.5636505,
   "lng": 43.1617182,
   "halalFriendly": false,
   "bookingUrl": "https://maps.google.com/?q=11.5636505,43.1617182",
   "source": "osm"
  },
  {
   "nom": "Auberge Avenue 13",
   "categorie": "Hôtel",
   "priceRange": "€€",
   "mapsUrl": "https://maps.google.com/?q=11.5896186,43.1513826",
   "lat": 11.5896186,
   "lng": 43.1513826,
   "halalFriendly": false,
   "bookingUrl": "https://maps.google.com/?q=11.5896186,43.1513826",
   "source": "osm"
  },
  {
   "nom": "Hôtel Comfort فندق كامفورت",
   "categorie": "Hôtel",
   "priceRange": "€€",
   "mapsUrl": "https://maps.google.com/?q=11.5907282,43.1457066",
   "lat": 11.5907282,
   "lng": 43.1457066,
   "halalFriendly": false,
   "bookingUrl": "https://maps.google.com/?q=11.5907282,43.1457066",
   "source": "osm"
  },
  {
   "nom": "فندق المدينة",
   "categorie": "Hôtel",
   "priceRange": "€€",
   "mapsUrl": "https://maps.google.com/?q=11.5931764,43.1486216",
   "lat": 11.5931764,
   "lng": 43.1486216,
   "halalFriendly": false,
   "bookingUrl": "https://maps.google.com/?q=11.5931764,43.1486216",
   "source": "osm"
  },
  {
   "nom": "Le Laurier",
   "categorie": "Hôtel",
   "priceRange": "€€",
   "mapsUrl": "https://maps.google.com/?q=11.5941478,43.1459346",
   "lat": 11.5941478,
   "lng": 43.1459346,
   "halalFriendly": false,
   "bookingUrl": "https://maps.google.com/?q=11.5941478,43.1459346",
   "source": "osm"
  },
  {
   "nom": "Hôtel Résidence de l'Europe فندق الإقامة من أوروبا",
   "categorie": "Hôtel",
   "priceRange": "€€",
   "mapsUrl": "https://maps.google.com/?q=11.5944405,43.1468768",
   "lat": 11.5944405,
   "lng": 43.1468768,
   "halalFriendly": false,
   "bookingUrl": "https://maps.google.com/?q=11.5944405,43.1468768",
   "source": "osm"
  },
  {
   "nom": "Hôtel Menelik فندق منليك",
   "categorie": "Hôtel",
   "priceRange": "€€",
   "mapsUrl": "https://maps.google.com/?q=11.5944822,43.1466803",
   "lat": 11.5944822,
   "lng": 43.1466803,
   "halalFriendly": false,
   "bookingUrl": "https://maps.google.com/?q=11.5944822,43.1466803",
   "source": "osm"
  },
  {
   "nom": "Plein ciel Hôtel كامل السماء فندق",
   "categorie": "Hôtel",
   "priceRange": "€€",
   "mapsUrl": "https://maps.google.com/?q=11.5949849,43.1455897",
   "lat": 11.5949849,
   "lng": 43.1455897,
   "halalFriendly": false,
   "bookingUrl": "https://maps.google.com/?q=11.5949849,43.1455897",
   "source": "osm"
  },
  {
   "nom": "Hôtel Atlantic",
   "categorie": "Hôtel",
   "priceRange": "€€",
   "mapsUrl": "https://maps.google.com/?q=11.5951747,43.1477702",
   "lat": 11.5951747,
   "lng": 43.1477702,
   "halalFriendly": false,
   "bookingUrl": "https://maps.google.com/?q=11.5951747,43.1477702",
   "source": "osm"
  },
  {
   "nom": "Best Western Premier DJ Hotel",
   "categorie": "Hôtel",
   "priceRange": "€€",
   "mapsUrl": "https://maps.google.com/?q=11.5958046,43.1470641",
   "lat": 11.5958046,
   "lng": 43.1470641,
   "halalFriendly": false,
   "bookingUrl": "https://maps.google.com/?q=11.5958046,43.1470641",
   "source": "osm"
  },
  {
   "nom": "Hôtel de France فندق فرنسا",
   "categorie": "Hôtel",
   "priceRange": "€€",
   "mapsUrl": "https://maps.google.com/?q=11.5962331,43.1491505",
   "lat": 11.5962331,
   "lng": 43.1491505,
   "halalFriendly": false,
   "bookingUrl": "https://maps.google.com/?q=11.5962331,43.1491505",
   "source": "osm"
  },
  {
   "nom": "Résidence Hôtel Bellevue الإقامة فندق بلفيو",
   "categorie": "Hôtel",
   "priceRange": "€€",
   "mapsUrl": "https://maps.google.com/?q=11.5966101,43.1456663",
   "lat": 11.5966101,
   "lng": 43.1456663,
   "halalFriendly": false,
   "bookingUrl": "https://maps.google.com/?q=11.5966101,43.1456663",
   "source": "osm"
  },
  {
   "nom": "Hôtel La Siesta فندق السيستا",
   "categorie": "Hôtel",
   "priceRange": "€€",
   "mapsUrl": "https://maps.google.com/?q=11.6021613,43.1529036",
   "lat": 11.6021613,
   "lng": 43.1529036,
   "halalFriendly": false,
   "bookingUrl": "https://maps.google.com/?q=11.6021613,43.1529036",
   "source": "osm"
  },
  {
   "nom": "علياء",
   "categorie": "Hôtel",
   "priceRange": "€€",
   "mapsUrl": "https://maps.google.com/?q=11.6028475,43.1528478",
   "lat": 11.6028475,
   "lng": 43.1528478,
   "halalFriendly": false,
   "bookingUrl": "https://maps.google.com/?q=11.6028475,43.1528478",
   "source": "osm"
  },
  {
   "nom": "Hôtel Sheraton",
   "categorie": "Hôtel",
   "priceRange": "€€",
   "mapsUrl": "https://maps.google.com/?q=11.6026307,43.1578724",
   "lat": 11.6026307,
   "lng": 43.1578724,
   "halalFriendly": false,
   "bookingUrl": "https://maps.google.com/?q=11.6026307,43.1578724",
   "source": "osm"
  },
  {
   "nom": "Hôtel City Holl فندق ستي هل",
   "categorie": "Hôtel",
   "priceRange": "€€",
   "score": 2,
   "mapsUrl": "https://maps.google.com/?q=11.556652,43.1133942",
   "lat": 11.556652,
   "lng": 43.1133942,
   "halalFriendly": false,
   "bookingUrl": "https://maps.google.com/?q=11.556652,43.1133942",
   "source": "osm"
  },
  {
   "nom": "Herberge Le Héron أوبيرج لو هيرون",
   "categorie": "Auberge",
   "priceRange": "€€",
   "mapsUrl": "https://maps.google.com/?q=11.6096114,43.1507087",
   "lat": 11.6096114,
   "lng": 43.1507087,
   "halalFriendly": false,
   "bookingUrl": "https://maps.google.com/?q=11.6096114,43.1507087",
   "source": "osm"
  },
  {
   "nom": "Djibguesthouse",
   "categorie": "Hôtel",
   "priceRange": "€€",
   "mapsUrl": "https://maps.google.com/?q=11.610178,43.1459549",
   "lat": 11.610178,
   "lng": 43.1459549,
   "halalFriendly": false,
   "bookingUrl": "https://maps.google.com/?q=11.610178,43.1459549",
   "source": "osm"
  },
  {
   "nom": "ICRC Résidence Dikil",
   "categorie": "Appartement",
   "priceRange": "€€",
   "mapsUrl": "https://maps.google.com/?q=11.6100197,43.1513572",
   "lat": 11.6100197,
   "lng": 43.1513572,
   "halalFriendly": false,
   "bookingUrl": "https://maps.google.com/?q=11.6100197,43.1513572",
   "source": "osm"
  },
  {
   "nom": "Auberge",
   "categorie": "Hôtel",
   "priceRange": "€€",
   "mapsUrl": "https://maps.google.com/?q=11.610342,43.151665",
   "lat": 11.610342,
   "lng": 43.151665,
   "halalFriendly": false,
   "bookingUrl": "https://maps.google.com/?q=11.610342,43.151665",
   "source": "osm"
  },
  {
   "nom": "فندق سامو",
   "categorie": "Hôtel",
   "priceRange": "€€",
   "mapsUrl": "https://maps.google.com/?q=11.6120937,43.1479116",
   "lat": 11.6120937,
   "lng": 43.1479116,
   "halalFriendly": false,
   "bookingUrl": "https://maps.google.com/?q=11.6120937,43.1479116",
   "source": "osm"
  },
  {
   "nom": "يوبوكي",
   "categorie": "Appartement",
   "priceRange": "€€",
   "mapsUrl": "https://maps.google.com/?q=11.6163733,43.1474287",
   "lat": 11.6163733,
   "lng": 43.1474287,
   "halalFriendly": false,
   "bookingUrl": "https://maps.google.com/?q=11.6163733,43.1474287",
   "source": "osm"
  },
  {
   "nom": "Ivoirien Ami SOHINTO Domicile Djibouti صديق كوت ديفوار سوهينتو دوميسيل جيبوتي",
   "categorie": "Appartement",
   "priceRange": "€€",
   "mapsUrl": "https://maps.google.com/?q=11.6173339,43.148358",
   "lat": 11.6173339,
   "lng": 43.148358,
   "halalFriendly": false,
   "bookingUrl": "https://maps.google.com/?q=11.6173339,43.148358",
   "source": "osm"
  },
  {
   "nom": "Palace Kempinski فندق كامبنسكي",
   "categorie": "Hôtel",
   "priceRange": "€€€€",
   "score": 5,
   "mapsUrl": "https://maps.google.com/?q=11.6181244,43.1462142",
   "lat": 11.6181244,
   "lng": 43.1462142,
   "halalFriendly": false,
   "bookingUrl": "https://maps.google.com/?q=11.6181244,43.1462142",
   "source": "osm"
  },
  {
   "nom": "Hôtel Kempinski فندق كامبنسكي",
   "categorie": "Hôtel",
   "priceRange": "€€€€",
   "score": 5,
   "mapsUrl": "https://maps.google.com/?q=11.6188759,43.1458988",
   "lat": 11.6188759,
   "lng": 43.1458988,
   "halalFriendly": false,
   "bookingUrl": "https://maps.google.com/?q=11.6188759,43.1458988",
   "source": "osm"
  },
  {
   "nom": "Hôtel Bavaria Les Acacias فندق بافاريا ليس أكاسياس",
   "categorie": "Hôtel",
   "priceRange": "€€",
   "mapsUrl": "https://maps.google.com/?q=11.6202161,43.1506794",
   "lat": 11.6202161,
   "lng": 43.1506794,
   "halalFriendly": false,
   "bookingUrl": "https://maps.google.com/?q=11.6202161,43.1506794",
   "source": "osm"
  }
 ],
 "mosqueesPrincipales": [
  {
   "id": "m352595713",
   "nom": "مسجد",
   "type": "Mosquée",
   "adresse": "جيبوتي",
   "description": "Lieu de prière (OpenStreetMap).",
   "mapsUrl": "https://maps.google.com/?q=11.5750605,43.1414139",
   "lat": 11.5750605,
   "lng": 43.1414139,
   "source": "osm"
  },
  {
   "id": "m7047455827",
   "nom": "Masdjid Du Prince Salman مسجد الأمير سلمان",
   "type": "Mosquée",
   "adresse": "جيبوتي",
   "description": "Lieu de prière (OpenStreetMap).",
   "mapsUrl": "https://maps.google.com/?q=11.5691592,43.1532049",
   "lat": 11.5691592,
   "lng": 43.1532049,
   "source": "osm"
  },
  {
   "id": "m695612911",
   "nom": "Mosquée Al-Rahma",
   "type": "Mosquée",
   "adresse": "Rue Al-Rahma",
   "description": "Lieu de prière (OpenStreetMap).",
   "mapsUrl": "https://maps.google.com/?q=11.5719722,43.1356349",
   "lat": 11.5719722,
   "lng": 43.1356349,
   "source": "osm"
  },
  {
   "id": "m2211286173",
   "nom": "مسجد",
   "type": "Mosquée",
   "adresse": "جيبوتي",
   "description": "Lieu de prière (OpenStreetMap).",
   "mapsUrl": "https://maps.google.com/?q=11.5669317,43.1364047",
   "lat": 11.5669317,
   "lng": 43.1364047,
   "source": "osm"
  },
  {
   "id": "m352044254",
   "nom": "مسجد",
   "type": "Mosquée",
   "adresse": "جيبوتي",
   "description": "Lieu de prière (OpenStreetMap).",
   "mapsUrl": "https://maps.google.com/?q=11.5820528,43.1488029",
   "lat": 11.5820528,
   "lng": 43.1488029,
   "source": "osm"
  },
  {
   "id": "m228050229",
   "nom": "Grande Mosquée de Djibouti المسجد الكبير في جيبوتي",
   "type": "Mosquée",
   "adresse": "",
   "description": "Lieu de prière (OpenStreetMap).",
   "mapsUrl": "https://maps.google.com/?q=11.5763374,43.1351555",
   "lat": 11.5763374,
   "lng": 43.1351555,
   "source": "osm"
  },
  {
   "id": "m352040811",
   "nom": "مسجد",
   "type": "Mosquée",
   "adresse": "جيبوتي",
   "description": "Lieu de prière (OpenStreetMap).",
   "mapsUrl": "https://maps.google.com/?q=11.5840325,43.1439913",
   "lat": 11.5840325,
   "lng": 43.1439913,
   "source": "osm"
  },
  {
   "id": "m2211299259",
   "nom": "مسجد",
   "type": "Mosquée",
   "adresse": "جيبوتي",
   "description": "Lieu de prière (OpenStreetMap).",
   "mapsUrl": "https://maps.google.com/?q=11.5823455,43.1386417",
   "lat": 11.5823455,
   "lng": 43.1386417,
   "source": "osm"
  },
  {
   "id": "m5176200967",
   "nom": "Mosquée Al-Nadwat",
   "type": "Mosquée",
   "adresse": "جيبوتي",
   "description": "Lieu de prière (OpenStreetMap).",
   "mapsUrl": "https://maps.google.com/?q=11.5580404,43.1434122",
   "lat": 11.5580404,
   "lng": 43.1434122,
   "source": "osm"
  },
  {
   "id": "m1321677521",
   "nom": "Masdjid Hadji Dideh مسجد حاجی دیدهِ",
   "type": "Mosquée",
   "adresse": "شارع ٨, جيبوتي",
   "description": "Lieu de prière (OpenStreetMap).",
   "mapsUrl": "https://maps.google.com/?q=11.5905688,43.1488052",
   "lat": 11.5905688,
   "lng": 43.1488052,
   "source": "osm"
  },
  {
   "id": "m114934888",
   "nom": "Masdjid Al-Hamoudi مسجد الحمودي",
   "type": "Mosquée",
   "adresse": "جيبوتي",
   "description": "Lieu de prière (OpenStreetMap).",
   "mapsUrl": "https://maps.google.com/?q=11.5923104,43.1461239",
   "lat": 11.5923104,
   "lng": 43.1461239,
   "source": "osm"
  },
  {
   "id": "m6424374485",
   "nom": "الجامع الكبير العثماني",
   "type": "Mosquée",
   "adresse": "",
   "description": "Lieu de prière (OpenStreetMap).",
   "mapsUrl": "https://maps.google.com/?q=11.5923145,43.1425085",
   "lat": 11.5923145,
   "lng": 43.1425085,
   "source": "osm"
  },
  {
   "id": "m566204183",
   "nom": "مسجد عبدالحمید خان در جیبوتی",
   "type": "Mosquée",
   "adresse": "",
   "description": "Lieu de prière (OpenStreetMap).",
   "mapsUrl": "https://maps.google.com/?q=11.5931457,43.1419087",
   "lat": 11.5931457,
   "lng": 43.1419087,
   "source": "osm"
  },
  {
   "id": "m114934833",
   "nom": "Mosquée Nouri",
   "type": "Mosquée",
   "adresse": "جيبوتي",
   "description": "Lieu de prière (OpenStreetMap).",
   "mapsUrl": "https://maps.google.com/?q=11.5935078,43.145268",
   "lat": 11.5935078,
   "lng": 43.145268,
   "source": "osm"
  },
  {
   "id": "m1321677508",
   "nom": "Masdjid Al Sada مسجد الصدى",
   "type": "Mosquée",
   "adresse": "جيبوتي",
   "description": "Lieu de prière (OpenStreetMap).",
   "mapsUrl": "https://maps.google.com/?q=11.5934069,43.1494673",
   "lat": 11.5934069,
   "lng": 43.1494673,
   "source": "osm"
  },
  {
   "id": "m550175314",
   "nom": "مسجد الزبير",
   "type": "Mosquée",
   "adresse": "",
   "description": "Lieu de prière (OpenStreetMap).",
   "mapsUrl": "https://maps.google.com/?q=11.5623217,43.1200156",
   "lat": 11.5623217,
   "lng": 43.1200156,
   "source": "osm"
  },
  {
   "id": "m2197035457",
   "nom": "خيام الصلاة",
   "type": "Mosquée",
   "adresse": "جيبوتي",
   "description": "Lieu de prière (OpenStreetMap).",
   "mapsUrl": "https://maps.google.com/?q=11.5428218,43.1517782",
   "lat": 11.5428218,
   "lng": 43.1517782,
   "source": "osm"
  },
  {
   "id": "m550175311",
   "nom": "Masdjid as-Safa مسجد الصفا",
   "type": "Mosquée",
   "adresse": "",
   "description": "Lieu de prière (OpenStreetMap).",
   "mapsUrl": "https://maps.google.com/?q=11.5648364,43.1156862",
   "lat": 11.5648364,
   "lng": 43.1156862,
   "source": "osm"
  },
  {
   "id": "m5317174097",
   "nom": "Mosquée place Cheick Moussa مسجد ساحة الشيخ موسى",
   "type": "Mosquée",
   "adresse": "",
   "description": "Lieu de prière (OpenStreetMap).",
   "mapsUrl": "https://maps.google.com/?q=11.5625805,43.1153113",
   "lat": 11.5625805,
   "lng": 43.1153113,
   "source": "osm"
  },
  {
   "id": "m2211286170",
   "nom": "مسجد",
   "type": "Mosquée",
   "adresse": "جيبوتي",
   "description": "Lieu de prière (OpenStreetMap).",
   "mapsUrl": "https://maps.google.com/?q=11.5531489,43.1202337",
   "lat": 11.5531489,
   "lng": 43.1202337,
   "source": "osm"
  },
  {
   "id": "m2211249222",
   "nom": "Al Haji Hassan Gouled الحاج حسن جوليد",
   "type": "Mosquée",
   "adresse": "جيبوتي",
   "description": "Lieu de prière (OpenStreetMap).",
   "mapsUrl": "https://maps.google.com/?q=11.5611147,43.1156538",
   "lat": 11.5611147,
   "lng": 43.1156538,
   "source": "osm"
  },
  {
   "id": "m550175305",
   "nom": "Al Haji Hassan Gouled الحاج حسن جوليد",
   "type": "Mosquée",
   "adresse": "جيبوتي",
   "description": "Lieu de prière (OpenStreetMap).",
   "mapsUrl": "https://maps.google.com/?q=11.5611528,43.1156206",
   "lat": 11.5611528,
   "lng": 43.1156206,
   "source": "osm"
  },
  {
   "id": "m739121398",
   "nom": "مسجد",
   "type": "Mosquée",
   "adresse": "جيبوتي",
   "description": "Lieu de prière (OpenStreetMap).",
   "mapsUrl": "https://maps.google.com/?q=11.5686017,43.1102817",
   "lat": 11.5686017,
   "lng": 43.1102817,
   "source": "osm"
  },
  {
   "id": "m550507648",
   "nom": "مسجد",
   "type": "Mosquée",
   "adresse": "",
   "description": "Lieu de prière (OpenStreetMap).",
   "mapsUrl": "https://maps.google.com/?q=11.5608652,43.1114087",
   "lat": 11.5608652,
   "lng": 43.1114087,
   "source": "osm"
  },
  {
   "id": "m549877936",
   "nom": "ARKAM",
   "type": "Mosquée",
   "adresse": "",
   "description": "Lieu de prière (OpenStreetMap).",
   "mapsUrl": "https://maps.google.com/?q=11.5501578,43.1170436",
   "lat": 11.5501578,
   "lng": 43.1170436,
   "source": "osm"
  },
  {
   "id": "m127971108",
   "nom": "مسجد",
   "type": "Mosquée",
   "adresse": "جيبوتي",
   "description": "Lieu de prière (OpenStreetMap).",
   "mapsUrl": "https://maps.google.com/?q=11.6093146,43.1434411",
   "lat": 11.6093146,
   "lng": 43.1434411,
   "source": "osm"
  },
  {
   "id": "m711138856",
   "nom": "Masjid Ramadan مسجد رمضان",
   "type": "Mosquée",
   "adresse": "",
   "description": "Lieu de prière (OpenStreetMap).",
   "mapsUrl": "https://maps.google.com/?q=11.554158,43.1121634",
   "lat": 11.554158,
   "lng": 43.1121634,
   "source": "osm"
  },
  {
   "id": "m5314478430",
   "nom": "Masdjid Ali Dherer مسجد علي ذير",
   "type": "Mosquée",
   "adresse": "",
   "description": "Lieu de prière (OpenStreetMap).",
   "mapsUrl": "https://maps.google.com/?q=11.5570418,43.1098198",
   "lat": 11.5570418,
   "lng": 43.1098198,
   "source": "osm"
  },
  {
   "id": "m739121410",
   "nom": "مسجد",
   "type": "Mosquée",
   "adresse": "جيبوتي",
   "description": "Lieu de prière (OpenStreetMap).",
   "mapsUrl": "https://maps.google.com/?q=11.5728243,43.1029832",
   "lat": 11.5728243,
   "lng": 43.1029832,
   "source": "osm"
  },
  {
   "id": "m2211299265",
   "nom": "مسجد",
   "type": "Mosquée",
   "adresse": "جيبوتي",
   "description": "Lieu de prière (OpenStreetMap).",
   "mapsUrl": "https://maps.google.com/?q=11.572781,43.1029146",
   "lat": 11.572781,
   "lng": 43.1029146,
   "source": "osm"
  },
  {
   "id": "m766277245",
   "nom": "Mosquée Sirajudin",
   "type": "Mosquée",
   "adresse": "",
   "description": "Lieu de prière (OpenStreetMap).",
   "mapsUrl": "https://maps.google.com/?q=11.5537389,43.1070734",
   "lat": 11.5537389,
   "lng": 43.1070734,
   "source": "osm"
  },
  {
   "id": "m549878188",
   "nom": "Mosquée Aïcha مسجد عائشة",
   "type": "Mosquée",
   "adresse": "",
   "description": "Lieu de prière (OpenStreetMap).",
   "mapsUrl": "https://maps.google.com/?q=11.5579372,43.1018939",
   "lat": 11.5579372,
   "lng": 43.1018939,
   "source": "osm"
  },
  {
   "id": "m5313339833",
   "nom": "مسجد الرحمة",
   "type": "Mosquée",
   "adresse": "بلبالا",
   "description": "Lieu de prière (OpenStreetMap).",
   "mapsUrl": "https://maps.google.com/?q=11.5584628,43.0971879",
   "lat": 11.5584628,
   "lng": 43.0971879,
   "source": "osm"
  },
  {
   "id": "m803006791",
   "nom": "Mosquée de Damêrdjôg",
   "type": "Mosquée",
   "adresse": "",
   "description": "Lieu de prière (OpenStreetMap).",
   "mapsUrl": "https://maps.google.com/?q=11.4905612,43.1894962",
   "lat": 11.4905612,
   "lng": 43.1894962,
   "source": "osm"
  }
 ],
 "activites": [
  {
   "id": "a6107335946",
   "nom": "Mahatma Gandhi مهاتما غاندي",
   "categorie": "memorial",
   "description": "",
   "prix": "",
   "duree": "",
   "mapsUrl": "https://maps.google.com/?q=11.559868,43.1510579",
   "lat": 11.559868,
   "lng": 43.1510579,
   "source": "osm"
  },
  {
   "id": "a12570755870",
   "nom": "Air Djibouti",
   "categorie": "monument",
   "description": "",
   "prix": "",
   "duree": "",
   "mapsUrl": "https://maps.google.com/?q=11.5587387,43.1463736",
   "lat": 11.5587387,
   "lng": 43.1463736,
   "source": "osm"
  },
  {
   "id": "a11842766305",
   "nom": "مكتب تذاكر القطار",
   "categorie": "attraction",
   "description": "",
   "prix": "",
   "duree": "",
   "mapsUrl": "https://maps.google.com/?q=11.5897204,43.1413998",
   "lat": 11.5897204,
   "lng": 43.1413998,
   "source": "osm"
  },
  {
   "id": "a12570755871",
   "nom": "Beechcraft Model 18",
   "categorie": "monument",
   "description": "",
   "prix": "",
   "duree": "",
   "mapsUrl": "https://maps.google.com/?q=11.5529312,43.1499933",
   "lat": 11.5529312,
   "lng": 43.1499933,
   "source": "osm"
  },
  {
   "id": "a3594394355",
   "nom": "Place du 27 Juin / ساحة 27 حزيران",
   "categorie": "garden",
   "description": "",
   "prix": "",
   "duree": "",
   "mapsUrl": "https://maps.google.com/?q=11.5947394,43.1468273",
   "lat": 11.5947394,
   "lng": 43.1468273,
   "source": "osm"
  },
  {
   "id": "a4787069324",
   "nom": "العمليات الجوية",
   "categorie": "attraction",
   "description": "",
   "prix": "",
   "duree": "",
   "mapsUrl": "https://maps.google.com/?q=11.5438663,43.1482354",
   "lat": 11.5438663,
   "lng": 43.1482354,
   "source": "osm"
  },
  {
   "id": "a9909259717",
   "nom": "Semir Site موقع سمير",
   "categorie": "memorial",
   "description": "",
   "prix": "",
   "duree": "",
   "mapsUrl": "https://maps.google.com/?q=11.5539039,43.1198884",
   "lat": 11.5539039,
   "lng": 43.1198884,
   "source": "osm"
  },
  {
   "id": "a5313885985",
   "nom": "Parc Aquatique Pink Blue الحديقة المائية بنك بلو",
   "categorie": "theme park",
   "description": "",
   "prix": "",
   "duree": "",
   "mapsUrl": "https://maps.google.com/?q=11.6031384,43.1473412",
   "lat": 11.6031384,
   "lng": 43.1473412,
   "source": "osm"
  },
  {
   "id": "a8262352317",
   "nom": "Mosquée Qoubba",
   "categorie": "memorial",
   "description": "",
   "prix": "",
   "duree": "",
   "mapsUrl": "https://maps.google.com/?q=11.5500481,43.1196591",
   "lat": 11.5500481,
   "lng": 43.1196591,
   "source": "osm"
  }
 ],
 "osmEnriched": true,
 "osmEnrichedAt": "2026-06-30"
}