{
 "slug": "doha",
 "nom": "Doha",
 "nom_arabe": "الدوحة",
 "pays": "Qatar",
 "pays_slug": "qatar",
 "drapeau": "🇶🇦",
 "region": "Moyen-Orient",
 "coordonnees": {
  "lat": 25.2854,
  "lng": 51.531
 },
 "score_halal": 4.7,
 "score_securite": 5,
 "score_famille": 5,
 "score_budget": 3,
 "description": "La perle du Golfe, ville ultra-moderne au patrimoine islamique riche : Musée d'Art Islamique, Souq Waqif et la Corniche face à la skyline futuriste.",
 "description_courte": "Capital du Qatar, ville islamique ultra-moderne avec le meilleur musée d'art islamique",
 "image_hero": "/images/villes/doha-hero.jpg",
 "image_alt": "Skyline de Doha et Corniche au Qatar",
 "meta_title": "Doha Halal – Guide voyage complet 2025",
 "meta_description": "Guide halal complet pour Doha : restaurants halal, Souq Waqif, Musée Islamique, hôtels de luxe. Tout pour un séjour parfait au Qatar.",
 "statistiques": {
  "mosquees": 60,
  "restaurants_halal": 70,
  "hotels_halal": 150,
  "boucheries_halal": 300,
  "habitants_musulmans_pct": 77,
  "habitants": 2300000,
  "hotels": 105
 },
 "infos_pratiques": {
  "langue_officielle": "Arabe",
  "langues_parlees": [
   "Arabe",
   "Anglais",
   "Hindi",
   "Ourdou"
  ],
  "monnaie": "Riyal qatarien (QAR)",
  "taux_change_eur": "1€ ≈ 3.9 QAR",
  "meilleure_periode": "Novembre–mars (18-28°C)",
  "a_eviter": "Juin–septembre (40-50°C)",
  "fuseau_horaire": "UTC+3",
  "appel_priere": "5 fois par jour dans toute la ville",
  "nourriture_halal": "100% halal – pays islamique, alcool dans hôtels licenciés uniquement",
  "alcool": "Strictement interdit en public, disponible dans certains hôtels 5* avec licence",
  "tenue_recommandee": "Tenue correcte obligatoire dans les lieux publics (genoux et épaules couverts)",
  "securite": "L'une des villes les plus sûres du monde",
  "transport_local": "Métro de Doha, taxi, Uber, bus",
  "aeroport": "Aéroport International Hamad (DOH) – hub Qatar Airways",
  "visa": "Visa à l'arrivée pour les Français (visa-free 180 jours depuis 2017)"
 },
 "meteo_par_mois": [
  {
   "mois": "Jan",
   "temp_max": 23,
   "temp_min": 13,
   "pluie_jours": 1,
   "emoji": "☀️"
  },
  {
   "mois": "Fév",
   "temp_max": 24,
   "temp_min": 14,
   "pluie_jours": 1,
   "emoji": "☀️"
  },
  {
   "mois": "Mar",
   "temp_max": 29,
   "temp_min": 17,
   "pluie_jours": 1,
   "emoji": "☀️"
  },
  {
   "mois": "Avr",
   "temp_max": 34,
   "temp_min": 22,
   "pluie_jours": 0,
   "emoji": "☀️"
  },
  {
   "mois": "Mai",
   "temp_max": 40,
   "temp_min": 27,
   "pluie_jours": 0,
   "emoji": "🔥"
  },
  {
   "mois": "Jun",
   "temp_max": 43,
   "temp_min": 30,
   "pluie_jours": 0,
   "emoji": "🔥"
  },
  {
   "mois": "Juil",
   "temp_max": 44,
   "temp_min": 32,
   "pluie_jours": 0,
   "emoji": "🔥"
  },
  {
   "mois": "Aoû",
   "temp_max": 44,
   "temp_min": 32,
   "pluie_jours": 0,
   "emoji": "🔥"
  },
  {
   "mois": "Sep",
   "temp_max": 41,
   "temp_min": 29,
   "pluie_jours": 0,
   "emoji": "🔥"
  },
  {
   "mois": "Oct",
   "temp_max": 36,
   "temp_min": 24,
   "pluie_jours": 0,
   "emoji": "☀️"
  },
  {
   "mois": "Nov",
   "temp_max": 30,
   "temp_min": 19,
   "pluie_jours": 0,
   "emoji": "☀️"
  },
  {
   "mois": "Déc",
   "temp_max": 24,
   "temp_min": 14,
   "pluie_jours": 1,
   "emoji": "☀️"
  }
 ],
 "restaurants": [
  {
   "nom": "Abo Shariha",
   "lat": 25.2860758,
   "lng": 51.5321738,
   "type": "arab, turkish",
   "halalConfidence": "high",
   "mapsUrl": "https://maps.google.com/?q=25.2860758,51.5321738",
   "source": "osm"
  },
  {
   "nom": "Tajine Moroccan Restaurant",
   "lat": 25.2867654,
   "lng": 51.5324477,
   "type": "moroccan",
   "halalConfidence": "likely",
   "mapsUrl": "https://maps.google.com/?q=25.2867654,51.5324477",
   "source": "osm"
  },
  {
   "nom": "Damasca One Restaurant",
   "lat": 25.286828,
   "lng": 51.533332,
   "type": "arab",
   "halalConfidence": "likely",
   "mapsUrl": "https://maps.google.com/?q=25.286828,51.533332",
   "source": "osm"
  },
  {
   "nom": "شاي ورقاق",
   "lat": 25.2882282,
   "lng": 51.5310871,
   "type": "arab, indian",
   "halalConfidence": "likely",
   "mapsUrl": "https://maps.google.com/?q=25.2882282,51.5310871",
   "source": "osm"
  },
  {
   "nom": "Basta",
   "lat": 25.2887018,
   "lng": 51.5320833,
   "type": "arab",
   "halalConfidence": "likely",
   "mapsUrl": "https://maps.google.com/?q=25.2887018,51.5320833",
   "source": "osm"
  },
  {
   "nom": "مطعم بندر عدن",
   "lat": 25.2893194,
   "lng": 51.5327635,
   "type": "arab",
   "halalConfidence": "likely",
   "mapsUrl": "https://maps.google.com/?q=25.2893194,51.5327635",
   "source": "osm"
  },
  {
   "nom": "Green Chilli Restaurant",
   "lat": 25.2835662,
   "lng": 51.5375162,
   "type": "chinese, indian, asian",
   "halalConfidence": "likely",
   "mapsUrl": "https://maps.google.com/?q=25.2835662,51.5375162",
   "source": "osm"
  },
  {
   "nom": "Sapphire Restaurant",
   "lat": 25.2785876,
   "lng": 51.532673,
   "type": "chinese, indian, barbecue",
   "halalConfidence": "likely",
   "mapsUrl": "https://maps.google.com/?q=25.2785876,51.532673",
   "source": "osm"
  },
  {
   "nom": "Saravanaa Bhavan",
   "lat": 25.284088,
   "lng": 51.5386629,
   "type": "indian, south indian",
   "halalConfidence": "likely",
   "mapsUrl": "https://maps.google.com/?q=25.284088,51.5386629",
   "source": "osm"
  },
  {
   "nom": "Energy Cafeteria",
   "lat": 25.2764234,
   "lng": 51.5343758,
   "type": "indian",
   "halalConfidence": "likely",
   "mapsUrl": "https://maps.google.com/?q=25.2764234,51.5343758",
   "source": "osm"
  },
  {
   "nom": "Gayad Restaurant",
   "lat": 25.2757943,
   "lng": 51.5312619,
   "type": "chinese, arab, indian",
   "halalConfidence": "likely",
   "mapsUrl": "https://maps.google.com/?q=25.2757943,51.5312619",
   "source": "osm"
  },
  {
   "nom": "Mazza Restaurant",
   "lat": 25.2754702,
   "lng": 51.530249,
   "type": "indian",
   "halalConfidence": "likely",
   "mapsUrl": "https://maps.google.com/?q=25.2754702,51.530249",
   "source": "osm"
  },
  {
   "nom": "Assaha Lebanese Village",
   "lat": 25.2770249,
   "lng": 51.537335,
   "type": "lebanese",
   "halalConfidence": "likely",
   "mapsUrl": "https://maps.google.com/?q=25.2770249,51.537335",
   "source": "osm"
  },
  {
   "nom": "Modern Restaurant and Juice Stall",
   "lat": 25.2759046,
   "lng": 51.5352548,
   "type": "chinese, indian, barbecue",
   "halalConfidence": "likely",
   "mapsUrl": "https://maps.google.com/?q=25.2759046,51.5352548",
   "source": "osm"
  },
  {
   "nom": "Maharshtra Pride",
   "lat": 25.2811762,
   "lng": 51.5184767,
   "type": "indian",
   "halalConfidence": "likely",
   "mapsUrl": "https://maps.google.com/?q=25.2811762,51.5184767",
   "source": "osm"
  },
  {
   "nom": "Istanbul Sea Restaurant",
   "lat": 25.2770413,
   "lng": 51.5408116,
   "type": "turkish, grill",
   "halalConfidence": "likely",
   "mapsUrl": "https://maps.google.com/?q=25.2770413,51.5408116",
   "source": "osm"
  },
  {
   "nom": "Vasanta Bhavan",
   "lat": 25.2797606,
   "lng": 51.5178742,
   "type": "indian",
   "halalConfidence": "likely",
   "mapsUrl": "https://maps.google.com/?q=25.2797606,51.5178742",
   "source": "osm"
  },
  {
   "nom": "Aryas Restraurent",
   "lat": 25.2745002,
   "lng": 51.5226289,
   "type": "indian",
   "halalConfidence": "likely",
   "mapsUrl": "https://maps.google.com/?q=25.2745002,51.5226289",
   "source": "osm"
  },
  {
   "nom": "Bollywood Masala",
   "lat": 25.2869764,
   "lng": 51.5466233,
   "type": "indian",
   "halalConfidence": "likely",
   "mapsUrl": "https://maps.google.com/?q=25.2869764,51.5466233",
   "source": "osm"
  },
  {
   "nom": "مقهى الأدباء ( شيشة )",
   "lat": 25.2736239,
   "lng": 51.5453491,
   "type": "arab",
   "halalConfidence": "likely",
   "mapsUrl": "https://maps.google.com/?q=25.2736239,51.5453491",
   "source": "osm"
  },
  {
   "nom": "Noor Turkey",
   "lat": 25.2703635,
   "lng": 51.5205533,
   "type": "kebab",
   "halalConfidence": "likely",
   "mapsUrl": "https://maps.google.com/?q=25.2703635,51.5205533",
   "source": "osm"
  },
  {
   "nom": "Turkey Restaurant",
   "lat": 25.2695978,
   "lng": 51.5197964,
   "type": "kebab, +",
   "halalConfidence": "likely",
   "mapsUrl": "https://maps.google.com/?q=25.2695978,51.5197964",
   "source": "osm"
  },
  {
   "nom": "Bayt Sharq",
   "lat": 25.285024,
   "lng": 51.5533367,
   "type": "arab",
   "halalConfidence": "likely",
   "mapsUrl": "https://maps.google.com/?q=25.285024,51.5533367",
   "source": "osm"
  },
  {
   "nom": "Royal Palace of Bukhari Restaurant",
   "lat": 25.2657137,
   "lng": 51.5376257,
   "type": "indian",
   "halalConfidence": "likely",
   "mapsUrl": "https://maps.google.com/?q=25.2657137,51.5376257",
   "source": "osm"
  },
  {
   "nom": "Harput Restaurant",
   "lat": 25.2765534,
   "lng": 51.5086657,
   "type": "turkish",
   "halalConfidence": "likely",
   "mapsUrl": "https://maps.google.com/?q=25.2765534,51.5086657",
   "source": "osm"
  },
  {
   "nom": "Wendy's",
   "lat": 25.2677471,
   "lng": 51.5155315,
   "type": "american",
   "halalConfidence": "high",
   "mapsUrl": "https://maps.google.com/?q=25.2677471,51.5155315",
   "source": "osm"
  },
  {
   "nom": "LeNotre Paris",
   "lat": 25.2844835,
   "lng": 51.5052794,
   "type": "french, arabic",
   "halalConfidence": "likely",
   "mapsUrl": "https://maps.google.com/?q=25.2844835,51.5052794",
   "source": "osm"
  },
  {
   "nom": "Tal Alsanawbar",
   "lat": 25.2749293,
   "lng": 51.5075911,
   "type": "arab",
   "halalConfidence": "likely",
   "mapsUrl": "https://maps.google.com/?q=25.2749293,51.5075911",
   "source": "osm"
  },
  {
   "nom": "Al Kousar Juice Stall",
   "lat": 25.2637977,
   "lng": 51.5168744,
   "type": "indian",
   "halalConfidence": "high",
   "mapsUrl": "https://maps.google.com/?q=25.2637977,51.5168744",
   "source": "osm"
  },
  {
   "nom": "Mafaaz Cafeteria",
   "lat": 25.2615992,
   "lng": 51.5137389,
   "type": "indian",
   "halalConfidence": "likely",
   "mapsUrl": "https://maps.google.com/?q=25.2615992,51.5137389",
   "source": "osm"
  },
  {
   "nom": "Taj Rasoi",
   "lat": 25.2868233,
   "lng": 51.5627011,
   "type": "indian",
   "halalConfidence": "likely",
   "mapsUrl": "https://maps.google.com/?q=25.2868233,51.5627011",
   "source": "osm"
  },
  {
   "nom": "المزايا قرطاج",
   "lat": 25.2801553,
   "lng": 51.4997024,
   "type": "arab",
   "halalConfidence": "likely",
   "mapsUrl": "https://maps.google.com/?q=25.2801553,51.4997024",
   "source": "osm"
  },
  {
   "nom": "Turkey Central",
   "lat": 25.273812,
   "lng": 51.5013213,
   "type": "kebab",
   "halalConfidence": "likely",
   "mapsUrl": "https://maps.google.com/?q=25.273812,51.5013213",
   "source": "osm"
  },
  {
   "nom": "Asiana",
   "lat": 25.2638235,
   "lng": 51.5554429,
   "type": "indian",
   "halalConfidence": "likely",
   "mapsUrl": "https://maps.google.com/?q=25.2638235,51.5554429",
   "source": "osm"
  },
  {
   "nom": "Silk Road Restaurant",
   "lat": 25.2761432,
   "lng": 51.4980486,
   "type": "asian, arab",
   "halalConfidence": "likely",
   "mapsUrl": "https://maps.google.com/?q=25.2761432,51.4980486",
   "source": "osm"
  },
  {
   "nom": "Marmara Istanbul Restaurant",
   "lat": 25.2816711,
   "lng": 51.4966903,
   "type": "arab, barbecue, chicken, grill, kebab, pizza, turkish",
   "halalConfidence": "likely",
   "mapsUrl": "https://maps.google.com/?q=25.2816711,51.4966903",
   "source": "osm"
  },
  {
   "nom": "Falafel Time",
   "lat": 25.3018041,
   "lng": 51.5006514,
   "type": "Restaurant",
   "halalConfidence": "certified",
   "mapsUrl": "https://maps.google.com/?q=25.3018041,51.5006514",
   "source": "osm"
  },
  {
   "nom": "Nusret",
   "lat": 25.3179797,
   "lng": 51.5364262,
   "type": "kebab",
   "halalConfidence": "likely",
   "mapsUrl": "https://maps.google.com/?q=25.3179797,51.5364262",
   "source": "osm"
  },
  {
   "nom": "Bombay Chowpatty",
   "lat": 25.2621596,
   "lng": 51.5572901,
   "type": "indian",
   "halalConfidence": "likely",
   "mapsUrl": "https://maps.google.com/?q=25.2621596,51.5572901",
   "source": "osm"
  },
  {
   "nom": "Peri Stop",
   "lat": 25.3180453,
   "lng": 51.52198,
   "type": "sandwich, shawarma",
   "halalConfidence": "likely",
   "mapsUrl": "https://maps.google.com/?q=25.3180453,51.52198",
   "source": "osm"
  },
  {
   "nom": "Karafirin",
   "lat": 25.3192885,
   "lng": 51.5273826,
   "type": "turkish",
   "halalConfidence": "likely",
   "mapsUrl": "https://maps.google.com/?q=25.3192885,51.5273826",
   "source": "osm"
  },
  {
   "nom": "Nasco Grill",
   "lat": 25.3189348,
   "lng": 51.5225171,
   "type": "indian, chinese",
   "halalConfidence": "likely",
   "mapsUrl": "https://maps.google.com/?q=25.3189348,51.5225171",
   "source": "osm"
  },
  {
   "nom": "Abajour",
   "lat": 25.3189385,
   "lng": 51.5212978,
   "type": "lebanese",
   "halalConfidence": "likely",
   "mapsUrl": "https://maps.google.com/?q=25.3189385,51.5212978",
   "source": "osm"
  },
  {
   "nom": "Delord Gourmet",
   "lat": 25.2655982,
   "lng": 51.4987564,
   "type": "mediterranean, arab",
   "halalConfidence": "high",
   "mapsUrl": "https://maps.google.com/?q=25.2655982,51.4987564",
   "source": "osm"
  },
  {
   "nom": "Caravan",
   "lat": 25.3165619,
   "lng": 51.5106683,
   "type": "indian",
   "halalConfidence": "likely",
   "mapsUrl": "https://maps.google.com/?q=25.3165619,51.5106683",
   "source": "osm"
  },
  {
   "nom": "Zaoq Restraurent",
   "lat": 25.2640782,
   "lng": 51.4982126,
   "type": "indian",
   "halalConfidence": "likely",
   "mapsUrl": "https://maps.google.com/?q=25.2640782,51.4982126",
   "source": "osm"
  },
  {
   "nom": "Kebab King",
   "lat": 25.3100702,
   "lng": 51.4962126,
   "type": "kebab",
   "halalConfidence": "likely",
   "mapsUrl": "https://maps.google.com/?q=25.3100702,51.4962126",
   "source": "osm"
  },
  {
   "nom": "Shater Abbas",
   "lat": 25.3253851,
   "lng": 51.5291977,
   "type": "kebab",
   "halalConfidence": "likely",
   "mapsUrl": "https://maps.google.com/?q=25.3253851,51.5291977",
   "source": "osm"
  },
  {
   "nom": "Royal Istanbul",
   "lat": 25.3263265,
   "lng": 51.5176471,
   "type": "turkish",
   "halalConfidence": "likely",
   "mapsUrl": "https://maps.google.com/?q=25.3263265,51.5176471",
   "source": "osm"
  },
  {
   "nom": "Star of India",
   "lat": 25.317271,
   "lng": 51.4983237,
   "type": "indian",
   "halalConfidence": "likely",
   "mapsUrl": "https://maps.google.com/?q=25.317271,51.4983237",
   "source": "osm"
  },
  {
   "nom": "Tandoor Express",
   "lat": 25.3189875,
   "lng": 51.5004735,
   "type": "indian",
   "halalConfidence": "likely",
   "mapsUrl": "https://maps.google.com/?q=25.3189875,51.5004735",
   "source": "osm"
  },
  {
   "nom": "Gayasi Restaurant",
   "lat": 25.2413366,
   "lng": 51.5702882,
   "type": "arab, asian, fish, indian",
   "halalConfidence": "likely",
   "mapsUrl": "https://maps.google.com/?q=25.2413366,51.5702882",
   "source": "osm"
  },
  {
   "nom": "Riyasat",
   "lat": 25.3503458,
   "lng": 51.5279782,
   "type": "indian",
   "halalConfidence": "likely",
   "mapsUrl": "https://maps.google.com/?q=25.3503458,51.5279782",
   "source": "osm"
  },
  {
   "nom": "Sukar Pasha",
   "lat": 25.3577515,
   "lng": 51.52645,
   "type": "turkish",
   "halalConfidence": "likely",
   "mapsUrl": "https://maps.google.com/?q=25.3577515,51.52645",
   "source": "osm"
  },
  {
   "nom": "Jwala",
   "lat": 25.26961,
   "lng": 51.6111615,
   "type": "indian",
   "halalConfidence": "likely",
   "mapsUrl": "https://maps.google.com/?q=25.26961,51.6111615",
   "source": "osm"
  },
  {
   "nom": "Dosa Factory",
   "lat": 25.2620823,
   "lng": 51.6121373,
   "type": "indian",
   "halalConfidence": "likely",
   "mapsUrl": "https://maps.google.com/?q=25.2620823,51.6121373",
   "source": "osm"
  },
  {
   "nom": "Marché",
   "lat": 25.2610104,
   "lng": 51.6142596,
   "type": "arab, mediterranean, barbecue",
   "halalConfidence": "likely",
   "mapsUrl": "https://maps.google.com/?q=25.2610104,51.6142596",
   "source": "osm"
  },
  {
   "nom": "BURSA İSTANBUL CENTRAL RESTAURANT",
   "lat": 25.2484721,
   "lng": 51.4526855,
   "type": "turkish, arabian, sharma",
   "halalConfidence": "likely",
   "mapsUrl": "https://maps.google.com/?q=25.2484721,51.4526855",
   "source": "osm"
  },
  {
   "nom": "مطعم قصر الياسمين",
   "lat": 25.3645643,
   "lng": 51.5430396,
   "type": "arab",
   "halalConfidence": "likely",
   "mapsUrl": "https://maps.google.com/?q=25.3645643,51.5430396",
   "source": "osm"
  },
  {
   "nom": "مزون",
   "lat": 25.2416555,
   "lng": 51.4554045,
   "type": "arab",
   "halalConfidence": "likely",
   "mapsUrl": "https://maps.google.com/?q=25.2416555,51.4554045",
   "source": "osm"
  },
  {
   "nom": "Asha's",
   "lat": 25.2611355,
   "lng": 51.4440393,
   "type": "indian",
   "halalConfidence": "likely",
   "mapsUrl": "https://maps.google.com/?q=25.2611355,51.4440393",
   "source": "osm"
  },
  {
   "nom": "Baladna",
   "lat": 25.3667965,
   "lng": 51.5519316,
   "type": "syrian, local",
   "halalConfidence": "likely",
   "mapsUrl": "https://maps.google.com/?q=25.3667965,51.5519316",
   "source": "osm"
  },
  {
   "nom": "Lime Tree Restaurant",
   "lat": 25.2121354,
   "lng": 51.5774246,
   "type": "arab, fish, indian",
   "halalConfidence": "likely",
   "mapsUrl": "https://maps.google.com/?q=25.2121354,51.5774246",
   "source": "osm"
  },
  {
   "nom": "German Doner Kebab",
   "lat": 25.3679728,
   "lng": 51.5521894,
   "type": "kebab",
   "halalConfidence": "likely",
   "mapsUrl": "https://maps.google.com/?q=25.3679728,51.5521894",
   "source": "osm"
  },
  {
   "nom": "Sawani Al Aker",
   "lat": 25.3685405,
   "lng": 51.5507388,
   "type": "kebab",
   "halalConfidence": "likely",
   "mapsUrl": "https://maps.google.com/?q=25.3685405,51.5507388",
   "source": "osm"
  },
  {
   "nom": "Royal Tandoor",
   "lat": 25.3692485,
   "lng": 51.548414,
   "type": "indian",
   "halalConfidence": "likely",
   "mapsUrl": "https://maps.google.com/?q=25.3692485,51.548414",
   "source": "osm"
  },
  {
   "nom": "Katsuya",
   "lat": 25.2570909,
   "lng": 51.4416315,
   "type": "japanese",
   "halalConfidence": "high",
   "mapsUrl": "https://maps.google.com/?q=25.2570909,51.4416315",
   "source": "osm"
  },
  {
   "nom": "Hasan Kolcuoğlu",
   "lat": 25.3696338,
   "lng": 51.5510528,
   "type": "turkish",
   "halalConfidence": "likely",
   "mapsUrl": "https://maps.google.com/?q=25.3696338,51.5510528",
   "source": "osm"
  },
  {
   "nom": "Lifestyle",
   "lat": 25.2131263,
   "lng": 51.5828926,
   "type": "indian",
   "halalConfidence": "likely",
   "mapsUrl": "https://maps.google.com/?q=25.2131263,51.5828926",
   "source": "osm"
  },
  {
   "nom": "Sabah w Masa - Porto Arabia branch",
   "lat": 25.3721982,
   "lng": 51.5458695,
   "type": "arab",
   "halalConfidence": "likely",
   "mapsUrl": "https://maps.google.com/?q=25.3721982,51.5458695",
   "source": "osm"
  }
 ],
 "mosquees": [],
 "hotels": [
  {
   "nom": "Al Nakheel",
   "categorie": "Hôtel",
   "priceRange": "€€",
   "mapsUrl": "https://maps.google.com/?q=25.2842777,51.5324466",
   "lat": 25.2842777,
   "lng": 51.5324466,
   "halalFriendly": false,
   "bookingUrl": "https://maps.google.com/?q=25.2842777,51.5324466",
   "source": "osm"
  },
  {
   "nom": "Najd boutique hotel",
   "categorie": "Hôtel",
   "priceRange": "€€",
   "mapsUrl": "https://maps.google.com/?q=25.2864269,51.5333697",
   "lat": 25.2864269,
   "lng": 51.5333697,
   "halalFriendly": false,
   "bookingUrl": "https://maps.google.com/?q=25.2864269,51.5333697",
   "source": "osm"
  },
  {
   "nom": "Al Mirqab",
   "categorie": "Hôtel",
   "priceRange": "€€",
   "mapsUrl": "https://maps.google.com/?q=25.2864869,51.5337168",
   "lat": 25.2864869,
   "lng": 51.5337168,
   "halalFriendly": false,
   "bookingUrl": "https://maps.google.com/?q=25.2864869,51.5337168",
   "source": "osm"
  },
  {
   "nom": "فندق رويال قطر",
   "categorie": "Hôtel",
   "priceRange": "€€",
   "mapsUrl": "https://maps.google.com/?q=25.2827605,51.5327435",
   "lat": 25.2827605,
   "lng": 51.5327435,
   "halalFriendly": false,
   "bookingUrl": "https://maps.google.com/?q=25.2827605,51.5327435",
   "source": "osm"
  },
  {
   "nom": "Park Hyatt",
   "categorie": "Hôtel",
   "priceRange": "€€€€",
   "score": 5,
   "mapsUrl": "https://maps.google.com/?q=25.2842334,51.5277968",
   "lat": 25.2842334,
   "lng": 51.5277968,
   "halalFriendly": false,
   "bookingUrl": "https://www.hyatt.com/en-US/hotel/qatar/park-hyatt-doha/dohph",
   "source": "osm"
  },
  {
   "nom": "Mercure Grand Hotel",
   "categorie": "Hôtel",
   "priceRange": "€€",
   "mapsUrl": "https://maps.google.com/?q=25.2833694,51.5278575",
   "lat": 25.2833694,
   "lng": 51.5278575,
   "halalFriendly": false,
   "bookingUrl": "https://maps.google.com/?q=25.2833694,51.5278575",
   "source": "osm"
  },
  {
   "nom": "Qatar Palace Hotel",
   "categorie": "Hôtel",
   "priceRange": "€€",
   "mapsUrl": "https://maps.google.com/?q=25.2818067,51.5318748",
   "lat": 25.2818067,
   "lng": 51.5318748,
   "halalFriendly": false,
   "bookingUrl": "https://maps.google.com/?q=25.2818067,51.5318748",
   "source": "osm"
  },
  {
   "nom": "The Tower",
   "categorie": "Hôtel",
   "priceRange": "€€",
   "mapsUrl": "https://maps.google.com/?q=25.2812588,51.53003",
   "lat": 25.2812588,
   "lng": 51.53003,
   "halalFriendly": false,
   "bookingUrl": "https://maps.google.com/?q=25.2812588,51.53003",
   "source": "osm"
  },
  {
   "nom": "Al Bidda Boutique Hotel - Doha",
   "categorie": "Hôtel",
   "priceRange": "€€",
   "mapsUrl": "https://maps.google.com/?q=25.2895578,51.5326012",
   "lat": 25.2895578,
   "lng": 51.5326012,
   "halalFriendly": false,
   "bookingUrl": "https://maps.google.com/?q=25.2895578,51.5326012",
   "source": "osm"
  },
  {
   "nom": "Grand Qatar Palace Hotel",
   "categorie": "Hôtel",
   "priceRange": "€€",
   "mapsUrl": "https://maps.google.com/?q=25.2805904,51.5302543",
   "lat": 25.2805904,
   "lng": 51.5302543,
   "halalFriendly": false,
   "bookingUrl": "https://maps.google.com/?q=25.2805904,51.5302543",
   "source": "osm"
  },
  {
   "nom": "The Town Hotel",
   "categorie": "Hôtel",
   "priceRange": "€€",
   "mapsUrl": "https://maps.google.com/?q=25.2804879,51.5299928",
   "lat": 25.2804879,
   "lng": 51.5299928,
   "halalFriendly": false,
   "bookingUrl": "https://maps.google.com/?q=25.2804879,51.5299928",
   "source": "osm"
  },
  {
   "nom": "Ramada Encore by Wyndham Doha",
   "categorie": "Hôtel",
   "priceRange": "€€",
   "mapsUrl": "https://maps.google.com/?q=25.2803912,51.5304111",
   "lat": 25.2803912,
   "lng": 51.5304111,
   "halalFriendly": false,
   "bookingUrl": "http://www.ramadaencoredoha.com/",
   "source": "osm"
  },
  {
   "nom": "Hotel Altiba",
   "categorie": "Hôtel",
   "priceRange": "€€",
   "mapsUrl": "https://maps.google.com/?q=25.2851814,51.5372231",
   "lat": 25.2851814,
   "lng": 51.5372231,
   "halalFriendly": false,
   "bookingUrl": "https://maps.google.com/?q=25.2851814,51.5372231",
   "source": "osm"
  },
  {
   "nom": "Central Inn Souq Waqif",
   "categorie": "Hôtel",
   "priceRange": "€€",
   "mapsUrl": "https://maps.google.com/?q=25.2841037,51.5372753",
   "lat": 25.2841037,
   "lng": 51.5372753,
   "halalFriendly": false,
   "bookingUrl": "https://centralinnsouqwaqif.qa/",
   "source": "osm"
  },
  {
   "nom": "Jamal Hotel",
   "categorie": "Hôtel",
   "priceRange": "€€",
   "mapsUrl": "https://maps.google.com/?q=25.2848916,51.537414",
   "lat": 25.2848916,
   "lng": 51.537414,
   "halalFriendly": false,
   "bookingUrl": "https://maps.google.com/?q=25.2848916,51.537414",
   "source": "osm"
  },
  {
   "nom": "Golden Hotel",
   "categorie": "Hôtel",
   "priceRange": "€€",
   "mapsUrl": "https://maps.google.com/?q=25.2848163,51.5375184",
   "lat": 25.2848163,
   "lng": 51.5375184,
   "halalFriendly": false,
   "bookingUrl": "https://maps.google.com/?q=25.2848163,51.5375184",
   "source": "osm"
  },
  {
   "nom": "Doha Dynasty Hotel",
   "categorie": "Hôtel",
   "priceRange": "€€",
   "mapsUrl": "https://maps.google.com/?q=25.2835951,51.5376097",
   "lat": 25.2835951,
   "lng": 51.5376097,
   "halalFriendly": false,
   "bookingUrl": "https://www.dohadynastyhotel.com/",
   "source": "osm"
  },
  {
   "nom": "فندق مشيرب",
   "categorie": "Hôtel",
   "priceRange": "€€",
   "mapsUrl": "https://maps.google.com/?q=25.2802807,51.5259764",
   "lat": 25.2802807,
   "lng": 51.5259764,
   "halalFriendly": false,
   "bookingUrl": "https://maps.google.com/?q=25.2802807,51.5259764",
   "source": "osm"
  },
  {
   "nom": "Kingsgate Hotel",
   "categorie": "Hôtel",
   "priceRange": "€€",
   "mapsUrl": "https://maps.google.com/?q=25.2861705,51.5386709",
   "lat": 25.2861705,
   "lng": 51.5386709,
   "halalFriendly": false,
   "bookingUrl": "https://www.millenniumhotels.com/en/doha/kingsgate-hotel-doha/",
   "source": "osm"
  },
  {
   "nom": "Four Points",
   "categorie": "Hôtel",
   "priceRange": "€€",
   "mapsUrl": "https://maps.google.com/?q=25.2829197,51.523634",
   "lat": 25.2829197,
   "lng": 51.523634,
   "halalFriendly": false,
   "bookingUrl": "https://maps.google.com/?q=25.2829197,51.523634",
   "source": "osm"
  },
  {
   "nom": "La Villa",
   "categorie": "Hôtel",
   "priceRange": "€€",
   "mapsUrl": "https://maps.google.com/?q=25.2856834,51.5388588",
   "lat": 25.2856834,
   "lng": 51.5388588,
   "halalFriendly": false,
   "bookingUrl": "https://maps.google.com/?q=25.2856834,51.5388588",
   "source": "osm"
  },
  {
   "nom": "لاميراج",
   "categorie": "Hôtel",
   "priceRange": "€€",
   "mapsUrl": "https://maps.google.com/?q=25.2826613,51.5231525",
   "lat": 25.2826613,
   "lng": 51.5231525,
   "halalFriendly": false,
   "bookingUrl": "https://maps.google.com/?q=25.2826613,51.5231525",
   "source": "osm"
  },
  {
   "nom": "Doha Palace Residence",
   "categorie": "Appartement",
   "priceRange": "€€",
   "mapsUrl": "https://maps.google.com/?q=25.2811576,51.5387926",
   "lat": 25.2811576,
   "lng": 51.5387926,
   "halalFriendly": false,
   "bookingUrl": "https://maps.google.com/?q=25.2811576,51.5387926",
   "source": "osm"
  },
  {
   "nom": "Ibrahim Qtel house",
   "categorie": "Auberge",
   "priceRange": "€€",
   "mapsUrl": "https://maps.google.com/?q=25.2785583,51.5363693",
   "lat": 25.2785583,
   "lng": 51.5363693,
   "halalFriendly": false,
   "bookingUrl": "https://maps.google.com/?q=25.2785583,51.5363693",
   "source": "osm"
  },
  {
   "nom": "سويس بل هوتيل",
   "categorie": "Hôtel",
   "priceRange": "€€",
   "mapsUrl": "https://maps.google.com/?q=25.2873913,51.540239",
   "lat": 25.2873913,
   "lng": 51.540239,
   "halalFriendly": false,
   "bookingUrl": "https://maps.google.com/?q=25.2873913,51.540239",
   "source": "osm"
  },
  {
   "nom": "Shaza Hotel",
   "categorie": "Hôtel",
   "priceRange": "€€€€",
   "score": 5,
   "mapsUrl": "https://maps.google.com/?q=25.2869027,51.5404862",
   "lat": 25.2869027,
   "lng": 51.5404862,
   "halalFriendly": false,
   "bookingUrl": "https://maps.google.com/?q=25.2869027,51.5404862",
   "source": "osm"
  },
  {
   "nom": "Grand Suite Hotel",
   "categorie": "Hôtel",
   "priceRange": "€€",
   "mapsUrl": "https://maps.google.com/?q=25.2814375,51.5396035",
   "lat": 25.2814375,
   "lng": 51.5396035,
   "halalFriendly": false,
   "bookingUrl": "https://maps.google.com/?q=25.2814375,51.5396035",
   "source": "osm"
  },
  {
   "nom": "Embassy Suites by Hilton Doha Old Town",
   "categorie": "Hôtel",
   "priceRange": "€€€€",
   "score": 4,
   "mapsUrl": "https://maps.google.com/?q=25.2837663,51.5405689",
   "lat": 25.2837663,
   "lng": 51.5405689,
   "halalFriendly": false,
   "bookingUrl": "https://www.hilton.com/en/hotels/dohemes-embassy-suites-doha-old-town/",
   "source": "osm"
  },
  {
   "nom": "Ramada Doha Old Town",
   "categorie": "Hôtel",
   "priceRange": "€€",
   "mapsUrl": "https://maps.google.com/?q=25.2876,51.5405323",
   "lat": 25.2876,
   "lng": 51.5405323,
   "halalFriendly": false,
   "bookingUrl": "https://maps.google.com/?q=25.2876,51.5405323",
   "source": "osm"
  },
  {
   "nom": "Horizon Manor Hotel",
   "categorie": "Hôtel",
   "priceRange": "€€",
   "mapsUrl": "https://maps.google.com/?q=25.289066,51.5399697",
   "lat": 25.289066,
   "lng": 51.5399697,
   "halalFriendly": false,
   "bookingUrl": "https://horizonmanor.com/index.html",
   "source": "osm"
  },
  {
   "nom": "saray Musheireb Hotel",
   "categorie": "Hôtel",
   "priceRange": "€€",
   "mapsUrl": "https://maps.google.com/?q=25.2826005,51.5215744",
   "lat": 25.2826005,
   "lng": 51.5215744,
   "halalFriendly": false,
   "bookingUrl": "https://maps.google.com/?q=25.2826005,51.5215744",
   "source": "osm"
  },
  {
   "nom": "C - Hotel and Suites Doha",
   "categorie": "Hôtel",
   "priceRange": "€€",
   "mapsUrl": "https://maps.google.com/?q=25.2868936,51.5408779",
   "lat": 25.2868936,
   "lng": 51.5408779,
   "halalFriendly": false,
   "bookingUrl": "https://maps.google.com/?q=25.2868936,51.5408779",
   "source": "osm"
  },
  {
   "nom": "Diamond Hotel",
   "categorie": "Hôtel",
   "priceRange": "€€",
   "mapsUrl": "https://maps.google.com/?q=25.2813335,51.540126",
   "lat": 25.2813335,
   "lng": 51.540126,
   "halalFriendly": false,
   "bookingUrl": "https://maps.google.com/?q=25.2813335,51.540126",
   "source": "osm"
  },
  {
   "nom": "Doha Jaded 110 CapitalOne",
   "categorie": "Appartement",
   "priceRange": "€€",
   "mapsUrl": "https://maps.google.com/?q=25.2765748,51.5345788",
   "lat": 25.2765748,
   "lng": 51.5345788,
   "halalFriendly": false,
   "bookingUrl": "https://maps.google.com/?q=25.2765748,51.5345788",
   "source": "osm"
  },
  {
   "nom": "K 108 Hotel",
   "categorie": "Hôtel",
   "priceRange": "€€",
   "mapsUrl": "https://maps.google.com/?q=25.2813254,51.5404532",
   "lat": 25.2813254,
   "lng": 51.5404532,
   "halalFriendly": false,
   "bookingUrl": "https://www.k108hotel.com/",
   "source": "osm"
  },
  {
   "nom": "Musherib Qatar Airways Accommodation",
   "categorie": "Appartement",
   "priceRange": "€€",
   "mapsUrl": "https://maps.google.com/?q=25.2778391,51.524398",
   "lat": 25.2778391,
   "lng": 51.524398,
   "halalFriendly": false,
   "bookingUrl": "https://maps.google.com/?q=25.2778391,51.524398",
   "source": "osm"
  },
  {
   "nom": "Quantex Qatar",
   "categorie": "Hôtel",
   "priceRange": "€€",
   "mapsUrl": "https://maps.google.com/?q=25.2869659,51.5417444",
   "lat": 25.2869659,
   "lng": 51.5417444,
   "halalFriendly": false,
   "bookingUrl": "https://maps.google.com/?q=25.2869659,51.5417444",
   "source": "osm"
  },
  {
   "nom": "my house",
   "categorie": "Maison d'hôtes",
   "priceRange": "€€",
   "mapsUrl": "https://maps.google.com/?q=25.2793554,51.5220866",
   "lat": 25.2793554,
   "lng": 51.5220866,
   "halalFriendly": false,
   "bookingUrl": "https://maps.google.com/?q=25.2793554,51.5220866",
   "source": "osm"
  },
  {
   "nom": "EliteA/ EliteB qatar airways",
   "categorie": "Appartement",
   "priceRange": "€€",
   "mapsUrl": "https://maps.google.com/?q=25.2813388,51.5204817",
   "lat": 25.2813388,
   "lng": 51.5204817,
   "halalFriendly": false,
   "bookingUrl": "https://maps.google.com/?q=25.2813388,51.5204817",
   "source": "osm"
  },
  {
   "nom": "Le rose compound",
   "categorie": "Appartement",
   "priceRange": "€€",
   "mapsUrl": "https://maps.google.com/?q=25.2771904,51.5383953",
   "lat": 25.2771904,
   "lng": 51.5383953,
   "halalFriendly": false,
   "bookingUrl": "https://maps.google.com/?q=25.2771904,51.5383953",
   "source": "osm"
  },
  {
   "nom": "Crystal Palace",
   "categorie": "Hôtel",
   "priceRange": "€€",
   "mapsUrl": "https://maps.google.com/?q=25.2876559,51.5193187",
   "lat": 25.2876559,
   "lng": 51.5193187,
   "halalFriendly": false,
   "bookingUrl": "https://maps.google.com/?q=25.2876559,51.5193187",
   "source": "osm"
  },
  {
   "nom": "Royal Riviera Hotel Doha",
   "categorie": "Hôtel",
   "priceRange": "€€",
   "mapsUrl": "https://maps.google.com/?q=25.2889862,51.5423896",
   "lat": 25.2889862,
   "lng": 51.5423896,
   "halalFriendly": false,
   "bookingUrl": "https://maps.google.com/?q=25.2889862,51.5423896",
   "source": "osm"
  },
  {
   "nom": "Grand Regal",
   "categorie": "Hôtel",
   "priceRange": "€€",
   "mapsUrl": "https://maps.google.com/?q=25.2820469,51.5425448",
   "lat": 25.2820469,
   "lng": 51.5425448,
   "halalFriendly": false,
   "bookingUrl": "https://maps.google.com/?q=25.2820469,51.5425448",
   "source": "osm"
  },
  {
   "nom": "Mansoura Flat",
   "categorie": "Appartement",
   "priceRange": "€€",
   "mapsUrl": "https://maps.google.com/?q=25.2742039,51.5324303",
   "lat": 25.2742039,
   "lng": 51.5324303,
   "halalFriendly": false,
   "bookingUrl": "https://maps.google.com/?q=25.2742039,51.5324303",
   "source": "osm"
  },
  {
   "nom": "TRANSIND ACCOMMODATION",
   "categorie": "Appartement",
   "priceRange": "€€",
   "mapsUrl": "https://maps.google.com/?q=25.2817502,51.5427955",
   "lat": 25.2817502,
   "lng": 51.5427955,
   "halalFriendly": false,
   "bookingUrl": "https://maps.google.com/?q=25.2817502,51.5427955",
   "source": "osm"
  },
  {
   "nom": "Luxury Apartment Hotel Royal Suites",
   "categorie": "Hôtel",
   "priceRange": "€€",
   "mapsUrl": "https://maps.google.com/?q=25.2791555,51.5205845",
   "lat": 25.2791555,
   "lng": 51.5205845,
   "halalFriendly": false,
   "bookingUrl": "https://maps.google.com/?q=25.2791555,51.5205845",
   "source": "osm"
  },
  {
   "nom": "Gloria Hotel",
   "categorie": "Hôtel",
   "priceRange": "€€",
   "mapsUrl": "https://maps.google.com/?q=25.2889162,51.5429561",
   "lat": 25.2889162,
   "lng": 51.5429561,
   "halalFriendly": false,
   "bookingUrl": "https://maps.google.com/?q=25.2889162,51.5429561",
   "source": "osm"
  },
  {
   "nom": "ذا نِد الدوحة",
   "categorie": "Hôtel",
   "priceRange": "€€",
   "mapsUrl": "https://maps.google.com/?q=25.2942533,51.5229365",
   "lat": 25.2942533,
   "lng": 51.5229365,
   "halalFriendly": false,
   "bookingUrl": "https://www.thened.com/doha/",
   "source": "osm"
  },
  {
   "nom": "Regency Residence 6",
   "categorie": "Appartement",
   "priceRange": "€€",
   "mapsUrl": "https://maps.google.com/?q=25.2869974,51.5183985",
   "lat": 25.2869974,
   "lng": 51.5183985,
   "halalFriendly": false,
   "bookingUrl": "https://maps.google.com/?q=25.2869974,51.5183985",
   "source": "osm"
  },
  {
   "nom": "Best Western Plus Doha",
   "categorie": "Hôtel",
   "priceRange": "€€",
   "mapsUrl": "https://maps.google.com/?q=25.2897699,51.542772",
   "lat": 25.2897699,
   "lng": 51.542772,
   "halalFriendly": false,
   "bookingUrl": "https://maps.google.com/?q=25.2897699,51.542772",
   "source": "osm"
  },
  {
   "nom": "Accommodation",
   "categorie": "Appartement",
   "priceRange": "€€",
   "mapsUrl": "https://maps.google.com/?q=25.2816499,51.5430549",
   "lat": 25.2816499,
   "lng": 51.5430549,
   "halalFriendly": false,
   "bookingUrl": "https://maps.google.com/?q=25.2816499,51.5430549",
   "source": "osm"
  },
  {
   "nom": "Plaza Inn",
   "categorie": "Hôtel",
   "priceRange": "€€",
   "mapsUrl": "https://maps.google.com/?q=25.2871913,51.5436841",
   "lat": 25.2871913,
   "lng": 51.5436841,
   "halalFriendly": false,
   "bookingUrl": "https://maps.google.com/?q=25.2871913,51.5436841",
   "source": "osm"
  },
  {
   "nom": "Retaj Royale Hotel",
   "categorie": "Hôtel",
   "priceRange": "€€",
   "mapsUrl": "https://maps.google.com/?q=25.2888175,51.5432936",
   "lat": 25.2888175,
   "lng": 51.5432936,
   "halalFriendly": false,
   "bookingUrl": "https://maps.google.com/?q=25.2888175,51.5432936",
   "source": "osm"
  },
  {
   "nom": "Dana Hotel",
   "categorie": "Hôtel",
   "priceRange": "€€",
   "mapsUrl": "https://maps.google.com/?q=25.2870409,51.5437381",
   "lat": 25.2870409,
   "lng": 51.5437381,
   "halalFriendly": false,
   "bookingUrl": "https://maps.google.com/?q=25.2870409,51.5437381",
   "source": "osm"
  },
  {
   "nom": "Saraya Corniche",
   "categorie": "Hôtel",
   "priceRange": "€€",
   "mapsUrl": "https://maps.google.com/?q=25.2901156,51.5427812",
   "lat": 25.2901156,
   "lng": 51.5427812,
   "halalFriendly": false,
   "bookingUrl": "https://www.sarayacorniche.com/",
   "source": "osm"
  },
  {
   "nom": "Gulf Paradise Hotel",
   "categorie": "Hôtel",
   "priceRange": "€€",
   "mapsUrl": "https://maps.google.com/?q=25.2818865,51.5183519",
   "lat": 25.2818865,
   "lng": 51.5183519,
   "halalFriendly": false,
   "bookingUrl": "https://maps.google.com/?q=25.2818865,51.5183519",
   "source": "osm"
  },
  {
   "nom": "Golden Ocean Hotel",
   "categorie": "Hôtel",
   "priceRange": "€€",
   "mapsUrl": "https://maps.google.com/?q=25.2860076,51.5445097",
   "lat": 25.2860076,
   "lng": 51.5445097,
   "halalFriendly": false,
   "bookingUrl": "https://www.goldenoceanhotel.com/",
   "source": "osm"
  },
  {
   "nom": "Hotel Golden Tulip Doha",
   "categorie": "Hôtel",
   "priceRange": "€€",
   "mapsUrl": "https://maps.google.com/?q=25.2897249,51.543691",
   "lat": 25.2897249,
   "lng": 51.543691,
   "halalFriendly": false,
   "bookingUrl": "https://doha.goldentulip.com",
   "source": "osm"
  },
  {
   "nom": "Fraser Suites Doha",
   "categorie": "Hôtel",
   "priceRange": "€€",
   "mapsUrl": "https://maps.google.com/?q=25.2902237,51.543684",
   "lat": 25.2902237,
   "lng": 51.543684,
   "halalFriendly": false,
   "bookingUrl": "https://maps.google.com/?q=25.2902237,51.543684",
   "source": "osm"
  },
  {
   "nom": "Al Ganim Res. -Aero Freight Acc",
   "categorie": "Appartement",
   "priceRange": "€€",
   "mapsUrl": "https://maps.google.com/?q=25.2811652,51.5439582",
   "lat": 25.2811652,
   "lng": 51.5439582,
   "halalFriendly": false,
   "bookingUrl": "https://maps.google.com/?q=25.2811652,51.5439582",
   "source": "osm"
  },
  {
   "nom": "Banyan Tree Doha at La Cigale Mushaireb",
   "categorie": "Hôtel",
   "priceRange": "€€",
   "mapsUrl": "https://maps.google.com/?q=25.2857899,51.5171957",
   "lat": 25.2857899,
   "lng": 51.5171957,
   "halalFriendly": false,
   "bookingUrl": "https://www.banyantree.com/qatar/doha?utm_source=sojern&utm_campaign=pots&utm_medium=SEM&utm_content=BTDOCM&gclid=Cj0KCQjwma6TBhDIARIsAOKuANwtCeOfH1tpHI0S-r-Yjyf9K9JfTPhE13PBna6XlRuSf7_fymr95JIaAt1JEALw_wcB&gclsrc=aw.ds",
   "source": "osm"
  },
  {
   "nom": "DoubleTree by Hilton Doha - Old Town",
   "categorie": "Hôtel",
   "priceRange": "€€€€",
   "score": 5,
   "mapsUrl": "https://maps.google.com/?q=25.2885537,51.5444128",
   "lat": 25.2885537,
   "lng": 51.5444128,
   "halalFriendly": false,
   "bookingUrl": "https://www.hilton.com/en/hotels/dohotdi-doubletree-doha-old-town/",
   "source": "osm"
  },
  {
   "nom": "Guest Palace Hotel",
   "categorie": "Hôtel",
   "priceRange": "€€",
   "mapsUrl": "https://maps.google.com/?q=25.2806586,51.5440861",
   "lat": 25.2806586,
   "lng": 51.5440861,
   "halalFriendly": false,
   "bookingUrl": "https://maps.google.com/?q=25.2806586,51.5440861",
   "source": "osm"
  },
  {
   "nom": "Jouri, A Murwab Hotel",
   "categorie": "Hôtel",
   "priceRange": "€€",
   "mapsUrl": "https://maps.google.com/?q=25.2871958,51.5449895",
   "lat": 25.2871958,
   "lng": 51.5449895,
   "halalFriendly": false,
   "bookingUrl": "https://maps.google.com/?q=25.2871958,51.5449895",
   "source": "osm"
  },
  {
   "nom": "مجمع الهندسة",
   "categorie": "Maison d'hôtes",
   "priceRange": "€€",
   "mapsUrl": "https://maps.google.com/?q=25.273142,51.5350712",
   "lat": 25.273142,
   "lng": 51.5350712,
   "halalFriendly": false,
   "bookingUrl": "https://maps.google.com/?q=25.273142,51.5350712",
   "source": "osm"
  },
  {
   "nom": "al liwan residence",
   "categorie": "Appartement",
   "priceRange": "€€",
   "mapsUrl": "https://maps.google.com/?q=25.2728996,51.5340926",
   "lat": 25.2728996,
   "lng": 51.5340926,
   "halalFriendly": false,
   "bookingUrl": "https://maps.google.com/?q=25.2728996,51.5340926",
   "source": "osm"
  },
  {
   "nom": "Green garden hotel",
   "categorie": "Hôtel",
   "priceRange": "€€",
   "mapsUrl": "https://maps.google.com/?q=25.2842814,51.5453332",
   "lat": 25.2842814,
   "lng": 51.5453332,
   "halalFriendly": false,
   "bookingUrl": "https://maps.google.com/?q=25.2842814,51.5453332",
   "source": "osm"
  },
  {
   "nom": "البستان",
   "categorie": "Hôtel",
   "priceRange": "€€",
   "mapsUrl": "https://maps.google.com/?q=25.2869516,51.5454352",
   "lat": 25.2869516,
   "lng": 51.5454352,
   "halalFriendly": false,
   "bookingUrl": "https://maps.google.com/?q=25.2869516,51.5454352",
   "source": "osm"
  },
  {
   "nom": "Mövenpick",
   "categorie": "Hôtel",
   "priceRange": "€€",
   "mapsUrl": "https://maps.google.com/?q=25.2902721,51.5445528",
   "lat": 25.2902721,
   "lng": 51.5445528,
   "halalFriendly": false,
   "bookingUrl": "https://maps.google.com/?q=25.2902721,51.5445528",
   "source": "osm"
  },
  {
   "nom": "MY ROOM",
   "categorie": "Appartement",
   "priceRange": "€€",
   "mapsUrl": "https://maps.google.com/?q=25.2727659,51.5260393",
   "lat": 25.2727659,
   "lng": 51.5260393,
   "halalFriendly": false,
   "bookingUrl": "https://maps.google.com/?q=25.2727659,51.5260393",
   "source": "osm"
  },
  {
   "nom": "فندق البستان",
   "categorie": "Hôtel",
   "priceRange": "€€",
   "mapsUrl": "https://maps.google.com/?q=25.286998,51.5457823",
   "lat": 25.286998,
   "lng": 51.5457823,
   "halalFriendly": false,
   "bookingUrl": "https://maps.google.com/?q=25.286998,51.5457823",
   "source": "osm"
  },
  {
   "nom": "sarbjit home",
   "categorie": "Maison d'hôtes",
   "priceRange": "€€",
   "mapsUrl": "https://maps.google.com/?q=25.2722588,51.5343616",
   "lat": 25.2722588,
   "lng": 51.5343616,
   "halalFriendly": false,
   "bookingUrl": "https://maps.google.com/?q=25.2722588,51.5343616",
   "source": "osm"
  },
  {
   "nom": "Umm Dasha",
   "categorie": "Appartement",
   "priceRange": "€€",
   "mapsUrl": "https://maps.google.com/?q=25.2768229,51.5426228",
   "lat": 25.2768229,
   "lng": 51.5426228,
   "halalFriendly": false,
   "bookingUrl": "https://maps.google.com/?q=25.2768229,51.5426228",
   "source": "osm"
  },
  {
   "nom": "Liberty Suites",
   "categorie": "Hôtel",
   "priceRange": "€€",
   "mapsUrl": "https://maps.google.com/?q=25.2837434,51.5160085",
   "lat": 25.2837434,
   "lng": 51.5160085,
   "halalFriendly": false,
   "bookingUrl": "https://maps.google.com/?q=25.2837434,51.5160085",
   "source": "osm"
  },
  {
   "nom": "فندق كونكورد",
   "categorie": "Hôtel",
   "priceRange": "€€",
   "mapsUrl": "https://maps.google.com/?q=25.2754631,51.5414289",
   "lat": 25.2754631,
   "lng": 51.5414289,
   "halalFriendly": false,
   "bookingUrl": "https://maps.google.com/?q=25.2754631,51.5414289",
   "source": "osm"
  },
  {
   "nom": "Safir Hotel Doha",
   "categorie": "Hôtel",
   "priceRange": "€€€€",
   "score": 4,
   "mapsUrl": "https://maps.google.com/?q=25.272656,51.537435",
   "lat": 25.272656,
   "lng": 51.537435,
   "halalFriendly": false,
   "bookingUrl": "https://WWW.SAFIRHOTELS.COM",
   "source": "osm"
  },
  {
   "nom": "Hampton by Hilton Doha Old Town",
   "categorie": "Hôtel",
   "priceRange": "€€€",
   "score": 3,
   "mapsUrl": "https://maps.google.com/?q=25.2891798,51.5459247",
   "lat": 25.2891798,
   "lng": 51.5459247,
   "halalFriendly": false,
   "bookingUrl": "https://www.hilton.com/en/hotels/dohohhx-hampton-doha-old-town/",
   "source": "osm"
  },
  {
   "nom": "QICR Building",
   "categorie": "Appartement",
   "priceRange": "€€",
   "mapsUrl": "https://maps.google.com/?q=25.2711746,51.5300076",
   "lat": 25.2711746,
   "lng": 51.5300076,
   "halalFriendly": false,
   "bookingUrl": "https://maps.google.com/?q=25.2711746,51.5300076",
   "source": "osm"
  },
  {
   "nom": "Gokulam Park Doha",
   "categorie": "Hôtel",
   "priceRange": "€€",
   "mapsUrl": "https://maps.google.com/?q=25.2877308,51.5465837",
   "lat": 25.2877308,
   "lng": 51.5465837,
   "halalFriendly": false,
   "bookingUrl": "https://maps.google.com/?q=25.2877308,51.5465837",
   "source": "osm"
  },
  {
   "nom": "فندق سينشري",
   "categorie": "Hôtel",
   "priceRange": "€€",
   "mapsUrl": "https://maps.google.com/?q=25.2856328,51.5469034",
   "lat": 25.2856328,
   "lng": 51.5469034,
   "halalFriendly": false,
   "bookingUrl": "https://maps.google.com/?q=25.2856328,51.5469034",
   "source": "osm"
  },
  {
   "nom": "Waseef",
   "categorie": "Hôtel",
   "priceRange": "€€",
   "mapsUrl": "https://maps.google.com/?q=25.2890923,51.5463866",
   "lat": 25.2890923,
   "lng": 51.5463866,
   "halalFriendly": false,
   "bookingUrl": "https://maps.google.com/?q=25.2890923,51.5463866",
   "source": "osm"
  },
  {
   "nom": "Fuda Hotel",
   "categorie": "Hôtel",
   "priceRange": "€€",
   "mapsUrl": "https://maps.google.com/?q=25.2871537,51.5469737",
   "lat": 25.2871537,
   "lng": 51.5469737,
   "halalFriendly": false,
   "bookingUrl": "https://maps.google.com/?q=25.2871537,51.5469737",
   "source": "osm"
  },
  {
   "nom": "Royal Sherao Hotel",
   "categorie": "Hôtel",
   "priceRange": "€€",
   "mapsUrl": "https://maps.google.com/?q=25.2855123,51.5473224",
   "lat": 25.2855123,
   "lng": 51.5473224,
   "halalFriendly": false,
   "bookingUrl": "https://www.sherao.qa/",
   "source": "osm"
  },
  {
   "nom": "Marlo",
   "categorie": "Appartement",
   "priceRange": "€€",
   "mapsUrl": "https://maps.google.com/?q=25.2712965,51.5359346",
   "lat": 25.2712965,
   "lng": 51.5359346,
   "halalFriendly": false,
   "bookingUrl": "https://maps.google.com/?q=25.2712965,51.5359346",
   "source": "osm"
  },
  {
   "nom": "Al Mourouj Inn Hotel",
   "categorie": "Hôtel",
   "priceRange": "€€",
   "mapsUrl": "https://maps.google.com/?q=25.287269,51.5473056",
   "lat": 25.287269,
   "lng": 51.5473056,
   "halalFriendly": false,
   "bookingUrl": "https://maps.google.com/?q=25.287269,51.5473056",
   "source": "osm"
  },
  {
   "nom": "Marlo qdf",
   "categorie": "Appartement",
   "priceRange": "€€",
   "mapsUrl": "https://maps.google.com/?q=25.2711539,51.5358287",
   "lat": 25.2711539,
   "lng": 51.5358287,
   "halalFriendly": false,
   "bookingUrl": "https://maps.google.com/?q=25.2711539,51.5358287",
   "source": "osm"
  },
  {
   "nom": "Ummu Ghuwalina Qr Apartments Bld 70A",
   "categorie": "Auberge",
   "priceRange": "€€",
   "mapsUrl": "https://maps.google.com/?q=25.2783533,51.5457532",
   "lat": 25.2783533,
   "lng": 51.5457532,
   "halalFriendly": false,
   "bookingUrl": "https://maps.google.com/?q=25.2783533,51.5457532",
   "source": "osm"
  },
  {
   "nom": "Crowne Plaza Business Park",
   "categorie": "Hôtel",
   "priceRange": "€€",
   "mapsUrl": "https://maps.google.com/?q=25.2731034,51.5406891",
   "lat": 25.2731034,
   "lng": 51.5406891,
   "halalFriendly": false,
   "bookingUrl": "https://www.ihg.com/crowneplaza/hotels/us/en/doha/dohcp/hoteldetail",
   "source": "osm"
  },
  {
   "nom": "Diamond Hotel 2",
   "categorie": "Hôtel",
   "priceRange": "€€",
   "mapsUrl": "https://maps.google.com/?q=25.2872861,51.5476401",
   "lat": 25.2872861,
   "lng": 51.5476401,
   "halalFriendly": false,
   "bookingUrl": "https://maps.google.com/?q=25.2872861,51.5476401",
   "source": "osm"
  },
  {
   "nom": "Doha Grand Hotel",
   "categorie": "Hôtel",
   "priceRange": "€€",
   "mapsUrl": "https://maps.google.com/?q=25.2772189,51.5164373",
   "lat": 25.2772189,
   "lng": 51.5164373,
   "halalFriendly": false,
   "bookingUrl": "https://maps.google.com/?q=25.2772189,51.5164373",
   "source": "osm"
  },
  {
   "nom": "Doha Executive Suites Hotel",
   "categorie": "Hôtel",
   "priceRange": "€€",
   "mapsUrl": "https://maps.google.com/?q=25.2804058,51.5475391",
   "lat": 25.2804058,
   "lng": 51.5475391,
   "halalFriendly": false,
   "bookingUrl": "https://maps.google.com/?q=25.2804058,51.5475391",
   "source": "osm"
  },
  {
   "nom": "Holiday Inn Doha - The Business Park",
   "categorie": "Hôtel",
   "priceRange": "€€",
   "mapsUrl": "https://maps.google.com/?q=25.2732167,51.5422939",
   "lat": 25.2732167,
   "lng": 51.5422939,
   "halalFriendly": false,
   "bookingUrl": "https://www.ihg.com/holidayinn/hotels/us/en/doha/dohbp/hoteldetail",
   "source": "osm"
  },
  {
   "nom": "truth building",
   "categorie": "Hôtel",
   "priceRange": "€€",
   "mapsUrl": "https://maps.google.com/?q=25.2776312,51.5468366",
   "lat": 25.2776312,
   "lng": 51.5468366,
   "halalFriendly": false,
   "bookingUrl": "https://maps.google.com/?q=25.2776312,51.5468366",
   "source": "osm"
  },
  {
   "nom": "فندق سنتروروتانا",
   "categorie": "Hôtel",
   "priceRange": "€€",
   "mapsUrl": "https://maps.google.com/?q=25.2845424,51.5116919",
   "lat": 25.2845424,
   "lng": 51.5116919,
   "halalFriendly": false,
   "bookingUrl": "https://maps.google.com/?q=25.2845424,51.5116919",
   "source": "osm"
  },
  {
   "nom": "Premier Inn Doha Airport",
   "categorie": "Hôtel",
   "priceRange": "€€",
   "mapsUrl": "https://maps.google.com/?q=25.281254,51.5505516",
   "lat": 25.281254,
   "lng": 51.5505516,
   "halalFriendly": false,
   "bookingUrl": "https://maps.google.com/?q=25.281254,51.5505516",
   "source": "osm"
  },
  {
   "nom": "Westin Hotel",
   "categorie": "Hôtel",
   "priceRange": "€€",
   "mapsUrl": "https://maps.google.com/?q=25.276451,51.5132184",
   "lat": 25.276451,
   "lng": 51.5132184,
   "halalFriendly": false,
   "bookingUrl": "https://maps.google.com/?q=25.276451,51.5132184",
   "source": "osm"
  },
  {
   "nom": "Dusit D2 Hotel",
   "categorie": "Hôtel",
   "priceRange": "€€",
   "mapsUrl": "https://maps.google.com/?q=25.2732656,51.5155235",
   "lat": 25.2732656,
   "lng": 51.5155235,
   "halalFriendly": false,
   "bookingUrl": "https://maps.google.com/?q=25.2732656,51.5155235",
   "source": "osm"
  },
  {
   "nom": "Sapphire Plaza",
   "categorie": "Hôtel",
   "priceRange": "€€",
   "mapsUrl": "https://maps.google.com/?q=25.2891434,51.5108367",
   "lat": 25.2891434,
   "lng": 51.5108367,
   "halalFriendly": false,
   "bookingUrl": "https://maps.google.com/?q=25.2891434,51.5108367",
   "source": "osm"
  },
  {
   "nom": "La Maison Hotel, Doha",
   "categorie": "Hôtel",
   "priceRange": "€€",
   "mapsUrl": "https://maps.google.com/?q=25.284283,51.5103306",
   "lat": 25.284283,
   "lng": 51.5103306,
   "halalFriendly": false,
   "bookingUrl": "https://www.lamaisondoha.com/",
   "source": "osm"
  },
  {
   "nom": "The Plaza Doha, LXR Hotels & Resorts",
   "categorie": "Hôtel",
   "priceRange": "€€€€",
   "score": 5,
   "mapsUrl": "https://maps.google.com/?q=25.2802458,51.5511253",
   "lat": 25.2802458,
   "lng": 51.5511253,
   "halalFriendly": false,
   "bookingUrl": "https://www.hilton.com/en/hotels/dohtpol-the-plaza-doha/",
   "source": "osm"
  },
  {
   "nom": "ralph house",
   "categorie": "Maison d'hôtes",
   "priceRange": "€€",
   "mapsUrl": "https://maps.google.com/?q=25.2664898,51.5283911",
   "lat": 25.2664898,
   "lng": 51.5283911,
   "halalFriendly": false,
   "bookingUrl": "https://maps.google.com/?q=25.2664898,51.5283911",
   "source": "osm"
  },
  {
   "nom": "Mansoura 4A",
   "categorie": "Appartement",
   "priceRange": "€€",
   "mapsUrl": "https://maps.google.com/?q=25.2662801,51.5327894",
   "lat": 25.2662801,
   "lng": 51.5327894,
   "halalFriendly": false,
   "bookingUrl": "https://maps.google.com/?q=25.2662801,51.5327894",
   "source": "osm"
  },
  {
   "nom": "Sks 108 Bldg.",
   "categorie": "Hôtel",
   "priceRange": "€€",
   "mapsUrl": "https://maps.google.com/?q=25.2662635,51.5325859",
   "lat": 25.2662635,
   "lng": 51.5325859,
   "halalFriendly": false,
   "bookingUrl": "https://maps.google.com/?q=25.2662635,51.5325859",
   "source": "osm"
  },
  {
   "nom": "Home",
   "categorie": "Maison d'hôtes",
   "priceRange": "€€",
   "mapsUrl": "https://maps.google.com/?q=25.2703471,51.5447427",
   "lat": 25.2703471,
   "lng": 51.5447427,
   "halalFriendly": false,
   "bookingUrl": "https://maps.google.com/?q=25.2703471,51.5447427",
   "source": "osm"
  },
  {
   "nom": "Crew City",
   "categorie": "Appartement",
   "priceRange": "€€",
   "mapsUrl": "https://maps.google.com/?q=25.284204,51.5090868",
   "lat": 25.284204,
   "lng": 51.5090868,
   "halalFriendly": false,
   "bookingUrl": "https://maps.google.com/?q=25.284204,51.5090868",
   "source": "osm"
  }
 ],
 "activites": [],
 "road_trips": [
  {
   "id": "rt1",
   "titre": "Qatar en entier en 5 jours",
   "emoji": "🇶🇦",
   "duree": "5 jours",
   "distance_km": 400,
   "difficulte": "Facile",
   "budget_estime_eur": "500-800€",
   "etapes": [
    {
     "ville": "Doha",
     "nuits": 2,
     "highlights": [
      "MIA",
      "Souq Waqif",
      "Corniche"
     ]
    },
    {
     "ville": "Al Khor",
     "nuits": 0,
     "highlights": [
      "Mangroves",
      "Plage"
     ]
    },
    {
     "ville": "Al Wakra",
     "nuits": 1,
     "highlights": [
      "Village patrimonial"
     ]
    },
    {
     "ville": "Dukhan",
     "nuits": 0,
     "highlights": [
      "Plage côté Golfe"
     ]
    },
    {
     "ville": "Doha",
     "nuits": 2,
     "highlights": [
      "The Pearl",
      "Lusail"
     ]
    }
   ],
   "conseils_halal": "Le Qatar entier est halal, aucune difficulté",
   "tags": [
    "petit pays",
    "culturel",
    "histoire"
   ]
  },
  {
   "id": "rt2",
   "titre": "Doha-Abu Dhabi-Dubaï par voie des airs",
   "emoji": "✈️",
   "duree": "8 jours",
   "distance_km": 1200,
   "difficulte": "Facile",
   "budget_estime_eur": "900-1500€",
   "etapes": [
    {
     "ville": "Doha",
     "nuits": 3,
     "highlights": [
      "MIA",
      "Souq Waqif",
      "Lusail"
     ]
    },
    {
     "ville": "Abu Dhabi",
     "nuits": 2,
     "highlights": [
      "Grande Mosquée Cheikh Zayed",
      "Louvre",
      "Ferrari World"
     ]
    },
    {
     "ville": "Dubaï",
     "nuits": 3,
     "highlights": [
      "Burj Khalifa",
      "Desert Safari",
      "Old Dubai"
     ]
    }
   ],
   "conseils_halal": "Triangle du Golfe entièrement halal",
   "tags": [
    "Golfe",
    "luxe",
    "multi-pays"
   ]
  },
  {
   "id": "rt3",
   "titre": "Qatar-Bahreïn pont King Fahd",
   "emoji": "🌉",
   "duree": "4 jours",
   "distance_km": 250,
   "difficulte": "Facile",
   "budget_estime_eur": "400-700€",
   "etapes": [
    {
     "ville": "Doha",
     "nuits": 2,
     "highlights": [
      "Souq Waqif",
      "Corniche"
     ]
    },
    {
     "ville": "Bahreïn",
     "nuits": 2,
     "highlights": [
      "Citadelle UNESCO",
      "Souq de Manama",
      "Tree of Life"
     ]
    }
   ],
   "conseils_halal": "Bahreïn est plus libéral pour l'alcool mais 100% halal pour la nourriture",
   "tags": [
    "Golfe",
    "pont",
    "culturel"
   ]
  }
 ],
 "voyages_par_type": {
  "en_couple": {
   "emoji": "💑",
   "intro": "Doha pour les couples : croisière en dhow au coucher du soleil, dîner gastronomique au Musée d'Art Islamique, et promenade main dans la main sur la Corniche illuminée.",
   "top_experiences": [
    {
     "titre": "Dîner Idam par Ducasse (Halal)",
     "details": "Gastronomie française au sommet du MIA, vue sur Doha",
     "prix": "~150€/couple"
    },
    {
     "titre": "Croisière dhow coucher de soleil",
     "details": "Baie de Doha dorée dans la lumière du soir",
     "prix": "~70€/couple"
    },
    {
     "titre": "Spa au Mandarin Oriental",
     "details": "Massages et hammam dans le luxe absolu",
     "prix": "~150€/couple"
    },
    {
     "titre": "Suite avec vue The Pearl",
     "details": "Vue sur l'île artificielle et la mer",
     "prix": "Dès 280€/nuit"
    }
   ],
   "hotels_recommandes": [
    "h1",
    "h5",
    "h2"
   ],
   "restaurants_recommandes": [
    "r3",
    "r4",
    "r14"
   ],
   "conseil_budget": "300-600€/jour pour un séjour romantique de luxe"
  },
  "en_famille": {
   "emoji": "👨‍👩‍👧",
   "intro": "Doha pour les familles : 100% halal, aquarium, Katara, désert, et les stades du Mondial 2022 pour les enfants fans de football.",
   "top_experiences": [
    {
     "titre": "MIA + Katara en journée",
     "details": "Musée le matin, plage et restaurants l'après-midi",
     "prix": "~15€"
    },
    {
     "titre": "Desert Safari familial",
     "details": "4x4, dunes, coucher de soleil, dîner bédouin",
     "prix": "~80€/pers"
    },
    {
     "titre": "Stades FIFA Mondial 2022",
     "details": "Visite guidée des stades iconiques",
     "prix": "~20€"
    },
    {
     "titre": "Camel Racing vendredi",
     "details": "Spectacle gratuit unique",
     "prix": "Gratuit"
    }
   ],
   "hotels_recommandes": [
    "h6",
    "h7",
    "h3"
   ],
   "restaurants_recommandes": [
    "r2",
    "r18",
    "r10"
   ],
   "conseil_budget": "120-250€/jour pour une famille de 4"
  },
  "entre_amis": {
   "emoji": "👥",
   "intro": "Doha entre amis : Souq Waqif la nuit, expériences culinaires du Golfe et du monde, et fauconnerie unique au Qatar.",
   "top_experiences": [
    {
     "titre": "Restaurant tour Souq Waqif",
     "details": "Cuisine qatarienne, syrienne, iranienne en une soirée",
     "prix": "~25€/pers"
    },
    {
     "titre": "Fauconnerie traditionnelle",
     "details": "Apprendre l'art des fauconniers",
     "prix": "~80€/pers"
    },
    {
     "titre": "Lusail Night Tour",
     "details": "La ville du futur illuminée la nuit",
     "prix": "Gratuit"
    },
    {
     "titre": "Match Qatar Stars League",
     "details": "Football local dans les stades du Mondial",
     "prix": "~10€"
    }
   ],
   "hotels_recommandes": [
    "h3",
    "h4",
    "h7"
   ],
   "restaurants_recommandes": [
    "r9",
    "r2",
    "r28"
   ],
   "conseil_budget": "100-200€/jour par personne"
  },
  "voyage_solo": {
   "emoji": "🧳",
   "intro": "Doha solo est sûre et intéressante : métro très pratique, communauté internationale nombreuse, et des sites facilement accessibles seul.",
   "top_experiences": [
    {
     "titre": "MIA solo le matin",
     "details": "La beauté islamique dans le silence du matin",
     "prix": "Gratuit"
    },
    {
     "titre": "Marche Corniche lever de soleil",
     "details": "5km face au Golfe, frais et tranquille",
     "prix": "Gratuit"
    },
    {
     "titre": "Déjeuner local Industrial Area",
     "details": "Cuisines du monde entier à 5€",
     "prix": "5-10€"
    },
    {
     "titre": "Soirée Souq Waqif solo",
     "details": "Se perdre dans les ruelles illuminées",
     "prix": "~20€"
    }
   ],
   "hotels_recommandes": [
    "h8",
    "h7",
    "h4"
   ],
   "restaurants_recommandes": [
    "r19",
    "r2",
    "r28"
   ],
   "conseil_budget": "60-120€/jour en mode équilibré"
  },
  "voyage_spirituel": {
   "emoji": "🤲",
   "intro": "Doha spirituelle : mosquées d'État somptueuses, Musée d'Art Islamique exceptionnel, et un pays de tradition islamique profonde.",
   "top_experiences": [
    {
     "titre": "Prière du vendredi Grande Mosquée",
     "details": "Salat ul-Jum'ah dans la plus belle mosquée de Doha",
     "prix": "Gratuit"
    },
    {
     "titre": "MIA – Art islamique millénaire",
     "details": "7 siècles de civilisation islamique en 4 niveaux",
     "prix": "Gratuit"
    },
    {
     "titre": "Mosquée Katara (ouverte)",
     "details": "Architecture islamique contemporaine",
     "prix": "Gratuit"
    },
    {
     "titre": "Cours islamiques à l'Université du Qatar",
     "details": "Cours de langue arabe et fiqh islamique",
     "prix": "Variable"
    }
   ],
   "hotels_recommandes": [
    "h4",
    "h7"
   ],
   "restaurants_recommandes": [
    "r3",
    "r4",
    "r24"
   ],
   "conseil_spirituel": "Le Qatar investit massivement dans la préservation de l'art islamique. Le MIA (Musée d'Art Islamique) possède la plus grande collection d'art islamique privé au monde. La Grande Mosquée de Doha est architecturalement remarquable."
  }
 },
 "boucheries": [
  {
   "nom": "Chicken",
   "lat": 25.3031265,
   "lng": 51.4995236,
   "type": "Boucherie halal",
   "mapsUrl": "https://maps.google.com/?q=25.3031265,51.4995236",
   "source": "osm"
  }
 ],
 "boulangeries": [
  {
   "id": "bo1",
   "nom": "Batteel Bakery",
   "type": "Pâtisseries dattes",
   "adresse": "Multiple locations",
   "quartier": "Multiple",
   "description": "Pâtisseries aux dattes de luxe, spécialité qatarienne",
   "specialites": [
    "Dattes farcies chocolat",
    "Ma'amoul",
    "Kahk"
   ],
   "prix": "5-20€",
   "horaires": "8h-22h",
   "note": 4.8
  },
  {
   "id": "bo2",
   "nom": "Paul Qatar",
   "type": "Boulangerie française",
   "adresse": "Villaggio Mall",
   "quartier": "Villaggio",
   "description": "Boulangerie française signalée halal",
   "specialites": [
    "Croissant",
    "Pain de seigle",
    "Mille-feuille"
   ],
   "prix": "3-8€",
   "horaires": "9h-22h",
   "note": 4.5
  },
  {
   "id": "bo3",
   "nom": "Katara Bakery",
   "type": "Artisanale",
   "adresse": "Katara Cultural Village",
   "quartier": "Katara",
   "description": "Pains artisanaux et pâtisseries arabes dans le village",
   "specialites": [
    "Pain khobz",
    "Kaak",
    "Luqaimat au miel"
   ],
   "prix": "2-6€",
   "horaires": "8h-22h",
   "note": 4.7
  },
  {
   "id": "bo4",
   "nom": "Mirzam Dubai (Qatar)",
   "type": "Chocolatier",
   "adresse": "Hamad International Airport",
   "quartier": "Aéroport",
   "description": "Chocolatier artisanal halal du Golfe",
   "specialites": [
    "Chocolat dattes",
    "Pralinés pistache",
    "Barres arabes"
   ],
   "prix": "8-25€",
   "horaires": "24h/24",
   "note": 4.7
  },
  {
   "id": "bo5",
   "nom": "My Bakery",
   "type": "Pâtisserie",
   "adresse": "The Pearl, Doha",
   "quartier": "The Pearl",
   "description": "Gâteaux et pâtisseries modernes halal",
   "specialites": [
    "Layer cake",
    "Cupcake",
    "Brownie dattes"
   ],
   "prix": "4-12€",
   "horaires": "9h-22h",
   "note": 4.6
  }
 ],
 "articles_lies": [
  "dubai",
  "abu-dhabi",
  "casablanca"
 ],
 "villes_proches": [
  "abu-dhabi",
  "bahrain",
  "riyadh"
 ],
 "destinations_combiner": [
  {
   "ville": "Dubaï",
   "distance_km": 600,
   "raison": "Vol 1h, triangle du Golfe parfait"
  },
  {
   "ville": "Abu Dhabi",
   "distance_km": 550,
   "raison": "Grande Mosquée Cheikh Zayed, chef-d'œuvre islamique"
  },
  {
   "ville": "Bahreïn",
   "distance_km": 250,
   "raison": "Via pont King Fahad, 2h30 de route"
  }
 ],
 "conseils_halal": "Le Qatar est l'un des pays les plus islamiques du Golfe. L'alcool est strictement réglementé (hôtels licenciés uniquement). La nourriture est 100% halal partout. La modestie vestimentaire est appréciée. Le Musée d'Art Islamique est une référence mondiale pour la civilisation islamique. Pendant le Ramadan, manger en public pendant la journée peut être verbalisé.",
 "codeISO": "QA",
 "image": "https://images.unsplash.com/photo-1571303041873-c2e32a83c6a4?w=600&q=80",
 "continent": "Asie",
 "metaDescription": "Restaurants halal signalés, mosquées et guide pratique pour Doha — Halal Trust Score 5/5.",
 "mosqueesPrincipales": [
  {
   "nom": "Jami'a Mar'yam",
   "lat": 25.3007585,
   "lng": 51.4953142,
   "coordonnees": {
    "lat": 25.3007585,
    "lng": 51.4953142
   },
   "mapsUrl": "https://maps.google.com/?q=25.3007585,51.4953142",
   "source": "osm"
  },
  {
   "nom": "Mosque",
   "lat": 25.2780342,
   "lng": 51.4836906,
   "coordonnees": {
    "lat": 25.2780342,
    "lng": 51.4836906
   },
   "mapsUrl": "https://maps.google.com/?q=25.2780342,51.4836906",
   "source": "osm"
  },
  {
   "nom": "Al Bayan Mosque",
   "lat": 25.2688708,
   "lng": 51.4814086,
   "coordonnees": {
    "lat": 25.2688708,
    "lng": 51.4814086
   },
   "mapsUrl": "https://maps.google.com/?q=25.2688708,51.4814086",
   "source": "osm"
  },
  {
   "nom": "مسجد",
   "lat": 25.2716203,
   "lng": 51.4796504,
   "coordonnees": {
    "lat": 25.2716203,
    "lng": 51.4796504
   },
   "mapsUrl": "https://maps.google.com/?q=25.2716203,51.4796504",
   "source": "osm"
  },
  {
   "nom": "Male praying room",
   "lat": 25.3692029,
   "lng": 51.5507486,
   "coordonnees": {
    "lat": 25.3692029,
    "lng": 51.5507486
   },
   "mapsUrl": "https://maps.google.com/?q=25.3692029,51.5507486",
   "source": "osm"
  },
  {
   "nom": "Masjid",
   "lat": 25.2227466,
   "lng": 51.443281,
   "coordonnees": {
    "lat": 25.2227466,
    "lng": 51.443281
   },
   "mapsUrl": "https://maps.google.com/?q=25.2227466,51.443281",
   "source": "osm"
  },
  {
   "id": "osm-11548978299",
   "nom": "مسجد",
   "type": "mosquee",
   "lat": 25.339022,
   "lng": 51.4419517,
   "mapsUrl": "https://maps.google.com/?q=25.339022,51.4419517",
   "source": "osm"
  },
  {
   "id": "osm-111808015",
   "nom": "مسجد أبو بكر الصديق",
   "type": "mosquee",
   "adresse": "شارع أبو بكر الصديق, الدوحة",
   "lat": 25.2821088,
   "lng": 51.5511254,
   "mapsUrl": "https://maps.google.com/?q=25.2821088,51.5511254",
   "source": "osm"
  },
  {
   "id": "osm-151709927",
   "nom": "مسجد أسباير",
   "type": "mosquee",
   "lat": 25.2618302,
   "lng": 51.446404,
   "mapsUrl": "https://maps.google.com/?q=25.2618302,51.446404",
   "source": "osm"
  },
  {
   "id": "osm-154909608",
   "nom": "مسجد مصعب بن عمير",
   "type": "mosquee",
   "lat": 25.3323283,
   "lng": 51.511279,
   "mapsUrl": "https://maps.google.com/?q=25.3323283,51.511279",
   "source": "osm"
  },
  {
   "id": "osm-157121004",
   "nom": "مسجد منيرة بنت سلطان بن ناصر السويدي",
   "type": "mosquee",
   "lat": 25.3358583,
   "lng": 51.5067933,
   "mapsUrl": "https://maps.google.com/?q=25.3358583,51.5067933",
   "source": "osm"
  },
  {
   "id": "osm-167057621",
   "nom": "Muhammad Abdulrahman Al-Zaman Mosque (60)",
   "type": "mosquee",
   "lat": 25.2602023,
   "lng": 51.5105317,
   "mapsUrl": "https://maps.google.com/?q=25.2602023,51.5105317",
   "source": "osm"
  },
  {
   "id": "osm-213206571",
   "nom": "مسجد سوق واقف",
   "type": "mosquee",
   "lat": 25.2883306,
   "lng": 51.5315627,
   "mapsUrl": "https://maps.google.com/?q=25.2883306,51.5315627",
   "source": "osm"
  },
  {
   "id": "osm-220089109",
   "nom": "مسجد الشيوخ",
   "type": "mosquee",
   "lat": 25.2891917,
   "lng": 51.528516,
   "mapsUrl": "https://maps.google.com/?q=25.2891917,51.528516",
   "source": "osm"
  },
  {
   "id": "osm-246735904",
   "nom": "Aysha Mosque",
   "type": "mosquee",
   "lat": 25.3042117,
   "lng": 51.4948573,
   "mapsUrl": "https://maps.google.com/?q=25.3042117,51.4948573",
   "source": "osm"
  },
  {
   "id": "osm-246735908",
   "nom": "Hitmi",
   "type": "mosquee",
   "lat": 25.2988865,
   "lng": 51.4916595,
   "mapsUrl": "https://maps.google.com/?q=25.2988865,51.4916595",
   "source": "osm"
  },
  {
   "id": "osm-247909091",
   "nom": "Green Mosque",
   "type": "mosquee",
   "lat": 25.2992163,
   "lng": 51.4983072,
   "mapsUrl": "https://maps.google.com/?q=25.2992163,51.4983072",
   "source": "osm"
  },
  {
   "id": "osm-248399328",
   "nom": "مسجد",
   "type": "mosquee",
   "adresse": "الدوحة",
   "lat": 25.3540529,
   "lng": 51.4744286,
   "mapsUrl": "https://maps.google.com/?q=25.3540529,51.4744286",
   "source": "osm"
  },
  {
   "id": "osm-248766515",
   "nom": "مسجد محمد بن عيد ال ثاني",
   "type": "mosquee",
   "lat": 25.3356844,
   "lng": 51.4456823,
   "mapsUrl": "https://maps.google.com/?q=25.3356844,51.4456823",
   "source": "osm"
  },
  {
   "id": "osm-249294893",
   "nom": "مسجد النجادة",
   "type": "mosquee",
   "adresse": "الدوحة",
   "lat": 25.2855167,
   "lng": 51.5333045,
   "mapsUrl": "https://maps.google.com/?q=25.2855167,51.5333045",
   "source": "osm"
  },
  {
   "id": "osm-249465813",
   "nom": "مسجد خباب بن الارت",
   "type": "mosquee",
   "lat": 25.3328067,
   "lng": 51.4466176,
   "mapsUrl": "https://maps.google.com/?q=25.3328067,51.4466176",
   "source": "osm"
  },
  {
   "id": "osm-249465817",
   "nom": "مسجد",
   "type": "mosquee",
   "lat": 25.3273867,
   "lng": 51.4565863,
   "mapsUrl": "https://maps.google.com/?q=25.3273867,51.4565863",
   "source": "osm"
  },
  {
   "id": "osm-249465818",
   "nom": "مسجد",
   "type": "mosquee",
   "lat": 25.327143,
   "lng": 51.4524596,
   "mapsUrl": "https://maps.google.com/?q=25.327143,51.4524596",
   "source": "osm"
  },
  {
   "id": "osm-249465820",
   "nom": "مسجد",
   "type": "mosquee",
   "lat": 25.3302133,
   "lng": 51.4505253,
   "mapsUrl": "https://maps.google.com/?q=25.3302133,51.4505253",
   "source": "osm"
  },
  {
   "id": "osm-255416129",
   "nom": "Al Shafi Mosque",
   "type": "mosquee",
   "adresse": "Al Shafi Street",
   "lat": 25.2948533,
   "lng": 51.4208382,
   "mapsUrl": "https://maps.google.com/?q=25.2948533,51.4208382",
   "source": "osm"
  },
  {
   "id": "osm-255425222",
   "nom": "Masjid Tamim aldary",
   "type": "mosquee",
   "lat": 25.2877426,
   "lng": 51.4216143,
   "mapsUrl": "https://maps.google.com/?q=25.2877426,51.4216143",
   "source": "osm"
  },
  {
   "id": "osm-322569099",
   "nom": "Al Olbaidi Mosque",
   "type": "mosquee",
   "lat": 25.2358241,
   "lng": 51.5222026,
   "mapsUrl": "https://maps.google.com/?q=25.2358241,51.5222026",
   "source": "osm"
  },
  {
   "id": "osm-323415882",
   "nom": "مسجد",
   "type": "mosquee",
   "lat": 25.1720686,
   "lng": 51.5754579,
   "mapsUrl": "https://maps.google.com/?q=25.1720686,51.5754579",
   "source": "osm"
  },
  {
   "id": "osm-323437968",
   "nom": "مسجد أبو فنطاس",
   "type": "mosquee",
   "lat": 25.2107381,
   "lng": 51.6074194,
   "mapsUrl": "https://maps.google.com/?q=25.2107381,51.6074194",
   "source": "osm"
  },
  {
   "id": "osm-323555750",
   "nom": "مسجد",
   "type": "mosquee",
   "adresse": "Al Wakra Main Street",
   "lat": 25.1741115,
   "lng": 51.6047988,
   "mapsUrl": "https://maps.google.com/?q=25.1741115,51.6047988",
   "source": "osm"
  },
  {
   "id": "osm-323557406",
   "nom": "مسجد",
   "type": "mosquee",
   "lat": 25.1753158,
   "lng": 51.596844,
   "mapsUrl": "https://maps.google.com/?q=25.1753158,51.596844",
   "source": "osm"
  },
  {
   "id": "osm-474403755",
   "nom": "Sheikh Nasr Khalifa Ahmad Al Thani Masjid",
   "type": "mosquee",
   "lat": 25.284185,
   "lng": 51.4983064,
   "mapsUrl": "https://maps.google.com/?q=25.284185,51.4983064",
   "source": "osm"
  },
  {
   "id": "osm-479162096",
   "nom": "مسجد عليا وموزة راشد الهتمي",
   "type": "mosquee",
   "adresse": "العالية",
   "lat": 25.2578094,
   "lng": 51.5150316,
   "mapsUrl": "https://maps.google.com/?q=25.2578094,51.5150316",
   "source": "osm"
  },
  {
   "id": "osm-479162109",
   "nom": "Aisha Bint Ahmed Mosque (504)",
   "type": "mosquee",
   "lat": 25.2618581,
   "lng": 51.5133053,
   "mapsUrl": "https://maps.google.com/?q=25.2618581,51.5133053",
   "source": "osm"
  },
  {
   "id": "osm-491148742",
   "nom": "مسجد",
   "type": "mosquee",
   "lat": 25.3371504,
   "lng": 51.5038812,
   "mapsUrl": "https://maps.google.com/?q=25.3371504,51.5038812",
   "source": "osm"
  },
  {
   "id": "osm-504578884",
   "nom": "مسجد ناصر علي ماجد البدر",
   "type": "mosquee",
   "adresse": "ابن العلاء",
   "lat": 25.2595496,
   "lng": 51.5505893,
   "mapsUrl": "https://maps.google.com/?q=25.2595496,51.5505893",
   "source": "osm"
  },
  {
   "id": "osm-595821647",
   "nom": "مسجد",
   "type": "mosquee",
   "lat": 25.1755237,
   "lng": 51.5717526,
   "mapsUrl": "https://maps.google.com/?q=25.1755237,51.5717526",
   "source": "osm"
  },
  {
   "id": "osm-595822600",
   "nom": "مسجد",
   "type": "mosquee",
   "lat": 25.177737,
   "lng": 51.5680559,
   "mapsUrl": "https://maps.google.com/?q=25.177737,51.5680559",
   "source": "osm"
  },
  {
   "id": "osm-628751847",
   "nom": "Masjid Sheikh Sameer",
   "type": "mosquee",
   "lat": 25.1646115,
   "lng": 51.5964365,
   "mapsUrl": "https://maps.google.com/?q=25.1646115,51.5964365",
   "source": "osm"
  },
  {
   "id": "osm-767359130",
   "nom": "Airport Mosque",
   "type": "mosquee",
   "lat": 25.2581668,
   "lng": 51.6148908,
   "mapsUrl": "https://maps.google.com/?q=25.2581668,51.6148908",
   "source": "osm"
  },
  {
   "id": "osm-769412277",
   "nom": "Katara Mosque",
   "type": "mosquee",
   "lat": 25.3593135,
   "lng": 51.5248121,
   "mapsUrl": "https://maps.google.com/?q=25.3593135,51.5248121",
   "source": "osm"
  },
  {
   "id": "osm-769499161",
   "nom": "The Golden Masjid",
   "type": "mosquee",
   "lat": 25.3609027,
   "lng": 51.5266668,
   "mapsUrl": "https://maps.google.com/?q=25.3609027,51.5266668",
   "source": "osm"
  },
  {
   "id": "osm-771941770",
   "nom": "Costa Fanar Mosque",
   "type": "mosquee",
   "lat": 25.3745497,
   "lng": 51.5532778,
   "mapsUrl": "https://maps.google.com/?q=25.3745497,51.5532778",
   "source": "osm"
  },
  {
   "id": "osm-878955139",
   "nom": "جامع أحمد بن عبدالله المسند",
   "type": "mosquee",
   "lat": 25.3387502,
   "lng": 51.4989739,
   "mapsUrl": "https://maps.google.com/?q=25.3387502,51.4989739",
   "source": "osm"
  },
  {
   "id": "osm-943556095",
   "nom": "غرفة الصلاة",
   "type": "mosquee",
   "lat": 25.307436,
   "lng": 51.5105226,
   "mapsUrl": "https://maps.google.com/?q=25.307436,51.5105226",
   "source": "osm"
  },
  {
   "id": "osm-980797296",
   "nom": "Masjid Al Ibrahim",
   "type": "mosquee",
   "lat": 25.1682799,
   "lng": 51.6019871,
   "mapsUrl": "https://maps.google.com/?q=25.1682799,51.6019871",
   "source": "osm"
  },
  {
   "id": "osm-1113377020",
   "nom": "مسجد محمد بن حسن الحجي السليطي",
   "type": "mosquee",
   "adresse": "الخرسعة",
   "lat": 25.256821,
   "lng": 51.5113519,
   "mapsUrl": "https://maps.google.com/?q=25.256821,51.5113519",
   "source": "osm"
  },
  {
   "id": "osm-1137332143",
   "nom": "مسجد ناصر بن راشد المسند",
   "type": "mosquee",
   "adresse": "الظبية",
   "lat": 25.3774693,
   "lng": 51.4521586,
   "mapsUrl": "https://maps.google.com/?q=25.3774693,51.4521586",
   "source": "osm"
  },
  {
   "id": "osm-1218071189",
   "nom": "Meshaf Masjid",
   "type": "mosquee",
   "lat": 25.1670916,
   "lng": 51.5507532,
   "mapsUrl": "https://maps.google.com/?q=25.1670916,51.5507532",
   "source": "osm"
  },
  {
   "id": "osm-1218071559",
   "nom": "Temporary Masjid",
   "type": "mosquee",
   "lat": 25.1713087,
   "lng": 51.5505109,
   "mapsUrl": "https://maps.google.com/?q=25.1713087,51.5505109",
   "source": "osm"
  },
  {
   "id": "osm-1218073033",
   "nom": "Ezdan Oasis Masjid",
   "type": "mosquee",
   "lat": 25.1624669,
   "lng": 51.5179502,
   "mapsUrl": "https://maps.google.com/?q=25.1624669,51.5179502",
   "source": "osm"
  },
  {
   "id": "osm-1432228547",
   "nom": "Mosque 897",
   "type": "mosquee",
   "lat": 25.3846541,
   "lng": 51.4605727,
   "mapsUrl": "https://maps.google.com/?q=25.3846541,51.4605727",
   "source": "osm"
  },
  {
   "id": "osm-1432535865",
   "nom": "مسجد نورة خالد ثاني جاسم آل ثاني",
   "type": "mosquee",
   "lat": 25.378494,
   "lng": 51.4772594,
   "mapsUrl": "https://maps.google.com/?q=25.378494,51.4772594",
   "source": "osm"
  },
  {
   "id": "osm-1432535867",
   "nom": "مسجد صالح إبراهيم بوغدير المناعي",
   "type": "mosquee",
   "lat": 25.3667718,
   "lng": 51.4771239,
   "mapsUrl": "https://maps.google.com/?q=25.3667718,51.4771239",
   "source": "osm"
  },
  {
   "id": "osm-1432535869",
   "nom": "مسجد ناصر خالد الربان",
   "type": "mosquee",
   "lat": 25.3763344,
   "lng": 51.4734306,
   "mapsUrl": "https://maps.google.com/?q=25.3763344,51.4734306",
   "source": "osm"
  },
  {
   "id": "osm-1432623476",
   "nom": "مسجد محمد وسلطان أبناء يوسف العبيدان",
   "type": "mosquee",
   "lat": 25.3899144,
   "lng": 51.4716734,
   "mapsUrl": "https://maps.google.com/?q=25.3899144,51.4716734",
   "source": "osm"
  },
  {
   "id": "osm-1432623478",
   "nom": "مسجد سعد بن محمد جبران الكعبي",
   "type": "mosquee",
   "lat": 25.3791351,
   "lng": 51.4554821,
   "mapsUrl": "https://maps.google.com/?q=25.3791351,51.4554821",
   "source": "osm"
  },
  {
   "id": "osm-1442853854",
   "nom": "مسجد جامعة قطر",
   "type": "mosquee",
   "lat": 25.3764832,
   "lng": 51.4908677,
   "mapsUrl": "https://maps.google.com/?q=25.3764832,51.4908677",
   "source": "osm"
  },
  {
   "id": "osm-10663586",
   "nom": "مسجد محمد بن عبدالوهاب - مسجد الدولة",
   "type": "mosquee",
   "adresse": "الدولة",
   "lat": 25.3170804,
   "lng": 51.5051223,
   "mapsUrl": "https://maps.google.com/?q=25.3170804,51.5051223",
   "source": "osm"
  },
  {
   "id": "osm-10664399",
   "nom": "Fanar Qatar Islamic Cultural Center",
   "type": "mosquee",
   "adresse": "Abdulla Bin Jasim Street",
   "lat": 25.2889762,
   "lng": 51.5356589,
   "mapsUrl": "https://maps.google.com/?q=25.2889762,51.5356589",
   "source": "osm"
  }
 ],
 "halalScore": 9.3,
 "description_en": "Doha, in Qatar, is a halal-friendly destination with a Halal Trust Score of 4.7/5. Muslim travelers will find 120 halal restaurants listed, 1,800 mosques, real-time prayer times and the Qibla direction — a complete guide to travel with peace of mind. Best time to visit: November–March.",
 "metaDescription_en": "Halal guide to Doha: 120 halal restaurants listed, 1,800 mosques, prayer times and tips for Muslim travelers. Halal Trust Score 4.7/5.",
 "nom_en": "Doha",
 "infos_pratiques_en": {
  "langue_officielle": "Arabic",
  "monnaie": "Riyal qatarien (QAR)",
  "taux_change_eur": "1€ ≈ 3.9 QAR",
  "meilleure_periode": "November–March (18-28°C)",
  "a_eviter": "June–September (40-50°C)",
  "fuseau_horaire": "UTC+3"
 },
 "dataPurgedAt": "2026-07-15",
 "osmEnrichedAt": "2026-07-15",
 "googleBakedAt": "2026-07-15"
}