{
  "slug": "douala",
  "nom": "Douala",
  "pays": "Cameroun",
  "pays_slug": "cameroun",
  "continent": "Afrique",
  "region": "Cameroun",
  "coordonnees": {
    "lat": 4.0511,
    "lng": 9.7679
  },
  "codeISO": "CM",
  "score_halal": 3.2,
  "halalScore": 6.4,
  "description": "Douala, Cameroun. Repérez les restaurants halal et les mosquées via l'application.",
  "metaDescription": "Douala, Cameroun. Repérez les restaurants halal et les mosquées via l'application.",
  "image": "https://upload.wikimedia.org/wikipedia/commons/thumb/4/4b/Quarter_Bali_%C3%A0_Douala_Cameroun.jpg/1600px-Quarter_Bali_%C3%A0_Douala_Cameroun.jpg",
  "image_hero": "https://upload.wikimedia.org/wikipedia/commons/thumb/4/4b/Quarter_Bali_%C3%A0_Douala_Cameroun.jpg/1600px-Quarter_Bali_%C3%A0_Douala_Cameroun.jpg",
  "imageCredit": "Wikimedia Commons",
  "scoreIndicatif": true,
  "statistiques": {
    "restaurants_halal": 0,
    "mosquees": 3,
    "hotels": 120
  },
  "infoPratique": {
    "transport": "Accessible par avion et transports locaux.",
    "meilleureEpoque": "Selon la saison.",
    "conseilHalal": "Repérez restaurants halal et mosquées via l'application."
  },
  "tags": [
    "halal",
    "afrique"
  ],
  "restaurants": [],
  "hotels": [
    {
      "nom": "Ruccotel",
      "categorie": "Hôtel",
      "priceRange": "€€",
      "mapsUrl": "https://maps.google.com/?q=4.0475685,9.7692418",
      "lat": 4.0475685,
      "lng": 9.7692418,
      "halalFriendly": false,
      "bookingUrl": "https://maps.google.com/?q=4.0475685,9.7692418",
      "source": "osm"
    },
    {
      "nom": "Street into Mission Evangelique vie et paix du Cameroon",
      "categorie": "Hôtel",
      "priceRange": "€€",
      "mapsUrl": "https://maps.google.com/?q=4.0476578,9.763286",
      "lat": 4.0476578,
      "lng": 9.763286,
      "halalFriendly": false,
      "bookingUrl": "https://maps.google.com/?q=4.0476578,9.763286",
      "source": "osm"
    },
    {
      "nom": "Eva Hotel pk8",
      "categorie": "Hôtel",
      "priceRange": "€€",
      "mapsUrl": "https://maps.google.com/?q=4.0465529,9.7546586",
      "lat": 4.0465529,
      "lng": 9.7546586,
      "halalFriendly": false,
      "bookingUrl": "https://maps.google.com/?q=4.0465529,9.7546586",
      "source": "osm"
    },
    {
      "nom": "Vianny’s house",
      "categorie": "Maison d'hôtes",
      "priceRange": "€€",
      "mapsUrl": "https://maps.google.com/?q=4.0544168,9.7523839",
      "lat": 4.0544168,
      "lng": 9.7523839,
      "halalFriendly": false,
      "bookingUrl": "https://maps.google.com/?q=4.0544168,9.7523839",
      "source": "osm"
    },
    {
      "nom": "Maison JD",
      "categorie": "Appartement",
      "priceRange": "€€",
      "mapsUrl": "https://maps.google.com/?q=4.0605791,9.7515618",
      "lat": 4.0605791,
      "lng": 9.7515618,
      "halalFriendly": false,
      "bookingUrl": "https://maps.google.com/?q=4.0605791,9.7515618",
      "source": "osm"
    },
    {
      "nom": "Terrase Ndongbong",
      "categorie": "Hôtel",
      "priceRange": "€€",
      "mapsUrl": "https://maps.google.com/?q=4.0574531,9.7500991",
      "lat": 4.0574531,
      "lng": 9.7500991,
      "halalFriendly": false,
      "bookingUrl": "https://maps.google.com/?q=4.0574531,9.7500991",
      "source": "osm"
    },
    {
      "nom": "Belavie",
      "categorie": "Hôtel",
      "priceRange": "€€",
      "mapsUrl": "https://maps.google.com/?q=4.0447921,9.7496588",
      "lat": 4.0447921,
      "lng": 9.7496588,
      "halalFriendly": false,
      "bookingUrl": "https://maps.google.com/?q=4.0447921,9.7496588",
      "source": "osm"
    },
    {
      "nom": "Keute Douala",
      "categorie": "Appartement",
      "priceRange": "€€",
      "mapsUrl": "https://maps.google.com/?q=4.0514668,9.7469142",
      "lat": 4.0514668,
      "lng": 9.7469142,
      "halalFriendly": false,
      "bookingUrl": "https://maps.google.com/?q=4.0514668,9.7469142",
      "source": "osm"
    },
    {
      "nom": "Hotel Sportif Bassa VIP",
      "categorie": "Hôtel",
      "priceRange": "€€",
      "mapsUrl": "https://maps.google.com/?q=4.0378934,9.74997",
      "lat": 4.0378934,
      "lng": 9.74997,
      "halalFriendly": false,
      "bookingUrl": "https://maps.google.com/?q=4.0378934,9.74997",
      "source": "osm"
    },
    {
      "nom": "Akanji Residence",
      "categorie": "Auberge",
      "priceRange": "€€",
      "mapsUrl": "https://maps.google.com/?q=4.077758,9.7770596",
      "lat": 4.077758,
      "lng": 9.7770596,
      "halalFriendly": false,
      "bookingUrl": "https://maps.google.com/?q=4.077758,9.7770596",
      "source": "osm"
    },
    {
      "nom": "Facebook club",
      "categorie": "Hôtel",
      "priceRange": "€€",
      "mapsUrl": "https://maps.google.com/?q=4.0526275,9.7367123",
      "lat": 4.0526275,
      "lng": 9.7367123,
      "halalFriendly": false,
      "bookingUrl": "https://maps.google.com/?q=4.0526275,9.7367123",
      "source": "osm"
    },
    {
      "nom": "Mont ESSEC",
      "categorie": "Hôtel",
      "priceRange": "€€",
      "mapsUrl": "https://maps.google.com/?q=4.056514,9.7371396",
      "lat": 4.056514,
      "lng": 9.7371396,
      "halalFriendly": false,
      "bookingUrl": "https://maps.google.com/?q=4.056514,9.7371396",
      "source": "osm"
    },
    {
      "nom": "Dream Palace Hotel",
      "categorie": "Hôtel",
      "priceRange": "€€",
      "mapsUrl": "https://maps.google.com/?q=4.0533178,9.7366704",
      "lat": 4.0533178,
      "lng": 9.7366704,
      "halalFriendly": false,
      "bookingUrl": "https://maps.google.com/?q=4.0533178,9.7366704",
      "source": "osm"
    },
    {
      "nom": "Foprolux Palace",
      "categorie": "Hôtel",
      "priceRange": "€€",
      "mapsUrl": "https://maps.google.com/?q=4.0791123,9.7534877",
      "lat": 4.0791123,
      "lng": 9.7534877,
      "halalFriendly": false,
      "bookingUrl": "https://maps.google.com/?q=4.0791123,9.7534877",
      "source": "osm"
    },
    {
      "nom": "Gasland Hotel",
      "categorie": "Hôtel",
      "priceRange": "€€",
      "mapsUrl": "https://maps.google.com/?q=4.0828263,9.7742802",
      "lat": 4.0828263,
      "lng": 9.7742802,
      "halalFriendly": false,
      "bookingUrl": "https://maps.google.com/?q=4.0828263,9.7742802",
      "source": "osm"
    },
    {
      "nom": "Hôtel le Select",
      "categorie": "Hôtel",
      "priceRange": "€€",
      "mapsUrl": "https://maps.google.com/?q=4.0563862,9.7358761",
      "lat": 4.0563862,
      "lng": 9.7358761,
      "halalFriendly": false,
      "bookingUrl": "https://maps.google.com/?q=4.0563862,9.7358761",
      "source": "osm"
    },
    {
      "nom": "Residence La Reine",
      "categorie": "Maison d'hôtes",
      "priceRange": "€€",
      "mapsUrl": "https://maps.google.com/?q=4.0765937,9.7467524",
      "lat": 4.0765937,
      "lng": 9.7467524,
      "halalFriendly": false,
      "bookingUrl": "https://maps.google.com/?q=4.0765937,9.7467524",
      "source": "osm"
    },
    {
      "nom": "Repos Roi",
      "categorie": "Hôtel",
      "priceRange": "€€",
      "mapsUrl": "https://maps.google.com/?q=4.08445,9.773391",
      "lat": 4.08445,
      "lng": 9.773391,
      "halalFriendly": false,
      "bookingUrl": "https://maps.google.com/?q=4.08445,9.773391",
      "source": "osm"
    },
    {
      "nom": "Hôtel la Cachette",
      "categorie": "Hôtel",
      "priceRange": "€€",
      "mapsUrl": "https://maps.google.com/?q=4.08103,9.7847812",
      "lat": 4.08103,
      "lng": 9.7847812,
      "halalFriendly": false,
      "bookingUrl": "https://maps.google.com/?q=4.08103,9.7847812",
      "source": "osm"
    },
    {
      "nom": "Canovas Prestige",
      "categorie": "Hôtel",
      "priceRange": "€€",
      "mapsUrl": "https://maps.google.com/?q=4.0500812,9.7334576",
      "lat": 4.0500812,
      "lng": 9.7334576,
      "halalFriendly": false,
      "bookingUrl": "https://maps.google.com/?q=4.0500812,9.7334576",
      "source": "osm"
    },
    {
      "nom": "Vallée des Rois",
      "categorie": "Hôtel",
      "priceRange": "€€",
      "mapsUrl": "https://maps.google.com/?q=4.0860389,9.7620532",
      "lat": 4.0860389,
      "lng": 9.7620532,
      "halalFriendly": false,
      "bookingUrl": "https://maps.google.com/?q=4.0860389,9.7620532",
      "source": "osm"
    },
    {
      "nom": "Vénus",
      "categorie": "Hôtel",
      "priceRange": "€€",
      "mapsUrl": "https://maps.google.com/?q=4.0846478,9.7556917",
      "lat": 4.0846478,
      "lng": 9.7556917,
      "halalFriendly": false,
      "bookingUrl": "https://maps.google.com/?q=4.0846478,9.7556917",
      "source": "osm"
    },
    {
      "nom": "Royal Oaks residence",
      "categorie": "Hôtel",
      "priceRange": "€€",
      "mapsUrl": "https://maps.google.com/?q=4.0857876,9.757782",
      "lat": 4.0857876,
      "lng": 9.757782,
      "halalFriendly": false,
      "bookingUrl": "https://maps.google.com/?q=4.0857876,9.757782",
      "source": "osm"
    },
    {
      "nom": "Makepe Palace",
      "categorie": "Hôtel",
      "priceRange": "€€",
      "mapsUrl": "https://maps.google.com/?q=4.0852686,9.7556641",
      "lat": 4.0852686,
      "lng": 9.7556641,
      "halalFriendly": false,
      "bookingUrl": "https://maps.google.com/?q=4.0852686,9.7556641",
      "source": "osm"
    },
    {
      "nom": "Hotel du Plateau",
      "categorie": "Hôtel",
      "priceRange": "€€",
      "mapsUrl": "https://maps.google.com/?q=4.0349287,9.7351067",
      "lat": 4.0349287,
      "lng": 9.7351067,
      "halalFriendly": false,
      "bookingUrl": "https://maps.google.com/?q=4.0349287,9.7351067",
      "source": "osm"
    },
    {
      "nom": "Moulin Rouge",
      "categorie": "Hôtel",
      "priceRange": "€€",
      "mapsUrl": "https://maps.google.com/?q=4.0854388,9.7546898",
      "lat": 4.0854388,
      "lng": 9.7546898,
      "halalFriendly": false,
      "bookingUrl": "https://maps.google.com/?q=4.0854388,9.7546898",
      "source": "osm"
    },
    {
      "nom": "Hotel Campagne",
      "categorie": "Hôtel",
      "priceRange": "€€",
      "mapsUrl": "https://maps.google.com/?q=4.0833874,9.7501454",
      "lat": 4.0833874,
      "lng": 9.7501454,
      "halalFriendly": false,
      "bookingUrl": "https://maps.google.com/?q=4.0833874,9.7501454",
      "source": "osm"
    },
    {
      "nom": "Dianna",
      "categorie": "Hôtel",
      "priceRange": "€€",
      "mapsUrl": "https://maps.google.com/?q=4.085402,9.7542457",
      "lat": 4.085402,
      "lng": 9.7542457,
      "halalFriendly": false,
      "bookingUrl": "https://maps.google.com/?q=4.085402,9.7542457",
      "source": "osm"
    },
    {
      "nom": "Hotel Sial",
      "categorie": "Hôtel",
      "priceRange": "€€",
      "mapsUrl": "https://maps.google.com/?q=4.0855813,9.7546176",
      "lat": 4.0855813,
      "lng": 9.7546176,
      "halalFriendly": false,
      "bookingUrl": "https://maps.google.com/?q=4.0855813,9.7546176",
      "source": "osm"
    },
    {
      "nom": "Fali Concorde Hôtel",
      "categorie": "Hôtel",
      "priceRange": "€€",
      "mapsUrl": "https://maps.google.com/?q=4.0785916,9.7935417",
      "lat": 4.0785916,
      "lng": 9.7935417,
      "halalFriendly": false,
      "bookingUrl": "https://maps.google.com/?q=4.0785916,9.7935417",
      "source": "osm"
    },
    {
      "nom": "Le Plessis Trévise",
      "categorie": "Hôtel",
      "priceRange": "€€",
      "mapsUrl": "https://maps.google.com/?q=4.0878233,9.7575089",
      "lat": 4.0878233,
      "lng": 9.7575089,
      "halalFriendly": false,
      "bookingUrl": "https://maps.google.com/?q=4.0878233,9.7575089",
      "source": "osm"
    },
    {
      "nom": "Chidjame's Home",
      "categorie": "Maison d'hôtes",
      "priceRange": "€€",
      "mapsUrl": "https://maps.google.com/?q=4.0219735,9.7430321",
      "lat": 4.0219735,
      "lng": 9.7430321,
      "halalFriendly": false,
      "bookingUrl": "https://maps.google.com/?q=4.0219735,9.7430321",
      "source": "osm"
    },
    {
      "nom": "Hotel Clichy Atlantic",
      "categorie": "Hôtel",
      "priceRange": "€€",
      "mapsUrl": "https://maps.google.com/?q=4.083302,9.7460714",
      "lat": 4.083302,
      "lng": 9.7460714,
      "halalFriendly": false,
      "bookingUrl": "https://maps.google.com/?q=4.083302,9.7460714",
      "source": "osm"
    },
    {
      "nom": "Lively Hotel",
      "categorie": "Hôtel",
      "priceRange": "€€",
      "mapsUrl": "https://maps.google.com/?q=4.0830794,9.7453102",
      "lat": 4.0830794,
      "lng": 9.7453102,
      "halalFriendly": false,
      "bookingUrl": "https://maps.google.com/?q=4.0830794,9.7453102",
      "source": "osm"
    },
    {
      "nom": "Chicago Palace",
      "categorie": "Hôtel",
      "priceRange": "€€",
      "mapsUrl": "https://maps.google.com/?q=4.0283869,9.735946",
      "lat": 4.0283869,
      "lng": 9.735946,
      "halalFriendly": false,
      "bookingUrl": "https://maps.google.com/?q=4.0283869,9.735946",
      "source": "osm"
    },
    {
      "nom": "Hôtel Carington",
      "categorie": "Hôtel",
      "priceRange": "€€",
      "mapsUrl": "https://maps.google.com/?q=4.0277264,9.7354331",
      "lat": 4.0277264,
      "lng": 9.7354331,
      "halalFriendly": false,
      "bookingUrl": "https://maps.google.com/?q=4.0277264,9.7354331",
      "source": "osm"
    },
    {
      "nom": "Hôtel de France",
      "categorie": "Hôtel",
      "priceRange": "€€",
      "mapsUrl": "https://maps.google.com/?q=4.0847831,9.7436567",
      "lat": 4.0847831,
      "lng": 9.7436567,
      "halalFriendly": false,
      "bookingUrl": "https://maps.google.com/?q=4.0847831,9.7436567",
      "source": "osm"
    },
    {
      "nom": "Hôtel",
      "categorie": "Hôtel",
      "priceRange": "€€",
      "mapsUrl": "https://maps.google.com/?q=4.0839111,9.7423652",
      "lat": 4.0839111,
      "lng": 9.7423652,
      "halalFriendly": false,
      "bookingUrl": "https://maps.google.com/?q=4.0839111,9.7423652",
      "source": "osm"
    },
    {
      "nom": "Vital",
      "categorie": "Hôtel",
      "priceRange": "€€",
      "mapsUrl": "https://maps.google.com/?q=4.0869827,9.7467503",
      "lat": 4.0869827,
      "lng": 9.7467503,
      "halalFriendly": false,
      "bookingUrl": "https://maps.google.com/?q=4.0869827,9.7467503",
      "source": "osm"
    },
    {
      "nom": "Résidence METCHIDJI",
      "categorie": "Appartement",
      "priceRange": "€€",
      "mapsUrl": "https://maps.google.com/?q=4.0416961,9.7267301",
      "lat": 4.0416961,
      "lng": 9.7267301,
      "halalFriendly": false,
      "bookingUrl": "https://maps.google.com/?q=4.0416961,9.7267301",
      "source": "osm"
    },
    {
      "nom": "Hôtel Manengole",
      "categorie": "Hôtel",
      "priceRange": "€€",
      "mapsUrl": "https://maps.google.com/?q=4.022716,9.7361119",
      "lat": 4.022716,
      "lng": 9.7361119,
      "halalFriendly": false,
      "bookingUrl": "https://maps.google.com/?q=4.022716,9.7361119",
      "source": "osm"
    },
    {
      "nom": "Hôtel Santa Barbara",
      "categorie": "Hôtel",
      "priceRange": "€€",
      "mapsUrl": "https://maps.google.com/?q=4.0837964,9.7399514",
      "lat": 4.0837964,
      "lng": 9.7399514,
      "halalFriendly": false,
      "bookingUrl": "https://maps.google.com/?q=4.0837964,9.7399514",
      "source": "osm"
    },
    {
      "nom": "Résidence Maria Coretti",
      "categorie": "Hôtel",
      "priceRange": "€€",
      "mapsUrl": "https://maps.google.com/?q=4.0871545,9.7438247",
      "lat": 4.0871545,
      "lng": 9.7438247,
      "halalFriendly": false,
      "bookingUrl": "https://maps.google.com/?q=4.0871545,9.7438247",
      "source": "osm"
    },
    {
      "nom": "Mac’s House",
      "categorie": "Maison d'hôtes",
      "priceRange": "€€",
      "mapsUrl": "https://maps.google.com/?q=4.092029,9.751817",
      "lat": 4.092029,
      "lng": 9.751817,
      "halalFriendly": false,
      "bookingUrl": "https://maps.google.com/?q=4.092029,9.751817",
      "source": "osm"
    },
    {
      "nom": "Disney Palace",
      "categorie": "Hôtel",
      "priceRange": "€€",
      "mapsUrl": "https://maps.google.com/?q=4.0780212,9.7322607",
      "lat": 4.0780212,
      "lng": 9.7322607,
      "halalFriendly": false,
      "bookingUrl": "https://maps.google.com/?q=4.0780212,9.7322607",
      "source": "osm"
    },
    {
      "nom": "Cela hôtel",
      "categorie": "Hôtel",
      "priceRange": "€€",
      "mapsUrl": "https://maps.google.com/?q=4.0686332,9.7266054",
      "lat": 4.0686332,
      "lng": 9.7266054,
      "halalFriendly": false,
      "bookingUrl": "https://maps.google.com/?q=4.0686332,9.7266054",
      "source": "osm"
    },
    {
      "nom": "Fly City",
      "categorie": "Hôtel",
      "priceRange": "€€",
      "mapsUrl": "https://maps.google.com/?q=4.0775104,9.731447",
      "lat": 4.0775104,
      "lng": 9.731447,
      "halalFriendly": false,
      "bookingUrl": "https://maps.google.com/?q=4.0775104,9.731447",
      "source": "osm"
    },
    {
      "nom": "Hotel Nanfang’s",
      "categorie": "Hôtel",
      "priceRange": "€€",
      "mapsUrl": "https://maps.google.com/?q=4.0910736,9.7467647",
      "lat": 4.0910736,
      "lng": 9.7467647,
      "halalFriendly": false,
      "bookingUrl": "https://maps.google.com/?q=4.0910736,9.7467647",
      "source": "osm"
    },
    {
      "nom": "Capitol Hôtel",
      "categorie": "Hôtel",
      "priceRange": "€€",
      "mapsUrl": "https://maps.google.com/?q=4.0603615,9.7233429",
      "lat": 4.0603615,
      "lng": 9.7233429,
      "halalFriendly": false,
      "bookingUrl": "https://maps.google.com/?q=4.0603615,9.7233429",
      "source": "osm"
    },
    {
      "nom": "Le Château",
      "categorie": "Hôtel",
      "priceRange": "€€",
      "mapsUrl": "https://maps.google.com/?q=4.0344836,9.7252423",
      "lat": 4.0344836,
      "lng": 9.7252423,
      "halalFriendly": false,
      "bookingUrl": "https://maps.google.com/?q=4.0344836,9.7252423",
      "source": "osm"
    },
    {
      "nom": "Hotel Amities",
      "categorie": "Hôtel",
      "priceRange": "€€",
      "mapsUrl": "https://maps.google.com/?q=4.0680427,9.7252198",
      "lat": 4.0680427,
      "lng": 9.7252198,
      "halalFriendly": false,
      "bookingUrl": "https://maps.google.com/?q=4.0680427,9.7252198",
      "source": "osm"
    },
    {
      "nom": "Hotel Nanfan's",
      "categorie": "Hôtel",
      "priceRange": "€€",
      "mapsUrl": "https://maps.google.com/?q=4.0921476,9.7466139",
      "lat": 4.0921476,
      "lng": 9.7466139,
      "halalFriendly": false,
      "bookingUrl": "https://maps.google.com/?q=4.0921476,9.7466139",
      "source": "osm"
    },
    {
      "nom": "Hotel Bijoux",
      "categorie": "Hôtel",
      "priceRange": "€€",
      "mapsUrl": "https://maps.google.com/?q=4.0919808,9.7462234",
      "lat": 4.0919808,
      "lng": 9.7462234,
      "halalFriendly": false,
      "bookingUrl": "https://maps.google.com/?q=4.0919808,9.7462234",
      "source": "osm"
    },
    {
      "nom": "Hôtel Peninsula Plaza",
      "categorie": "Hôtel",
      "priceRange": "€€",
      "mapsUrl": "https://maps.google.com/?q=4.0841235,9.7352313",
      "lat": 4.0841235,
      "lng": 9.7352313,
      "halalFriendly": false,
      "bookingUrl": "https://maps.google.com/?q=4.0841235,9.7352313",
      "source": "osm"
    },
    {
      "nom": "Hôtel Barcelone",
      "categorie": "Hôtel",
      "priceRange": "€€",
      "mapsUrl": "https://maps.google.com/?q=4.0325328,9.7252478",
      "lat": 4.0325328,
      "lng": 9.7252478,
      "halalFriendly": false,
      "bookingUrl": "https://maps.google.com/?q=4.0325328,9.7252478",
      "source": "osm"
    },
    {
      "nom": "Hotel saint James",
      "categorie": "Hôtel",
      "priceRange": "€€",
      "mapsUrl": "https://maps.google.com/?q=4.0900583,9.7424927",
      "lat": 4.0900583,
      "lng": 9.7424927,
      "halalFriendly": false,
      "bookingUrl": "https://maps.google.com/?q=4.0900583,9.7424927",
      "source": "osm"
    },
    {
      "nom": "Résidence Inn",
      "categorie": "Hôtel",
      "priceRange": "€€",
      "mapsUrl": "https://maps.google.com/?q=4.0089692,9.7458311",
      "lat": 4.0089692,
      "lng": 9.7458311,
      "halalFriendly": false,
      "bookingUrl": "https://maps.google.com/?q=4.0089692,9.7458311",
      "source": "osm"
    },
    {
      "nom": "Lydie NONO",
      "categorie": "Maison d'hôtes",
      "priceRange": "€€",
      "mapsUrl": "https://maps.google.com/?q=4.0676363,9.7229176",
      "lat": 4.0676363,
      "lng": 9.7229176,
      "halalFriendly": false,
      "bookingUrl": "https://maps.google.com/?q=4.0676363,9.7229176",
      "source": "osm"
    },
    {
      "nom": "Street into Wisdom bilingual College",
      "categorie": "Hôtel",
      "priceRange": "€€",
      "mapsUrl": "https://maps.google.com/?q=4.008962,9.7450174",
      "lat": 4.008962,
      "lng": 9.7450174,
      "halalFriendly": false,
      "bookingUrl": "https://maps.google.com/?q=4.008962,9.7450174",
      "source": "osm"
    },
    {
      "nom": "Hôtel Le Temps",
      "categorie": "Hôtel",
      "priceRange": "€€",
      "mapsUrl": "https://maps.google.com/?q=4.0706245,9.7238797",
      "lat": 4.0706245,
      "lng": 9.7238797,
      "halalFriendly": false,
      "bookingUrl": "https://maps.google.com/?q=4.0706245,9.7238797",
      "source": "osm"
    },
    {
      "nom": "hotel belavie",
      "categorie": "Hôtel",
      "priceRange": "€€",
      "mapsUrl": "https://maps.google.com/?q=4.0483319,9.7196686",
      "lat": 4.0483319,
      "lng": 9.7196686,
      "halalFriendly": false,
      "bookingUrl": "https://maps.google.com/?q=4.0483319,9.7196686",
      "source": "osm"
    },
    {
      "nom": "Denver Plaza",
      "categorie": "Hôtel",
      "priceRange": "€€",
      "mapsUrl": "https://maps.google.com/?q=4.0882925,9.7359035",
      "lat": 4.0882925,
      "lng": 9.7359035,
      "halalFriendly": false,
      "bookingUrl": "https://maps.google.com/?q=4.0882925,9.7359035",
      "source": "osm"
    },
    {
      "nom": "Résidence Vinelly",
      "categorie": "Appartement",
      "priceRange": "€€",
      "mapsUrl": "https://maps.google.com/?q=4.0216102,9.8071561",
      "lat": 4.0216102,
      "lng": 9.8071561,
      "halalFriendly": false,
      "bookingUrl": "www.residencevinelly.com",
      "source": "osm"
    },
    {
      "nom": "Hotel Joanes",
      "categorie": "Hôtel",
      "priceRange": "€€",
      "mapsUrl": "https://maps.google.com/?q=4.0821231,9.7297342",
      "lat": 4.0821231,
      "lng": 9.7297342,
      "halalFriendly": false,
      "bookingUrl": "https://maps.google.com/?q=4.0821231,9.7297342",
      "source": "osm"
    },
    {
      "nom": "Hotel Maillot",
      "categorie": "Hôtel",
      "priceRange": "€€",
      "mapsUrl": "https://maps.google.com/?q=4.0016747,9.761048",
      "lat": 4.0016747,
      "lng": 9.761048,
      "halalFriendly": false,
      "bookingUrl": "https://maps.google.com/?q=4.0016747,9.761048",
      "source": "osm"
    },
    {
      "nom": "Genevieve house",
      "categorie": "Appartement",
      "priceRange": "€€",
      "mapsUrl": "https://maps.google.com/?q=4.0838339,9.8057254",
      "lat": 4.0838339,
      "lng": 9.8057254,
      "halalFriendly": false,
      "bookingUrl": "https://maps.google.com/?q=4.0838339,9.8057254",
      "source": "osm"
    },
    {
      "nom": "Hotel Déborah",
      "categorie": "Hôtel",
      "priceRange": "€€",
      "mapsUrl": "https://maps.google.com/?q=4.0694245,9.7200881",
      "lat": 4.0694245,
      "lng": 9.7200881,
      "halalFriendly": false,
      "bookingUrl": "https://maps.google.com/?q=4.0694245,9.7200881",
      "source": "osm"
    },
    {
      "nom": "Hotel Porte Maillot",
      "categorie": "Hôtel",
      "priceRange": "€€",
      "mapsUrl": "https://maps.google.com/?q=3.9999355,9.7648606",
      "lat": 3.9999355,
      "lng": 9.7648606,
      "halalFriendly": false,
      "bookingUrl": "https://maps.google.com/?q=3.9999355,9.7648606",
      "source": "osm"
    },
    {
      "nom": "Hotel Mbanya",
      "categorie": "Hôtel",
      "priceRange": "€€",
      "mapsUrl": "https://maps.google.com/?q=4.0834532,9.7276273",
      "lat": 4.0834532,
      "lng": 9.7276273,
      "halalFriendly": false,
      "bookingUrl": "https://maps.google.com/?q=4.0834532,9.7276273",
      "source": "osm"
    },
    {
      "nom": "Street into scolaire bilingue Celine New Town aeroport",
      "categorie": "Hôtel",
      "priceRange": "€€",
      "mapsUrl": "https://maps.google.com/?q=4.0099569,9.7362826",
      "lat": 4.0099569,
      "lng": 9.7362826,
      "halalFriendly": false,
      "bookingUrl": "https://maps.google.com/?q=4.0099569,9.7362826",
      "source": "osm"
    },
    {
      "nom": "BEUTEUMEN Building (GSEC SARL)",
      "categorie": "Hôtel",
      "priceRange": "€€",
      "mapsUrl": "https://maps.google.com/?q=4.0120226,9.7329993",
      "lat": 4.0120226,
      "lng": 9.7329993,
      "halalFriendly": false,
      "bookingUrl": "https://maps.google.com/?q=4.0120226,9.7329993",
      "source": "osm"
    },
    {
      "nom": "Befemen Building",
      "categorie": "Hôtel",
      "priceRange": "€€",
      "mapsUrl": "https://maps.google.com/?q=4.0120214,9.7329979",
      "lat": 4.0120214,
      "lng": 9.7329979,
      "halalFriendly": false,
      "bookingUrl": "https://maps.google.com/?q=4.0120214,9.7329979",
      "source": "osm"
    },
    {
      "nom": "Hotel Jonavi",
      "categorie": "Hôtel",
      "priceRange": "€€",
      "mapsUrl": "https://maps.google.com/?q=4.0423023,9.71538",
      "lat": 4.0423023,
      "lng": 9.71538,
      "halalFriendly": false,
      "bookingUrl": "https://maps.google.com/?q=4.0423023,9.71538",
      "source": "osm"
    },
    {
      "nom": "Mondial Hôtel",
      "categorie": "Hôtel",
      "priceRange": "€€",
      "mapsUrl": "https://maps.google.com/?q=4.0162186,9.7275114",
      "lat": 4.0162186,
      "lng": 9.7275114,
      "halalFriendly": false,
      "bookingUrl": "https://maps.google.com/?q=4.0162186,9.7275114",
      "source": "osm"
    },
    {
      "nom": "Safana",
      "categorie": "Hôtel",
      "priceRange": "€€",
      "mapsUrl": "https://maps.google.com/?q=4.0159749,9.7276581",
      "lat": 4.0159749,
      "lng": 9.7276581,
      "halalFriendly": false,
      "bookingUrl": "https://maps.google.com/?q=4.0159749,9.7276581",
      "source": "osm"
    },
    {
      "nom": "Emilia Hôtel",
      "categorie": "Hôtel",
      "priceRange": "€€",
      "mapsUrl": "https://maps.google.com/?q=4.0110781,9.7321906",
      "lat": 4.0110781,
      "lng": 9.7321906,
      "halalFriendly": false,
      "bookingUrl": "https://maps.google.com/?q=4.0110781,9.7321906",
      "source": "osm"
    },
    {
      "nom": "Hotel Ellisam",
      "categorie": "Hôtel",
      "priceRange": "€€",
      "mapsUrl": "https://maps.google.com/?q=4.042459,9.7148303",
      "lat": 4.042459,
      "lng": 9.7148303,
      "halalFriendly": false,
      "bookingUrl": "https://maps.google.com/?q=4.042459,9.7148303",
      "source": "osm"
    },
    {
      "nom": "Saffana Hotel",
      "categorie": "Hôtel",
      "priceRange": "€€",
      "mapsUrl": "https://maps.google.com/?q=4.0160137,9.7271657",
      "lat": 4.0160137,
      "lng": 9.7271657,
      "halalFriendly": false,
      "bookingUrl": "https://maps.google.com/?q=4.0160137,9.7271657",
      "source": "osm"
    },
    {
      "nom": "Jet Hôtel",
      "categorie": "Hôtel",
      "priceRange": "€€",
      "mapsUrl": "https://maps.google.com/?q=4.010283,9.7327248",
      "lat": 4.010283,
      "lng": 9.7327248,
      "halalFriendly": false,
      "bookingUrl": "https://maps.google.com/?q=4.010283,9.7327248",
      "source": "osm"
    },
    {
      "nom": "Hunter Sgare",
      "categorie": "Hôtel",
      "priceRange": "€€",
      "mapsUrl": "https://maps.google.com/?q=4.0106422,9.7313205",
      "lat": 4.0106422,
      "lng": 9.7313205,
      "halalFriendly": false,
      "bookingUrl": "https://maps.google.com/?q=4.0106422,9.7313205",
      "source": "osm"
    },
    {
      "nom": "Opium Paradise",
      "categorie": "Hôtel",
      "priceRange": "€€",
      "mapsUrl": "https://maps.google.com/?q=4.0428287,9.7137085",
      "lat": 4.0428287,
      "lng": 9.7137085,
      "halalFriendly": false,
      "bookingUrl": "https://maps.google.com/?q=4.0428287,9.7137085",
      "source": "osm"
    },
    {
      "nom": "Hôtel Kampa",
      "categorie": "Hôtel",
      "priceRange": "€€",
      "mapsUrl": "https://maps.google.com/?q=4.0095693,9.7321661",
      "lat": 4.0095693,
      "lng": 9.7321661,
      "halalFriendly": false,
      "bookingUrl": "https://maps.google.com/?q=4.0095693,9.7321661",
      "source": "osm"
    },
    {
      "nom": "Serena Hotel",
      "categorie": "Hôtel",
      "priceRange": "€€",
      "mapsUrl": "https://maps.google.com/?q=4.0851698,9.7244146",
      "lat": 4.0851698,
      "lng": 9.7244146,
      "halalFriendly": false,
      "bookingUrl": "https://maps.google.com/?q=4.0851698,9.7244146",
      "source": "osm"
    },
    {
      "nom": "Maison bonamoussadi",
      "categorie": "Maison d'hôtes",
      "priceRange": "€€",
      "mapsUrl": "https://maps.google.com/?q=4.0984524,9.7390714",
      "lat": 4.0984524,
      "lng": 9.7390714,
      "halalFriendly": false,
      "bookingUrl": "https://maps.google.com/?q=4.0984524,9.7390714",
      "source": "osm"
    },
    {
      "nom": "Hôtel Madiba",
      "categorie": "Hôtel",
      "priceRange": "€€",
      "mapsUrl": "https://maps.google.com/?q=4.07517,9.7174802",
      "lat": 4.07517,
      "lng": 9.7174802,
      "halalFriendly": false,
      "bookingUrl": "https://maps.google.com/?q=4.07517,9.7174802",
      "source": "osm"
    },
    {
      "nom": "Hôtel le Boa",
      "categorie": "Hôtel",
      "priceRange": "€€",
      "mapsUrl": "https://maps.google.com/?q=4.0854881,9.7235339",
      "lat": 4.0854881,
      "lng": 9.7235339,
      "halalFriendly": false,
      "bookingUrl": "https://maps.google.com/?q=4.0854881,9.7235339",
      "source": "osm"
    },
    {
      "nom": "Ngambia Roger Fin Goudron Mbangue",
      "categorie": "Appartement",
      "priceRange": "€€",
      "mapsUrl": "https://maps.google.com/?q=4.104894,9.7499488",
      "lat": 4.104894,
      "lng": 9.7499488,
      "halalFriendly": false,
      "bookingUrl": "https://maps.google.com/?q=4.104894,9.7499488",
      "source": "osm"
    },
    {
      "nom": "Hôtel le Ghope",
      "categorie": "Hôtel",
      "priceRange": "€€",
      "mapsUrl": "https://maps.google.com/?q=4.0997891,9.7382803",
      "lat": 4.0997891,
      "lng": 9.7382803,
      "halalFriendly": false,
      "bookingUrl": "https://maps.google.com/?q=4.0997891,9.7382803",
      "source": "osm"
    },
    {
      "nom": "Hotel Yangs",
      "categorie": "Hôtel",
      "priceRange": "€€",
      "mapsUrl": "https://maps.google.com/?q=4.0985058,9.7359036",
      "lat": 4.0985058,
      "lng": 9.7359036,
      "halalFriendly": false,
      "bookingUrl": "https://maps.google.com/?q=4.0985058,9.7359036",
      "source": "osm"
    },
    {
      "nom": "kremlin hôtel",
      "categorie": "Hôtel",
      "priceRange": "€€",
      "mapsUrl": "https://maps.google.com/?q=4.0993901,9.7369844",
      "lat": 4.0993901,
      "lng": 9.7369844,
      "halalFriendly": false,
      "bookingUrl": "https://maps.google.com/?q=4.0993901,9.7369844",
      "source": "osm"
    },
    {
      "nom": "Manengouba",
      "categorie": "Hôtel",
      "priceRange": "€€",
      "mapsUrl": "https://maps.google.com/?q=4.0655441,9.7118549",
      "lat": 4.0655441,
      "lng": 9.7118549,
      "halalFriendly": false,
      "bookingUrl": "https://maps.google.com/?q=4.0655441,9.7118549",
      "source": "osm"
    },
    {
      "nom": "Best Western Plus",
      "categorie": "Hôtel",
      "priceRange": "€€",
      "mapsUrl": "https://maps.google.com/?q=4.0191495,9.7196266",
      "lat": 4.0191495,
      "lng": 9.7196266,
      "halalFriendly": false,
      "bookingUrl": "https://maps.google.com/?q=4.0191495,9.7196266",
      "source": "osm"
    },
    {
      "nom": "Résidence le Progrès",
      "categorie": "Appartement",
      "priceRange": "€€",
      "mapsUrl": "https://maps.google.com/?q=4.094586,9.7287631",
      "lat": 4.094586,
      "lng": 9.7287631,
      "halalFriendly": false,
      "bookingUrl": "https://maps.google.com/?q=4.094586,9.7287631",
      "source": "osm"
    },
    {
      "nom": "Hibiscus",
      "categorie": "Hôtel",
      "priceRange": "€€",
      "mapsUrl": "https://maps.google.com/?q=4.0995384,9.7348814",
      "lat": 4.0995384,
      "lng": 9.7348814,
      "halalFriendly": false,
      "bookingUrl": "https://maps.google.com/?q=4.0995384,9.7348814",
      "source": "osm"
    },
    {
      "nom": "Murielle House Entree Pave",
      "categorie": "Appartement",
      "priceRange": "€€",
      "mapsUrl": "https://maps.google.com/?q=4.0405263,9.7100795",
      "lat": 4.0405263,
      "lng": 9.7100795,
      "halalFriendly": false,
      "bookingUrl": "https://maps.google.com/?q=4.0405263,9.7100795",
      "source": "osm"
    },
    {
      "nom": "Maison Anague",
      "categorie": "Appartement",
      "priceRange": "€€",
      "mapsUrl": "https://maps.google.com/?q=4.0949222,9.7284038",
      "lat": 4.0949222,
      "lng": 9.7284038,
      "halalFriendly": false,
      "bookingUrl": "https://maps.google.com/?q=4.0949222,9.7284038",
      "source": "osm"
    },
    {
      "nom": "Résidence Léna Claude",
      "categorie": "Appartement",
      "priceRange": "€€",
      "mapsUrl": "https://maps.google.com/?q=4.0951758,9.7286506",
      "lat": 4.0951758,
      "lng": 9.7286506,
      "halalFriendly": false,
      "bookingUrl": "https://maps.google.com/?q=4.0951758,9.7286506",
      "source": "osm"
    },
    {
      "nom": "Hotel La Côte",
      "categorie": "Hôtel",
      "priceRange": "€€",
      "mapsUrl": "https://maps.google.com/?q=4.0458302,9.7090328",
      "lat": 4.0458302,
      "lng": 9.7090328,
      "halalFriendly": false,
      "bookingUrl": "https://maps.google.com/?q=4.0458302,9.7090328",
      "source": "osm"
    },
    {
      "nom": "Lewat Hotel",
      "categorie": "Hôtel",
      "priceRange": "€€",
      "mapsUrl": "https://maps.google.com/?q=4.0575222,9.7089965",
      "lat": 4.0575222,
      "lng": 9.7089965,
      "halalFriendly": false,
      "bookingUrl": "https://maps.google.com/?q=4.0575222,9.7089965",
      "source": "osm"
    },
    {
      "nom": "motel maruis",
      "categorie": "Appartement",
      "priceRange": "€€",
      "mapsUrl": "https://maps.google.com/?q=3.9926868,9.7824028",
      "lat": 3.9926868,
      "lng": 9.7824028,
      "halalFriendly": false,
      "bookingUrl": "https://maps.google.com/?q=3.9926868,9.7824028",
      "source": "osm"
    },
    {
      "nom": "Vallée des Princes",
      "categorie": "Hôtel",
      "priceRange": "€€",
      "mapsUrl": "https://maps.google.com/?q=4.0551358,9.7076272",
      "lat": 4.0551358,
      "lng": 9.7076272,
      "halalFriendly": false,
      "bookingUrl": "https://maps.google.com/?q=4.0551358,9.7076272",
      "source": "osm"
    },
    {
      "nom": "Hila hôtel",
      "categorie": "Hôtel",
      "priceRange": "€€",
      "mapsUrl": "https://maps.google.com/?q=4.0437368,9.7078657",
      "lat": 4.0437368,
      "lng": 9.7078657,
      "halalFriendly": false,
      "bookingUrl": "https://maps.google.com/?q=4.0437368,9.7078657",
      "source": "osm"
    },
    {
      "nom": "Residence Pierre Flardan",
      "categorie": "Appartement",
      "priceRange": "€€",
      "mapsUrl": "https://maps.google.com/?q=4.0440457,9.7068515",
      "lat": 4.0440457,
      "lng": 9.7068515,
      "halalFriendly": false,
      "bookingUrl": "https://maps.google.com/?q=4.0440457,9.7068515",
      "source": "osm"
    },
    {
      "nom": "Noubou Hôtel",
      "categorie": "Hôtel",
      "priceRange": "€€",
      "mapsUrl": "https://maps.google.com/?q=4.044552,9.7064791",
      "lat": 4.044552,
      "lng": 9.7064791,
      "halalFriendly": false,
      "bookingUrl": "https://maps.google.com/?q=4.044552,9.7064791",
      "source": "osm"
    },
    {
      "nom": "Deido Palace",
      "categorie": "Hôtel",
      "priceRange": "€€",
      "mapsUrl": "https://maps.google.com/?q=4.0613468,9.7064838",
      "lat": 4.0613468,
      "lng": 9.7064838,
      "halalFriendly": false,
      "bookingUrl": "https://maps.google.com/?q=4.0613468,9.7064838",
      "source": "osm"
    },
    {
      "nom": "Hotel Pacific",
      "categorie": "Hôtel",
      "priceRange": "€€",
      "mapsUrl": "https://maps.google.com/?q=4.0633226,9.7055384",
      "lat": 4.0633226,
      "lng": 9.7055384,
      "halalFriendly": false,
      "bookingUrl": "https://maps.google.com/?q=4.0633226,9.7055384",
      "source": "osm"
    },
    {
      "nom": "Hotel Maxim's de Paris",
      "categorie": "Hôtel",
      "priceRange": "€€",
      "mapsUrl": "https://maps.google.com/?q=4.0636475,9.7051074",
      "lat": 4.0636475,
      "lng": 9.7051074,
      "halalFriendly": false,
      "bookingUrl": "https://maps.google.com/?q=4.0636475,9.7051074",
      "source": "osm"
    },
    {
      "nom": "MMAWEL",
      "categorie": "Hôtel",
      "priceRange": "€€",
      "mapsUrl": "https://maps.google.com/?q=3.9919054,9.792602",
      "lat": 3.9919054,
      "lng": 9.792602,
      "halalFriendly": false,
      "bookingUrl": "https://maps.google.com/?q=3.9919054,9.792602",
      "source": "osm"
    },
    {
      "nom": "Bano Palace",
      "categorie": "Hôtel",
      "priceRange": "€€",
      "mapsUrl": "https://maps.google.com/?q=4.0528405,9.7035664",
      "lat": 4.0528405,
      "lng": 9.7035664,
      "halalFriendly": false,
      "bookingUrl": "https://maps.google.com/?q=4.0528405,9.7035664",
      "source": "osm"
    },
    {
      "nom": "Hotel Man",
      "categorie": "Hôtel",
      "priceRange": "€€",
      "mapsUrl": "https://maps.google.com/?q=4.049831,9.7019765",
      "lat": 4.049831,
      "lng": 9.7019765,
      "halalFriendly": false,
      "bookingUrl": "https://maps.google.com/?q=4.049831,9.7019765",
      "source": "osm"
    },
    {
      "nom": "Akena City Hotel",
      "categorie": "Hôtel",
      "priceRange": "€€",
      "mapsUrl": "https://maps.google.com/?q=4.0503831,9.7016774",
      "lat": 4.0503831,
      "lng": 9.7016774,
      "halalFriendly": false,
      "bookingUrl": "https://maps.google.com/?q=4.0503831,9.7016774",
      "source": "osm"
    },
    {
      "nom": "Aquazias",
      "categorie": "Appartement",
      "priceRange": "€€",
      "mapsUrl": "https://maps.google.com/?q=4.0477939,9.7012092",
      "lat": 4.0477939,
      "lng": 9.7012092,
      "halalFriendly": false,
      "bookingUrl": "https://maps.google.com/?q=4.0477939,9.7012092",
      "source": "osm"
    },
    {
      "nom": "Hotel le Ndé",
      "categorie": "Hôtel",
      "priceRange": "€€",
      "mapsUrl": "https://maps.google.com/?q=4.0587442,9.7008563",
      "lat": 4.0587442,
      "lng": 9.7008563,
      "halalFriendly": false,
      "bookingUrl": "https://maps.google.com/?q=4.0587442,9.7008563",
      "source": "osm"
    },
    {
      "nom": "Bete Akwa",
      "categorie": "Hôtel",
      "priceRange": "€€",
      "mapsUrl": "https://maps.google.com/?q=4.0463862,9.699992",
      "lat": 4.0463862,
      "lng": 9.699992,
      "halalFriendly": false,
      "bookingUrl": "https://maps.google.com/?q=4.0463862,9.699992",
      "source": "osm"
    },
    {
      "nom": "Hotel Doris",
      "categorie": "Hôtel",
      "priceRange": "€€",
      "mapsUrl": "https://maps.google.com/?q=4.0459366,9.699958",
      "lat": 4.0459366,
      "lng": 9.699958,
      "halalFriendly": false,
      "bookingUrl": "https://maps.google.com/?q=4.0459366,9.699958",
      "source": "osm"
    },
    {
      "nom": "Emeline",
      "categorie": "Maison d'hôtes",
      "priceRange": "€€",
      "mapsUrl": "https://maps.google.com/?q=4.0502471,9.6992785",
      "lat": 4.0502471,
      "lng": 9.6992785,
      "halalFriendly": false,
      "bookingUrl": "https://maps.google.com/?q=4.0502471,9.6992785",
      "source": "osm"
    }
  ],
  "mosqueesPrincipales": [
    {
      "id": "m457498252",
      "nom": "Mosquée Fadil",
      "type": "Mosquée",
      "adresse": "",
      "description": "Lieu de prière (OpenStreetMap).",
      "mapsUrl": "https://maps.google.com/?q=4.0362325,9.7407469",
      "lat": 4.0362325,
      "lng": 9.7407469,
      "source": "osm"
    },
    {
      "id": "m454491416",
      "nom": "Mosquée Centrale",
      "type": "Mosquée",
      "adresse": "",
      "description": "Lieu de prière (OpenStreetMap).",
      "mapsUrl": "https://maps.google.com/?q=4.0370561,9.704554",
      "lat": 4.0370561,
      "lng": 9.704554,
      "source": "osm"
    },
    {
      "id": "m299539066",
      "nom": "Temple du Centenaire",
      "type": "Mosquée",
      "adresse": "",
      "description": "Lieu de prière (OpenStreetMap).",
      "mapsUrl": "https://maps.google.com/?q=4.050726,9.6920642",
      "lat": 4.050726,
      "lng": 9.6920642,
      "source": "osm"
    }
  ],
  "activites": [
    {
      "id": "a458556013",
      "nom": "Piscine de Ndogbong",
      "categorie": "attraction",
      "description": "",
      "prix": "",
      "duree": "",
      "mapsUrl": "https://maps.google.com/?q=4.0600352,9.7454639",
      "lat": 4.0600352,
      "lng": 9.7454639,
      "source": "osm"
    },
    {
      "id": "a9845639740",
      "nom": "chez papa chounfack martin",
      "categorie": "park",
      "description": "",
      "prix": "",
      "duree": "",
      "mapsUrl": "https://maps.google.com/?q=4.0632278,9.7320939",
      "lat": 4.0632278,
      "lng": 9.7320939,
      "source": "osm"
    },
    {
      "id": "a10591293507",
      "nom": "Entrée Cité de la Paix",
      "categorie": "attraction",
      "description": "",
      "prix": "",
      "duree": "",
      "mapsUrl": "https://maps.google.com/?q=4.0418134,9.7273215",
      "lat": 4.0418134,
      "lng": 9.7273215,
      "source": "osm"
    },
    {
      "id": "a10591293605",
      "nom": "Stade Camrail IPD",
      "categorie": "attraction",
      "description": "",
      "prix": "",
      "duree": "",
      "mapsUrl": "https://maps.google.com/?q=4.0423643,9.726664",
      "lat": 4.0423643,
      "lng": 9.726664,
      "source": "osm"
    },
    {
      "id": "a9845637459",
      "nom": "chez papa martin",
      "categorie": "park",
      "description": "",
      "prix": "",
      "duree": "",
      "mapsUrl": "https://maps.google.com/?q=4.063954,9.723309",
      "lat": 4.063954,
      "lng": 9.723309,
      "source": "osm"
    },
    {
      "id": "a10763677506",
      "nom": "Maison Olivia",
      "categorie": "castle",
      "description": "",
      "prix": "",
      "duree": "",
      "mapsUrl": "https://maps.google.com/?q=4.0803073,9.7243103",
      "lat": 4.0803073,
      "lng": 9.7243103,
      "source": "osm"
    },
    {
      "id": "a6683412087",
      "nom": "Carrefour Baobab",
      "categorie": "monument",
      "description": "",
      "prix": "",
      "duree": "",
      "mapsUrl": "https://maps.google.com/?q=4.1038996,9.7429496",
      "lat": 4.1038996,
      "lng": 9.7429496,
      "source": "osm"
    },
    {
      "id": "a4781209821",
      "nom": "Global Cargo",
      "categorie": "attraction",
      "description": "",
      "prix": "",
      "duree": "",
      "mapsUrl": "https://maps.google.com/?q=4.0376169,9.7109063",
      "lat": 4.0376169,
      "lng": 9.7109063,
      "source": "osm"
    },
    {
      "id": "a4995138937",
      "nom": "Le Jardin Sonore de Bonamouti",
      "categorie": "artwork",
      "description": "",
      "prix": "",
      "duree": "",
      "mapsUrl": "https://maps.google.com/?q=4.0719017,9.7114621",
      "lat": 4.0719017,
      "lng": 9.7114621,
      "source": "osm"
    },
    {
      "id": "a2061315571",
      "nom": "la Nouvelle Liberté",
      "categorie": "monument",
      "description": "",
      "prix": "",
      "duree": "",
      "mapsUrl": "https://maps.google.com/?q=4.0641991,9.7068508",
      "lat": 4.0641991,
      "lng": 9.7068508,
      "source": "osm"
    },
    {
      "id": "a6239332350",
      "nom": "Hôpital Laquintinie",
      "categorie": "monument",
      "description": "",
      "prix": "",
      "duree": "",
      "mapsUrl": "https://maps.google.com/?q=4.048201,9.7031028",
      "lat": 4.048201,
      "lng": 9.7031028,
      "source": "osm"
    },
    {
      "id": "a6633294458",
      "nom": "Manège",
      "categorie": "attraction",
      "description": "",
      "prix": "",
      "duree": "",
      "mapsUrl": "https://maps.google.com/?q=4.0600491,9.7030885",
      "lat": 4.0600491,
      "lng": 9.7030885,
      "source": "osm"
    },
    {
      "id": "a299613460",
      "nom": "Palace",
      "categorie": "attraction",
      "description": "",
      "prix": "",
      "duree": "",
      "mapsUrl": "https://maps.google.com/?q=4.0482285,9.7008162",
      "lat": 4.0482285,
      "lng": 9.7008162,
      "source": "osm"
    },
    {
      "id": "a4191970523",
      "nom": "Prince Akwa",
      "categorie": "memorial",
      "description": "",
      "prix": "",
      "duree": "",
      "mapsUrl": "https://maps.google.com/?q=4.048129,9.7005683",
      "lat": 4.048129,
      "lng": 9.7005683,
      "source": "osm"
    },
    {
      "id": "a4191970781",
      "nom": "Roi Akwa",
      "categorie": "memorial",
      "description": "",
      "prix": "",
      "duree": "",
      "mapsUrl": "https://maps.google.com/?q=4.0468204,9.7003437",
      "lat": 4.0468204,
      "lng": 9.7003437,
      "source": "osm"
    },
    {
      "id": "a13108870322",
      "nom": "Annie Kadji Art Gallery",
      "categorie": "gallery",
      "description": "",
      "prix": "",
      "duree": "",
      "mapsUrl": "https://maps.google.com/?q=4.0275536,9.7027746",
      "lat": 4.0275536,
      "lng": 9.7027746,
      "source": "osm"
    },
    {
      "id": "a5162744521",
      "nom": "lotophone",
      "categorie": "attraction",
      "description": "",
      "prix": "",
      "duree": "",
      "mapsUrl": "https://maps.google.com/?q=4.0455038,9.6954921",
      "lat": 4.0455038,
      "lng": 9.6954921,
      "source": "osm"
    },
    {
      "id": "a4340982089",
      "nom": "Castel Hall",
      "categorie": "attraction",
      "description": "",
      "prix": "",
      "duree": "",
      "mapsUrl": "https://maps.google.com/?q=4.0324144,9.6945052",
      "lat": 4.0324144,
      "lng": 9.6945052,
      "source": "osm"
    },
    {
      "id": "a4191970522",
      "nom": "Monument Militaire",
      "categorie": "memorial",
      "description": "",
      "prix": "",
      "duree": "",
      "mapsUrl": "https://maps.google.com/?q=4.0163489,9.698444",
      "lat": 4.0163489,
      "lng": 9.698444,
      "source": "osm"
    },
    {
      "id": "a6615233385",
      "nom": "Parc de jeux",
      "categorie": "attraction",
      "description": "",
      "prix": "",
      "duree": "",
      "mapsUrl": "https://maps.google.com/?q=4.046726,9.6898283",
      "lat": 4.046726,
      "lng": 9.6898283,
      "source": "osm"
    },
    {
      "id": "a299543339",
      "nom": "Villa Mandessi Bell",
      "categorie": "attraction",
      "description": "",
      "prix": "",
      "duree": "",
      "mapsUrl": "https://maps.google.com/?q=4.0451149,9.6885374",
      "lat": 4.0451149,
      "lng": 9.6885374,
      "source": "osm"
    },
    {
      "id": "a4997949621",
      "nom": "Mairie de douala 1er",
      "categorie": "artwork",
      "description": "",
      "prix": "",
      "duree": "",
      "mapsUrl": "https://maps.google.com/?q=4.0388537,9.6889182",
      "lat": 4.0388537,
      "lng": 9.6889182,
      "source": "osm"
    },
    {
      "id": "a4523978034",
      "nom": "Galerie MAM",
      "categorie": "gallery",
      "description": "",
      "prix": "",
      "duree": "",
      "mapsUrl": "https://maps.google.com/?q=4.0370453,9.6883375",
      "lat": 4.0370453,
      "lng": 9.6883375,
      "source": "osm"
    },
    {
      "id": "a2978243796",
      "nom": "Sud-Obelisk",
      "categorie": "artwork",
      "description": "",
      "prix": "",
      "duree": "",
      "mapsUrl": "https://maps.google.com/?q=4.0431652,9.6871941",
      "lat": 4.0431652,
      "lng": 9.6871941,
      "source": "osm"
    },
    {
      "id": "a294261724",
      "nom": "Ancien Palais des Rois Bell",
      "categorie": "attraction",
      "description": "",
      "prix": "",
      "duree": "",
      "mapsUrl": "https://maps.google.com/?q=4.0433941,9.6871429",
      "lat": 4.0433941,
      "lng": 9.6871429,
      "source": "osm"
    },
    {
      "id": "a294261723",
      "nom": "Doual'Art",
      "categorie": "museum",
      "description": "",
      "prix": "",
      "duree": "",
      "mapsUrl": "https://maps.google.com/?q=4.0435749,9.6871222",
      "lat": 4.0435749,
      "lng": 9.6871222,
      "source": "osm"
    }
  ],
  "villeNonMusulmane": true,
  "osmEnriched": true,
  "osmEnrichedAt": "2026-06-30"
}