{
 "slug": "douchanbe",
 "nom": "Douchanbé",
 "pays": "Tadjikistan",
 "pays_slug": "tadjikistan",
 "continent": "Asie",
 "region": "Tadjikistan",
 "coordonnees": {
  "lat": 38.5598,
  "lng": 68.787
 },
 "codeISO": "TJ",
 "score_halal": 4.2,
 "halalScore": 8.4,
 "description": "Douchanbé, Tadjikistan. Forte présence musulmane : nombreuses adresses halal et mosquées.",
 "metaDescription": "Douchanbé, Tadjikistan. Forte présence musulmane : nombreuses adresses halal et mosquées.",
 "image": "https://upload.wikimedia.org/wikipedia/commons/8/85/A_view_of_Dushanbe%2C_Tajikistan.jpg",
 "image_hero": "https://upload.wikimedia.org/wikipedia/commons/8/85/A_view_of_Dushanbe%2C_Tajikistan.jpg",
 "imageCredit": "Wikimedia Commons",
 "scoreIndicatif": true,
 "statistiques": {
  "restaurants_halal": 20,
  "mosquees": 32,
  "hotels": 103
 },
 "infoPratique": {
  "transport": "Accessible par avion et transports locaux.",
  "meilleureEpoque": "Selon la saison.",
  "conseilHalal": "Repérez restaurants halal et mosquées via l'application."
 },
 "tags": [
  "halal",
  "asie"
 ],
 "restaurants": [
  {
   "nom": "Al Sham Restaurant",
   "type": "lebanese, mediterranean",
   "priceRange": "€€",
   "mapsUrl": "https://maps.google.com/?q=38.5651721,68.7892122",
   "lat": 38.5651721,
   "lng": 68.7892122,
   "halalConfidence": "likely",
   "source": "osm"
  },
  {
   "nom": "Тарабхонаи \"Роҳат\"",
   "type": "kebab, local, coffee shop",
   "priceRange": "€€",
   "mapsUrl": "https://maps.google.com/?q=38.561961,68.7762003",
   "lat": 38.561961,
   "lng": 68.7762003,
   "halalConfidence": "likely",
   "source": "osm"
  },
  {
   "nom": "çitirusta",
   "type": "turkish",
   "priceRange": "€€",
   "mapsUrl": "https://maps.google.com/?q=38.5692737,68.7934608",
   "lat": 38.5692737,
   "lng": 68.7934608,
   "halalConfidence": "likely",
   "source": "osm"
  },
  {
   "nom": "Техас",
   "type": "barbecue, chicken, oriental, kebab, coffee shop",
   "priceRange": "€€",
   "mapsUrl": "https://maps.google.com/?q=38.5758234,68.7900191",
   "lat": 38.5758234,
   "lng": 68.7900191,
   "halalConfidence": "likely",
   "source": "osm"
  },
  {
   "nom": "Мерве (Merve)",
   "type": "american, sandwich, donut, deli, friture, burger, international, italian pizza, chicken, coffee shop, cake, tea, turkish, ice cream, hot dog",
   "priceRange": "€€",
   "mapsUrl": "https://maps.google.com/?q=38.5777202,68.8019656",
   "lat": 38.5777202,
   "lng": 68.8019656,
   "halalConfidence": "likely",
   "source": "osm"
  },
  {
   "nom": "Парвоз",
   "type": "barbecue, pancake, chicken, burger, oriental, diner, breakfast, kebab, coffee shop, international, local, regional, beef bowl, fish and chips, sausage, steak house, sandwich, crepe, hot dog, tea",
   "priceRange": "€€",
   "mapsUrl": "https://maps.google.com/?q=38.5486944,68.8161561",
   "lat": 38.5486944,
   "lng": 68.8161561,
   "halalConfidence": "likely",
   "source": "osm"
  },
  {
   "nom": "Yakkasaror Grand Hall",
   "type": "regional, turkish",
   "priceRange": "€€",
   "mapsUrl": "https://maps.google.com/?q=38.5634401,68.7521575",
   "lat": 38.5634401,
   "lng": 68.7521575,
   "halalConfidence": "likely",
   "source": "osm"
  },
  {
   "nom": "Mерве (Merve)",
   "type": "american, deli, donut, friture, burger, ice cream, international, italian pizza, chicken, coffee shop, cake, tea, turkish",
   "priceRange": "€€",
   "mapsUrl": "https://maps.google.com/?q=38.588925,68.7871675",
   "lat": 38.588925,
   "lng": 68.7871675,
   "halalConfidence": "likely",
   "source": "osm"
  },
  {
   "nom": "Курутоб",
   "type": "asian, barbecue, friture, chicken, oriental, grill, kebab, ice cream, coffee shop, local, beef bowl, russian, fish and chips, tea",
   "priceRange": "€€",
   "mapsUrl": "https://maps.google.com/?q=38.5768229,68.7361117",
   "lat": 38.5768229,
   "lng": 68.7361117,
   "halalConfidence": "likely",
   "source": "osm"
  },
  {
   "nom": "ПИТЗО",
   "type": "pizza, burger, kebab, chicken",
   "priceRange": "€€",
   "mapsUrl": "https://maps.google.com/?q=38.5187711,68.7526201",
   "lat": 38.5187711,
   "lng": 68.7526201,
   "halalConfidence": "likely",
   "source": "osm"
  },
  {
   "nom": "Chiking",
   "type": "pizza, burger, kebab, turkish, ice cream",
   "priceRange": "€€",
   "mapsUrl": "https://maps.google.com/?q=38.5187205,68.7525964",
   "lat": 38.5187205,
   "lng": 68.7525964,
   "halalConfidence": "likely",
   "source": "osm"
  },
  {
   "nom": "Pizza House",
   "type": "italian, pizza, burger, kebab, turkish, sandwich",
   "priceRange": "€€",
   "mapsUrl": "https://maps.google.com/?q=38.5187836,68.7522113",
   "lat": 38.5187836,
   "lng": 68.7522113,
   "halalConfidence": "likely",
   "source": "osm"
  },
  {
   "nom": "Hotdoger",
   "type": "pizza, burger, regional, turkish, asian, chicken",
   "priceRange": "€€",
   "mapsUrl": "https://maps.google.com/?q=38.5186451,68.7520977",
   "lat": 38.5186451,
   "lng": 68.7520977,
   "halalConfidence": "likely",
   "source": "osm"
  },
  {
   "nom": "Chitir Chicken",
   "type": "pizza, burger, kebab, turkish, chicken, american",
   "priceRange": "€€",
   "mapsUrl": "https://maps.google.com/?q=38.5185791,68.7520952",
   "lat": 38.5185791,
   "lng": 68.7520952,
   "halalConfidence": "likely",
   "source": "osm"
  },
  {
   "nom": "Delhi Darbar",
   "lat": 38.5708601,
   "lng": 68.7880039,
   "type": "indian",
   "halalConfidence": "likely",
   "mapsUrl": "https://maps.google.com/?q=38.5708601,68.7880039",
   "source": "osm"
  },
  {
   "nom": "Индийский ресторан «Taj»",
   "lat": 38.5793503,
   "lng": 68.786166,
   "type": "curry, indian",
   "halalConfidence": "likely",
   "mapsUrl": "https://maps.google.com/?q=38.5793503,68.786166",
   "source": "osm"
  },
  {
   "nom": "Зем зем",
   "lat": 38.5689008,
   "lng": 68.763447,
   "type": "turkish",
   "halalConfidence": "likely",
   "mapsUrl": "https://maps.google.com/?q=38.5689008,68.763447",
   "source": "osm"
  },
  {
   "nom": "Бассейн Тахтача",
   "lat": 38.5559264,
   "lng": 68.8326968,
   "type": "asian, barbecue, grill, kebab, oriental, steak house",
   "halalConfidence": "likely",
   "mapsUrl": "https://maps.google.com/?q=38.5559264,68.8326968",
   "source": "osm"
  },
  {
   "nom": "Супер-донер",
   "lat": 38.518461,
   "lng": 68.7435687,
   "type": "burger, hotdog, turkish, oriental, american, sandwich, sausage, coffee shop, ice cream, arab",
   "halalConfidence": "likely",
   "mapsUrl": "https://maps.google.com/?q=38.518461,68.7435687",
   "source": "osm"
  },
  {
   "nom": "Супер-донер",
   "lat": 38.5172186,
   "lng": 68.7399043,
   "type": "crepe, hotdog, oriental, american, sausage, sandwich, coffee shop, ice cream, burger, breakfast, arab",
   "halalConfidence": "likely",
   "mapsUrl": "https://maps.google.com/?q=38.5172186,68.7399043",
   "source": "osm"
  }
 ],
 "hotels": [
  {
   "nom": "Меҳмонхона",
   "categorie": "Hôtel",
   "priceRange": "€€",
   "mapsUrl": "https://maps.google.com/?q=38.5656393,68.7850884",
   "lat": 38.5656393,
   "lng": 68.7850884,
   "halalFriendly": false,
   "bookingUrl": "https://maps.google.com/?q=38.5656393,68.7850884",
   "source": "osm"
  },
  {
   "nom": "Baland Hotel Dushanbe",
   "categorie": "Hôtel",
   "priceRange": "€€",
   "mapsUrl": "https://maps.google.com/?q=38.5661864,68.7846936",
   "lat": 38.5661864,
   "lng": 68.7846936,
   "halalFriendly": false,
   "bookingUrl": "https://maps.google.com/?q=38.5661864,68.7846936",
   "source": "osm"
  },
  {
   "nom": "Жилой дом 2",
   "categorie": "Maison d'hôtes",
   "priceRange": "€€",
   "mapsUrl": "https://maps.google.com/?q=38.5654475,68.7927724",
   "lat": 38.5654475,
   "lng": 68.7927724,
   "halalFriendly": false,
   "bookingUrl": "https://maps.google.com/?q=38.5654475,68.7927724",
   "source": "osm"
  },
  {
   "nom": "Kangurt",
   "categorie": "Hôtel",
   "priceRange": "€€",
   "mapsUrl": "https://maps.google.com/?q=38.5608342,68.7773389",
   "lat": 38.5608342,
   "lng": 68.7773389,
   "halalFriendly": false,
   "bookingUrl": "https://maps.google.com/?q=38.5608342,68.7773389",
   "source": "osm"
  },
  {
   "nom": "диор гостиница",
   "categorie": "Hôtel",
   "priceRange": "€€",
   "mapsUrl": "https://maps.google.com/?q=38.567876,68.783306",
   "lat": 38.567876,
   "lng": 68.783306,
   "halalFriendly": false,
   "bookingUrl": "https://maps.google.com/?q=38.567876,68.783306",
   "source": "osm"
  },
  {
   "nom": "Жилой дом",
   "categorie": "Appartement",
   "priceRange": "€€",
   "mapsUrl": "https://maps.google.com/?q=38.5673127,68.7929687",
   "lat": 38.5673127,
   "lng": 68.7929687,
   "halalFriendly": false,
   "bookingUrl": "https://maps.google.com/?q=38.5673127,68.7929687",
   "source": "osm"
  },
  {
   "nom": "Gostinichniy Komplex Kayon 3",
   "categorie": "Hôtel",
   "priceRange": "€€",
   "mapsUrl": "https://maps.google.com/?q=38.5683762,68.7897804",
   "lat": 38.5683762,
   "lng": 68.7897804,
   "halalFriendly": false,
   "bookingUrl": "https://maps.google.com/?q=38.5683762,68.7897804",
   "source": "osm"
  },
  {
   "nom": "Гостиница \"Душанбе \"",
   "categorie": "Hôtel",
   "priceRange": "€€",
   "mapsUrl": "https://maps.google.com/?q=38.5623256,68.7980687",
   "lat": 38.5623256,
   "lng": 68.7980687,
   "halalFriendly": false,
   "bookingUrl": "http://www.hotelpoytakht.tj",
   "source": "osm"
  },
  {
   "nom": "Отель 777",
   "categorie": "Hôtel",
   "priceRange": "€€",
   "mapsUrl": "https://maps.google.com/?q=38.5688301,68.7886123",
   "lat": 38.5688301,
   "lng": 68.7886123,
   "halalFriendly": false,
   "bookingUrl": "https://maps.google.com/?q=38.5688301,68.7886123",
   "source": "osm"
  },
  {
   "nom": "Меҳмонхонаи \"Вахш\"",
   "categorie": "Hôtel",
   "priceRange": "€€€",
   "score": 3,
   "mapsUrl": "https://maps.google.com/?q=38.5673947,68.7944447",
   "lat": 38.5673947,
   "lng": 68.7944447,
   "halalFriendly": false,
   "bookingUrl": "www.hotelvakhsh.tj",
   "source": "osm"
  },
  {
   "nom": "Мехмонхонаи Серена",
   "categorie": "Hôtel",
   "priceRange": "€€",
   "mapsUrl": "https://maps.google.com/?q=38.5641627,68.7980157",
   "lat": 38.5641627,
   "lng": 68.7980157,
   "halalFriendly": false,
   "bookingUrl": "https://www.serenahotels.com/",
   "source": "osm"
  },
  {
   "nom": "Rohat Hotel",
   "categorie": "Hôtel",
   "priceRange": "€€",
   "mapsUrl": "https://maps.google.com/?q=38.5675746,68.7949861",
   "lat": 38.5675746,
   "lng": 68.7949861,
   "halalFriendly": false,
   "bookingUrl": "https://maps.google.com/?q=38.5675746,68.7949861",
   "source": "osm"
  },
  {
   "nom": "Рох Палас",
   "categorie": "Auberge",
   "priceRange": "€€",
   "mapsUrl": "https://maps.google.com/?q=38.5571044,68.8009177",
   "lat": 38.5571044,
   "lng": 68.8009177,
   "halalFriendly": false,
   "bookingUrl": "https://maps.google.com/?q=38.5571044,68.8009177",
   "source": "osm"
  },
  {
   "nom": "Hotel Sarvar",
   "categorie": "Hôtel",
   "priceRange": "€€",
   "mapsUrl": "https://maps.google.com/?q=38.5711778,68.7864158",
   "lat": 38.5711778,
   "lng": 68.7864158,
   "halalFriendly": false,
   "bookingUrl": "https://maps.google.com/?q=38.5711778,68.7864158",
   "source": "osm"
  },
  {
   "nom": "Hotel Palace",
   "categorie": "Hôtel",
   "priceRange": "€€",
   "mapsUrl": "https://maps.google.com/?q=38.5626092,68.802137",
   "lat": 38.5626092,
   "lng": 68.802137,
   "halalFriendly": false,
   "bookingUrl": "https://maps.google.com/?q=38.5626092,68.802137",
   "source": "osm"
  },
  {
   "nom": "Гостиница «Ватан»",
   "categorie": "Auberge",
   "priceRange": "€€",
   "mapsUrl": "https://maps.google.com/?q=38.5710169,68.7947111",
   "lat": 38.5710169,
   "lng": 68.7947111,
   "halalFriendly": false,
   "bookingUrl": "https://hotelvatan.ru/",
   "source": "osm"
  },
  {
   "nom": "Topchan hostel",
   "categorie": "Auberge",
   "priceRange": "€€",
   "mapsUrl": "https://maps.google.com/?q=38.5620727,68.8039409",
   "lat": 38.5620727,
   "lng": 68.8039409,
   "halalFriendly": false,
   "bookingUrl": "https://maps.google.com/?q=38.5620727,68.8039409",
   "source": "osm"
  },
  {
   "nom": "Комрон",
   "categorie": "Hôtel",
   "priceRange": "€€",
   "mapsUrl": "https://maps.google.com/?q=38.5526727,68.7722527",
   "lat": 38.5526727,
   "lng": 68.7722527,
   "halalFriendly": false,
   "bookingUrl": "https://maps.google.com/?q=38.5526727,68.7722527",
   "source": "osm"
  },
  {
   "nom": "Ultra Hostel",
   "categorie": "Auberge",
   "priceRange": "€€",
   "mapsUrl": "https://maps.google.com/?q=38.5712778,68.7965417",
   "lat": 38.5712778,
   "lng": 68.7965417,
   "halalFriendly": false,
   "bookingUrl": "https://maps.google.com/?q=38.5712778,68.7965417",
   "source": "osm"
  },
  {
   "nom": "The Rumi Hotel",
   "categorie": "Hôtel",
   "priceRange": "€€",
   "mapsUrl": "https://maps.google.com/?q=38.5717833,68.7962469",
   "lat": 38.5717833,
   "lng": 68.7962469,
   "halalFriendly": false,
   "bookingUrl": "https://maps.google.com/?q=38.5717833,68.7962469",
   "source": "osm"
  },
  {
   "nom": "Амир ин",
   "categorie": "Hôtel",
   "priceRange": "€€",
   "mapsUrl": "https://maps.google.com/?q=38.5628566,68.8053353",
   "lat": 38.5628566,
   "lng": 68.8053353,
   "halalFriendly": false,
   "bookingUrl": "https://maps.google.com/?q=38.5628566,68.8053353",
   "source": "osm"
  },
  {
   "nom": "Квартирный дом лохути 8",
   "categorie": "Appartement",
   "priceRange": "€€",
   "mapsUrl": "https://maps.google.com/?q=38.5694166,68.8013681",
   "lat": 38.5694166,
   "lng": 68.8013681,
   "halalFriendly": false,
   "bookingUrl": "https://maps.google.com/?q=38.5694166,68.8013681",
   "source": "osm"
  },
  {
   "nom": "Asia Grand Hotel",
   "categorie": "Hôtel",
   "priceRange": "€€",
   "mapsUrl": "https://maps.google.com/?q=38.5736713,68.7948765",
   "lat": 38.5736713,
   "lng": 68.7948765,
   "halalFriendly": false,
   "bookingUrl": "https://maps.google.com/?q=38.5736713,68.7948765",
   "source": "osm"
  },
  {
   "nom": "Taj Palace",
   "categorie": "Hôtel",
   "priceRange": "€€",
   "mapsUrl": "https://maps.google.com/?q=38.5739334,68.7945258",
   "lat": 38.5739334,
   "lng": 68.7945258,
   "halalFriendly": false,
   "bookingUrl": "https://maps.google.com/?q=38.5739334,68.7945258",
   "source": "osm"
  },
  {
   "nom": "Алмаз",
   "categorie": "Hôtel",
   "priceRange": "€€",
   "mapsUrl": "https://maps.google.com/?q=38.5647124,68.8062724",
   "lat": 38.5647124,
   "lng": 68.8062724,
   "halalFriendly": false,
   "bookingUrl": "http://almos.tj",
   "source": "osm"
  },
  {
   "nom": "Хонаи Динорашон",
   "categorie": "Maison d'hôtes",
   "priceRange": "€€",
   "mapsUrl": "https://maps.google.com/?q=38.5477892,68.8013774",
   "lat": 38.5477892,
   "lng": 68.8013774,
   "halalFriendly": false,
   "bookingUrl": "https://maps.google.com/?q=38.5477892,68.8013774",
   "source": "osm"
  },
  {
   "nom": "Мушфиқӣ 109/2",
   "categorie": "Maison d'hôtes",
   "priceRange": "€€",
   "mapsUrl": "https://maps.google.com/?q=38.55253,68.7674219",
   "lat": 38.55253,
   "lng": 68.7674219,
   "halalFriendly": false,
   "bookingUrl": "https://maps.google.com/?q=38.55253,68.7674219",
   "source": "osm"
  },
  {
   "nom": "City Garden",
   "categorie": "Auberge",
   "priceRange": "€€",
   "mapsUrl": "https://maps.google.com/?q=38.5699217,68.8051763",
   "lat": 38.5699217,
   "lng": 68.8051763,
   "halalFriendly": false,
   "bookingUrl": "https://maps.google.com/?q=38.5699217,68.8051763",
   "source": "osm"
  },
  {
   "nom": "Hotel Sharq",
   "categorie": "Hôtel",
   "priceRange": "€€",
   "mapsUrl": "https://maps.google.com/?q=38.5657152,68.8097176",
   "lat": 38.5657152,
   "lng": 68.8097176,
   "halalFriendly": false,
   "bookingUrl": "https://maps.google.com/?q=38.5657152,68.8097176",
   "source": "osm"
  },
  {
   "nom": "Меҳмонхонаи \"Меридиан\"",
   "categorie": "Hôtel",
   "priceRange": "€€",
   "mapsUrl": "https://maps.google.com/?q=38.5711876,68.8061151",
   "lat": 38.5711876,
   "lng": 68.8061151,
   "halalFriendly": false,
   "bookingUrl": "https://maps.google.com/?q=38.5711876,68.8061151",
   "source": "osm"
  },
  {
   "nom": "Али Хостел",
   "categorie": "Auberge",
   "priceRange": "€€",
   "mapsUrl": "https://maps.google.com/?q=38.5672102,68.8090903",
   "lat": 38.5672102,
   "lng": 68.8090903,
   "halalFriendly": false,
   "bookingUrl": "https://maps.google.com/?q=38.5672102,68.8090903",
   "source": "osm"
  },
  {
   "nom": "Фарxанг",
   "categorie": "Hôtel",
   "priceRange": "€€",
   "mapsUrl": "https://maps.google.com/?q=38.5565034,68.7631979",
   "lat": 38.5565034,
   "lng": 68.7631979,
   "halalFriendly": false,
   "bookingUrl": "https://maps.google.com/?q=38.5565034,68.7631979",
   "source": "osm"
  },
  {
   "nom": "Sakho Hostel",
   "categorie": "Auberge",
   "priceRange": "€€",
   "mapsUrl": "https://maps.google.com/?q=38.5582217,68.8114714",
   "lat": 38.5582217,
   "lng": 68.8114714,
   "halalFriendly": false,
   "bookingUrl": "https://maps.google.com/?q=38.5582217,68.8114714",
   "source": "osm"
  },
  {
   "nom": "Sakho hotel hostel",
   "categorie": "Auberge",
   "priceRange": "€€",
   "mapsUrl": "https://maps.google.com/?q=38.5582242,68.8114975",
   "lat": 38.5582242,
   "lng": 68.8114975,
   "halalFriendly": false,
   "bookingUrl": "https://maps.google.com/?q=38.5582242,68.8114975",
   "source": "osm"
  },
  {
   "nom": "Меҳмонхонаи \"Тоҷикистон\"",
   "categorie": "Hôtel",
   "priceRange": "€€€€",
   "score": 5,
   "mapsUrl": "https://maps.google.com/?q=38.5789211,68.7844717",
   "lat": 38.5789211,
   "lng": 68.7844717,
   "halalFriendly": false,
   "bookingUrl": "http://www.hoteltojikiston.tj",
   "source": "osm"
  },
  {
   "nom": "Жилой комплекс «Шох Палас»",
   "categorie": "Appartement",
   "priceRange": "€€",
   "mapsUrl": "https://maps.google.com/?q=38.5791246,68.7887035",
   "lat": 38.5791246,
   "lng": 68.7887035,
   "halalFriendly": false,
   "bookingUrl": "https://maps.google.com/?q=38.5791246,68.7887035",
   "source": "osm"
  },
  {
   "nom": "Исра",
   "categorie": "Hôtel",
   "priceRange": "€€",
   "mapsUrl": "https://maps.google.com/?q=38.5635517,68.8119196",
   "lat": 38.5635517,
   "lng": 68.8119196,
   "halalFriendly": false,
   "bookingUrl": "https://maps.google.com/?q=38.5635517,68.8119196",
   "source": "osm"
  },
  {
   "nom": "Хостел Yellow",
   "categorie": "Auberge",
   "priceRange": "€€",
   "mapsUrl": "https://maps.google.com/?q=38.5646536,68.8118157",
   "lat": 38.5646536,
   "lng": 68.8118157,
   "halalFriendly": false,
   "bookingUrl": "https://maps.google.com/?q=38.5646536,68.8118157",
   "source": "osm"
  },
  {
   "nom": "Green House Hostel",
   "categorie": "Auberge",
   "priceRange": "€€",
   "mapsUrl": "https://maps.google.com/?q=38.5654229,68.812356",
   "lat": 38.5654229,
   "lng": 68.812356,
   "halalFriendly": false,
   "bookingUrl": "https://www.greenhousedushanbe.com",
   "source": "osm"
  },
  {
   "nom": "Atlas Hotel",
   "categorie": "Hôtel",
   "priceRange": "€€",
   "mapsUrl": "https://maps.google.com/?q=38.5669101,68.8118424",
   "lat": 38.5669101,
   "lng": 68.8118424,
   "halalFriendly": false,
   "bookingUrl": "https://www.atlashoteldushanbe.com/",
   "source": "osm"
  },
  {
   "nom": "Atlas B&B Guesthouse",
   "categorie": "Maison d'hôtes",
   "priceRange": "€€",
   "mapsUrl": "https://maps.google.com/?q=38.5649497,68.8128106",
   "lat": 38.5649497,
   "lng": 68.8128106,
   "halalFriendly": false,
   "bookingUrl": "https://maps.google.com/?q=38.5649497,68.8128106",
   "source": "osm"
  },
  {
   "nom": "Меҳмонхонаи Кохи Афсарон",
   "categorie": "Hôtel",
   "priceRange": "€€",
   "mapsUrl": "https://maps.google.com/?q=38.581571,68.7910666",
   "lat": 38.581571,
   "lng": 68.7910666,
   "halalFriendly": false,
   "bookingUrl": "https://maps.google.com/?q=38.581571,68.7910666",
   "source": "osm"
  },
  {
   "nom": "Apart Hotel Suzani",
   "categorie": "Appartement",
   "priceRange": "€€",
   "mapsUrl": "https://maps.google.com/?q=38.5827044,68.7831567",
   "lat": 38.5827044,
   "lng": 68.7831567,
   "halalFriendly": false,
   "bookingUrl": "https://maps.google.com/?q=38.5827044,68.7831567",
   "source": "osm"
  },
  {
   "nom": "Аниса",
   "categorie": "Auberge",
   "priceRange": "€€",
   "mapsUrl": "https://maps.google.com/?q=38.5724071,68.761039",
   "lat": 38.5724071,
   "lng": 68.761039,
   "halalFriendly": false,
   "bookingUrl": "https://maps.google.com/?q=38.5724071,68.761039",
   "source": "osm"
  },
  {
   "nom": "Doshan Hostel",
   "categorie": "Auberge",
   "priceRange": "€€",
   "mapsUrl": "https://maps.google.com/?q=38.5723906,68.7609753",
   "lat": 38.5723906,
   "lng": 68.7609753,
   "halalFriendly": false,
   "bookingUrl": "https://maps.google.com/?q=38.5723906,68.7609753",
   "source": "osm"
  },
  {
   "nom": "Life Hotel",
   "categorie": "Hôtel",
   "priceRange": "€€",
   "mapsUrl": "https://maps.google.com/?q=38.5843198,68.7843075",
   "lat": 38.5843198,
   "lng": 68.7843075,
   "halalFriendly": false,
   "bookingUrl": "https://maps.google.com/?q=38.5843198,68.7843075",
   "source": "osm"
  },
  {
   "nom": "Pamir Hostel-Hotel",
   "categorie": "Auberge",
   "priceRange": "€€",
   "mapsUrl": "https://maps.google.com/?q=38.5451139,68.7572899",
   "lat": 38.5451139,
   "lng": 68.7572899,
   "halalFriendly": false,
   "bookingUrl": "https://maps.google.com/?q=38.5451139,68.7572899",
   "source": "osm"
  },
  {
   "nom": "Hyatt Regency Dushanbe",
   "categorie": "Hôtel",
   "priceRange": "€€€€",
   "score": 4,
   "mapsUrl": "https://maps.google.com/?q=38.5825379,68.7669806",
   "lat": 38.5825379,
   "lng": 68.7669806,
   "halalFriendly": false,
   "bookingUrl": "https://www.hyatt.com/hyatt-regency/en-US/dushr-hyatt-regency-dushanbe",
   "source": "osm"
  },
  {
   "nom": "\"Авеста\"",
   "categorie": "Hôtel",
   "priceRange": "€€",
   "mapsUrl": "https://maps.google.com/?q=38.5887216,68.785706",
   "lat": 38.5887216,
   "lng": 68.785706,
   "halalFriendly": false,
   "bookingUrl": "https://maps.google.com/?q=38.5887216,68.785706",
   "source": "osm"
  },
  {
   "nom": "Шерози 6",
   "categorie": "Appartement",
   "priceRange": "€€",
   "mapsUrl": "https://maps.google.com/?q=38.5883005,68.7786722",
   "lat": 38.5883005,
   "lng": 68.7786722,
   "halalFriendly": false,
   "bookingUrl": "https://maps.google.com/?q=38.5883005,68.7786722",
   "source": "osm"
  },
  {
   "nom": "Шерози 11, 10, 9 , 8, 7",
   "categorie": "Appartement",
   "priceRange": "€€",
   "mapsUrl": "https://maps.google.com/?q=38.5885533,68.7787884",
   "lat": 38.5885533,
   "lng": 68.7787884,
   "halalFriendly": false,
   "bookingUrl": "https://maps.google.com/?q=38.5885533,68.7787884",
   "source": "osm"
  },
  {
   "nom": "Шерози 12",
   "categorie": "Appartement",
   "priceRange": "€€",
   "mapsUrl": "https://maps.google.com/?q=38.5886281,68.7788752",
   "lat": 38.5886281,
   "lng": 68.7788752,
   "halalFriendly": false,
   "bookingUrl": "https://maps.google.com/?q=38.5886281,68.7788752",
   "source": "osm"
  },
  {
   "nom": "квартираи Мухаммад",
   "categorie": "Maison d'hôtes",
   "priceRange": "€€",
   "mapsUrl": "https://maps.google.com/?q=38.5707492,68.7513353",
   "lat": 38.5707492,
   "lng": 68.7513353,
   "halalFriendly": false,
   "bookingUrl": "https://maps.google.com/?q=38.5707492,68.7513353",
   "source": "osm"
  },
  {
   "nom": "Дом со всеми удобствами для туристов и всех гостей ,недорого.",
   "categorie": "Auberge",
   "priceRange": "€€",
   "mapsUrl": "https://maps.google.com/?q=38.5662881,68.8251373",
   "lat": 38.5662881,
   "lng": 68.8251373,
   "halalFriendly": false,
   "bookingUrl": "http://vk.com/shukrulloh",
   "source": "osm"
  },
  {
   "nom": "Homestay reasonable",
   "categorie": "Maison d'hôtes",
   "priceRange": "€€",
   "mapsUrl": "https://maps.google.com/?q=38.5935192,68.7935121",
   "lat": 38.5935192,
   "lng": 68.7935121,
   "halalFriendly": false,
   "bookingUrl": "https://maps.google.com/?q=38.5935192,68.7935121",
   "source": "osm"
  },
  {
   "nom": "Гостевой дом Фуркат",
   "categorie": "Maison d'hôtes",
   "priceRange": "€€",
   "mapsUrl": "https://maps.google.com/?q=38.5933167,68.7786089",
   "lat": 38.5933167,
   "lng": 68.7786089,
   "halalFriendly": false,
   "bookingUrl": "https://maps.google.com/?q=38.5933167,68.7786089",
   "source": "osm"
  },
  {
   "nom": "Bruce",
   "categorie": "Auberge",
   "priceRange": "€€",
   "mapsUrl": "https://maps.google.com/?q=38.5946127,68.7911708",
   "lat": 38.5946127,
   "lng": 68.7911708,
   "halalFriendly": false,
   "bookingUrl": "https://maps.google.com/?q=38.5946127,68.7911708",
   "source": "osm"
  },
  {
   "nom": "City Hostel",
   "categorie": "Auberge",
   "priceRange": "€€",
   "mapsUrl": "https://maps.google.com/?q=38.5946625,68.7904622",
   "lat": 38.5946625,
   "lng": 68.7904622,
   "halalFriendly": false,
   "bookingUrl": "https://cityhostel.business.site/",
   "source": "osm"
  },
  {
   "nom": "Hotel-Hostel Kurush 122",
   "categorie": "Hôtel",
   "priceRange": "€€",
   "mapsUrl": "https://maps.google.com/?q=38.5956053,68.7925367",
   "lat": 38.5956053,
   "lng": 68.7925367,
   "halalFriendly": false,
   "bookingUrl": "http://kurush-Hostel-122-dushanbe.hotel-mix.de",
   "source": "osm"
  },
  {
   "nom": "Хобгоҳи 3 ДДТТ ба номи Абӯалӣ ибни Сино",
   "categorie": "Maison d'hôtes",
   "priceRange": "€€",
   "mapsUrl": "https://maps.google.com/?q=38.5836147,68.7512951",
   "lat": 38.5836147,
   "lng": 68.7512951,
   "halalFriendly": false,
   "bookingUrl": "https://maps.google.com/?q=38.5836147,68.7512951",
   "source": "osm"
  },
  {
   "nom": "Хобгоҳи 6 ДДТТ ба номи Абӯалӣ ибни Сино",
   "categorie": "Maison d'hôtes",
   "priceRange": "€€",
   "mapsUrl": "https://maps.google.com/?q=38.5881404,68.7568318",
   "lat": 38.5881404,
   "lng": 68.7568318,
   "halalFriendly": false,
   "bookingUrl": "https://maps.google.com/?q=38.5881404,68.7568318",
   "source": "osm"
  },
  {
   "nom": "Guest House",
   "categorie": "Hôtel",
   "priceRange": "€€",
   "mapsUrl": "https://maps.google.com/?q=38.5966533,68.7843363",
   "lat": 38.5966533,
   "lng": 68.7843363,
   "halalFriendly": false,
   "bookingUrl": "https://maps.google.com/?q=38.5966533,68.7843363",
   "source": "osm"
  },
  {
   "nom": "Хобгоҳи 7 ДДТТ ба номи Абӯалӣ ибни Сино",
   "categorie": "Maison d'hôtes",
   "priceRange": "€€",
   "mapsUrl": "https://maps.google.com/?q=38.5885597,68.7573041",
   "lat": 38.5885597,
   "lng": 68.7573041,
   "halalFriendly": false,
   "bookingUrl": "https://maps.google.com/?q=38.5885597,68.7573041",
   "source": "osm"
  },
  {
   "nom": "Flamingo",
   "categorie": "Auberge",
   "priceRange": "€€",
   "mapsUrl": "https://maps.google.com/?q=38.5866519,68.7543985",
   "lat": 38.5866519,
   "lng": 68.7543985,
   "halalFriendly": false,
   "bookingUrl": "https://maps.google.com/?q=38.5866519,68.7543985",
   "source": "osm"
  },
  {
   "nom": "Ormon",
   "categorie": "Hôtel",
   "priceRange": "€€",
   "mapsUrl": "https://maps.google.com/?q=38.5968148,68.78462",
   "lat": 38.5968148,
   "lng": 68.78462,
   "halalFriendly": false,
   "bookingUrl": "https://maps.google.com/?q=38.5968148,68.78462",
   "source": "osm"
  },
  {
   "nom": "Общежитие ТГК",
   "categorie": "Hôtel",
   "priceRange": "€€",
   "mapsUrl": "https://maps.google.com/?q=38.5272293,68.7611559",
   "lat": 38.5272293,
   "lng": 68.7611559,
   "halalFriendly": false,
   "bookingUrl": "https://maps.google.com/?q=38.5272293,68.7611559",
   "source": "osm"
  },
  {
   "nom": "Дом",
   "categorie": "Appartement",
   "priceRange": "€€",
   "mapsUrl": "https://maps.google.com/?q=38.574059,68.74034",
   "lat": 38.574059,
   "lng": 68.74034,
   "halalFriendly": false,
   "bookingUrl": "https://maps.google.com/?q=38.574059,68.74034",
   "source": "osm"
  },
  {
   "nom": "Hotel Mercury",
   "categorie": "Hôtel",
   "priceRange": "€€",
   "mapsUrl": "https://maps.google.com/?q=38.5989853,68.7841003",
   "lat": 38.5989853,
   "lng": 68.7841003,
   "halalFriendly": false,
   "bookingUrl": "https://maps.google.com/?q=38.5989853,68.7841003",
   "source": "osm"
  },
  {
   "nom": "Содот",
   "categorie": "Hôtel",
   "priceRange": "€€",
   "mapsUrl": "https://maps.google.com/?q=38.5253838,68.7626123",
   "lat": 38.5253838,
   "lng": 68.7626123,
   "halalFriendly": false,
   "bookingUrl": "https://maps.google.com/?q=38.5253838,68.7626123",
   "source": "osm"
  },
  {
   "nom": "Общежитие №6",
   "categorie": "Hôtel",
   "priceRange": "€€",
   "mapsUrl": "https://maps.google.com/?q=38.5259703,68.7611103",
   "lat": 38.5259703,
   "lng": 68.7611103,
   "halalFriendly": false,
   "bookingUrl": "https://maps.google.com/?q=38.5259703,68.7611103",
   "source": "osm"
  },
  {
   "nom": "хонаи акаи Рустам",
   "categorie": "Maison d'hôtes",
   "priceRange": "€€",
   "mapsUrl": "https://maps.google.com/?q=38.5375059,68.8286502",
   "lat": 38.5375059,
   "lng": 68.8286502,
   "halalFriendly": false,
   "bookingUrl": "https://maps.google.com/?q=38.5375059,68.8286502",
   "source": "osm"
  },
  {
   "nom": "Общежитие Таджикского технического университета",
   "categorie": "Hôtel",
   "priceRange": "€€",
   "mapsUrl": "https://maps.google.com/?q=38.5255359,68.7611157",
   "lat": 38.5255359,
   "lng": 68.7611157,
   "halalFriendly": false,
   "bookingUrl": "https://maps.google.com/?q=38.5255359,68.7611157",
   "source": "osm"
  },
  {
   "nom": "Ёкубзода СУХРОБ",
   "categorie": "Appartement",
   "priceRange": "€€",
   "mapsUrl": "https://maps.google.com/?q=38.5984494,68.8004588",
   "lat": 38.5984494,
   "lng": 68.8004588,
   "halalFriendly": false,
   "bookingUrl": "https://maps.google.com/?q=38.5984494,68.8004588",
   "source": "osm"
  },
  {
   "nom": "Общежитие колледжа информатики и компьютерных технологий",
   "categorie": "Hôtel",
   "priceRange": "€€",
   "mapsUrl": "https://maps.google.com/?q=38.5261109,68.7588116",
   "lat": 38.5261109,
   "lng": 68.7588116,
   "halalFriendly": false,
   "bookingUrl": "https://maps.google.com/?q=38.5261109,68.7588116",
   "source": "osm"
  },
  {
   "nom": "хонаи акаи Намоз",
   "categorie": "Maison d'hôtes",
   "priceRange": "€€",
   "mapsUrl": "https://maps.google.com/?q=38.5346054,68.8274793",
   "lat": 38.5346054,
   "lng": 68.8274793,
   "halalFriendly": false,
   "bookingUrl": "https://maps.google.com/?q=38.5346054,68.8274793",
   "source": "osm"
  },
  {
   "nom": "амбор",
   "categorie": "Maison d'hôtes",
   "priceRange": "€€",
   "mapsUrl": "https://maps.google.com/?q=38.5825442,68.743853",
   "lat": 38.5825442,
   "lng": 68.743853,
   "halalFriendly": false,
   "bookingUrl": "https://maps.google.com/?q=38.5825442,68.743853",
   "source": "osm"
  },
  {
   "nom": "Мустафошка",
   "categorie": "Appartement",
   "priceRange": "€€",
   "mapsUrl": "https://maps.google.com/?q=38.6005295,68.7826862",
   "lat": 38.6005295,
   "lng": 68.7826862,
   "halalFriendly": false,
   "bookingUrl": "https://maps.google.com/?q=38.6005295,68.7826862",
   "source": "osm"
  },
  {
   "nom": "Стройка",
   "categorie": "Appartement",
   "priceRange": "€€",
   "mapsUrl": "https://maps.google.com/?q=38.5740358,68.737855",
   "lat": 38.5740358,
   "lng": 68.737855,
   "halalFriendly": false,
   "bookingUrl": "https://maps.google.com/?q=38.5740358,68.737855",
   "source": "osm"
  },
  {
   "nom": "Общежитие горного колледжа",
   "categorie": "Hôtel",
   "priceRange": "€€",
   "mapsUrl": "https://maps.google.com/?q=38.5269534,68.7536363",
   "lat": 38.5269534,
   "lng": 68.7536363,
   "halalFriendly": false,
   "bookingUrl": "https://maps.google.com/?q=38.5269534,68.7536363",
   "source": "osm"
  },
  {
   "nom": "Хонаи Идибек",
   "categorie": "Maison d'hôtes",
   "priceRange": "€€",
   "mapsUrl": "https://maps.google.com/?q=38.578402,68.7372669",
   "lat": 38.578402,
   "lng": 68.7372669,
   "halalFriendly": false,
   "bookingUrl": "https://maps.google.com/?q=38.578402,68.7372669",
   "source": "osm"
  },
  {
   "nom": "сино микрорайён",
   "categorie": "Appartement",
   "priceRange": "€€",
   "mapsUrl": "https://maps.google.com/?q=38.5307562,68.7447835",
   "lat": 38.5307562,
   "lng": 68.7447835,
   "halalFriendly": false,
   "bookingUrl": "https://maps.google.com/?q=38.5307562,68.7447835",
   "source": "osm"
  },
  {
   "nom": "Новый дом",
   "categorie": "Appartement",
   "priceRange": "€€",
   "mapsUrl": "https://maps.google.com/?q=38.5892484,68.7421176",
   "lat": 38.5892484,
   "lng": 68.7421176,
   "halalFriendly": false,
   "bookingUrl": "https://maps.google.com/?q=38.5892484,68.7421176",
   "source": "osm"
  },
  {
   "nom": "хонаи Файзали Исмонов",
   "categorie": "Appartement",
   "priceRange": "€€",
   "mapsUrl": "https://maps.google.com/?q=38.5511262,68.8460837",
   "lat": 38.5511262,
   "lng": 68.8460837,
   "halalFriendly": false,
   "bookingUrl": "https://maps.google.com/?q=38.5511262,68.8460837",
   "source": "osm"
  },
  {
   "nom": "меҳмонхона ОРИЁ",
   "categorie": "Hôtel",
   "priceRange": "€€",
   "mapsUrl": "https://maps.google.com/?q=38.6090389,68.7880151",
   "lat": 38.6090389,
   "lng": 68.7880151,
   "halalFriendly": false,
   "bookingUrl": "https://maps.google.com/?q=38.6090389,68.7880151",
   "source": "osm"
  },
  {
   "nom": "Общежитие государственного института культуры и искусств",
   "categorie": "Auberge",
   "priceRange": "€€",
   "mapsUrl": "https://maps.google.com/?q=38.518462,68.7492496",
   "lat": 38.518462,
   "lng": 68.7492496,
   "halalFriendly": false,
   "bookingUrl": "https://maps.google.com/?q=38.518462,68.7492496",
   "source": "osm"
  },
  {
   "nom": "Safar Hotel & SPA",
   "categorie": "Hôtel",
   "priceRange": "€€",
   "mapsUrl": "https://maps.google.com/?q=38.5869228,68.7317964",
   "lat": 38.5869228,
   "lng": 68.7317964,
   "halalFriendly": false,
   "bookingUrl": "https://maps.google.com/?q=38.5869228,68.7317964",
   "source": "osm"
  },
  {
   "nom": "Dushanbe",
   "categorie": "Auberge",
   "priceRange": "€€",
   "mapsUrl": "https://maps.google.com/?q=38.5121901,68.7561415",
   "lat": 38.5121901,
   "lng": 68.7561415,
   "halalFriendly": false,
   "bookingUrl": "https://maps.google.com/?q=38.5121901,68.7561415",
   "source": "osm"
  },
  {
   "nom": "Рахимджон дом",
   "categorie": "Maison d'hôtes",
   "priceRange": "€€",
   "mapsUrl": "https://maps.google.com/?q=38.5432542,68.7207215",
   "lat": 38.5432542,
   "lng": 68.7207215,
   "halalFriendly": false,
   "bookingUrl": "https://maps.google.com/?q=38.5432542,68.7207215",
   "source": "osm"
  },
  {
   "nom": "Гостевой дом",
   "categorie": "Maison d'hôtes",
   "priceRange": "€€",
   "mapsUrl": "https://maps.google.com/?q=38.5906788,68.729599",
   "lat": 38.5906788,
   "lng": 68.729599,
   "halalFriendly": false,
   "bookingUrl": "https://maps.google.com/?q=38.5906788,68.729599",
   "source": "osm"
  },
  {
   "nom": "Хонаи Нуриддин Шарипов",
   "categorie": "Appartement",
   "priceRange": "€€",
   "mapsUrl": "https://maps.google.com/?q=38.5142348,68.7462903",
   "lat": 38.5142348,
   "lng": 68.7462903,
   "halalFriendly": false,
   "bookingUrl": "https://maps.google.com/?q=38.5142348,68.7462903",
   "source": "osm"
  },
  {
   "nom": "Hamsafar Travel: office & guest house",
   "categorie": "Maison d'hôtes",
   "priceRange": "€€",
   "mapsUrl": "https://maps.google.com/?q=38.6160645,68.7782871",
   "lat": 38.6160645,
   "lng": 68.7782871,
   "halalFriendly": false,
   "bookingUrl": "https://hamsafartravel.com/",
   "source": "osm"
  },
  {
   "nom": "Зарафшон",
   "categorie": "Auberge",
   "priceRange": "€€",
   "mapsUrl": "https://maps.google.com/?q=38.5885707,68.7230179",
   "lat": 38.5885707,
   "lng": 68.7230179,
   "halalFriendly": false,
   "bookingUrl": "https://maps.google.com/?q=38.5885707,68.7230179",
   "source": "osm"
  },
  {
   "nom": "Орион",
   "categorie": "Hôtel",
   "priceRange": "€€",
   "mapsUrl": "https://maps.google.com/?q=38.5131513,68.7432159",
   "lat": 38.5131513,
   "lng": 68.7432159,
   "halalFriendly": false,
   "bookingUrl": "https://maps.google.com/?q=38.5131513,68.7432159",
   "source": "osm"
  },
  {
   "nom": "RRRR",
   "categorie": "Auberge",
   "priceRange": "€€",
   "mapsUrl": "https://maps.google.com/?q=38.5095566,68.7349858",
   "lat": 38.5095566,
   "lng": 68.7349858,
   "halalFriendly": false,
   "bookingUrl": "https://maps.google.com/?q=38.5095566,68.7349858",
   "source": "osm"
  },
  {
   "nom": "хонаи DeDwon",
   "categorie": "Maison d'hôtes",
   "priceRange": "€€",
   "mapsUrl": "https://maps.google.com/?q=38.5095196,68.735003",
   "lat": 38.5095196,
   "lng": 68.735003,
   "halalFriendly": false,
   "bookingUrl": "https://maps.google.com/?q=38.5095196,68.735003",
   "source": "osm"
  },
  {
   "nom": "Ооолллл",
   "categorie": "Maison d'hôtes",
   "priceRange": "€€",
   "mapsUrl": "https://maps.google.com/?q=38.5095181,68.7347248",
   "lat": 38.5095181,
   "lng": 68.7347248,
   "halalFriendly": false,
   "bookingUrl": "https://maps.google.com/?q=38.5095181,68.7347248",
   "source": "osm"
  },
  {
   "nom": "Маш чод",
   "categorie": "Maison d'hôtes",
   "priceRange": "€€",
   "mapsUrl": "https://maps.google.com/?q=38.5087571,68.7357335",
   "lat": 38.5087571,
   "lng": 68.7357335,
   "halalFriendly": false,
   "bookingUrl": "https://maps.google.com/?q=38.5087571,68.7357335",
   "source": "osm"
  },
  {
   "nom": "Хобгохи №5 ДДТТ ба номи Абуалй ибни Сино",
   "categorie": "Hôtel",
   "priceRange": "€€",
   "mapsUrl": "https://maps.google.com/?q=38.6254246,68.7810874",
   "lat": 38.6254246,
   "lng": 68.7810874,
   "halalFriendly": false,
   "bookingUrl": "https://maps.google.com/?q=38.6254246,68.7810874",
   "source": "osm"
  },
  {
   "nom": "Меридиан",
   "categorie": "Hôtel",
   "priceRange": "€€",
   "mapsUrl": "https://maps.google.com/?q=38.5823584,68.7072381",
   "lat": 38.5823584,
   "lng": 68.7072381,
   "halalFriendly": false,
   "bookingUrl": "https://maps.google.com/?q=38.5823584,68.7072381",
   "source": "osm"
  },
  {
   "nom": "Хонаи Илхом",
   "categorie": "Auberge",
   "priceRange": "€€",
   "mapsUrl": "https://maps.google.com/?q=38.5024571,68.7439969",
   "lat": 38.5024571,
   "lng": 68.7439969,
   "halalFriendly": false,
   "bookingUrl": "https://maps.google.com/?q=38.5024571,68.7439969",
   "source": "osm"
  },
  {
   "nom": "Хонаи F|Z",
   "categorie": "Maison d'hôtes",
   "priceRange": "€€",
   "mapsUrl": "https://maps.google.com/?q=38.5074713,68.7327832",
   "lat": 38.5074713,
   "lng": 68.7327832,
   "halalFriendly": false,
   "bookingUrl": "https://maps.google.com/?q=38.5074713,68.7327832",
   "source": "osm"
  },
  {
   "nom": "хонаи Хошим Радной",
   "categorie": "Maison d'hôtes",
   "priceRange": "€€",
   "mapsUrl": "https://maps.google.com/?q=38.5084823,68.7311429",
   "lat": 38.5084823,
   "lng": 68.7311429,
   "halalFriendly": false,
   "bookingUrl": "https://maps.google.com/?q=38.5084823,68.7311429",
   "source": "osm"
  },
  {
   "nom": "Гулпарвар",
   "categorie": "Hôtel",
   "priceRange": "€€",
   "mapsUrl": "https://maps.google.com/?q=38.4893597,68.741135",
   "lat": 38.4893597,
   "lng": 68.741135,
   "halalFriendly": false,
   "bookingUrl": "https://maps.google.com/?q=38.4893597,68.741135",
   "source": "osm"
  }
 ],
 "mosqueesPrincipales": [
  {
   "id": "m103497338",
   "nom": "Масҷиди Шоҳмансур",
   "type": "Mosquée",
   "adresse": "Масҷид Шоҳмансур",
   "description": "Lieu de prière (OpenStreetMap).",
   "mapsUrl": "https://maps.google.com/?q=38.5611139,68.8086575",
   "lat": 38.5611139,
   "lng": 68.8086575,
   "source": "osm"
  },
  {
   "id": "m1526200417",
   "nom": "Масджид",
   "type": "Mosquée",
   "adresse": "кӯчаи Раҳимӣ",
   "description": "Lieu de prière (OpenStreetMap).",
   "mapsUrl": "https://maps.google.com/?q=38.5636095,68.759755",
   "lat": 38.5636095,
   "lng": 68.759755,
   "source": "osm"
  },
  {
   "id": "m189784434",
   "nom": "Мечеть посёлка Правды",
   "type": "Mosquée",
   "adresse": "",
   "description": "Lieu de prière (OpenStreetMap).",
   "mapsUrl": "https://maps.google.com/?q=38.5401955,68.7958158",
   "lat": 38.5401955,
   "lng": 68.7958158,
   "source": "osm"
  },
  {
   "id": "m644974973",
   "nom": "Мечеть Аэропорт",
   "type": "Mosquée",
   "adresse": "кӯчаи Титов, Душанбе",
   "description": "Lieu de prière (OpenStreetMap).",
   "mapsUrl": "https://maps.google.com/?q=38.5502976,68.8121734",
   "lat": 38.5502976,
   "lng": 68.8121734,
   "source": "osm"
  },
  {
   "id": "m4641897792",
   "nom": "Мечеть",
   "type": "Mosquée",
   "adresse": "",
   "description": "Lieu de prière (OpenStreetMap).",
   "mapsUrl": "https://maps.google.com/?q=38.5804755,68.7995364",
   "lat": 38.5804755,
   "lng": 68.7995364,
   "source": "osm"
  },
  {
   "id": "m2547561864",
   "nom": "Масҷиди кӯчаи Шараф",
   "type": "Mosquée",
   "adresse": "",
   "description": "Lieu de prière (OpenStreetMap).",
   "mapsUrl": "https://maps.google.com/?q=38.5805608,68.7632211",
   "lat": 38.5805608,
   "lng": 68.7632211,
   "source": "osm"
  },
  {
   "id": "m105572713",
   "nom": "Мевлана Яакуб Шарки Мадраса",
   "type": "Mosquée",
   "adresse": "",
   "description": "Lieu de prière (OpenStreetMap).",
   "mapsUrl": "https://maps.google.com/?q=38.5878307,68.7840576",
   "lat": 38.5878307,
   "lng": 68.7840576,
   "source": "osm"
  },
  {
   "id": "m393970144",
   "nom": "Масчиди панчвакта (Якум-Советский)",
   "type": "Mosquée",
   "adresse": "кӯчаи Борбад",
   "description": "Lieu de prière (OpenStreetMap).",
   "mapsUrl": "https://maps.google.com/?q=38.5384044,68.7547173",
   "lat": 38.5384044,
   "lng": 68.7547173,
   "source": "osm"
  },
  {
   "id": "m672850441",
   "nom": "Mosque Sari Osiyo",
   "type": "Mosquée",
   "adresse": "",
   "description": "Lieu de prière (OpenStreetMap).",
   "mapsUrl": "https://maps.google.com/?q=38.5961505,68.7929514",
   "lat": 38.5961505,
   "lng": 68.7929514,
   "source": "osm"
  },
  {
   "id": "m3970160489",
   "nom": "Масчиди Чортут (Хол Машраб)",
   "type": "Mosquée",
   "adresse": "кӯчаи Борбад",
   "description": "Lieu de prière (OpenStreetMap).",
   "mapsUrl": "https://maps.google.com/?q=38.5350204,68.750761",
   "lat": 38.5350204,
   "lng": 68.750761,
   "source": "osm"
  },
  {
   "id": "m878061062",
   "nom": "Масҷиди ҷомеи Душанбе \"Қатар\"",
   "type": "Mosquée",
   "adresse": "кӯчаи Карамов, Душанбе",
   "description": "Lieu de prière (OpenStreetMap).",
   "mapsUrl": "https://maps.google.com/?q=38.5958763,68.7633402",
   "lat": 38.5958763,
   "lng": 68.7633402,
   "source": "osm"
  },
  {
   "id": "m254608231",
   "nom": "Масчиди Навобод",
   "type": "Mosquée",
   "adresse": "",
   "description": "Lieu de prière (OpenStreetMap).",
   "mapsUrl": "https://maps.google.com/?q=38.597115,68.7584567",
   "lat": 38.597115,
   "lng": 68.7584567,
   "source": "osm"
  },
  {
   "id": "m333527259",
   "nom": "МАСҶИДИ 101",
   "type": "Mosquée",
   "adresse": "кӯчаи Ҳисор",
   "description": "Lieu de prière (OpenStreetMap).",
   "mapsUrl": "https://maps.google.com/?q=38.5798508,68.7351297",
   "lat": 38.5798508,
   "lng": 68.7351297,
   "source": "osm"
  },
  {
   "id": "m2547512940",
   "nom": "Масҷиди ҷомеъи “Калинин\"",
   "type": "Mosquée",
   "adresse": "",
   "description": "Lieu de prière (OpenStreetMap).",
   "mapsUrl": "https://maps.google.com/?q=38.5963107,68.7518446",
   "lat": 38.5963107,
   "lng": 68.7518446,
   "source": "osm"
  },
  {
   "id": "m13526389532",
   "nom": "Общественная мечеть Казахского микрорайона",
   "type": "Mosquée",
   "adresse": "",
   "description": "Lieu de prière (OpenStreetMap).",
   "mapsUrl": "https://maps.google.com/?q=38.5863138,68.7369865",
   "lat": 38.5863138,
   "lng": 68.7369865,
   "source": "osm"
  },
  {
   "id": "m13526312050",
   "nom": "Мечеть имени пророка Мухаммеда",
   "type": "Mosquée",
   "adresse": "кӯчаи Борбад",
   "description": "Lieu de prière (OpenStreetMap).",
   "mapsUrl": "https://maps.google.com/?q=38.5209424,68.7444565",
   "lat": 38.5209424,
   "lng": 68.7444565,
   "source": "osm"
  },
  {
   "id": "m5037337522",
   "nom": "Мечеть Билол",
   "type": "Mosquée",
   "adresse": "",
   "description": "Lieu de prière (OpenStreetMap).",
   "mapsUrl": "https://maps.google.com/?q=38.5131988,68.7595289",
   "lat": 38.5131988,
   "lng": 68.7595289,
   "source": "osm"
  },
  {
   "id": "m1942444240",
   "nom": "Масҷиди \"Мехкалон\" МИР САИД АЛИ ҲАМАДОНИ",
   "type": "Mosquée",
   "adresse": "",
   "description": "Lieu de prière (OpenStreetMap).",
   "mapsUrl": "https://maps.google.com/?q=38.5906945,68.7327563",
   "lat": 38.5906945,
   "lng": 68.7327563,
   "source": "osm"
  },
  {
   "id": "m202231868",
   "nom": "Масчиди ба номи имоми Аъзам",
   "type": "Mosquée",
   "adresse": "",
   "description": "Lieu de prière (OpenStreetMap).",
   "mapsUrl": "https://maps.google.com/?q=38.513608,68.7521081",
   "lat": 38.513608,
   "lng": 68.7521081,
   "source": "osm"
  },
  {
   "id": "m13526287853",
   "nom": "Мечеть Имам Азам",
   "type": "Mosquée",
   "adresse": "",
   "description": "Lieu de prière (OpenStreetMap).",
   "mapsUrl": "https://maps.google.com/?q=38.5135616,68.7520981",
   "lat": 38.5135616,
   "lng": 68.7520981,
   "source": "osm"
  },
  {
   "id": "m4329256589",
   "nom": "Масчид ба номи Хочи Исмоил",
   "type": "Mosquée",
   "adresse": "",
   "description": "Lieu de prière (OpenStreetMap).",
   "mapsUrl": "https://maps.google.com/?q=38.5845638,68.7243959",
   "lat": 38.5845638,
   "lng": 68.7243959,
   "source": "osm"
  },
  {
   "id": "m13526356878",
   "nom": "Мечеть имени Хочи Курбона",
   "type": "Mosquée",
   "adresse": "",
   "description": "Lieu de prière (OpenStreetMap).",
   "mapsUrl": "https://maps.google.com/?q=38.5900676,68.7235621",
   "lat": 38.5900676,
   "lng": 68.7235621,
   "source": "osm"
  },
  {
   "id": "m7113876191",
   "nom": "Мечеть масчид намоз чомье",
   "type": "Mosquée",
   "adresse": "",
   "description": "Lieu de prière (OpenStreetMap).",
   "mapsUrl": "https://maps.google.com/?q=38.5097332,68.741295",
   "lat": 38.5097332,
   "lng": 68.741295,
   "source": "osm"
  },
  {
   "id": "m2561240872",
   "nom": "Масчиди махаллавии Зарафшон",
   "type": "Mosquée",
   "adresse": "к.А.Навои, Душанбе",
   "description": "Lieu de prière (OpenStreetMap).",
   "mapsUrl": "https://maps.google.com/?q=38.5855418,68.715025",
   "lat": 38.5855418,
   "lng": 68.715025,
   "source": "osm"
  },
  {
   "id": "m878090004",
   "nom": "Масҷид бо номи Мавлоно Ёқуби Чархӣ",
   "type": "Mosquée",
   "adresse": "",
   "description": "Lieu de prière (OpenStreetMap).",
   "mapsUrl": "https://maps.google.com/?q=38.5428177,68.8666401",
   "lat": 38.5428177,
   "lng": 68.8666401,
   "source": "osm"
  },
  {
   "id": "osm-4747504838",
   "nom": "Масҷид",
   "type": "mosquee",
   "lat": 38.5730854,
   "lng": 68.806922,
   "mapsUrl": "https://maps.google.com/?q=38.5730854,68.806922",
   "source": "osm"
  },
  {
   "id": "osm-13528260701",
   "nom": "Мечеть",
   "type": "mosquee",
   "lat": 38.5291408,
   "lng": 68.7239778,
   "mapsUrl": "https://maps.google.com/?q=38.5291408,68.7239778",
   "source": "osm"
  },
  {
   "id": "osm-483018514",
   "nom": "Масҷид",
   "type": "mosquee",
   "adresse": "Душанбе",
   "lat": 38.5778297,
   "lng": 68.7394704,
   "mapsUrl": "https://maps.google.com/?q=38.5778297,68.7394704",
   "source": "osm"
  },
  {
   "id": "osm-483018603",
   "nom": "Масҷид",
   "type": "mosquee",
   "lat": 38.5816491,
   "lng": 68.7382865,
   "mapsUrl": "https://maps.google.com/?q=38.5816491,68.7382865",
   "source": "osm"
  },
  {
   "id": "osm-674530054",
   "nom": "Мечеть",
   "type": "mosquee",
   "lat": 38.4968393,
   "lng": 68.7484285,
   "mapsUrl": "https://maps.google.com/?q=38.4968393,68.7484285",
   "source": "osm"
  },
  {
   "id": "osm-876554340",
   "nom": "Масчиди ДОАРЗ",
   "type": "mosquee",
   "lat": 38.5420336,
   "lng": 68.7420355,
   "mapsUrl": "https://maps.google.com/?q=38.5420336,68.7420355",
   "source": "osm"
  },
  {
   "id": "osm-879099702",
   "nom": "Мечеть",
   "type": "mosquee",
   "lat": 38.5893039,
   "lng": 68.747192,
   "mapsUrl": "https://maps.google.com/?q=38.5893039,68.747192",
   "source": "osm"
  }
 ],
 "activites": [
  {
   "id": "a5980245091",
   "nom": "Памятник ВОВ",
   "categorie": "memorial",
   "description": "",
   "prix": "",
   "duree": "",
   "mapsUrl": "https://maps.google.com/?q=38.5626183,68.785379",
   "lat": 38.5626183,
   "lng": 68.785379,
   "source": "osm"
  },
  {
   "id": "a662687406",
   "nom": "Осорхонаи миллии ёдгориҳои бостонии Тоҷикистон",
   "categorie": "museum",
   "description": "",
   "prix": "",
   "duree": "",
   "mapsUrl": "https://maps.google.com/?q=38.5664197,68.7905149",
   "lat": 38.5664197,
   "lng": 68.7905149,
   "source": "osm"
  },
  {
   "id": "a5346826523",
   "nom": "Я Люблю Тебя Душанбе",
   "categorie": "artwork",
   "description": "",
   "prix": "",
   "duree": "",
   "mapsUrl": "https://maps.google.com/?q=38.5677744,68.7935376",
   "lat": 38.5677744,
   "lng": 68.7935376,
   "source": "osm"
  },
  {
   "id": "a1979151106",
   "nom": "Олени",
   "categorie": "monument",
   "description": "",
   "prix": "",
   "duree": "",
   "mapsUrl": "https://maps.google.com/?q=38.567619,68.7938385",
   "lat": 38.567619,
   "lng": 68.7938385,
   "source": "osm"
  },
  {
   "id": "a375941228",
   "nom": "Ёдгорӣ Садриддин Айнӣ",
   "categorie": "memorial",
   "description": "",
   "prix": "",
   "duree": "",
   "mapsUrl": "https://maps.google.com/?q=38.5623856,68.7991395",
   "lat": 38.5623856,
   "lng": 68.7991395,
   "source": "osm"
  },
  {
   "id": "a375942515",
   "nom": "В.В. Куйбышеву",
   "categorie": "memorial",
   "description": "",
   "prix": "",
   "duree": "",
   "mapsUrl": "https://maps.google.com/?q=38.5584766,68.7995179",
   "lat": 38.5584766,
   "lng": 68.7995179,
   "source": "osm"
  },
  {
   "id": "a4746641347",
   "nom": "Ёдгорие бахшида ба Бобочон Гафуров",
   "categorie": "monument",
   "description": "",
   "prix": "",
   "duree": "",
   "mapsUrl": "https://maps.google.com/?q=38.5691306,68.7912338",
   "lat": 38.5691306,
   "lng": 68.7912338,
   "source": "osm"
  },
  {
   "id": "a520868770",
   "nom": "Театри опера ва балети ба номи Садриддин Айнӣ",
   "categorie": "attraction",
   "description": "",
   "prix": "",
   "duree": "",
   "mapsUrl": "https://maps.google.com/?q=38.5686913,68.7949243",
   "lat": 38.5686913,
   "lng": 68.7949243,
   "source": "osm"
  },
  {
   "id": "a10029260718",
   "nom": "Мозаика",
   "categorie": "artwork",
   "description": "",
   "prix": "",
   "duree": "",
   "mapsUrl": "https://maps.google.com/?q=38.5709861,68.790355",
   "lat": 38.5709861,
   "lng": 68.790355,
   "source": "osm"
  },
  {
   "id": "a9909009117",
   "nom": "Камоллидин Бехзод",
   "categorie": "memorial",
   "description": "",
   "prix": "",
   "duree": "",
   "mapsUrl": "https://maps.google.com/?q=38.5700485,68.7947983",
   "lat": 38.5700485,
   "lng": 68.7947983,
   "source": "osm"
  },
  {
   "id": "a4197096689",
   "nom": "Souvenir Shop",
   "categorie": "artwork",
   "description": "",
   "prix": "",
   "duree": "",
   "mapsUrl": "https://maps.google.com/?q=38.5717074,68.7884364",
   "lat": 38.5717074,
   "lng": 68.7884364,
   "source": "osm"
  },
  {
   "id": "a5869788885",
   "nom": "Locomotive",
   "categorie": "monument",
   "description": "",
   "prix": "",
   "duree": "",
   "mapsUrl": "https://maps.google.com/?q=38.5553719,68.8020586",
   "lat": 38.5553719,
   "lng": 68.8020586,
   "source": "osm"
  },
  {
   "id": "a12041307166",
   "nom": "Махатма Ганди",
   "categorie": "memorial",
   "description": "",
   "prix": "",
   "duree": "",
   "mapsUrl": "https://maps.google.com/?q=38.5727129,68.7922561",
   "lat": 38.5727129,
   "lng": 68.7922561,
   "source": "osm"
  },
  {
   "id": "a403771398",
   "nom": "Сифр километер: маркази ҳисоби масофа",
   "categorie": "monument",
   "description": "",
   "prix": "",
   "duree": "",
   "mapsUrl": "https://maps.google.com/?q=38.5734552,68.7870909",
   "lat": 38.5734552,
   "lng": 68.7870909,
   "source": "osm"
  },
  {
   "id": "a1375034135",
   "nom": "Ҳайкали Исмоили Сомонӣ",
   "categorie": "attraction",
   "description": "",
   "prix": "",
   "duree": "",
   "mapsUrl": "https://maps.google.com/?q=38.5739265,68.7853602",
   "lat": 38.5739265,
   "lng": 68.7853602,
   "source": "osm"
  },
  {
   "id": "a5907476919",
   "nom": "Карта государства Саманидов",
   "categorie": "attraction",
   "description": "",
   "prix": "",
   "duree": "",
   "mapsUrl": "https://maps.google.com/?q=38.5739418,68.7849283",
   "lat": 38.5739418,
   "lng": 68.7849283,
   "source": "osm"
  },
  {
   "id": "a7028605730",
   "nom": "Ёдгорӣ Низомиддин Мир Алишер Навои ва Нуриддин Абдураҳмони Ҷомӣ",
   "categorie": "memorial",
   "description": "",
   "prix": "",
   "duree": "",
   "mapsUrl": "https://maps.google.com/?q=38.5705174,68.7989935",
   "lat": 38.5705174,
   "lng": 68.7989935,
   "source": "osm"
  },
  {
   "id": "a4644026192",
   "nom": "Рабиндранат Тагор",
   "categorie": "memorial",
   "description": "",
   "prix": "",
   "duree": "",
   "mapsUrl": "https://maps.google.com/?q=38.5736076,68.793452",
   "lat": 38.5736076,
   "lng": 68.793452,
   "source": "osm"
  },
  {
   "id": "a4686812499",
   "nom": "Нишони давлатии Ҷумҳурии Тоҷикистон",
   "categorie": "attraction",
   "description": "",
   "prix": "",
   "duree": "",
   "mapsUrl": "https://maps.google.com/?q=38.5739313,68.7800908",
   "lat": 38.5739313,
   "lng": 68.7800908,
   "source": "osm"
  },
  {
   "id": "a662929606",
   "nom": "Осорхонаи геологии Точикистон",
   "categorie": "museum",
   "description": "",
   "prix": "",
   "duree": "",
   "mapsUrl": "https://maps.google.com/?q=38.5719591,68.8005279",
   "lat": 38.5719591,
   "lng": 68.8005279,
   "source": "osm"
  },
  {
   "id": "a11865992289",
   "nom": "Пушкину А. С.",
   "categorie": "memorial",
   "description": "",
   "prix": "",
   "duree": "",
   "mapsUrl": "https://maps.google.com/?q=38.5757293,68.7930179",
   "lat": 38.5757293,
   "lng": 68.7930179,
   "source": "osm"
  },
  {
   "id": "a4686719566",
   "nom": "Ҳайкали Абӯабдуллоҳи Рӯдакӣ",
   "categorie": "memorial",
   "description": "",
   "prix": "",
   "duree": "",
   "mapsUrl": "https://maps.google.com/?q=38.5765968,68.7835461",
   "lat": 38.5765968,
   "lng": 68.7835461,
   "source": "osm"
  },
  {
   "id": "a4164896389",
   "nom": "Рӯдакӣ",
   "categorie": "monument",
   "description": "",
   "prix": "",
   "duree": "",
   "mapsUrl": "https://maps.google.com/?q=38.5766155,68.7835974",
   "lat": 38.5766155,
   "lng": 68.7835974,
   "source": "osm"
  },
  {
   "id": "a5931237086",
   "nom": "Музей музыкальных инструментов Гурминджа Завкибекова",
   "categorie": "museum",
   "description": "",
   "prix": "",
   "duree": "",
   "mapsUrl": "https://maps.google.com/?q=38.5758554,68.7957343",
   "lat": 38.5758554,
   "lng": 68.7957343,
   "source": "osm"
  },
  {
   "id": "a11865996018",
   "nom": "Фемида",
   "categorie": "artwork",
   "description": "",
   "prix": "",
   "duree": "",
   "mapsUrl": "https://maps.google.com/?q=38.5772192,68.7891421",
   "lat": 38.5772192,
   "lng": 68.7891421,
   "source": "osm"
  },
  {
   "id": "a520892164",
   "nom": "Қасри Миллат",
   "categorie": "attraction",
   "description": "",
   "prix": "",
   "duree": "",
   "mapsUrl": "https://maps.google.com/?q=38.5763027,68.7787314",
   "lat": 38.5763027,
   "lng": 68.7787314,
   "source": "osm"
  },
  {
   "id": "a5966299791",
   "nom": "Галерея современного искусства Таджикистана",
   "categorie": "gallery",
   "description": "",
   "prix": "",
   "duree": "",
   "mapsUrl": "https://maps.google.com/?q=38.5745037,68.800745",
   "lat": 38.5745037,
   "lng": 68.800745,
   "source": "osm"
  },
  {
   "id": "a4362902390",
   "nom": "HS",
   "categorie": "attraction",
   "description": "",
   "prix": "",
   "duree": "",
   "mapsUrl": "https://maps.google.com/?q=38.5716264,68.8066708",
   "lat": 38.5716264,
   "lng": 68.8066708,
   "source": "osm"
  },
  {
   "id": "a6549085482",
   "nom": "Silk Road",
   "categorie": "artwork",
   "description": "",
   "prix": "",
   "duree": "",
   "mapsUrl": "https://maps.google.com/?q=38.5791125,68.7902625",
   "lat": 38.5791125,
   "lng": 68.7902625,
   "source": "osm"
  },
  {
   "id": "a10032319917",
   "nom": "Восеъ",
   "categorie": "memorial",
   "description": "",
   "prix": "",
   "duree": "",
   "mapsUrl": "https://maps.google.com/?q=38.5787117,68.7795228",
   "lat": 38.5787117,
   "lng": 68.7795228,
   "source": "osm"
  },
  {
   "id": "a2418169686",
   "nom": "Боғи парчами Тоҷикистон",
   "categorie": "attraction",
   "description": "",
   "prix": "",
   "duree": "",
   "mapsUrl": "https://maps.google.com/?q=38.5790031,68.780107",
   "lat": 38.5790031,
   "lng": 68.780107,
   "source": "osm"
  },
  {
   "id": "a13819251802",
   "nom": "Абу Али ибн Сина",
   "categorie": "memorial",
   "description": "",
   "prix": "",
   "duree": "",
   "mapsUrl": "https://maps.google.com/?q=38.579939,68.7801964",
   "lat": 38.579939,
   "lng": 68.7801964,
   "source": "osm"
  },
  {
   "id": "a13819251803",
   "nom": "Исмаил Сомони",
   "categorie": "memorial",
   "description": "",
   "prix": "",
   "duree": "",
   "mapsUrl": "https://maps.google.com/?q=38.5799783,68.7800701",
   "lat": 38.5799783,
   "lng": 68.7800701,
   "source": "osm"
  },
  {
   "id": "a13819251801",
   "nom": "Абу Абдуллах Рудаки",
   "categorie": "memorial",
   "description": "",
   "prix": "",
   "duree": "",
   "mapsUrl": "https://maps.google.com/?q=38.5799577,68.7799508",
   "lat": 38.5799577,
   "lng": 68.7799508,
   "source": "osm"
  },
  {
   "id": "a13819251804",
   "nom": "Шахиншах Канишка",
   "categorie": "memorial",
   "description": "",
   "prix": "",
   "duree": "",
   "mapsUrl": "https://maps.google.com/?q=38.5802902,68.7801365",
   "lat": 38.5802902,
   "lng": 68.7801365,
   "source": "osm"
  },
  {
   "id": "a13819169800",
   "nom": "Виштаспа",
   "categorie": "memorial",
   "description": "",
   "prix": "",
   "duree": "",
   "mapsUrl": "https://maps.google.com/?q=38.5802996,68.7800287",
   "lat": 38.5802996,
   "lng": 68.7800287,
   "source": "osm"
  },
  {
   "id": "a13819169799",
   "nom": "Махмуди Тороби",
   "categorie": "memorial",
   "description": "",
   "prix": "",
   "duree": "",
   "mapsUrl": "https://maps.google.com/?q=38.5807351,68.78046",
   "lat": 38.5807351,
   "lng": 68.78046,
   "source": "osm"
  },
  {
   "id": "a10032319819",
   "nom": "Абумуслим",
   "categorie": "monument",
   "description": "",
   "prix": "",
   "duree": "",
   "mapsUrl": "https://maps.google.com/?q=38.5806641,68.779709",
   "lat": 38.5806641,
   "lng": 68.779709,
   "source": "osm"
  },
  {
   "id": "a9704507693",
   "nom": "Галерея Рухон",
   "categorie": "gallery",
   "description": "",
   "prix": "",
   "duree": "",
   "mapsUrl": "https://maps.google.com/?q=38.5810708,68.7932941",
   "lat": 38.5810708,
   "lng": 68.7932941,
   "source": "osm"
  },
  {
   "id": "a13819169798",
   "nom": "Царь Хушнаваз",
   "categorie": "memorial",
   "description": "",
   "prix": "",
   "duree": "",
   "mapsUrl": "https://maps.google.com/?q=38.5813017,68.7796393",
   "lat": 38.5813017,
   "lng": 68.7796393,
   "source": "osm"
  },
  {
   "id": "a10032319820",
   "nom": "Султон Фиессидини Фури",
   "categorie": "monument",
   "description": "",
   "prix": "",
   "duree": "",
   "mapsUrl": "https://maps.google.com/?q=38.5818369,68.7799493",
   "lat": 38.5818369,
   "lng": 68.7799493,
   "source": "osm"
  },
  {
   "id": "a2559373511",
   "nom": "Suhrob Art Galery",
   "categorie": "artwork",
   "description": "",
   "prix": "",
   "duree": "",
   "mapsUrl": "https://maps.google.com/?q=38.5826285,68.7863761",
   "lat": 38.5826285,
   "lng": 68.7863761,
   "source": "osm"
  },
  {
   "id": "a13819169797",
   "nom": "Якуб ибн Лейс",
   "categorie": "memorial",
   "description": "",
   "prix": "",
   "duree": "",
   "mapsUrl": "https://maps.google.com/?q=38.5821586,68.7799209",
   "lat": 38.5821586,
   "lng": 68.7799209,
   "source": "osm"
  },
  {
   "id": "a1375031751",
   "nom": "Осорхонаи миллии Тоҷикистон",
   "categorie": "museum",
   "description": "",
   "prix": "",
   "duree": "",
   "mapsUrl": "https://maps.google.com/?q=38.5820815,68.7790267",
   "lat": 38.5820815,
   "lng": 68.7790267,
   "source": "osm"
  },
  {
   "id": "a538492478",
   "nom": "I💗DUSHANBE",
   "categorie": "artwork",
   "description": "",
   "prix": "",
   "duree": "",
   "mapsUrl": "https://maps.google.com/?q=38.5795215,68.7713912",
   "lat": 38.5795215,
   "lng": 68.7713912,
   "source": "osm"
  },
  {
   "id": "a610975277",
   "nom": "I love Dushanbe",
   "categorie": "artwork",
   "description": "",
   "prix": "",
   "duree": "",
   "mapsUrl": "https://maps.google.com/?q=38.5795531,68.771372",
   "lat": 38.5795531,
   "lng": 68.771372,
   "source": "osm"
  },
  {
   "id": "a10032320017",
   "nom": "Шоханшох Куруши Кабир",
   "categorie": "monument",
   "description": "",
   "prix": "",
   "duree": "",
   "mapsUrl": "https://maps.google.com/?q=38.5825484,68.7796931",
   "lat": 38.5825484,
   "lng": 68.7796931,
   "source": "osm"
  },
  {
   "id": "a5785636770",
   "nom": "Памятник Горькому и Айни",
   "categorie": "memorial",
   "description": "",
   "prix": "",
   "duree": "",
   "mapsUrl": "https://maps.google.com/?q=38.5836173,68.7832184",
   "lat": 38.5836173,
   "lng": 68.7832184,
   "source": "osm"
  },
  {
   "id": "a5894248286",
   "nom": "Этнографический музей",
   "categorie": "museum",
   "description": "",
   "prix": "",
   "duree": "",
   "mapsUrl": "https://maps.google.com/?q=38.5834844,68.7820277",
   "lat": 38.5834844,
   "lng": 68.7820277,
   "source": "osm"
  },
  {
   "id": "a538944840",
   "nom": "Машинки",
   "categorie": "theme park",
   "description": "",
   "prix": "",
   "duree": "",
   "mapsUrl": "https://maps.google.com/?q=38.5823192,68.7731762",
   "lat": 38.5823192,
   "lng": 68.7731762,
   "source": "osm"
  },
  {
   "id": "a610962503",
   "nom": "Глобус Таджикистана",
   "categorie": "memorial",
   "description": "",
   "prix": "",
   "duree": "",
   "mapsUrl": "https://maps.google.com/?q=38.5632948,68.819023",
   "lat": 38.5632948,
   "lng": 68.819023,
   "source": "osm"
  },
  {
   "id": "a538944838",
   "nom": "Американские горки",
   "categorie": "theme park",
   "description": "",
   "prix": "",
   "duree": "",
   "mapsUrl": "https://maps.google.com/?q=38.5826067,68.7729972",
   "lat": 38.5826067,
   "lng": 68.7729972,
   "source": "osm"
  },
  {
   "id": "a538492564",
   "nom": "Боғи фарҳанги фароғатии «Кули ҷавонон»",
   "categorie": "theme park",
   "description": "",
   "prix": "",
   "duree": "",
   "mapsUrl": "https://maps.google.com/?q=38.582649,68.7718155",
   "lat": 38.582649,
   "lng": 68.7718155,
   "source": "osm"
  },
  {
   "id": "a10030021517",
   "nom": "Мосаика",
   "categorie": "artwork",
   "description": "",
   "prix": "",
   "duree": "",
   "mapsUrl": "https://maps.google.com/?q=38.5686451,68.7553724",
   "lat": 38.5686451,
   "lng": 68.7553724,
   "source": "osm"
  },
  {
   "id": "a12948744001",
   "nom": "Cable Car Top Station",
   "categorie": "attraction",
   "description": "",
   "prix": "",
   "duree": "",
   "mapsUrl": "https://maps.google.com/?q=38.5790008,68.8105298",
   "lat": 38.5790008,
   "lng": 68.8105298,
   "source": "osm"
  },
  {
   "id": "a520874359",
   "nom": "Кохи Навруз",
   "categorie": "castle",
   "description": "",
   "prix": "",
   "duree": "",
   "mapsUrl": "https://maps.google.com/?q=38.5826624,68.7687331",
   "lat": 38.5826624,
   "lng": 68.7687331,
   "source": "osm"
  },
  {
   "id": "a10905164812",
   "nom": "Amusement park for kids",
   "categorie": "attraction",
   "description": "",
   "prix": "",
   "duree": "",
   "mapsUrl": "https://maps.google.com/?q=38.5844705,68.7710862",
   "lat": 38.5844705,
   "lng": 68.7710862,
   "source": "osm"
  },
  {
   "id": "a26349902",
   "nom": "Боғи ҳайвонот",
   "categorie": "zoo",
   "description": "",
   "prix": "",
   "duree": "",
   "mapsUrl": "https://maps.google.com/?q=38.585136,68.7721013",
   "lat": 38.585136,
   "lng": 68.7721013,
   "source": "osm"
  },
  {
   "id": "a10905166308",
   "nom": "Reptile, fish, and bird house",
   "categorie": "attraction",
   "description": "",
   "prix": "",
   "duree": "",
   "mapsUrl": "https://maps.google.com/?q=38.5855807,68.7720402",
   "lat": 38.5855807,
   "lng": 68.7720402,
   "source": "osm"
  },
  {
   "id": "a538211206",
   "nom": "Два павлина",
   "categorie": "artwork",
   "description": "",
   "prix": "",
   "duree": "",
   "mapsUrl": "https://maps.google.com/?q=38.5823716,68.7642935",
   "lat": 38.5823716,
   "lng": 68.7642935,
   "source": "osm"
  },
  {
   "id": "a9774274780",
   "nom": "Рухом",
   "categorie": "gallery",
   "description": "",
   "prix": "",
   "duree": "",
   "mapsUrl": "https://maps.google.com/?q=38.5884728,68.7947186",
   "lat": 38.5884728,
   "lng": 68.7947186,
   "source": "osm"
  },
  {
   "id": "a625690784",
   "nom": "Бюст А. Мироненко",
   "categorie": "memorial",
   "description": "",
   "prix": "",
   "duree": "",
   "mapsUrl": "https://maps.google.com/?q=38.5630207,68.7488062",
   "lat": 38.5630207,
   "lng": 68.7488062,
   "source": "osm"
  },
  {
   "id": "a171373568",
   "nom": "Парк победы",
   "categorie": "monument",
   "description": "",
   "prix": "",
   "duree": "",
   "mapsUrl": "https://maps.google.com/?q=38.5814867,68.8139158",
   "lat": 38.5814867,
   "lng": 68.8139158,
   "source": "osm"
  },
  {
   "id": "a10905164506",
   "nom": "Istiklol Monument",
   "categorie": "museum",
   "description": "",
   "prix": "",
   "duree": "",
   "mapsUrl": "https://maps.google.com/?q=38.5912416,68.7816169",
   "lat": 38.5912416,
   "lng": 68.7816169,
   "source": "osm"
  },
  {
   "id": "a1166323844",
   "nom": "Истиқлол ва Озодӣ",
   "categorie": "monument",
   "description": "",
   "prix": "",
   "duree": "",
   "mapsUrl": "https://maps.google.com/?q=38.5912458,68.7816562",
   "lat": 38.5912458,
   "lng": 68.7816562,
   "source": "osm"
  },
  {
   "id": "a10905164705",
   "nom": "Top of tower (70 somoni with museum)",
   "categorie": "viewpoint",
   "description": "",
   "prix": "",
   "duree": "",
   "mapsUrl": "https://maps.google.com/?q=38.5912562,68.7815982",
   "lat": 38.5912562,
   "lng": 68.7815982,
   "source": "osm"
  },
  {
   "id": "a6505845288",
   "nom": "Памятник Абуали ибн Сино",
   "categorie": "monument",
   "description": "",
   "prix": "",
   "duree": "",
   "mapsUrl": "https://maps.google.com/?q=38.5797485,68.7546893",
   "lat": 38.5797485,
   "lng": 68.7546893,
   "source": "osm"
  },
  {
   "id": "a6549131752",
   "nom": "Mirzo Tursunzod Museum House",
   "categorie": "museum",
   "description": "",
   "prix": "",
   "duree": "",
   "mapsUrl": "https://maps.google.com/?q=38.5928821,68.7933278",
   "lat": 38.5928821,
   "lng": 68.7933278,
   "source": "osm"
  },
  {
   "id": "a7539446485",
   "nom": "Музей Мирзо Турсунзода",
   "categorie": "museum",
   "description": "",
   "prix": "",
   "duree": "",
   "mapsUrl": "https://maps.google.com/?q=38.5929588,68.7935948",
   "lat": 38.5929588,
   "lng": 68.7935948,
   "source": "osm"
  },
  {
   "id": "a1945504274",
   "nom": "Шамси №4",
   "categorie": "monument",
   "description": "",
   "prix": "",
   "duree": "",
   "mapsUrl": "https://maps.google.com/?q=38.5782926,68.7504686",
   "lat": 38.5782926,
   "lng": 68.7504686,
   "source": "osm"
  },
  {
   "id": "a796365145",
   "nom": "Музей музыкальной культуры им. З.Шахиди",
   "categorie": "museum",
   "description": "",
   "prix": "",
   "duree": "",
   "mapsUrl": "https://maps.google.com/?q=38.5932458,68.7951216",
   "lat": 38.5932458,
   "lng": 68.7951216,
   "source": "osm"
  },
  {
   "id": "a13128924203",
   "nom": "Орел",
   "categorie": "monument",
   "description": "",
   "prix": "",
   "duree": "",
   "mapsUrl": "https://maps.google.com/?q=38.5584527,68.7416231",
   "lat": 38.5584527,
   "lng": 68.7416231,
   "source": "osm"
  },
  {
   "id": "a538503243",
   "nom": "Абуали Ибн Сино",
   "categorie": "memorial",
   "description": "",
   "prix": "",
   "duree": "",
   "mapsUrl": "https://maps.google.com/?q=38.585295,68.7552429",
   "lat": 38.585295,
   "lng": 68.7552429,
   "source": "osm"
  },
  {
   "id": "a13528272698",
   "nom": "Зебои мехр",
   "categorie": "theme park",
   "description": "",
   "prix": "",
   "duree": "",
   "mapsUrl": "https://maps.google.com/?q=38.5328484,68.7521034",
   "lat": 38.5328484,
   "lng": 68.7521034,
   "source": "osm"
  },
  {
   "id": "a393983227",
   "nom": "Зоологический музей ИЗИПа",
   "categorie": "museum",
   "description": "",
   "prix": "",
   "duree": "",
   "mapsUrl": "https://maps.google.com/?q=38.5324717,68.8227928",
   "lat": 38.5324717,
   "lng": 68.8227928,
   "source": "osm"
  },
  {
   "id": "a8849570617",
   "nom": "Creative Development of Tajikistan centre",
   "categorie": "artwork",
   "description": "",
   "prix": "",
   "duree": "",
   "mapsUrl": "https://maps.google.com/?q=38.5923236,68.7570376",
   "lat": 38.5923236,
   "lng": 68.7570376,
   "source": "osm"
  },
  {
   "id": "a13528277144",
   "nom": "Детский развлекательный центр Рохат",
   "categorie": "theme park",
   "description": "",
   "prix": "",
   "duree": "",
   "mapsUrl": "https://maps.google.com/?q=38.5306411,68.7512183",
   "lat": 38.5306411,
   "lng": 68.7512183,
   "source": "osm"
  },
  {
   "id": "a521097387",
   "nom": "Боғи Хайём",
   "categorie": "theme park",
   "description": "",
   "prix": "",
   "duree": "",
   "mapsUrl": "https://maps.google.com/?q=38.5985235,68.7719279",
   "lat": 38.5985235,
   "lng": 68.7719279,
   "source": "osm"
  },
  {
   "id": "a13528277290",
   "nom": "Технологический парк",
   "categorie": "theme park",
   "description": "",
   "prix": "",
   "duree": "",
   "mapsUrl": "https://maps.google.com/?q=38.5253051,68.7578675",
   "lat": 38.5253051,
   "lng": 68.7578675,
   "source": "osm"
  },
  {
   "id": "a521605259",
   "nom": "Боги ботаники",
   "categorie": "attraction",
   "description": "",
   "prix": "",
   "duree": "",
   "mapsUrl": "https://maps.google.com/?q=38.6024379,68.7802128",
   "lat": 38.6024379,
   "lng": 68.7802128,
   "source": "osm"
  },
  {
   "id": "a5077808351",
   "nom": "Товус",
   "categorie": "memorial",
   "description": "",
   "prix": "",
   "duree": "",
   "mapsUrl": "https://maps.google.com/?q=38.602236,68.7752756",
   "lat": 38.602236,
   "lng": 68.7752756,
   "source": "osm"
  },
  {
   "id": "a1067230386",
   "nom": "Мирзо Турсунзода",
   "categorie": "memorial",
   "description": "",
   "prix": "",
   "duree": "",
   "mapsUrl": "https://maps.google.com/?q=38.6009703,68.7684063",
   "lat": 38.6009703,
   "lng": 68.7684063,
   "source": "osm"
  },
  {
   "id": "a4786374778",
   "nom": "Аквапарк \"Дельфин\"",
   "categorie": "water park",
   "description": "",
   "prix": "",
   "duree": "",
   "mapsUrl": "https://maps.google.com/?q=38.5770517,68.7343756",
   "lat": 38.5770517,
   "lng": 68.7343756,
   "source": "osm"
  },
  {
   "id": "a13526399107",
   "nom": "Афсона",
   "categorie": "theme park",
   "description": "",
   "prix": "",
   "duree": "",
   "mapsUrl": "https://maps.google.com/?q=38.5895792,68.7407872",
   "lat": 38.5895792,
   "lng": 68.7407872,
   "source": "osm"
  },
  {
   "id": "a5177727956",
   "nom": "Фирдавси",
   "categorie": "memorial",
   "description": "",
   "prix": "",
   "duree": "",
   "mapsUrl": "https://maps.google.com/?q=38.5189145,68.7556474",
   "lat": 38.5189145,
   "lng": 68.7556474,
   "source": "osm"
  },
  {
   "id": "a2527889129",
   "nom": "Рудаки",
   "categorie": "memorial",
   "description": "",
   "prix": "",
   "duree": "",
   "mapsUrl": "https://maps.google.com/?q=38.6097258,68.7868742",
   "lat": 38.6097258,
   "lng": 68.7868742,
   "source": "osm"
  },
  {
   "id": "a13526300414",
   "nom": "Компьютерные игры",
   "categorie": "theme park",
   "description": "",
   "prix": "",
   "duree": "",
   "mapsUrl": "https://maps.google.com/?q=38.5171199,68.740743",
   "lat": 38.5171199,
   "lng": 68.740743,
   "source": "osm"
  },
  {
   "id": "a13526387008",
   "nom": "Панда",
   "categorie": "theme park",
   "description": "",
   "prix": "",
   "duree": "",
   "mapsUrl": "https://maps.google.com/?q=38.5816644,68.7189057",
   "lat": 38.5816644,
   "lng": 68.7189057,
   "source": "osm"
  },
  {
   "id": "a13526387584",
   "nom": "Фантазия",
   "categorie": "theme park",
   "description": "",
   "prix": "",
   "duree": "",
   "mapsUrl": "https://maps.google.com/?q=38.5815323,68.7101161",
   "lat": 38.5815323,
   "lng": 68.7101161,
   "source": "osm"
  },
  {
   "id": "a11737935769",
   "nom": "Хонаи Фирӯзшон",
   "categorie": "castle",
   "description": "",
   "prix": "",
   "duree": "",
   "mapsUrl": "https://maps.google.com/?q=38.5033787,68.7232519",
   "lat": 38.5033787,
   "lng": 68.7232519,
   "source": "osm"
  },
  {
   "id": "a11737914869",
   "nom": ".",
   "categorie": "castle",
   "description": "",
   "prix": "",
   "duree": "",
   "mapsUrl": "https://maps.google.com/?q=38.5032445,68.7231572",
   "lat": 38.5032445,
   "lng": 68.7231572,
   "source": "osm"
  },
  {
   "id": "a7252879086",
   "nom": "Вид на город",
   "categorie": "viewpoint",
   "description": "",
   "prix": "",
   "duree": "",
   "mapsUrl": "https://maps.google.com/?q=38.6226406,68.843596",
   "lat": 38.6226406,
   "lng": 68.843596,
   "source": "osm"
  },
  {
   "id": "a11967414269",
   "nom": "Дом Анвара",
   "categorie": "castle",
   "description": "",
   "prix": "",
   "duree": "",
   "mapsUrl": "https://maps.google.com/?q=38.4948842,68.7325056",
   "lat": 38.4948842,
   "lng": 68.7325056,
   "source": "osm"
  }
 ],
 "osmEnriched": true,
 "osmEnrichedAt": "2026-07-15",
 "description_en": "Douchanbé, in Tajikistan, is a halal-friendly destination with a Halal Trust Score of 4.2/5. Muslim travelers will find 20 halal restaurants listed, 32 mosques, real-time prayer times and the Qibla direction — a complete guide to travel with peace of mind.",
 "metaDescription_en": "Halal guide to Douchanbé: 20 halal restaurants listed, 32 mosques, prayer times and tips for Muslim travelers. Halal Trust Score 4.2/5.",
 "nom_en": "Douchanbé",
 "boucheries": [],
 "dataPurgedAt": "2026-07-15",
 "googleBakedAt": "2026-07-15"
}