{
 "slug": "el-jadida",
 "nom": "El Jadida",
 "pays": "Maroc",
 "pays_slug": "maroc",
 "continent": "Afrique",
 "region": "Centre du Maroc",
 "coordonnees": {
  "lat": 33.2316,
  "lng": -8.5007
 },
 "codeISO": "MA",
 "score_halal": 4.5,
 "halalScore": 8.9,
 "description": "Ancienne cité portugaise de Mazagan classée UNESCO sur la côte atlantique. Citerne souterraine spectaculaire et longue plage.",
 "image": "https://upload.wikimedia.org/wikipedia/commons/c/ce/Morocco_-_El_Jadida_-_Medina.jpg",
 "image_hero": "https://upload.wikimedia.org/wikipedia/commons/c/ce/Morocco_-_El_Jadida_-_Medina.jpg",
 "metaDescription": "Ancienne cité portugaise de Mazagan classée UNESCO sur la côte atlantique. Citerne souterraine spectaculaire et longue plage.",
 "monnaie": "MAD (Dirham marocain)",
 "langue": "Arabe, Tamazight, Français",
 "statistiques": {
  "restaurants_halal": 3,
  "mosquees": 41,
  "hotels": 56
 },
 "infoPratique": {
  "monnaie": "MAD (Dirham marocain)",
  "langue": "Arabe, Tamazight, Français",
  "transport": "Accessible en bus (CTM/Supratours), grand taxi ou voiture.",
  "meilleureEpoque": "Printemps et automne (climat doux)."
 },
 "tags": [
  "halal",
  "Maroc"
 ],
 "restaurants": [
  {
   "nom": "Snack Al Massira",
   "type": "moroccan, pizza, sandwich",
   "priceRange": "€€",
   "mapsUrl": "https://maps.google.com/?q=33.2425,-8.498013",
   "lat": 33.2425,
   "lng": -8.498013,
   "halalConfidence": "likely",
   "source": "osm"
  },
  {
   "nom": "Snack Elbraija",
   "type": "moroccan",
   "priceRange": "€€",
   "mapsUrl": "https://maps.google.com/?q=33.2536814,-8.5026094",
   "lat": 33.2536814,
   "lng": -8.5026094,
   "halalConfidence": "likely",
   "source": "osm"
  },
  {
   "nom": "Snack Bismillah",
   "type": "moroccan, local",
   "priceRange": "€€",
   "mapsUrl": "https://maps.google.com/?q=33.2558431,-8.5044118",
   "lat": 33.2558431,
   "lng": -8.5044118,
   "halalConfidence": "likely",
   "source": "osm"
  }
 ],
 "hotels": [
  {
   "nom": "Villa Amira",
   "categorie": "Hôtel",
   "priceRange": "€€",
   "mapsUrl": "https://maps.google.com/?q=33.233306,-8.5000263",
   "lat": 33.233306,
   "lng": -8.5000263,
   "halalFriendly": false,
   "bookingUrl": "https://maps.google.com/?q=33.233306,-8.5000263",
   "source": "osm"
  },
  {
   "nom": "Hotel Yahya",
   "categorie": "Hôtel",
   "priceRange": "€€",
   "mapsUrl": "https://maps.google.com/?q=33.2425336,-8.4964888",
   "lat": 33.2425336,
   "lng": -8.4964888,
   "halalFriendly": false,
   "bookingUrl": "https://maps.google.com/?q=33.2425336,-8.4964888",
   "source": "osm"
  },
  {
   "nom": "Ragazzi",
   "categorie": "Hôtel",
   "priceRange": "€€",
   "mapsUrl": "https://maps.google.com/?q=33.2435419,-8.4963274",
   "lat": 33.2435419,
   "lng": -8.4963274,
   "halalFriendly": false,
   "bookingUrl": "https://maps.google.com/?q=33.2435419,-8.4963274",
   "source": "osm"
  },
  {
   "nom": "Al Khansaa",
   "categorie": "Hôtel",
   "priceRange": "€€",
   "mapsUrl": "https://maps.google.com/?q=33.2449208,-8.4979461",
   "lat": 33.2449208,
   "lng": -8.4979461,
   "halalFriendly": false,
   "bookingUrl": "https://maps.google.com/?q=33.2449208,-8.4979461",
   "source": "osm"
  },
  {
   "nom": "Hotel El Morabitine",
   "categorie": "Hôtel",
   "priceRange": "€€",
   "mapsUrl": "https://maps.google.com/?q=33.2443623,-8.4952286",
   "lat": 33.2443623,
   "lng": -8.4952286,
   "halalFriendly": false,
   "bookingUrl": "https://maps.google.com/?q=33.2443623,-8.4952286",
   "source": "osm"
  },
  {
   "nom": "PalmTree",
   "categorie": "Hôtel",
   "priceRange": "€€",
   "mapsUrl": "https://maps.google.com/?q=33.2422306,-8.49036",
   "lat": 33.2422306,
   "lng": -8.49036,
   "halalFriendly": false,
   "bookingUrl": "https://maps.google.com/?q=33.2422306,-8.49036",
   "source": "osm"
  },
  {
   "nom": "Hôtel Aboulanwar",
   "categorie": "Hôtel",
   "priceRange": "€€",
   "mapsUrl": "https://maps.google.com/?q=33.2421717,-8.5130568",
   "lat": 33.2421717,
   "lng": -8.5130568,
   "halalFriendly": false,
   "bookingUrl": "https://maps.google.com/?q=33.2421717,-8.5130568",
   "source": "osm"
  },
  {
   "nom": "Hotel Verdi",
   "categorie": "Hôtel",
   "priceRange": "€€",
   "mapsUrl": "https://maps.google.com/?q=33.2463164,-8.5062374",
   "lat": 33.2463164,
   "lng": -8.5062374,
   "halalFriendly": false,
   "bookingUrl": "https://maps.google.com/?q=33.2463164,-8.5062374",
   "source": "osm"
  },
  {
   "nom": "Pyramides",
   "categorie": "Hôtel",
   "priceRange": "€€",
   "mapsUrl": "https://maps.google.com/?q=33.2435874,-8.4888541",
   "lat": 33.2435874,
   "lng": -8.4888541,
   "halalFriendly": false,
   "bookingUrl": "https://maps.google.com/?q=33.2435874,-8.4888541",
   "source": "osm"
  },
  {
   "nom": "Ibis",
   "categorie": "Hôtel",
   "priceRange": "€€",
   "mapsUrl": "https://maps.google.com/?q=33.2449103,-8.4903621",
   "lat": 33.2449103,
   "lng": -8.4903621,
   "halalFriendly": false,
   "bookingUrl": "https://maps.google.com/?q=33.2449103,-8.4903621",
   "source": "osm"
  },
  {
   "nom": "Mia Mazagan",
   "categorie": "Hôtel",
   "priceRange": "€€",
   "mapsUrl": "https://maps.google.com/?q=33.2444706,-8.4893106",
   "lat": 33.2444706,
   "lng": -8.4893106,
   "halalFriendly": false,
   "bookingUrl": "https://maps.google.com/?q=33.2444706,-8.4893106",
   "source": "osm"
  },
  {
   "nom": "Centre Ville",
   "categorie": "Hôtel",
   "priceRange": "€€",
   "mapsUrl": "https://maps.google.com/?q=33.2482845,-8.4984573",
   "lat": 33.2482845,
   "lng": -8.4984573,
   "halalFriendly": false,
   "bookingUrl": "https://maps.google.com/?q=33.2482845,-8.4984573",
   "source": "osm"
  },
  {
   "nom": "Hotel Royal",
   "categorie": "Hôtel",
   "priceRange": "€€",
   "mapsUrl": "https://maps.google.com/?q=33.2486984,-8.5016173",
   "lat": 33.2486984,
   "lng": -8.5016173,
   "halalFriendly": false,
   "bookingUrl": "https://maps.google.com/?q=33.2486984,-8.5016173",
   "source": "osm"
  },
  {
   "nom": "Dar El Breija",
   "categorie": "Hôtel",
   "priceRange": "€€",
   "mapsUrl": "https://maps.google.com/?q=33.2487715,-8.4995141",
   "lat": 33.2487715,
   "lng": -8.4995141,
   "halalFriendly": false,
   "bookingUrl": "https://maps.google.com/?q=33.2487715,-8.4995141",
   "source": "osm"
  },
  {
   "nom": "Del Mar Hotel",
   "categorie": "Hôtel",
   "priceRange": "€€",
   "mapsUrl": "https://maps.google.com/?q=33.2436998,-8.4833209",
   "lat": 33.2436998,
   "lng": -8.4833209,
   "halalFriendly": false,
   "bookingUrl": "https://maps.google.com/?q=33.2436998,-8.4833209",
   "source": "osm"
  },
  {
   "nom": "Oceana Mazagan",
   "categorie": "Hôtel",
   "priceRange": "€€",
   "mapsUrl": "https://maps.google.com/?q=33.2437949,-8.4833002",
   "lat": 33.2437949,
   "lng": -8.4833002,
   "halalFriendly": false,
   "bookingUrl": "https://maps.google.com/?q=33.2437949,-8.4833002",
   "source": "osm"
  },
  {
   "nom": "Art Suites El Jadida",
   "categorie": "Hôtel",
   "priceRange": "€€",
   "mapsUrl": "https://maps.google.com/?q=33.25067,-8.5026803",
   "lat": 33.25067,
   "lng": -8.5026803,
   "halalFriendly": false,
   "bookingUrl": "https://maps.google.com/?q=33.25067,-8.5026803",
   "source": "osm"
  },
  {
   "nom": "Hotel de La Place",
   "categorie": "Hôtel",
   "priceRange": "€€",
   "mapsUrl": "https://maps.google.com/?q=33.2512971,-8.5035112",
   "lat": 33.2512971,
   "lng": -8.5035112,
   "halalFriendly": false,
   "bookingUrl": "https://maps.google.com/?q=33.2512971,-8.5035112",
   "source": "osm"
  },
  {
   "nom": "Hôtel La Place",
   "categorie": "Hôtel",
   "priceRange": "€€",
   "mapsUrl": "https://maps.google.com/?q=33.2513354,-8.5035402",
   "lat": 33.2513354,
   "lng": -8.5035402,
   "halalFriendly": false,
   "bookingUrl": "https://maps.google.com/?q=33.2513354,-8.5035402",
   "source": "osm"
  },
  {
   "nom": "Hotel Cristour",
   "categorie": "Hôtel",
   "priceRange": "€€",
   "mapsUrl": "https://maps.google.com/?q=33.2515907,-8.5029521",
   "lat": 33.2515907,
   "lng": -8.5029521,
   "halalFriendly": false,
   "bookingUrl": "https://maps.google.com/?q=33.2515907,-8.5029521",
   "source": "osm"
  },
  {
   "nom": "Hotel France ( Ex Atlantis )",
   "categorie": "Hôtel",
   "priceRange": "€€",
   "mapsUrl": "https://maps.google.com/?q=33.2529548,-8.5024774",
   "lat": 33.2529548,
   "lng": -8.5024774,
   "halalFriendly": false,
   "bookingUrl": "https://maps.google.com/?q=33.2529548,-8.5024774",
   "source": "osm"
  },
  {
   "nom": "Hotel Le Palais Andalous",
   "categorie": "Hôtel",
   "priceRange": "€€",
   "mapsUrl": "https://maps.google.com/?q=33.2516714,-8.5097191",
   "lat": 33.2516714,
   "lng": -8.5097191,
   "halalFriendly": false,
   "bookingUrl": "https://maps.google.com/?q=33.2516714,-8.5097191",
   "source": "osm"
  },
  {
   "nom": "Le Palais Andalous",
   "categorie": "Hôtel",
   "priceRange": "€€",
   "mapsUrl": "https://maps.google.com/?q=33.2516792,-8.5097204",
   "lat": 33.2516792,
   "lng": -8.5097204,
   "halalFriendly": false,
   "bookingUrl": "https://maps.google.com/?q=33.2516792,-8.5097204",
   "source": "osm"
  },
  {
   "nom": "Hotel Maghreb",
   "categorie": "Hôtel",
   "priceRange": "€€",
   "mapsUrl": "https://maps.google.com/?q=33.2531458,-8.5025822",
   "lat": 33.2531458,
   "lng": -8.5025822,
   "halalFriendly": false,
   "bookingUrl": "https://maps.google.com/?q=33.2531458,-8.5025822",
   "source": "osm"
  },
  {
   "nom": "Hotel Jahwara El Jadida",
   "categorie": "Hôtel",
   "priceRange": "€€",
   "mapsUrl": "https://maps.google.com/?q=33.2429225,-8.4784871",
   "lat": 33.2429225,
   "lng": -8.4784871,
   "halalFriendly": false,
   "bookingUrl": "https://maps.google.com/?q=33.2429225,-8.4784871",
   "source": "osm"
  },
  {
   "nom": "Hotel Amwaj",
   "categorie": "Hôtel",
   "priceRange": "€€",
   "mapsUrl": "https://maps.google.com/?q=33.2439817,-8.4787844",
   "lat": 33.2439817,
   "lng": -8.4787844,
   "halalFriendly": false,
   "bookingUrl": "https://maps.google.com/?q=33.2439817,-8.4787844",
   "source": "osm"
  },
  {
   "nom": "Riad La Maison des Épices à El Jadida",
   "categorie": "Maison d'hôtes",
   "priceRange": "€€",
   "mapsUrl": "https://maps.google.com/?q=33.2534475,-8.5051557",
   "lat": 33.2534475,
   "lng": -8.5051557,
   "halalFriendly": false,
   "bookingUrl": "https://maps.google.com/?q=33.2534475,-8.5051557",
   "source": "osm"
  },
  {
   "nom": "Maison des Epices",
   "categorie": "Hôtel",
   "priceRange": "€€",
   "mapsUrl": "https://maps.google.com/?q=33.2534837,-8.5052648",
   "lat": 33.2534837,
   "lng": -8.5052648,
   "halalFriendly": false,
   "bookingUrl": "https://maps.google.com/?q=33.2534837,-8.5052648",
   "source": "osm"
  },
  {
   "nom": "Hotel Bordeaux",
   "categorie": "Hôtel",
   "priceRange": "€€",
   "mapsUrl": "https://maps.google.com/?q=33.2539328,-8.5053416",
   "lat": 33.2539328,
   "lng": -8.5053416,
   "halalFriendly": false,
   "bookingUrl": "https://maps.google.com/?q=33.2539328,-8.5053416",
   "source": "osm"
  },
  {
   "nom": "Hôtel Suisse",
   "categorie": "Hôtel",
   "priceRange": "€€",
   "mapsUrl": "https://maps.google.com/?q=33.2538331,-8.5081889",
   "lat": 33.2538331,
   "lng": -8.5081889,
   "halalFriendly": false,
   "bookingUrl": "https://maps.google.com/?q=33.2538331,-8.5081889",
   "source": "osm"
  },
  {
   "nom": "Hotel En Ruine",
   "categorie": "Hôtel",
   "priceRange": "€€",
   "mapsUrl": "https://maps.google.com/?q=33.2545235,-8.5046121",
   "lat": 33.2545235,
   "lng": -8.5046121,
   "halalFriendly": false,
   "bookingUrl": "https://maps.google.com/?q=33.2545235,-8.5046121",
   "source": "osm"
  },
  {
   "nom": "Hotel De Nice",
   "categorie": "Hôtel",
   "priceRange": "€€",
   "mapsUrl": "https://maps.google.com/?q=33.2545206,-8.5049173",
   "lat": 33.2545206,
   "lng": -8.5049173,
   "halalFriendly": false,
   "bookingUrl": "https://maps.google.com/?q=33.2545206,-8.5049173",
   "source": "osm"
  },
  {
   "nom": "Foundouk El Bacha",
   "categorie": "Hôtel",
   "priceRange": "€€",
   "mapsUrl": "https://maps.google.com/?q=33.2536748,-8.5095868",
   "lat": 33.2536748,
   "lng": -8.5095868,
   "halalFriendly": false,
   "bookingUrl": "https://maps.google.com/?q=33.2536748,-8.5095868",
   "source": "osm"
  },
  {
   "nom": "Hotel El Jadida",
   "categorie": "Hôtel",
   "priceRange": "€€",
   "mapsUrl": "https://maps.google.com/?q=33.2549224,-8.5056638",
   "lat": 33.2549224,
   "lng": -8.5056638,
   "halalFriendly": false,
   "bookingUrl": "https://maps.google.com/?q=33.2549224,-8.5056638",
   "source": "osm"
  },
  {
   "nom": "Brihi",
   "categorie": "Maison d'hôtes",
   "priceRange": "€€",
   "mapsUrl": "https://maps.google.com/?q=33.2306602,-8.5292669",
   "lat": 33.2306602,
   "lng": -8.5292669,
   "halalFriendly": false,
   "bookingUrl": "https://maps.google.com/?q=33.2306602,-8.5292669",
   "source": "osm"
  },
  {
   "nom": "Burn out",
   "categorie": "Maison d'hôtes",
   "priceRange": "€€",
   "mapsUrl": "https://maps.google.com/?q=33.2539013,-8.5127491",
   "lat": 33.2539013,
   "lng": -8.5127491,
   "halalFriendly": false,
   "bookingUrl": "http://www.riadburnout.com",
   "source": "osm"
  },
  {
   "nom": "Riad Ksar El Jadida",
   "categorie": "Hôtel",
   "priceRange": "€€",
   "mapsUrl": "https://maps.google.com/?q=33.2560776,-8.5019743",
   "lat": 33.2560776,
   "lng": -8.5019743,
   "halalFriendly": false,
   "bookingUrl": "https://maps.google.com/?q=33.2560776,-8.5019743",
   "source": "osm"
  },
  {
   "nom": "Maison D'Hôtes Cité Portugaise",
   "categorie": "Hôtel",
   "priceRange": "€€",
   "mapsUrl": "https://maps.google.com/?q=33.2561339,-8.5020073",
   "lat": 33.2561339,
   "lng": -8.5020073,
   "halalFriendly": false,
   "bookingUrl": "https://maps.google.com/?q=33.2561339,-8.5020073",
   "source": "osm"
  },
  {
   "nom": "La Cité Portugaise",
   "categorie": "Hôtel",
   "priceRange": "€€",
   "mapsUrl": "https://maps.google.com/?q=33.2561532,-8.501965",
   "lat": 33.2561532,
   "lng": -8.501965,
   "halalFriendly": false,
   "bookingUrl": "https://maps.google.com/?q=33.2561532,-8.501965",
   "source": "osm"
  },
  {
   "nom": "Art House",
   "categorie": "Hôtel",
   "priceRange": "€€",
   "mapsUrl": "https://maps.google.com/?q=33.2561551,-8.5030016",
   "lat": 33.2561551,
   "lng": -8.5030016,
   "halalFriendly": false,
   "bookingUrl": "https://maps.google.com/?q=33.2561551,-8.5030016",
   "source": "osm"
  },
  {
   "nom": "L'Iglesia",
   "categorie": "Hôtel",
   "priceRange": "€€",
   "mapsUrl": "https://maps.google.com/?q=33.2562652,-8.5012348",
   "lat": 33.2562652,
   "lng": -8.5012348,
   "halalFriendly": false,
   "bookingUrl": "https://maps.google.com/?q=33.2562652,-8.5012348",
   "source": "osm"
  },
  {
   "nom": "Riad Le Mazagao",
   "categorie": "Hôtel",
   "priceRange": "€€",
   "mapsUrl": "https://maps.google.com/?q=33.2562886,-8.5045917",
   "lat": 33.2562886,
   "lng": -8.5045917,
   "halalFriendly": false,
   "bookingUrl": "https://maps.google.com/?q=33.2562886,-8.5045917",
   "source": "osm"
  },
  {
   "nom": "Dar Yasmina",
   "categorie": "Hôtel",
   "priceRange": "€€",
   "mapsUrl": "https://maps.google.com/?q=33.2564292,-8.5033501",
   "lat": 33.2564292,
   "lng": -8.5033501,
   "halalFriendly": false,
   "bookingUrl": "https://maps.google.com/?q=33.2564292,-8.5033501",
   "source": "osm"
  },
  {
   "nom": "Dar Statia",
   "categorie": "Hôtel",
   "priceRange": "€€",
   "mapsUrl": "https://maps.google.com/?q=33.2569986,-8.5024068",
   "lat": 33.2569986,
   "lng": -8.5024068,
   "halalFriendly": false,
   "bookingUrl": "https://maps.google.com/?q=33.2569986,-8.5024068",
   "source": "osm"
  },
  {
   "nom": "Dar Fatima",
   "categorie": "Hôtel",
   "priceRange": "€€",
   "mapsUrl": "https://maps.google.com/?q=33.2569824,-8.503513",
   "lat": 33.2569824,
   "lng": -8.503513,
   "halalFriendly": false,
   "bookingUrl": "https://maps.google.com/?q=33.2569824,-8.503513",
   "source": "osm"
  },
  {
   "nom": "Dar Ettaki Workation Riad Cité Portugaise Mazagan",
   "categorie": "Maison d'hôtes",
   "priceRange": "€€",
   "mapsUrl": "https://maps.google.com/?q=33.2570726,-8.5020647",
   "lat": 33.2570726,
   "lng": -8.5020647,
   "halalFriendly": false,
   "bookingUrl": "https://dar-ettaki-com",
   "source": "osm"
  },
  {
   "nom": "B&B Dar El Jadida",
   "categorie": "Hôtel",
   "priceRange": "€€",
   "mapsUrl": "https://maps.google.com/?q=33.2574792,-8.5022164",
   "lat": 33.2574792,
   "lng": -8.5022164,
   "halalFriendly": false,
   "bookingUrl": "https://maps.google.com/?q=33.2574792,-8.5022164",
   "source": "osm"
  },
  {
   "nom": "Art Riad",
   "categorie": "Hôtel",
   "priceRange": "€€",
   "mapsUrl": "https://maps.google.com/?q=33.2575547,-8.5018114",
   "lat": 33.2575547,
   "lng": -8.5018114,
   "halalFriendly": false,
   "bookingUrl": "https://maps.google.com/?q=33.2575547,-8.5018114",
   "source": "osm"
  },
  {
   "nom": "A Casa Da Maré",
   "categorie": "Hôtel",
   "priceRange": "€€",
   "mapsUrl": "https://maps.google.com/?q=33.2577165,-8.5014859",
   "lat": 33.2577165,
   "lng": -8.5014859,
   "halalFriendly": false,
   "bookingUrl": "https://maps.google.com/?q=33.2577165,-8.5014859",
   "source": "osm"
  },
  {
   "nom": "Riad Soleil D'Orient",
   "categorie": "Maison d'hôtes",
   "priceRange": "€€",
   "mapsUrl": "https://maps.google.com/?q=33.2567576,-8.5092751",
   "lat": 33.2567576,
   "lng": -8.5092751,
   "halalFriendly": false,
   "bookingUrl": "https://maps.google.com/?q=33.2567576,-8.5092751",
   "source": "osm"
  },
  {
   "nom": "Riad La VIlla & SPA",
   "categorie": "Maison d'hôtes",
   "priceRange": "€€",
   "mapsUrl": "https://maps.google.com/?q=33.2589196,-8.5059665",
   "lat": 33.2589196,
   "lng": -8.5059665,
   "halalFriendly": false,
   "bookingUrl": "https://maps.google.com/?q=33.2589196,-8.5059665",
   "source": "osm"
  },
  {
   "nom": "Dar Al Manar",
   "categorie": "Maison d'hôtes",
   "priceRange": "€€",
   "mapsUrl": "https://maps.google.com/?q=33.2438916,-8.436638",
   "lat": 33.2438916,
   "lng": -8.436638,
   "halalFriendly": false,
   "bookingUrl": "https://maps.google.com/?q=33.2438916,-8.436638",
   "source": "osm"
  },
  {
   "nom": "Centre d'Estivage FM6",
   "categorie": "Hôtel",
   "priceRange": "€€",
   "mapsUrl": "https://maps.google.com/?q=33.2536497,-8.4378954",
   "lat": 33.2536497,
   "lng": -8.4378954,
   "halalFriendly": false,
   "bookingUrl": "https://maps.google.com/?q=33.2536497,-8.4378954",
   "source": "osm"
  },
  {
   "nom": "Zephyr Mazagan",
   "categorie": "Hôtel",
   "priceRange": "€€",
   "mapsUrl": "https://maps.google.com/?q=33.2542044,-8.4368547",
   "lat": 33.2542044,
   "lng": -8.4368547,
   "halalFriendly": false,
   "bookingUrl": "https://maps.google.com/?q=33.2542044,-8.4368547",
   "source": "osm"
  },
  {
   "nom": "Wizone Mazagan",
   "categorie": "Hôtel",
   "priceRange": "€€",
   "mapsUrl": "https://maps.google.com/?q=33.2578885,-8.4231587",
   "lat": 33.2578885,
   "lng": -8.4231587,
   "halalFriendly": false,
   "bookingUrl": "https://maps.google.com/?q=33.2578885,-8.4231587",
   "source": "osm"
  },
  {
   "nom": "Pullman Mazagan Royal Golf & Spa Hotel El Jadida",
   "categorie": "Hôtel",
   "priceRange": "€€",
   "mapsUrl": "https://maps.google.com/?q=33.25934,-8.4229495",
   "lat": 33.25934,
   "lng": -8.4229495,
   "halalFriendly": false,
   "bookingUrl": "https://maps.google.com/?q=33.25934,-8.4229495",
   "source": "osm"
  }
 ],
 "mosqueesPrincipales": [
  {
   "nom": "Mosquée Fqih Ettaleb El Aouni",
   "lat": 33.2467937,
   "lng": -8.5004327,
   "coordonnees": {
    "lat": 33.2467937,
    "lng": -8.5004327
   },
   "mapsUrl": "https://maps.google.com/?q=33.2467937,-8.5004327",
   "source": "osm"
  },
  {
   "id": "osm-320936325",
   "nom": "Mosquée Masjid Hassan II",
   "type": "mosquee",
   "lat": 33.2581362,
   "lng": -8.513326,
   "mapsUrl": "https://maps.google.com/?q=33.2581362,-8.513326",
   "source": "osm"
  },
  {
   "id": "osm-320955834",
   "nom": "Mosquée Masjid Al Khalil",
   "type": "mosquee",
   "lat": 33.2363772,
   "lng": -8.5338531,
   "mapsUrl": "https://maps.google.com/?q=33.2363772,-8.5338531",
   "source": "osm"
  },
  {
   "id": "osm-322202375",
   "nom": "Mosquée Imam Ali",
   "type": "mosquee",
   "lat": 33.2474457,
   "lng": -8.5073006,
   "mapsUrl": "https://maps.google.com/?q=33.2474457,-8.5073006",
   "source": "osm"
  },
  {
   "id": "osm-322208263",
   "nom": "Mosquée Hay Essalam",
   "type": "mosquee",
   "lat": 33.2241112,
   "lng": -8.496207,
   "mapsUrl": "https://maps.google.com/?q=33.2241112,-8.496207",
   "source": "osm"
  },
  {
   "id": "osm-322208274",
   "nom": "Mosquée Al Qods",
   "type": "mosquee",
   "lat": 33.2321718,
   "lng": -8.4955462,
   "mapsUrl": "https://maps.google.com/?q=33.2321718,-8.4955462",
   "source": "osm"
  },
  {
   "id": "osm-1190173756",
   "nom": "Mosquée Hay Al Matar",
   "type": "mosquee",
   "lat": 33.235073,
   "lng": -8.5190077,
   "mapsUrl": "https://maps.google.com/?q=33.235073,-8.5190077",
   "source": "osm"
  },
  {
   "id": "osm-1228540373",
   "nom": "Al Khaif",
   "type": "mosquee",
   "lat": 33.2391628,
   "lng": -8.4939852,
   "mapsUrl": "https://maps.google.com/?q=33.2391628,-8.4939852",
   "source": "osm"
  },
  {
   "id": "osm-1228540385",
   "nom": "Mosquée Abou Chouaib Doukkali",
   "type": "mosquee",
   "lat": 33.2319943,
   "lng": -8.5026797,
   "mapsUrl": "https://maps.google.com/?q=33.2319943,-8.5026797",
   "source": "osm"
  },
  {
   "id": "osm-1228611933",
   "nom": "Taif",
   "type": "mosquee",
   "lat": 33.2357039,
   "lng": -8.4933909,
   "mapsUrl": "https://maps.google.com/?q=33.2357039,-8.4933909",
   "source": "osm"
  },
  {
   "id": "osm-1228642050",
   "nom": "Mosquée Khadija Bint Khouailid",
   "type": "mosquee",
   "lat": 33.241939,
   "lng": -8.469163,
   "mapsUrl": "https://maps.google.com/?q=33.241939,-8.469163",
   "source": "osm"
  },
  {
   "id": "osm-1228724995",
   "nom": "Mosquée 614",
   "type": "mosquee",
   "lat": 33.2258791,
   "lng": -8.5012762,
   "mapsUrl": "https://maps.google.com/?q=33.2258791,-8.5012762",
   "source": "osm"
  },
  {
   "id": "osm-1228914975",
   "nom": "Nadia",
   "type": "mosquee",
   "lat": 33.2219822,
   "lng": -8.5014564,
   "mapsUrl": "https://maps.google.com/?q=33.2219822,-8.5014564",
   "source": "osm"
  },
  {
   "id": "osm-1228928807",
   "nom": "Al Ghazwa",
   "type": "mosquee",
   "lat": 33.2338433,
   "lng": -8.5082195,
   "mapsUrl": "https://maps.google.com/?q=33.2338433,-8.5082195",
   "source": "osm"
  },
  {
   "id": "osm-1228958382",
   "nom": "Sikakiyin",
   "type": "mosquee",
   "lat": 33.2369434,
   "lng": -8.5037014,
   "mapsUrl": "https://maps.google.com/?q=33.2369434,-8.5037014",
   "source": "osm"
  },
  {
   "id": "osm-1231420095",
   "nom": "Mosquée",
   "type": "mosquee",
   "lat": 33.2348517,
   "lng": -8.4897131,
   "mapsUrl": "https://maps.google.com/?q=33.2348517,-8.4897131",
   "source": "osm"
  },
  {
   "id": "osm-1231425618",
   "nom": "Jawhara",
   "type": "mosquee",
   "lat": 33.2293176,
   "lng": -8.4906988,
   "mapsUrl": "https://maps.google.com/?q=33.2293176,-8.4906988",
   "source": "osm"
  },
  {
   "id": "osm-1233914038",
   "nom": "El Boustane",
   "type": "mosquee",
   "lat": 33.2319369,
   "lng": -8.483794,
   "mapsUrl": "https://maps.google.com/?q=33.2319369,-8.483794",
   "source": "osm"
  },
  {
   "id": "osm-1237272119",
   "nom": "Abou Bakr Essadiq",
   "type": "mosquee",
   "lat": 33.2456575,
   "lng": -8.4974324,
   "mapsUrl": "https://maps.google.com/?q=33.2456575,-8.4974324",
   "source": "osm"
  },
  {
   "id": "osm-1251955523",
   "nom": "Mosquée Al Fath",
   "type": "mosquee",
   "lat": 33.240332,
   "lng": -8.5163443,
   "mapsUrl": "https://maps.google.com/?q=33.240332,-8.5163443",
   "source": "osm"
  },
  {
   "id": "osm-1267677367",
   "nom": "Borj Rebate",
   "type": "mosquee",
   "lat": 33.2567178,
   "lng": -8.5029387,
   "mapsUrl": "https://maps.google.com/?q=33.2567178,-8.5029387",
   "source": "osm"
  },
  {
   "id": "osm-1267721231",
   "nom": "Zaouia Al Kadiria",
   "type": "mosquee",
   "lat": 33.2566899,
   "lng": -8.5039529,
   "mapsUrl": "https://maps.google.com/?q=33.2566899,-8.5039529",
   "source": "osm"
  },
  {
   "id": "osm-1268037929",
   "nom": "Vestiges de la Mosquée",
   "type": "mosquee",
   "lat": 33.2410037,
   "lng": -8.4314184,
   "mapsUrl": "https://maps.google.com/?q=33.2410037,-8.4314184",
   "source": "osm"
  },
  {
   "id": "osm-1268229148",
   "nom": "Mosquée Moulay Abdellah Amghar",
   "type": "mosquee",
   "lat": 33.1978366,
   "lng": -8.5891507,
   "mapsUrl": "https://maps.google.com/?q=33.1978366,-8.5891507",
   "source": "osm"
  },
  {
   "id": "osm-1268244889",
   "nom": "Tit Ribat",
   "type": "mosquee",
   "lat": 33.1950336,
   "lng": -8.5874871,
   "mapsUrl": "https://maps.google.com/?q=33.1950336,-8.5874871",
   "source": "osm"
  },
  {
   "id": "osm-1270141873",
   "nom": "Mosquée Tit",
   "type": "mosquee",
   "lat": 33.1996988,
   "lng": -8.5841982,
   "mapsUrl": "https://maps.google.com/?q=33.1996988,-8.5841982",
   "source": "osm"
  },
  {
   "id": "osm-1271720958",
   "nom": "Mosquée Et-Twaza",
   "type": "mosquee",
   "lat": 33.2583523,
   "lng": -8.5050275,
   "mapsUrl": "https://maps.google.com/?q=33.2583523,-8.5050275",
   "source": "osm"
  },
  {
   "id": "osm-1272033197",
   "nom": "Grande Mosquée Belhamdounia",
   "type": "mosquee",
   "lat": 33.2556037,
   "lng": -8.5058319,
   "mapsUrl": "https://maps.google.com/?q=33.2556037,-8.5058319",
   "source": "osm"
  },
  {
   "id": "osm-1293937968",
   "nom": "Mosquée Mahassine",
   "type": "mosquee",
   "lat": 33.2268098,
   "lng": -8.5054106,
   "mapsUrl": "https://maps.google.com/?q=33.2268098,-8.5054106",
   "source": "osm"
  },
  {
   "id": "osm-1294597762",
   "nom": "Ibn Zin",
   "type": "mosquee",
   "lat": 33.2288189,
   "lng": -8.5209786,
   "mapsUrl": "https://maps.google.com/?q=33.2288189,-8.5209786",
   "source": "osm"
  },
  {
   "id": "osm-1294597765",
   "nom": "Lalla Ghita",
   "type": "mosquee",
   "lat": 33.2264548,
   "lng": -8.5223046,
   "mapsUrl": "https://maps.google.com/?q=33.2264548,-8.5223046",
   "source": "osm"
  },
  {
   "id": "osm-1294620416",
   "nom": "Mosquée Arafat",
   "type": "mosquee",
   "lat": 33.223438,
   "lng": -8.5283285,
   "mapsUrl": "https://maps.google.com/?q=33.223438,-8.5283285",
   "source": "osm"
  },
  {
   "id": "osm-1296618406",
   "nom": "Belkhadir",
   "type": "mosquee",
   "lat": 33.2506915,
   "lng": -8.5058173,
   "mapsUrl": "https://maps.google.com/?q=33.2506915,-8.5058173",
   "source": "osm"
  },
  {
   "id": "osm-1296618431",
   "nom": "Mosquée Hammou Bel Abass",
   "type": "mosquee",
   "lat": 33.2536632,
   "lng": -8.5094236,
   "mapsUrl": "https://maps.google.com/?q=33.2536632,-8.5094236",
   "source": "osm"
  },
  {
   "id": "osm-1297339707",
   "nom": "Mosquée Maghfour",
   "type": "mosquee",
   "lat": 33.2209875,
   "lng": -8.4910139,
   "mapsUrl": "https://maps.google.com/?q=33.2209875,-8.4910139",
   "source": "osm"
  },
  {
   "id": "osm-1297339708",
   "nom": "Mosquéé Assabil",
   "type": "mosquee",
   "lat": 33.2186793,
   "lng": -8.4965844,
   "mapsUrl": "https://maps.google.com/?q=33.2186793,-8.4965844",
   "source": "osm"
  },
  {
   "id": "osm-1309072512",
   "nom": "Sidi Moussa",
   "type": "mosquee",
   "lat": 33.2367227,
   "lng": -8.4858739,
   "mapsUrl": "https://maps.google.com/?q=33.2367227,-8.4858739",
   "source": "osm"
  },
  {
   "id": "osm-1319224820",
   "nom": "Mosquée Dyar Al Mansour",
   "type": "mosquee",
   "lat": 33.2294237,
   "lng": -8.5278423,
   "mapsUrl": "https://maps.google.com/?q=33.2294237,-8.5278423",
   "source": "osm"
  },
  {
   "id": "osm-1330211191",
   "nom": "Mosquée Mekka",
   "type": "mosquee",
   "lat": 33.2329593,
   "lng": -8.4798295,
   "mapsUrl": "https://maps.google.com/?q=33.2329593,-8.4798295",
   "source": "osm"
  },
  {
   "id": "osm-1330229615",
   "nom": "Mosquée Othmane Ibn Affane",
   "type": "mosquee",
   "lat": 33.2125314,
   "lng": -8.4946541,
   "mapsUrl": "https://maps.google.com/?q=33.2125314,-8.4946541",
   "source": "osm"
  },
  {
   "id": "osm-1339196190",
   "nom": "Mosquée Abou Baker",
   "type": "mosquee",
   "lat": 33.2104801,
   "lng": -8.495283,
   "mapsUrl": "https://maps.google.com/?q=33.2104801,-8.495283",
   "source": "osm"
  }
 ],
 "activites": [
  {
   "nom": "Parc Mohammed V",
   "lat": 33.2472333,
   "lng": -8.4964086,
   "coordonnees": {
    "lat": 33.2472333,
    "lng": -8.4964086
   },
   "categorie": "Nature",
   "mapsUrl": "https://maps.google.com/?q=33.2472333,-8.4964086",
   "source": "osm"
  },
  {
   "nom": "Big Foot",
   "lat": 33.2480928,
   "lng": -8.4966905,
   "coordonnees": {
    "lat": 33.2480928,
    "lng": -8.4966905
   },
   "categorie": "À voir",
   "mapsUrl": "https://maps.google.com/?q=33.2480928,-8.4966905",
   "source": "osm"
  },
  {
   "nom": "Parc Ahmed Chawqui",
   "lat": 33.2488956,
   "lng": -8.5074558,
   "coordonnees": {
    "lat": 33.2488956,
    "lng": -8.5074558
   },
   "categorie": "Nature",
   "mapsUrl": "https://maps.google.com/?q=33.2488956,-8.5074558",
   "source": "osm"
  },
  {
   "nom": "Nes Qaws",
   "lat": 33.2540146,
   "lng": -8.5043649,
   "coordonnees": {
    "lat": 33.2540146,
    "lng": -8.5043649
   },
   "categorie": "Histoire",
   "mapsUrl": "https://maps.google.com/?q=33.2540146,-8.5043649",
   "source": "osm"
  },
  {
   "nom": "Cadran Solaire",
   "lat": 33.2542641,
   "lng": -8.5019971,
   "coordonnees": {
    "lat": 33.2542641,
    "lng": -8.5019971
   },
   "categorie": "À voir",
   "mapsUrl": "https://maps.google.com/?q=33.2542641,-8.5019971",
   "source": "osm"
  },
  {
   "nom": "Jawad",
   "lat": 33.2526478,
   "lng": -8.5125358,
   "coordonnees": {
    "lat": 33.2526478,
    "lng": -8.5125358
   },
   "categorie": "À voir",
   "mapsUrl": "https://maps.google.com/?q=33.2526478,-8.5125358",
   "source": "osm"
  },
  {
   "nom": "Tayana",
   "lat": 33.2543298,
   "lng": -8.5074988,
   "coordonnees": {
    "lat": 33.2543298,
    "lng": -8.5074988
   },
   "categorie": "Panorama",
   "mapsUrl": "https://maps.google.com/?q=33.2543298,-8.5074988",
   "source": "osm"
  },
  {
   "nom": "Bastion de l'Anges",
   "lat": 33.2559138,
   "lng": -8.5003963,
   "coordonnees": {
    "lat": 33.2559138,
    "lng": -8.5003963
   },
   "categorie": "Panorama",
   "mapsUrl": "https://maps.google.com/?q=33.2559138,-8.5003963",
   "source": "osm"
  },
  {
   "nom": "Bab Saint-Esprit",
   "lat": 33.2558272,
   "lng": -8.5033696,
   "coordonnees": {
    "lat": 33.2558272,
    "lng": -8.5033696
   },
   "categorie": "Histoire",
   "mapsUrl": "https://maps.google.com/?q=33.2558272,-8.5033696",
   "source": "osm"
  },
  {
   "nom": "Bab Dar Narzareth",
   "lat": 33.2564256,
   "lng": -8.5014908,
   "coordonnees": {
    "lat": 33.2564256,
    "lng": -8.5014908
   },
   "categorie": "Histoire",
   "mapsUrl": "https://maps.google.com/?q=33.2564256,-8.5014908",
   "source": "osm"
  },
  {
   "nom": "Bab Saint-Antoine",
   "lat": 33.2568975,
   "lng": -8.5041992,
   "coordonnees": {
    "lat": 33.2568975,
    "lng": -8.5041992
   },
   "categorie": "Histoire",
   "mapsUrl": "https://maps.google.com/?q=33.2568975,-8.5041992",
   "source": "osm"
  },
  {
   "nom": "Bab Des Boeufs",
   "lat": 33.2573955,
   "lng": -8.5030774,
   "coordonnees": {
    "lat": 33.2573955,
    "lng": -8.5030774
   },
   "categorie": "Histoire",
   "mapsUrl": "https://maps.google.com/?q=33.2573955,-8.5030774",
   "source": "osm"
  },
  {
   "nom": "Bab Qobbat Lkhiyattine",
   "lat": 33.2581236,
   "lng": -8.5015064,
   "coordonnees": {
    "lat": 33.2581236,
    "lng": -8.5015064
   },
   "categorie": "Histoire",
   "mapsUrl": "https://maps.google.com/?q=33.2581236,-8.5015064",
   "source": "osm"
  },
  {
   "nom": "Le Cheval",
   "lat": 33.244272,
   "lng": -8.4661231,
   "coordonnees": {
    "lat": 33.244272,
    "lng": -8.4661231
   },
   "categorie": "À voir",
   "mapsUrl": "https://maps.google.com/?q=33.244272,-8.4661231",
   "source": "osm"
  },
  {
   "nom": "Parc Soundouss",
   "lat": 33.2491937,
   "lng": -8.4493833,
   "coordonnees": {
    "lat": 33.2491937,
    "lng": -8.4493833
   },
   "categorie": "Nature",
   "mapsUrl": "https://maps.google.com/?q=33.2491937,-8.4493833",
   "source": "osm"
  },
  {
   "nom": "Fahs Ed Dwib",
   "lat": 33.1766656,
   "lng": -8.510002,
   "coordonnees": {
    "lat": 33.1766656,
    "lng": -8.510002
   },
   "categorie": "Histoire",
   "mapsUrl": "https://maps.google.com/?q=33.1766656,-8.510002",
   "source": "osm"
  },
  {
   "nom": "Ribate Lamjahdines",
   "lat": 33.2413104,
   "lng": -8.4308966,
   "coordonnees": {
    "lat": 33.2413104,
    "lng": -8.4308966
   },
   "categorie": "Histoire",
   "mapsUrl": "https://maps.google.com/?q=33.2413104,-8.4308966",
   "source": "osm"
  },
  {
   "nom": "Bab Jdida",
   "lat": 33.2018957,
   "lng": -8.5863627,
   "coordonnees": {
    "lat": 33.2018957,
    "lng": -8.5863627
   },
   "categorie": "Histoire",
   "mapsUrl": "https://maps.google.com/?q=33.2018957,-8.5863627",
   "source": "osm"
  },
  {
   "nom": "Bab El Qabli",
   "lat": 33.1949854,
   "lng": -8.5839644,
   "coordonnees": {
    "lat": 33.1949854,
    "lng": -8.5839644
   },
   "categorie": "Histoire",
   "mapsUrl": "https://maps.google.com/?q=33.1949854,-8.5839644",
   "source": "osm"
  },
  {
   "nom": "Tit Ribat",
   "lat": 33.1950547,
   "lng": -8.587473,
   "coordonnees": {
    "lat": 33.1950547,
    "lng": -8.587473
   },
   "categorie": "Histoire",
   "mapsUrl": "https://maps.google.com/?q=33.1950547,-8.587473",
   "source": "osm"
  },
  {
   "nom": "Bab El Bhar",
   "lat": 33.1984573,
   "lng": -8.5897464,
   "coordonnees": {
    "lat": 33.1984573,
    "lng": -8.5897464
   },
   "categorie": "Histoire",
   "mapsUrl": "https://maps.google.com/?q=33.1984573,-8.5897464",
   "source": "osm"
  },
  {
   "nom": "Bab Asfi",
   "lat": 33.1945334,
   "lng": -8.5928498,
   "coordonnees": {
    "lat": 33.1945334,
    "lng": -8.5928498
   },
   "categorie": "Histoire",
   "mapsUrl": "https://maps.google.com/?q=33.1945334,-8.5928498",
   "source": "osm"
  }
 ],
 "imageCredit": "Wikimedia Commons",
 "osmEnriched": true,
 "osmEnrichedAt": "2026-07-15",
 "description_en": "El Jadida, in Morocco, is a halal-friendly destination with a Halal Trust Score of 4.5/5. Muslim travelers will find 3 halal restaurants listed, 1 mosques, real-time prayer times and the Qibla direction — a complete guide to travel with peace of mind.",
 "metaDescription_en": "Halal guide to El Jadida: 3 halal restaurants listed, 1 mosques, prayer times and tips for Muslim travelers. Halal Trust Score 4.5/5.",
 "nom_en": "El Jadida",
 "boucheries": [],
 "dataPurgedAt": "2026-07-15",
 "googleBakedAt": "2026-07-15"
}