{
  "slug": "florence",
  "nom": "Florence",
  "pays": "Italie",
  "pays_slug": "italie",
  "continent": "Europe",
  "region": "Italie",
  "coordonnees": {
    "lat": 43.7696,
    "lng": 11.2558
  },
  "codeISO": "IT",
  "score_halal": 3.1,
  "halalScore": 6.2,
  "villeNonMusulmane": true,
  "description": "Berceau de la Renaissance. Quelques adresses halal et kebabs certifiés autour de la gare ; communauté musulmane présente.",
  "metaDescription": "Berceau de la Renaissance. Quelques adresses halal et kebabs certifiés autour de la gare ; communauté musulmane présente.",
  "image": "https://upload.wikimedia.org/wikipedia/commons/1/1d/FlorenceSkyline.jpg",
  "image_hero": "https://upload.wikimedia.org/wikipedia/commons/1/1d/FlorenceSkyline.jpg",
  "imageCredit": "Wikimedia Commons",
  "statistiques": {
    "restaurants_halal": 37,
    "mosquees": 11,
    "hotels": 120
  },
  "infoPratique": {
    "transport": "Accessible par avion et transports en commun locaux.",
    "meilleureEpoque": "Printemps et automne (climat tempéré).",
    "conseilHalal": "Ville non-musulmane : repérez les restaurants halal certifiés et les mosquées via l'application avant votre visite."
  },
  "tags": [
    "halal",
    "ville non-musulmane",
    "europe"
  ],
  "restaurants": [
    {
      "nom": "Madina",
      "type": "kebab",
      "priceRange": "€€",
      "mapsUrl": "https://maps.google.com/?q=43.7769777,11.2536835",
      "lat": 43.7769777,
      "lng": 11.2536835,
      "halalConfidence": "only",
      "source": "osm"
    },
    {
      "nom": "Crispy Chicken",
      "type": "Restaurant halal",
      "priceRange": "€€",
      "mapsUrl": "https://maps.google.com/?q=43.776181,11.2506123",
      "lat": 43.776181,
      "lng": 11.2506123,
      "halalConfidence": "yes",
      "source": "osm"
    },
    {
      "nom": "Santo Falafel",
      "type": "lebanese",
      "priceRange": "€€",
      "mapsUrl": "https://maps.google.com/?q=43.7678179,11.2454688",
      "lat": 43.7678179,
      "lng": 11.2454688,
      "halalConfidence": "yes",
      "source": "osm"
    },
    {
      "nom": "Asporto Halal",
      "type": "mediterranean",
      "priceRange": "€€",
      "mapsUrl": "https://maps.google.com/?q=43.773063,11.2449088",
      "lat": 43.773063,
      "lng": 11.2449088,
      "halalConfidence": "only",
      "source": "osm"
    },
    {
      "nom": "Antico Ristoro di Cambi",
      "type": "italian, regional",
      "priceRange": "€€",
      "mapsUrl": "https://maps.google.com/?q=43.7704199,11.2420415",
      "lat": 43.7704199,
      "lng": 11.2420415,
      "halalConfidence": "yes",
      "source": "osm"
    },
    {
      "nom": "Spizza",
      "type": "pizza",
      "priceRange": "€€",
      "mapsUrl": "https://maps.google.com/?q=43.7873185,11.2386076",
      "lat": 43.7873185,
      "lng": 11.2386076,
      "halalConfidence": "only",
      "source": "osm"
    },
    {
      "nom": "L’Aragosta",
      "type": "restaurant, kebab, italian, indian, turkish, grill",
      "priceRange": "€€",
      "mapsUrl": "https://maps.google.com/?q=43.7622422,11.1744706",
      "lat": 43.7622422,
      "lng": 11.1744706,
      "halalConfidence": "yes",
      "source": "osm"
    },
    {
      "nom": "THE KING RISTORANTE SCANDICCI",
      "type": "ristorante, kebab, indian, italian, turkish, fast food, grill, hookah bar, seafood, pakistani",
      "priceRange": "€€",
      "mapsUrl": "https://maps.google.com/?q=43.7622791,11.1743737",
      "lat": 43.7622791,
      "lng": 11.1743737,
      "halalConfidence": "yes",
      "source": "osm"
    },
    {
      "nom": "Ristorante Persiano Teheran",
      "type": "persian",
      "priceRange": "€€",
      "mapsUrl": "https://maps.google.com/?q=43.7709875,11.2560738",
      "lat": 43.7709875,
      "lng": 11.2560738,
      "halalConfidence": "likely",
      "source": "osm"
    },
    {
      "nom": "Paninoteca Kebab Babilonia",
      "type": "kebab, sandwich",
      "priceRange": "€€",
      "mapsUrl": "https://maps.google.com/?q=43.7685482,11.2572647",
      "lat": 43.7685482,
      "lng": 11.2572647,
      "halalConfidence": "likely",
      "source": "osm"
    },
    {
      "nom": "Mesopotamia",
      "type": "kebab",
      "priceRange": "€€",
      "mapsUrl": "https://maps.google.com/?q=43.7717496,11.2620852",
      "lat": 43.7717496,
      "lng": 11.2620852,
      "halalConfidence": "likely",
      "source": "osm"
    },
    {
      "nom": "Sraz",
      "type": "persian",
      "priceRange": "€€",
      "mapsUrl": "https://maps.google.com/?q=43.7696277,11.2642083",
      "lat": 43.7696277,
      "lng": 11.2642083,
      "halalConfidence": "likely",
      "source": "osm"
    },
    {
      "nom": "Newroz Kebab",
      "type": "kebab",
      "priceRange": "€€",
      "mapsUrl": "https://maps.google.com/?q=43.7758582,11.2527724",
      "lat": 43.7758582,
      "lng": 11.2527724,
      "halalConfidence": "likely",
      "source": "osm"
    },
    {
      "nom": "BD Halla",
      "type": "kebab",
      "priceRange": "€€",
      "mapsUrl": "https://maps.google.com/?q=43.7775498,11.2551385",
      "lat": 43.7775498,
      "lng": 11.2551385,
      "halalConfidence": "likely",
      "source": "osm"
    },
    {
      "nom": "Atomic Falafel",
      "type": "arab, mediterranean",
      "priceRange": "€€",
      "mapsUrl": "https://maps.google.com/?q=43.777511,11.2580046",
      "lat": 43.777511,
      "lng": 11.2580046,
      "halalConfidence": "likely",
      "source": "osm"
    },
    {
      "nom": "Ayasofya Istanbul",
      "type": "kebab",
      "priceRange": "€€",
      "mapsUrl": "https://maps.google.com/?q=43.7775926,11.2538647",
      "lat": 43.7775926,
      "lng": 11.2538647,
      "halalConfidence": "likely",
      "source": "osm"
    },
    {
      "nom": "Pitti Kebab",
      "type": "kebab",
      "priceRange": "€€",
      "mapsUrl": "https://maps.google.com/?q=43.7614139,11.2423594",
      "lat": 43.7614139,
      "lng": 11.2423594,
      "halalConfidence": "likely",
      "source": "osm"
    },
    {
      "nom": "Star Kebab",
      "type": "kebab",
      "priceRange": "€€",
      "mapsUrl": "https://maps.google.com/?q=43.7635396,11.2727486",
      "lat": 43.7635396,
      "lng": 11.2727486,
      "halalConfidence": "likely",
      "source": "osm"
    },
    {
      "nom": "Ualima",
      "type": "moroccan",
      "priceRange": "€€",
      "mapsUrl": "https://maps.google.com/?q=43.7833133,11.2581221",
      "lat": 43.7833133,
      "lng": 11.2581221,
      "halalConfidence": "likely",
      "source": "osm"
    },
    {
      "nom": "Halal Kabab",
      "type": "kebab",
      "priceRange": "€€",
      "mapsUrl": "https://maps.google.com/?q=43.7810145,11.2435861",
      "lat": 43.7810145,
      "lng": 11.2435861,
      "halalConfidence": "likely",
      "source": "osm"
    },
    {
      "nom": "Punjab Kebab",
      "type": "kebab",
      "priceRange": "€€",
      "mapsUrl": "https://maps.google.com/?q=43.7844096,11.2670946",
      "lat": 43.7844096,
      "lng": 11.2670946,
      "halalConfidence": "likely",
      "source": "osm"
    },
    {
      "nom": "Kasbah Bistrot",
      "type": "moroccan",
      "priceRange": "€€",
      "mapsUrl": "https://maps.google.com/?q=43.7729643,11.2253912",
      "lat": 43.7729643,
      "lng": 11.2253912,
      "halalConfidence": "likely",
      "source": "osm"
    },
    {
      "nom": "King Hamburger",
      "type": "kebab",
      "priceRange": "€€",
      "mapsUrl": "https://maps.google.com/?q=43.7898403,11.2425761",
      "lat": 43.7898403,
      "lng": 11.2425761,
      "halalConfidence": "likely",
      "source": "osm"
    },
    {
      "nom": "Jpc",
      "type": "kebab",
      "priceRange": "€€",
      "mapsUrl": "https://maps.google.com/?q=43.7856703,11.2323425",
      "lat": 43.7856703,
      "lng": 11.2323425,
      "halalConfidence": "likely",
      "source": "osm"
    },
    {
      "nom": "Kashmir Kebab",
      "type": "kebab",
      "priceRange": "€€",
      "mapsUrl": "https://maps.google.com/?q=43.7593131,11.2859176",
      "lat": 43.7593131,
      "lng": 11.2859176,
      "halalConfidence": "likely",
      "source": "osm"
    },
    {
      "nom": "Kashmir View",
      "type": "kebab, pizza",
      "priceRange": "€€",
      "mapsUrl": "https://maps.google.com/?q=43.7968425,11.2410128",
      "lat": 43.7968425,
      "lng": 11.2410128,
      "halalConfidence": "likely",
      "source": "osm"
    },
    {
      "nom": "FC",
      "type": "kebab",
      "priceRange": "€€",
      "mapsUrl": "https://maps.google.com/?q=43.8003572,11.2372302",
      "lat": 43.8003572,
      "lng": 11.2372302,
      "halalConfidence": "likely",
      "source": "osm"
    },
    {
      "nom": "Ali baba kebab bar",
      "type": "kebab",
      "priceRange": "€€",
      "mapsUrl": "https://maps.google.com/?q=43.775112,11.209945",
      "lat": 43.775112,
      "lng": 11.209945,
      "halalConfidence": "likely",
      "source": "osm"
    },
    {
      "nom": "Happy Kebab",
      "type": "kebab, falafel",
      "priceRange": "€€",
      "mapsUrl": "https://maps.google.com/?q=43.8009709,11.2385614",
      "lat": 43.8009709,
      "lng": 11.2385614,
      "halalConfidence": "likely",
      "source": "osm"
    },
    {
      "nom": "Hachmy tacos",
      "type": "sandwich, moroccan",
      "priceRange": "€€",
      "mapsUrl": "https://maps.google.com/?q=43.792311,11.2139547",
      "lat": 43.792311,
      "lng": 11.2139547,
      "halalConfidence": "likely",
      "source": "osm"
    },
    {
      "nom": "FC Kebab Pizza",
      "type": "kebab",
      "priceRange": "€€",
      "mapsUrl": "https://maps.google.com/?q=43.7782168,11.2024387",
      "lat": 43.7782168,
      "lng": 11.2024387,
      "halalConfidence": "likely",
      "source": "osm"
    },
    {
      "nom": "kebab Fiesole",
      "type": "kebab",
      "priceRange": "€€",
      "mapsUrl": "https://maps.google.com/?q=43.8070195,11.2947927",
      "lat": 43.8070195,
      "lng": 11.2947927,
      "halalConfidence": "likely",
      "source": "osm"
    },
    {
      "nom": "Bar Pizza Kebab",
      "type": "kebab, pizza",
      "priceRange": "€€",
      "mapsUrl": "https://maps.google.com/?q=43.7999341,11.1931604",
      "lat": 43.7999341,
      "lng": 11.1931604,
      "halalConfidence": "likely",
      "source": "osm"
    },
    {
      "nom": "Star",
      "type": "kebab",
      "priceRange": "€€",
      "mapsUrl": "https://maps.google.com/?q=43.7653587,11.1705872",
      "lat": 43.7653587,
      "lng": 11.1705872,
      "halalConfidence": "likely",
      "source": "osm"
    },
    {
      "nom": "Zuzu Pizza Kebab",
      "type": "kebab",
      "priceRange": "€€",
      "mapsUrl": "https://maps.google.com/?q=43.8336989,11.2007898",
      "lat": 43.8336989,
      "lng": 11.2007898,
      "halalConfidence": "likely",
      "source": "osm"
    },
    {
      "nom": "Mimi",
      "type": "kebab, pizza",
      "priceRange": "€€",
      "mapsUrl": "https://maps.google.com/?q=43.83377,11.200592",
      "lat": 43.83377,
      "lng": 11.200592,
      "halalConfidence": "likely",
      "source": "osm"
    }
  ],
  "hotels": [
    {
      "nom": "Hostel Veronique",
      "categorie": "Hôtel",
      "priceRange": "€€",
      "mapsUrl": "https://maps.google.com/?q=43.7702402,11.2550551",
      "lat": 43.7702402,
      "lng": 11.2550551,
      "halalFriendly": false,
      "bookingUrl": "https://maps.google.com/?q=43.7702402,11.2550551",
      "source": "osm"
    },
    {
      "nom": "Bronze Horse",
      "categorie": "Maison d'hôtes",
      "priceRange": "€€",
      "mapsUrl": "https://maps.google.com/?q=43.7701862,11.2567171",
      "lat": 43.7701862,
      "lng": 11.2567171,
      "halalFriendly": false,
      "bookingUrl": "https://maps.google.com/?q=43.7701862,11.2567171",
      "source": "osm"
    },
    {
      "nom": "Por Santa Maria",
      "categorie": "Hôtel",
      "priceRange": "€€",
      "mapsUrl": "https://maps.google.com/?q=43.7698358,11.2545678",
      "lat": 43.7698358,
      "lng": 11.2545678,
      "halalFriendly": false,
      "bookingUrl": "https://maps.google.com/?q=43.7698358,11.2545678",
      "source": "osm"
    },
    {
      "nom": "Piazza di San Firenze 3",
      "categorie": "Hôtel",
      "priceRange": "€€",
      "mapsUrl": "https://maps.google.com/?q=43.7701025,11.2569589",
      "lat": 43.7701025,
      "lng": 11.2569589,
      "halalFriendly": false,
      "bookingUrl": "https://www.sanfirenzesuites.com/",
      "source": "osm"
    },
    {
      "nom": "Il Gattopardo B&B",
      "categorie": "Maison d'hôtes",
      "priceRange": "€€",
      "mapsUrl": "https://maps.google.com/?q=43.7704631,11.2567985",
      "lat": 43.7704631,
      "lng": 11.2567985,
      "halalFriendly": false,
      "bookingUrl": "https://www.gattopardofirenze.it/",
      "source": "osm"
    },
    {
      "nom": "San Firenze Suites",
      "categorie": "Hôtel",
      "priceRange": "€€",
      "mapsUrl": "https://maps.google.com/?q=43.7700684,11.2573366",
      "lat": 43.7700684,
      "lng": 11.2573366,
      "halalFriendly": false,
      "bookingUrl": "https://maps.google.com/?q=43.7700684,11.2573366",
      "source": "osm"
    },
    {
      "nom": "Le stanze del David",
      "categorie": "Maison d'hôtes",
      "priceRange": "€€",
      "mapsUrl": "https://maps.google.com/?q=43.7708113,11.2558179",
      "lat": 43.7708113,
      "lng": 11.2558179,
      "halalFriendly": false,
      "bookingUrl": "https://www.stanzedeldavid.it/",
      "source": "osm"
    },
    {
      "nom": "Hotel Bernini",
      "categorie": "Hôtel",
      "priceRange": "€€",
      "mapsUrl": "https://maps.google.com/?q=43.7693614,11.2575861",
      "lat": 43.7693614,
      "lng": 11.2575861,
      "halalFriendly": false,
      "bookingUrl": "https://maps.google.com/?q=43.7693614,11.2575861",
      "source": "osm"
    },
    {
      "nom": "Hotel della Signoria",
      "categorie": "Hôtel",
      "priceRange": "€€",
      "mapsUrl": "https://maps.google.com/?q=43.7693026,11.2538719",
      "lat": 43.7693026,
      "lng": 11.2538719,
      "halalFriendly": false,
      "bookingUrl": "https://maps.google.com/?q=43.7693026,11.2538719",
      "source": "osm"
    },
    {
      "nom": "Relais Cavalcanti Guest House",
      "categorie": "Hôtel",
      "priceRange": "€€",
      "mapsUrl": "https://maps.google.com/?q=43.769919,11.2536657",
      "lat": 43.769919,
      "lng": 11.2536657,
      "halalFriendly": false,
      "bookingUrl": "https://www.relaiscavalcanti.com/",
      "source": "osm"
    },
    {
      "nom": "Hotel Pierre",
      "categorie": "Hôtel",
      "priceRange": "€€",
      "mapsUrl": "https://maps.google.com/?q=43.770519,11.253998",
      "lat": 43.770519,
      "lng": 11.253998,
      "halalFriendly": false,
      "bookingUrl": "https://maps.google.com/?q=43.770519,11.253998",
      "source": "osm"
    },
    {
      "nom": "Hotel Hermitage",
      "categorie": "Hôtel",
      "priceRange": "€€",
      "mapsUrl": "https://maps.google.com/?q=43.7684759,11.2539488",
      "lat": 43.7684759,
      "lng": 11.2539488,
      "halalFriendly": false,
      "bookingUrl": "https://maps.google.com/?q=43.7684759,11.2539488",
      "source": "osm"
    },
    {
      "nom": "Hotel degli Orafi",
      "categorie": "Hôtel",
      "priceRange": "€€",
      "mapsUrl": "https://maps.google.com/?q=43.7681139,11.2545178",
      "lat": 43.7681139,
      "lng": 11.2545178,
      "halalFriendly": false,
      "bookingUrl": "https://www.hoteldegliorafi.it/",
      "source": "osm"
    },
    {
      "nom": "Olimpia",
      "categorie": "Hôtel",
      "priceRange": "€€",
      "mapsUrl": "https://maps.google.com/?q=43.7710608,11.2542802",
      "lat": 43.7710608,
      "lng": 11.2542802,
      "halalFriendly": false,
      "bookingUrl": "https://maps.google.com/?q=43.7710608,11.2542802",
      "source": "osm"
    },
    {
      "nom": "Sani Tourist House",
      "categorie": "Maison d'hôtes",
      "priceRange": "€€",
      "mapsUrl": "https://maps.google.com/?q=43.7710917,11.257271",
      "lat": 43.7710917,
      "lng": 11.257271,
      "halalFriendly": false,
      "bookingUrl": "https://maps.google.com/?q=43.7710917,11.257271",
      "source": "osm"
    },
    {
      "nom": "BB Repubblica",
      "categorie": "Hôtel",
      "priceRange": "€€",
      "mapsUrl": "https://maps.google.com/?q=43.7710801,11.2542802",
      "lat": 43.7710801,
      "lng": 11.2542802,
      "halalFriendly": false,
      "bookingUrl": "https://maps.google.com/?q=43.7710801,11.2542802",
      "source": "osm"
    },
    {
      "nom": "Albergo Firenze",
      "categorie": "Hôtel",
      "priceRange": "€€€",
      "score": 3,
      "mapsUrl": "https://maps.google.com/?q=43.7713211,11.2567268",
      "lat": 43.7713211,
      "lng": 11.2567268,
      "halalFriendly": false,
      "bookingUrl": "https://www.hotelfirenze-fi.it/it/",
      "source": "osm"
    },
    {
      "nom": "Grand Hotel Cavour",
      "categorie": "Hôtel",
      "priceRange": "€€",
      "mapsUrl": "https://maps.google.com/?q=43.7711053,11.2577948",
      "lat": 43.7711053,
      "lng": 11.2577948,
      "halalFriendly": false,
      "bookingUrl": "https://www.hotelcavour.com/",
      "source": "osm"
    },
    {
      "nom": "B&B Il Bargello",
      "categorie": "Maison d'hôtes",
      "priceRange": "€€",
      "mapsUrl": "https://maps.google.com/?q=43.770883,11.2581325",
      "lat": 43.770883,
      "lng": 11.2581325,
      "halalFriendly": false,
      "bookingUrl": "https://maps.google.com/?q=43.770883,11.2581325",
      "source": "osm"
    },
    {
      "nom": "Hotel Torre Guelfa",
      "categorie": "Hôtel",
      "priceRange": "€€",
      "mapsUrl": "https://maps.google.com/?q=43.7692561,11.2529017",
      "lat": 43.7692561,
      "lng": 11.2529017,
      "halalFriendly": false,
      "bookingUrl": "https://maps.google.com/?q=43.7692561,11.2529017",
      "source": "osm"
    },
    {
      "nom": "Hotel Brunelleschi Firenze",
      "categorie": "Hôtel",
      "priceRange": "€€",
      "mapsUrl": "https://maps.google.com/?q=43.7717261,11.2558767",
      "lat": 43.7717261,
      "lng": 11.2558767,
      "halalFriendly": false,
      "bookingUrl": "https://maps.google.com/?q=43.7717261,11.2558767",
      "source": "osm"
    },
    {
      "nom": "Hotel Davanzati",
      "categorie": "Hôtel",
      "priceRange": "€€€",
      "score": 3,
      "mapsUrl": "https://maps.google.com/?q=43.77016,11.2529479",
      "lat": 43.77016,
      "lng": 11.2529479,
      "halalFriendly": false,
      "bookingUrl": "https://www.hoteldavanzati.it",
      "source": "osm"
    },
    {
      "nom": "Portrait Firenze",
      "categorie": "Hôtel",
      "priceRange": "€€",
      "mapsUrl": "https://maps.google.com/?q=43.7688217,11.2528604",
      "lat": 43.7688217,
      "lng": 11.2528604,
      "halalFriendly": false,
      "bookingUrl": "https://maps.google.com/?q=43.7688217,11.2528604",
      "source": "osm"
    },
    {
      "nom": "Savoy",
      "categorie": "Hôtel",
      "priceRange": "€€€€",
      "score": 5,
      "mapsUrl": "https://maps.google.com/?q=43.7717214,11.2545542",
      "lat": 43.7717214,
      "lng": 11.2545542,
      "halalFriendly": false,
      "bookingUrl": "http://www.hotelsavoy.it/",
      "source": "osm"
    },
    {
      "nom": "Hotel Alessandra",
      "categorie": "Hôtel",
      "priceRange": "€€",
      "mapsUrl": "https://maps.google.com/?q=43.76927,11.2525587",
      "lat": 43.76927,
      "lng": 11.2525587,
      "halalFriendly": false,
      "bookingUrl": "https://maps.google.com/?q=43.76927,11.2525587",
      "source": "osm"
    },
    {
      "nom": "Medici",
      "categorie": "Hôtel",
      "priceRange": "€€",
      "mapsUrl": "https://maps.google.com/?q=43.7720158,11.2548755",
      "lat": 43.7720158,
      "lng": 11.2548755,
      "halalFriendly": false,
      "bookingUrl": "https://www.hotelmedici.it/",
      "source": "osm"
    },
    {
      "nom": "Santa Croce",
      "categorie": "Hôtel",
      "priceRange": "€€",
      "mapsUrl": "https://maps.google.com/?q=43.7692594,11.2592579",
      "lat": 43.7692594,
      "lng": 11.2592579,
      "halalFriendly": false,
      "bookingUrl": "https://maps.google.com/?q=43.7692594,11.2592579",
      "source": "osm"
    },
    {
      "nom": "Hotel De Lanzi",
      "categorie": "Hôtel",
      "priceRange": "€€",
      "mapsUrl": "https://maps.google.com/?q=43.7721856,11.2557648",
      "lat": 43.7721856,
      "lng": 11.2557648,
      "halalFriendly": false,
      "bookingUrl": "https://maps.google.com/?q=43.7721856,11.2557648",
      "source": "osm"
    },
    {
      "nom": "Hotel Benivieni",
      "categorie": "Hôtel",
      "priceRange": "€€€",
      "score": 3,
      "mapsUrl": "https://maps.google.com/?q=43.7721603,11.2564079",
      "lat": 43.7721603,
      "lng": 11.2564079,
      "halalFriendly": false,
      "bookingUrl": "https://hotelbenivieni.it/",
      "source": "osm"
    },
    {
      "nom": "Pendini",
      "categorie": "Hôtel",
      "priceRange": "€€",
      "mapsUrl": "https://maps.google.com/?q=43.7715204,11.2533292",
      "lat": 43.7715204,
      "lng": 11.2533292,
      "halalFriendly": false,
      "bookingUrl": "https://maps.google.com/?q=43.7715204,11.2533292",
      "source": "osm"
    },
    {
      "nom": "Albergo Porta Rossa",
      "categorie": "Hôtel",
      "priceRange": "€€",
      "mapsUrl": "https://maps.google.com/?q=43.7702114,11.2520253",
      "lat": 43.7702114,
      "lng": 11.2520253,
      "halalFriendly": false,
      "bookingUrl": "https://maps.google.com/?q=43.7702114,11.2520253",
      "source": "osm"
    },
    {
      "nom": "Hotel Bavaria",
      "categorie": "Hôtel",
      "priceRange": "€€",
      "mapsUrl": "https://maps.google.com/?q=43.7715589,11.2586824",
      "lat": 43.7715589,
      "lng": 11.2586824,
      "halalFriendly": false,
      "bookingUrl": "https://maps.google.com/?q=43.7715589,11.2586824",
      "source": "osm"
    },
    {
      "nom": "Residenza La Musa Amacord",
      "categorie": "Hôtel",
      "priceRange": "€€",
      "mapsUrl": "https://maps.google.com/?q=43.7674661,11.2584569",
      "lat": 43.7674661,
      "lng": 11.2584569,
      "halalFriendly": false,
      "bookingUrl": "https://residenzalamusa.it/it/index.html",
      "source": "osm"
    },
    {
      "nom": "Hotel Balestri",
      "categorie": "Hôtel",
      "priceRange": "€€",
      "mapsUrl": "https://maps.google.com/?q=43.7671855,11.2579712",
      "lat": 43.7671855,
      "lng": 11.2579712,
      "halalFriendly": false,
      "bookingUrl": "https://maps.google.com/?q=43.7671855,11.2579712",
      "source": "osm"
    },
    {
      "nom": "Rodo Hotel",
      "categorie": "Hôtel",
      "priceRange": "€€",
      "mapsUrl": "https://maps.google.com/?q=43.7724691,11.2552872",
      "lat": 43.7724691,
      "lng": 11.2552872,
      "halalFriendly": false,
      "bookingUrl": "https://maps.google.com/?q=43.7724691,11.2552872",
      "source": "osm"
    },
    {
      "nom": "Hotel Costantini",
      "categorie": "Hôtel",
      "priceRange": "€€",
      "mapsUrl": "https://maps.google.com/?q=43.7724734,11.2552609",
      "lat": 43.7724734,
      "lng": 11.2552609,
      "halalFriendly": false,
      "bookingUrl": "https://maps.google.com/?q=43.7724734,11.2552609",
      "source": "osm"
    },
    {
      "nom": "Golden Tower",
      "categorie": "Hôtel",
      "priceRange": "€€€€",
      "score": 5,
      "mapsUrl": "https://maps.google.com/?q=43.7706328,11.252031",
      "lat": 43.7706328,
      "lng": 11.252031,
      "halalFriendly": false,
      "bookingUrl": "https://www.goldentowerhotel.it/",
      "source": "osm"
    },
    {
      "nom": "Residenza Gambrinus",
      "categorie": "Maison d'hôtes",
      "priceRange": "€€",
      "mapsUrl": "https://maps.google.com/?q=43.7720202,11.2534954",
      "lat": 43.7720202,
      "lng": 11.2534954,
      "halalFriendly": false,
      "bookingUrl": "https://www.residenzagambrinus.it/",
      "source": "osm"
    },
    {
      "nom": "Hotel Bigallo",
      "categorie": "Hôtel",
      "priceRange": "€€",
      "mapsUrl": "https://maps.google.com/?q=43.7725346,11.2552224",
      "lat": 43.7725346,
      "lng": 11.2552224,
      "halalFriendly": false,
      "bookingUrl": "https://maps.google.com/?q=43.7725346,11.2552224",
      "source": "osm"
    },
    {
      "nom": "Berchielli",
      "categorie": "Hôtel",
      "priceRange": "€€",
      "mapsUrl": "https://maps.google.com/?q=43.7691327,11.2516971",
      "lat": 43.7691327,
      "lng": 11.2516971,
      "halalFriendly": false,
      "bookingUrl": "https://maps.google.com/?q=43.7691327,11.2516971",
      "source": "osm"
    },
    {
      "nom": "Hotel Cestelli",
      "categorie": "Hôtel",
      "priceRange": "€€",
      "mapsUrl": "https://maps.google.com/?q=43.7695718,11.2515943",
      "lat": 43.7695718,
      "lng": 11.2515943,
      "halalFriendly": false,
      "bookingUrl": "https://maps.google.com/?q=43.7695718,11.2515943",
      "source": "osm"
    },
    {
      "nom": "Hotel Fiorentino",
      "categorie": "Hôtel",
      "priceRange": "€€",
      "mapsUrl": "https://maps.google.com/?q=43.7689722,11.2599683",
      "lat": 43.7689722,
      "lng": 11.2599683,
      "halalFriendly": false,
      "bookingUrl": "https://maps.google.com/?q=43.7689722,11.2599683",
      "source": "osm"
    },
    {
      "nom": "Residenza d'epoca Pagliano",
      "categorie": "Hôtel",
      "priceRange": "€€",
      "mapsUrl": "https://maps.google.com/?q=43.7709321,11.2596463",
      "lat": 43.7709321,
      "lng": 11.2596463,
      "halalFriendly": false,
      "bookingUrl": "https://maps.google.com/?q=43.7709321,11.2596463",
      "source": "osm"
    },
    {
      "nom": "Residenza d'epoca Numeroventi",
      "categorie": "Hôtel",
      "priceRange": "€€",
      "mapsUrl": "https://maps.google.com/?q=43.7709315,11.2596769",
      "lat": 43.7709315,
      "lng": 11.2596769,
      "halalFriendly": false,
      "bookingUrl": "https://maps.google.com/?q=43.7709315,11.2596769",
      "source": "osm"
    },
    {
      "nom": "La residenza del Proconsolo",
      "categorie": "Appartement",
      "priceRange": "€€",
      "mapsUrl": "https://maps.google.com/?q=43.7722874,11.2579458",
      "lat": 43.7722874,
      "lng": 11.2579458,
      "halalFriendly": false,
      "bookingUrl": "https://maps.google.com/?q=43.7722874,11.2579458",
      "source": "osm"
    },
    {
      "nom": "Strozzi Palace Hotel",
      "categorie": "Hôtel",
      "priceRange": "€€",
      "mapsUrl": "https://maps.google.com/?q=43.7719433,11.2528969",
      "lat": 43.7719433,
      "lng": 11.2528969,
      "halalFriendly": false,
      "bookingUrl": "https://maps.google.com/?q=43.7719433,11.2528969",
      "source": "osm"
    },
    {
      "nom": "Il Salotto di Firenze",
      "categorie": "Hôtel",
      "priceRange": "€€",
      "mapsUrl": "https://maps.google.com/?q=43.772641,11.2545579",
      "lat": 43.772641,
      "lng": 11.2545579,
      "halalFriendly": false,
      "bookingUrl": "https://maps.google.com/?q=43.772641,11.2545579",
      "source": "osm"
    },
    {
      "nom": "Hotel Pitti Palace",
      "categorie": "Hôtel",
      "priceRange": "€€",
      "mapsUrl": "https://maps.google.com/?q=43.7673999,11.2525885",
      "lat": 43.7673999,
      "lng": 11.2525885,
      "halalFriendly": false,
      "bookingUrl": "https://maps.google.com/?q=43.7673999,11.2525885",
      "source": "osm"
    },
    {
      "nom": "Helvetia & Bristol",
      "categorie": "Hôtel",
      "priceRange": "€€€€",
      "score": 5,
      "mapsUrl": "https://maps.google.com/?q=43.7717275,11.2522361",
      "lat": 43.7717275,
      "lng": 11.2522361,
      "halalFriendly": false,
      "bookingUrl": "https://collezione.starhotels.com/it/i-nostri-hotel/helvetia-e-bristol-firenze/?gclid=CjwKCAjws8yUBhA1EiwAi_tpEXlIQX1ARDiTMa2KXPXuj7Me-00hzpSpQ0_FHif4Ajsw84vO5h7tXhoCviEQAvD_BwE",
      "source": "osm"
    },
    {
      "nom": "Milu Hotel",
      "categorie": "Hôtel",
      "priceRange": "€€",
      "mapsUrl": "https://maps.google.com/?q=43.7708573,11.2514571",
      "lat": 43.7708573,
      "lng": 11.2514571,
      "halalFriendly": false,
      "bookingUrl": "https://maps.google.com/?q=43.7708573,11.2514571",
      "source": "osm"
    },
    {
      "nom": "Tornabuoni Beacci",
      "categorie": "Hôtel",
      "priceRange": "€€€€",
      "score": 5,
      "mapsUrl": "https://maps.google.com/?q=43.7704009,11.2512046",
      "lat": 43.7704009,
      "lng": 11.2512046,
      "halalFriendly": false,
      "bookingUrl": "https://www.hyatt.com/en-US/hotel/italy/il-tornabuoni/flrub",
      "source": "osm"
    },
    {
      "nom": "Hotel Lungarno",
      "categorie": "Hôtel",
      "priceRange": "€€€€",
      "score": 4,
      "mapsUrl": "https://maps.google.com/?q=43.7679262,11.2515789",
      "lat": 43.7679262,
      "lng": 11.2515789,
      "halalFriendly": false,
      "bookingUrl": "https://maps.google.com/?q=43.7679262,11.2515789",
      "source": "osm"
    },
    {
      "nom": "Hotel Scoti",
      "categorie": "Hôtel",
      "priceRange": "€€",
      "mapsUrl": "https://maps.google.com/?q=43.7708537,11.2512607",
      "lat": 43.7708537,
      "lng": 11.2512607,
      "halalFriendly": false,
      "bookingUrl": "http://www.hotelscoti.com",
      "source": "osm"
    },
    {
      "nom": "Antica Torre di Via Tornabuoni",
      "categorie": "Hôtel",
      "priceRange": "€€",
      "mapsUrl": "https://maps.google.com/?q=43.7698636,11.2507644",
      "lat": 43.7698636,
      "lng": 11.2507644,
      "halalFriendly": false,
      "bookingUrl": "https://maps.google.com/?q=43.7698636,11.2507644",
      "source": "osm"
    },
    {
      "nom": "Capri Moon",
      "categorie": "Hôtel",
      "priceRange": "€€",
      "mapsUrl": "https://maps.google.com/?q=43.7713689,11.2512928",
      "lat": 43.7713689,
      "lng": 11.2512928,
      "halalFriendly": false,
      "bookingUrl": "https://maps.google.com/?q=43.7713689,11.2512928",
      "source": "osm"
    },
    {
      "nom": "Room Mate Isabella Hotel",
      "categorie": "Hôtel",
      "priceRange": "€€€€",
      "score": 4,
      "mapsUrl": "https://maps.google.com/?q=43.7713774,11.251249",
      "lat": 43.7713774,
      "lng": 11.251249,
      "halalFriendly": false,
      "bookingUrl": "https://room-matehotels.com/en/isabella/",
      "source": "osm"
    },
    {
      "nom": "B&B Relais del Duomo",
      "categorie": "Hôtel",
      "priceRange": "€€",
      "mapsUrl": "https://maps.google.com/?q=43.7730682,11.253828",
      "lat": 43.7730682,
      "lng": 11.253828,
      "halalFriendly": false,
      "bookingUrl": "https://www.relaisdelduomo.it",
      "source": "osm"
    },
    {
      "nom": "Riverbank's",
      "categorie": "Hôtel",
      "priceRange": "€€",
      "mapsUrl": "https://maps.google.com/?q=43.7669202,11.2597708",
      "lat": 43.7669202,
      "lng": 11.2597708,
      "halalFriendly": false,
      "bookingUrl": "https://maps.google.com/?q=43.7669202,11.2597708",
      "source": "osm"
    },
    {
      "nom": "Hotel Duomo",
      "categorie": "Hôtel",
      "priceRange": "€€€",
      "score": 3,
      "mapsUrl": "https://maps.google.com/?q=43.7735405,11.2563519",
      "lat": 43.7735405,
      "lng": 11.2563519,
      "halalFriendly": false,
      "bookingUrl": "https://maps.google.com/?q=43.7735405,11.2563519",
      "source": "osm"
    },
    {
      "nom": "B&B A Teatro",
      "categorie": "Hôtel",
      "priceRange": "€€",
      "mapsUrl": "https://maps.google.com/?q=43.7698922,11.2613435",
      "lat": 43.7698922,
      "lng": 11.2613435,
      "halalFriendly": false,
      "bookingUrl": "https://maps.google.com/?q=43.7698922,11.2613435",
      "source": "osm"
    },
    {
      "nom": "Hotel Perseo",
      "categorie": "Hôtel",
      "priceRange": "€€",
      "mapsUrl": "https://maps.google.com/?q=43.7733743,11.2536136",
      "lat": 43.7733743,
      "lng": 11.2536136,
      "halalFriendly": false,
      "bookingUrl": "https://maps.google.com/?q=43.7733743,11.2536136",
      "source": "osm"
    },
    {
      "nom": "Hotel Dali",
      "categorie": "Hôtel",
      "priceRange": "€€",
      "mapsUrl": "https://maps.google.com/?q=43.7720526,11.2605394",
      "lat": 43.7720526,
      "lng": 11.2605394,
      "halalFriendly": false,
      "bookingUrl": "https://www.hoteldali.com/",
      "source": "osm"
    },
    {
      "nom": "Hotel la Scaletta",
      "categorie": "Hôtel",
      "priceRange": "€€",
      "mapsUrl": "https://maps.google.com/?q=43.7667694,11.2514591",
      "lat": 43.7667694,
      "lng": 11.2514591,
      "halalFriendly": false,
      "bookingUrl": "https://www.hotellascaletta.it/",
      "source": "osm"
    },
    {
      "nom": "Hotel de la Ville",
      "categorie": "Hôtel",
      "priceRange": "€€",
      "mapsUrl": "https://maps.google.com/?q=43.7723275,11.2512277",
      "lat": 43.7723275,
      "lng": 11.2512277,
      "halalFriendly": false,
      "bookingUrl": "https://maps.google.com/?q=43.7723275,11.2512277",
      "source": "osm"
    },
    {
      "nom": "Residenza d'epoca San Jacopo",
      "categorie": "Maison d'hôtes",
      "priceRange": "€€",
      "mapsUrl": "https://maps.google.com/?q=43.7680932,11.2500591",
      "lat": 43.7680932,
      "lng": 11.2500591,
      "halalFriendly": false,
      "bookingUrl": "https://maps.google.com/?q=43.7680932,11.2500591",
      "source": "osm"
    },
    {
      "nom": "Tourist House Ghiberti",
      "categorie": "Maison d'hôtes",
      "priceRange": "€€",
      "mapsUrl": "https://maps.google.com/?q=43.7732716,11.2592191",
      "lat": 43.7732716,
      "lng": 11.2592191,
      "halalFriendly": false,
      "bookingUrl": "https://www.touristhouseghiberti.com/",
      "source": "osm"
    },
    {
      "nom": "Hotel Laurus al Duomo",
      "categorie": "Hôtel",
      "priceRange": "€€",
      "mapsUrl": "https://maps.google.com/?q=43.773518,11.2526825",
      "lat": 43.773518,
      "lng": 11.2526825,
      "halalFriendly": false,
      "bookingUrl": "https://maps.google.com/?q=43.773518,11.2526825",
      "source": "osm"
    },
    {
      "nom": "Air BnB",
      "categorie": "Hôtel",
      "priceRange": "€€",
      "mapsUrl": "https://maps.google.com/?q=43.7737198,11.2583787",
      "lat": 43.7737198,
      "lng": 11.2583787,
      "halalFriendly": false,
      "bookingUrl": "https://maps.google.com/?q=43.7737198,11.2583787",
      "source": "osm"
    },
    {
      "nom": "firenze rooms cathedral",
      "categorie": "Auberge",
      "priceRange": "€€",
      "mapsUrl": "https://maps.google.com/?q=43.7741584,11.2555195",
      "lat": 43.7741584,
      "lng": 11.2555195,
      "halalFriendly": false,
      "bookingUrl": "https://firenzeroomscathedral.com/",
      "source": "osm"
    },
    {
      "nom": "Academy Hostel",
      "categorie": "Auberge",
      "priceRange": "€€",
      "mapsUrl": "https://maps.google.com/?q=43.7742004,11.2564802",
      "lat": 43.7742004,
      "lng": 11.2564802,
      "halalFriendly": false,
      "bookingUrl": "http://www.academyhostel.eu",
      "source": "osm"
    },
    {
      "nom": "Hotel Toscana",
      "categorie": "Hôtel",
      "priceRange": "€€",
      "mapsUrl": "https://maps.google.com/?q=43.772118,11.250388",
      "lat": 43.772118,
      "lng": 11.250388,
      "halalFriendly": false,
      "bookingUrl": "https://maps.google.com/?q=43.772118,11.250388",
      "source": "osm"
    },
    {
      "nom": "Hotel Cerretani",
      "categorie": "Hôtel",
      "priceRange": "€€",
      "mapsUrl": "https://maps.google.com/?q=43.7735187,11.2523174",
      "lat": 43.7735187,
      "lng": 11.2523174,
      "halalFriendly": false,
      "bookingUrl": "https://maps.google.com/?q=43.7735187,11.2523174",
      "source": "osm"
    },
    {
      "nom": "Hotel Giappone",
      "categorie": "Hôtel",
      "priceRange": "€",
      "score": 1,
      "mapsUrl": "https://maps.google.com/?q=43.7733521,11.2519508",
      "lat": 43.7733521,
      "lng": 11.2519508,
      "halalFriendly": false,
      "bookingUrl": "https://maps.google.com/?q=43.7733521,11.2519508",
      "source": "osm"
    },
    {
      "nom": "Hotel Centrale",
      "categorie": "Hôtel",
      "priceRange": "€€",
      "mapsUrl": "https://maps.google.com/?q=43.773902,11.2530704",
      "lat": 43.773902,
      "lng": 11.2530704,
      "halalFriendly": false,
      "bookingUrl": "https://www.hotelcentralefirenze.it/",
      "source": "osm"
    },
    {
      "nom": "Nice Airbnb near duomo",
      "categorie": "Appartement",
      "priceRange": "€€",
      "mapsUrl": "https://maps.google.com/?q=43.7742953,11.2547924",
      "lat": 43.7742953,
      "lng": 11.2547924,
      "halalFriendly": false,
      "bookingUrl": "https://maps.google.com/?q=43.7742953,11.2547924",
      "source": "osm"
    },
    {
      "nom": "The Frame Hotel",
      "categorie": "Hôtel",
      "priceRange": "€€€€",
      "score": 4,
      "mapsUrl": "https://maps.google.com/?q=43.7735966,11.2522219",
      "lat": 43.7735966,
      "lng": 11.2522219,
      "halalFriendly": false,
      "bookingUrl": "https://maps.google.com/?q=43.7735966,11.2522219",
      "source": "osm"
    },
    {
      "nom": "Palazzo Firence by Baglioni Hotels & Resorts",
      "categorie": "Hôtel",
      "priceRange": "€€€€",
      "score": 5,
      "mapsUrl": "https://maps.google.com/?q=43.7699337,11.2623755",
      "lat": 43.7699337,
      "lng": 11.2623755,
      "halalFriendly": false,
      "bookingUrl": "https://florence.baglionihotels.com/",
      "source": "osm"
    },
    {
      "nom": "Leonardo House",
      "categorie": "Auberge",
      "priceRange": "€€",
      "mapsUrl": "https://maps.google.com/?q=43.7729725,11.2511429",
      "lat": 43.7729725,
      "lng": 11.2511429,
      "halalFriendly": false,
      "bookingUrl": "https://leonardohouse.weebly.com",
      "source": "osm"
    },
    {
      "nom": "Pensione Canada",
      "categorie": "Hôtel",
      "priceRange": "€€",
      "mapsUrl": "https://maps.google.com/?q=43.7744356,11.2550135",
      "lat": 43.7744356,
      "lng": 11.2550135,
      "halalFriendly": false,
      "bookingUrl": "https://maps.google.com/?q=43.7744356,11.2550135",
      "source": "osm"
    },
    {
      "nom": "Hotel Balcony",
      "categorie": "Hôtel",
      "priceRange": "€€",
      "mapsUrl": "https://maps.google.com/?q=43.77338,11.2514211",
      "lat": 43.77338,
      "lng": 11.2514211,
      "halalFriendly": false,
      "bookingUrl": "https://maps.google.com/?q=43.77338,11.2514211",
      "source": "osm"
    },
    {
      "nom": "Paris",
      "categorie": "Hôtel",
      "priceRange": "€€€",
      "score": 3,
      "mapsUrl": "https://maps.google.com/?q=43.7735023,11.2514106",
      "lat": 43.7735023,
      "lng": 11.2514106,
      "halalFriendly": false,
      "bookingUrl": "https://www.parishotel.it/index-it.php",
      "source": "osm"
    },
    {
      "nom": "Firenze Number Nine Wellness Hotel",
      "categorie": "Hôtel",
      "priceRange": "€€",
      "mapsUrl": "https://maps.google.com/?q=43.774333,11.2530999",
      "lat": 43.774333,
      "lng": 11.2530999,
      "halalFriendly": false,
      "bookingUrl": "https://www.firenzenumbernine.com/",
      "source": "osm"
    },
    {
      "nom": "Old bridge Apartment",
      "categorie": "Hôtel",
      "priceRange": "€€",
      "mapsUrl": "https://maps.google.com/?q=43.7666632,11.2499165",
      "lat": 43.7666632,
      "lng": 11.2499165,
      "halalFriendly": false,
      "bookingUrl": "https://maps.google.com/?q=43.7666632,11.2499165",
      "source": "osm"
    },
    {
      "nom": "Florence Experience",
      "categorie": "Maison d'hôtes",
      "priceRange": "€€",
      "mapsUrl": "https://maps.google.com/?q=43.767344,11.2493524",
      "lat": 43.767344,
      "lng": 11.2493524,
      "halalFriendly": false,
      "bookingUrl": "https://maps.google.com/?q=43.767344,11.2493524",
      "source": "osm"
    },
    {
      "nom": "La Casa di Maria",
      "categorie": "Hôtel",
      "priceRange": "€€",
      "mapsUrl": "https://maps.google.com/?q=43.7704846,11.2628734",
      "lat": 43.7704846,
      "lng": 11.2628734,
      "halalFriendly": false,
      "bookingUrl": "https://maps.google.com/?q=43.7704846,11.2628734",
      "source": "osm"
    },
    {
      "nom": "Hotel Fenice Palace",
      "categorie": "Hôtel",
      "priceRange": "€€€€",
      "score": 4,
      "mapsUrl": "https://maps.google.com/?q=43.7747923,11.2561124",
      "lat": 43.7747923,
      "lng": 11.2561124,
      "halalFriendly": false,
      "bookingUrl": "https://maps.google.com/?q=43.7747923,11.2561124",
      "source": "osm"
    },
    {
      "nom": "piccola piazza",
      "categorie": "Hôtel",
      "priceRange": "€€",
      "mapsUrl": "https://maps.google.com/?q=43.7665296,11.2499726",
      "lat": 43.7665296,
      "lng": 11.2499726,
      "halalFriendly": false,
      "bookingUrl": "https://maps.google.com/?q=43.7665296,11.2499726",
      "source": "osm"
    },
    {
      "nom": "Hotel Cardinal",
      "categorie": "Hôtel",
      "priceRange": "€€",
      "mapsUrl": "https://maps.google.com/?q=43.7722097,11.2620507",
      "lat": 43.7722097,
      "lng": 11.2620507,
      "halalFriendly": false,
      "bookingUrl": "https://www.hotelcardinalflorence.com",
      "source": "osm"
    },
    {
      "nom": "Toscanelli Residenza d'Epoca",
      "categorie": "Hôtel",
      "priceRange": "€€",
      "mapsUrl": "https://maps.google.com/?q=43.7661172,11.2501487",
      "lat": 43.7661172,
      "lng": 11.2501487,
      "halalFriendly": false,
      "bookingUrl": "https://residenzatoscanelli.com/",
      "source": "osm"
    },
    {
      "nom": "Nizza",
      "categorie": "Hôtel",
      "priceRange": "€€€",
      "score": 3,
      "mapsUrl": "https://maps.google.com/?q=43.7738073,11.2509736",
      "lat": 43.7738073,
      "lng": 11.2509736,
      "halalFriendly": false,
      "bookingUrl": "https://maps.google.com/?q=43.7738073,11.2509736",
      "source": "osm"
    },
    {
      "nom": "Hotel Roma",
      "categorie": "Hôtel",
      "priceRange": "€€€€",
      "score": 4,
      "mapsUrl": "https://maps.google.com/?q=43.7728067,11.249644",
      "lat": 43.7728067,
      "lng": 11.249644,
      "halalFriendly": false,
      "bookingUrl": "https://www.hotelromaflorence.com/",
      "source": "osm"
    },
    {
      "nom": "Residenza Castiglioni",
      "categorie": "Hôtel",
      "priceRange": "€€",
      "mapsUrl": "https://maps.google.com/?q=43.7743844,11.2520324",
      "lat": 43.7743844,
      "lng": 11.2520324,
      "halalFriendly": false,
      "bookingUrl": "https://maps.google.com/?q=43.7743844,11.2520324",
      "source": "osm"
    },
    {
      "nom": "Hotel Burchianti",
      "categorie": "Hôtel",
      "priceRange": "€€",
      "mapsUrl": "https://maps.google.com/?q=43.7743796,11.2520083",
      "lat": 43.7743796,
      "lng": 11.2520083,
      "halalFriendly": false,
      "bookingUrl": "http://hotelburchianti.it",
      "source": "osm"
    },
    {
      "nom": "Ottaviani Terrace",
      "categorie": "Hôtel",
      "priceRange": "€€",
      "mapsUrl": "https://maps.google.com/?q=43.7725891,11.2493921",
      "lat": 43.7725891,
      "lng": 11.2493921,
      "halalFriendly": false,
      "bookingUrl": "https://maps.google.com/?q=43.7725891,11.2493921",
      "source": "osm"
    },
    {
      "nom": "Tivoli Palazzo Gaddi",
      "categorie": "Hôtel",
      "priceRange": "€€€€",
      "score": 5,
      "mapsUrl": "https://maps.google.com/?q=43.774188,11.2515486",
      "lat": 43.774188,
      "lng": 11.2515486,
      "halalFriendly": false,
      "bookingUrl": "https://maps.google.com/?q=43.774188,11.2515486",
      "source": "osm"
    },
    {
      "nom": "Hotel Aldobrandini",
      "categorie": "Hôtel",
      "priceRange": "€€",
      "mapsUrl": "https://maps.google.com/?q=43.7746387,11.2525958",
      "lat": 43.7746387,
      "lng": 11.2525958,
      "halalFriendly": false,
      "bookingUrl": "https://maps.google.com/?q=43.7746387,11.2525958",
      "source": "osm"
    },
    {
      "nom": "Spagna",
      "categorie": "Hôtel",
      "priceRange": "€€",
      "mapsUrl": "https://maps.google.com/?q=43.7740039,11.2510408",
      "lat": 43.7740039,
      "lng": 11.2510408,
      "halalFriendly": false,
      "bookingUrl": "https://maps.google.com/?q=43.7740039,11.2510408",
      "source": "osm"
    },
    {
      "nom": "Santa Maria Novella",
      "categorie": "Hôtel",
      "priceRange": "€€",
      "mapsUrl": "https://maps.google.com/?q=43.7733602,11.2500762",
      "lat": 43.7733602,
      "lng": 11.2500762,
      "halalFriendly": false,
      "bookingUrl": "https://maps.google.com/?q=43.7733602,11.2500762",
      "source": "osm"
    },
    {
      "nom": "Hotel L’Orologio Firenze",
      "categorie": "Hôtel",
      "priceRange": "€€",
      "mapsUrl": "https://maps.google.com/?q=43.7735214,11.2502691",
      "lat": 43.7735214,
      "lng": 11.2502691,
      "halalFriendly": false,
      "bookingUrl": "https://www.hotelorologioflorence.com/",
      "source": "osm"
    },
    {
      "nom": "l’Biancone",
      "categorie": "Appartement",
      "priceRange": "€€",
      "mapsUrl": "https://maps.google.com/?q=43.7694091,11.2636368",
      "lat": 43.7694091,
      "lng": 11.2636368,
      "halalFriendly": false,
      "bookingUrl": "https://maps.google.com/?q=43.7694091,11.2636368",
      "source": "osm"
    },
    {
      "nom": "Hotel Unicorno",
      "categorie": "Hôtel",
      "priceRange": "€€",
      "mapsUrl": "https://maps.google.com/?q=43.7723879,11.2489399",
      "lat": 43.7723879,
      "lng": 11.2489399,
      "halalFriendly": false,
      "bookingUrl": "https://maps.google.com/?q=43.7723879,11.2489399",
      "source": "osm"
    },
    {
      "nom": "Sanctuary B&B",
      "categorie": "Maison d'hôtes",
      "priceRange": "€€",
      "mapsUrl": "https://maps.google.com/?q=43.7727424,11.2624978",
      "lat": 43.7727424,
      "lng": 11.2624978,
      "halalFriendly": false,
      "bookingUrl": "https://maps.google.com/?q=43.7727424,11.2624978",
      "source": "osm"
    },
    {
      "nom": "First of Florence",
      "categorie": "Hôtel",
      "priceRange": "€€",
      "mapsUrl": "https://maps.google.com/?q=43.775276,11.2574002",
      "lat": 43.775276,
      "lng": 11.2574002,
      "halalFriendly": false,
      "bookingUrl": "https://maps.google.com/?q=43.775276,11.2574002",
      "source": "osm"
    },
    {
      "nom": "Hotel Il Duca",
      "categorie": "Hôtel",
      "priceRange": "€€",
      "mapsUrl": "https://maps.google.com/?q=43.7736424,11.2615945",
      "lat": 43.7736424,
      "lng": 11.2615945,
      "halalFriendly": false,
      "bookingUrl": "https://maps.google.com/?q=43.7736424,11.2615945",
      "source": "osm"
    },
    {
      "nom": "Piccolo",
      "categorie": "Appartement",
      "priceRange": "€€",
      "mapsUrl": "https://maps.google.com/?q=43.7753163,11.257366",
      "lat": 43.7753163,
      "lng": 11.257366,
      "halalFriendly": false,
      "bookingUrl": "https://www.piccoloflorence.com/",
      "source": "osm"
    },
    {
      "nom": "Hotel Palazzo Benci",
      "categorie": "Hôtel",
      "priceRange": "€€",
      "mapsUrl": "https://maps.google.com/?q=43.7750488,11.2528188",
      "lat": 43.7750488,
      "lng": 11.2528188,
      "halalFriendly": false,
      "bookingUrl": "https://maps.google.com/?q=43.7750488,11.2528188",
      "source": "osm"
    },
    {
      "nom": "Hotel Silla",
      "categorie": "Hôtel",
      "priceRange": "€€€",
      "score": 3,
      "mapsUrl": "https://maps.google.com/?q=43.7648055,11.2605869",
      "lat": 43.7648055,
      "lng": 11.2605869,
      "halalFriendly": false,
      "bookingUrl": "https://www.hotelsilla.it/",
      "source": "osm"
    },
    {
      "nom": "GH Be Happy",
      "categorie": "Maison d'hôtes",
      "priceRange": "€€",
      "mapsUrl": "https://maps.google.com/?q=43.7750604,11.2589431",
      "lat": 43.7750604,
      "lng": 11.2589431,
      "halalFriendly": false,
      "bookingUrl": "https://maps.google.com/?q=43.7750604,11.2589431",
      "source": "osm"
    },
    {
      "nom": "Solo Experience Hotel",
      "categorie": "Hôtel",
      "priceRange": "€€€€",
      "score": 4,
      "mapsUrl": "https://maps.google.com/?q=43.7754668,11.253944",
      "lat": 43.7754668,
      "lng": 11.253944,
      "halalFriendly": false,
      "bookingUrl": "https://maps.google.com/?q=43.7754668,11.253944",
      "source": "osm"
    },
    {
      "nom": "Hotel Corte dei Medici",
      "categorie": "Hôtel",
      "priceRange": "€€€",
      "score": 3,
      "mapsUrl": "https://maps.google.com/?q=43.7754614,11.2534414",
      "lat": 43.7754614,
      "lng": 11.2534414,
      "halalFriendly": false,
      "bookingUrl": "https://maps.google.com/?q=43.7754614,11.2534414",
      "source": "osm"
    },
    {
      "nom": "Rosso 23",
      "categorie": "Hôtel",
      "priceRange": "€€",
      "mapsUrl": "https://maps.google.com/?q=43.7740179,11.2500973",
      "lat": 43.7740179,
      "lng": 11.2500973,
      "halalFriendly": false,
      "bookingUrl": "https://www.hotelrosso23.com/",
      "source": "osm"
    },
    {
      "nom": "Hotel Plaza Lucchesi",
      "categorie": "Hôtel",
      "priceRange": "€€€€",
      "score": 4,
      "mapsUrl": "https://maps.google.com/?q=43.7666558,11.2631106",
      "lat": 43.7666558,
      "lng": 11.2631106,
      "halalFriendly": false,
      "bookingUrl": "https://maps.google.com/?q=43.7666558,11.2631106",
      "source": "osm"
    },
    {
      "nom": "La Fiesolana",
      "categorie": "Appartement",
      "priceRange": "€€",
      "mapsUrl": "https://maps.google.com/?q=43.7725793,11.2630842",
      "lat": 43.7725793,
      "lng": 11.2630842,
      "halalFriendly": false,
      "bookingUrl": "https://www.adormo.com/en/Residenza-di-charme-La-Fiesolana/5580",
      "source": "osm"
    },
    {
      "nom": "Garibaldi Blu",
      "categorie": "Hôtel",
      "priceRange": "€€",
      "mapsUrl": "https://maps.google.com/?q=43.7740273,11.2500946",
      "lat": 43.7740273,
      "lng": 11.2500946,
      "halalFriendly": false,
      "bookingUrl": "https://www.hotelgaribaldiblu.com/",
      "source": "osm"
    },
    {
      "nom": "Hotel Monna Lisa",
      "categorie": "Hôtel",
      "priceRange": "€€€€",
      "score": 4,
      "mapsUrl": "https://maps.google.com/?q=43.7730392,11.2627377",
      "lat": 43.7730392,
      "lng": 11.2627377,
      "halalFriendly": false,
      "bookingUrl": "https://www.monnalisa.it//",
      "source": "osm"
    },
    {
      "nom": "Hotel Accademia",
      "categorie": "Hôtel",
      "priceRange": "€€",
      "mapsUrl": "https://maps.google.com/?q=43.7752077,11.2525519",
      "lat": 43.7752077,
      "lng": 11.2525519,
      "halalFriendly": false,
      "bookingUrl": "https://www.hotelaccademiafirenze.com/",
      "source": "osm"
    },
    {
      "nom": "Hotel Universo",
      "categorie": "Hôtel",
      "priceRange": "€€",
      "mapsUrl": "https://maps.google.com/?q=43.7741505,11.2500484",
      "lat": 43.7741505,
      "lng": 11.2500484,
      "halalFriendly": false,
      "bookingUrl": "https://maps.google.com/?q=43.7741505,11.2500484",
      "source": "osm"
    },
    {
      "nom": "Pietrapiana Boutique Apartments",
      "categorie": "Appartement",
      "priceRange": "€€",
      "mapsUrl": "https://maps.google.com/?q=43.771433,11.2639503",
      "lat": 43.771433,
      "lng": 11.2639503,
      "halalFriendly": false,
      "bookingUrl": "https://maps.google.com/?q=43.771433,11.2639503",
      "source": "osm"
    },
    {
      "nom": "Emerald Palace Hostel",
      "categorie": "Auberge",
      "priceRange": "€€",
      "mapsUrl": "https://maps.google.com/?q=43.7755835,11.2536254",
      "lat": 43.7755835,
      "lng": 11.2536254,
      "halalFriendly": false,
      "bookingUrl": "https://www.emeraldpalaceflorence.site/",
      "source": "osm"
    }
  ],
  "mosqueesPrincipales": [
    {
      "id": "m442508011",
      "nom": "Chiesa di Orsanmichele",
      "type": "Mosquée",
      "adresse": "",
      "description": "Lieu de prière (OpenStreetMap).",
      "mapsUrl": "https://maps.google.com/?q=43.770714,11.2550182",
      "lat": 43.770714,
      "lng": 11.2550182,
      "source": "osm"
    },
    {
      "id": "m43768260",
      "nom": "Cattedrale di Santa Maria del Fiore",
      "type": "Mosquée",
      "adresse": "",
      "description": "Lieu de prière (OpenStreetMap).",
      "mapsUrl": "https://maps.google.com/?q=43.7731165,11.2565741",
      "lat": 43.7731165,
      "lng": 11.2565741,
      "source": "osm"
    },
    {
      "id": "m166821303",
      "nom": "Battistero di San Giovanni",
      "type": "Mosquée",
      "adresse": "",
      "description": "Lieu de prière (OpenStreetMap).",
      "mapsUrl": "https://maps.google.com/?q=43.7731479,11.2550301",
      "lat": 43.7731479,
      "lng": 11.2550301,
      "source": "osm"
    },
    {
      "id": "m777563049",
      "nom": "Basilica di Santa Croce",
      "type": "Mosquée",
      "adresse": "Piazza Santa Croce",
      "description": "Lieu de prière (OpenStreetMap).",
      "mapsUrl": "https://maps.google.com/?q=43.768361,11.2628865",
      "lat": 43.768361,
      "lng": 11.2628865,
      "source": "osm"
    },
    {
      "id": "m599900778",
      "nom": "Basilica di San Lorenzo",
      "type": "Mosquée",
      "adresse": "",
      "description": "Lieu de prière (OpenStreetMap).",
      "mapsUrl": "https://maps.google.com/?q=43.774962,11.2540389",
      "lat": 43.774962,
      "lng": 11.2540389,
      "source": "osm"
    },
    {
      "id": "m4701406592",
      "nom": "Cappella dei Magi",
      "type": "Mosquée",
      "adresse": "",
      "description": "Lieu de prière (OpenStreetMap).",
      "mapsUrl": "https://maps.google.com/?q=43.7751181,11.2558589",
      "lat": 43.7751181,
      "lng": 11.2558589,
      "source": "osm"
    },
    {
      "id": "m449369047",
      "nom": "Basilica di Santa Maria Novella",
      "type": "Mosquée",
      "adresse": "Piazza di Santa Maria Novella, Firenze",
      "description": "Lieu de prière (OpenStreetMap).",
      "mapsUrl": "https://maps.google.com/?q=43.7746763,11.24942",
      "lat": 43.7746763,
      "lng": 11.24942,
      "source": "osm"
    },
    {
      "id": "m306378155",
      "nom": "Oratorio di San Sebastiano de' Bini",
      "type": "Mosquée",
      "adresse": "",
      "description": "Lieu de prière (OpenStreetMap).",
      "mapsUrl": "https://maps.google.com/?q=43.7646667,11.2469239",
      "lat": 43.7646667,
      "lng": 11.2469239,
      "source": "osm"
    },
    {
      "id": "m184781037",
      "nom": "Basilica di San Miniato al Monte",
      "type": "Mosquée",
      "adresse": "",
      "description": "Lieu de prière (OpenStreetMap).",
      "mapsUrl": "https://maps.google.com/?q=43.7594513,11.2651073",
      "lat": 43.7594513,
      "lng": 11.2651073,
      "source": "osm"
    },
    {
      "id": "m173926785",
      "nom": "Chiesa di San Francesco",
      "type": "Mosquée",
      "adresse": "",
      "description": "Lieu de prière (OpenStreetMap).",
      "mapsUrl": "https://maps.google.com/?q=43.8079501,11.2899438",
      "lat": 43.8079501,
      "lng": 11.2899438,
      "source": "osm"
    },
    {
      "id": "m96193439",
      "nom": "Oratorio di Santa Caterina delle Ruote",
      "type": "Mosquée",
      "adresse": "",
      "description": "Lieu de prière (OpenStreetMap).",
      "mapsUrl": "https://maps.google.com/?q=43.7382506,11.3096567",
      "lat": 43.7382506,
      "lng": 11.3096567,
      "source": "osm"
    }
  ],
  "activites": [
    {
      "id": "a6511055585",
      "nom": "Girolamo Savonarola",
      "categorie": "memorial",
      "description": "",
      "prix": "",
      "duree": "",
      "mapsUrl": "https://maps.google.com/?q=43.7696269,11.2557568",
      "lat": 43.7696269,
      "lng": 11.2557568,
      "source": "osm"
    },
    {
      "id": "a3659169569",
      "nom": "Marzocco",
      "categorie": "artwork",
      "description": "",
      "prix": "",
      "duree": "",
      "mapsUrl": "https://maps.google.com/?q=43.7694753,11.2559535",
      "lat": 43.7694753,
      "lng": 11.2559535,
      "source": "osm"
    },
    {
      "id": "a3659169561",
      "nom": "Giuditta e Oloferne",
      "categorie": "artwork",
      "description": "",
      "prix": "",
      "duree": "",
      "mapsUrl": "https://maps.google.com/?q=43.7694521,11.2559481",
      "lat": 43.7694521,
      "lng": 11.2559481,
      "source": "osm"
    },
    {
      "id": "a1715110002",
      "nom": "Statua equestre di Cosimo",
      "categorie": "artwork",
      "description": "",
      "prix": "",
      "duree": "",
      "mapsUrl": "https://maps.google.com/?q=43.769812,11.256047",
      "lat": 43.769812,
      "lng": 11.256047,
      "source": "osm"
    },
    {
      "id": "a1280727034",
      "nom": "David",
      "categorie": "artwork",
      "description": "",
      "prix": "",
      "duree": "",
      "mapsUrl": "https://maps.google.com/?q=43.7692849,11.2559034",
      "lat": 43.7692849,
      "lng": 11.2559034,
      "source": "osm"
    },
    {
      "id": "a361442652",
      "nom": "Palazzo Vecchio",
      "categorie": "castle",
      "description": "",
      "prix": "",
      "duree": "",
      "mapsUrl": "https://maps.google.com/?q=43.7692937,11.2561423",
      "lat": 43.7692937,
      "lng": 11.2561423,
      "source": "osm"
    },
    {
      "id": "a3391028129",
      "nom": "Perseo",
      "categorie": "artwork",
      "description": "",
      "prix": "",
      "duree": "",
      "mapsUrl": "https://maps.google.com/?q=43.7692,11.2557243",
      "lat": 43.7692,
      "lng": 11.2557243,
      "source": "osm"
    },
    {
      "id": "a3391028126",
      "nom": "Il Ratto delle Sabine",
      "categorie": "artwork",
      "description": "",
      "prix": "",
      "duree": "",
      "mapsUrl": "https://maps.google.com/?q=43.7692854,11.2554415",
      "lat": 43.7692854,
      "lng": 11.2554415,
      "source": "osm"
    },
    {
      "id": "a6548893485",
      "nom": "Cortile di Michelozzo",
      "categorie": "attraction",
      "description": "",
      "prix": "",
      "duree": "",
      "mapsUrl": "https://maps.google.com/?q=43.7692155,11.2559974",
      "lat": 43.7692155,
      "lng": 11.2559974,
      "source": "osm"
    },
    {
      "id": "a3659169577",
      "nom": "Ercole e Caco",
      "categorie": "artwork",
      "description": "",
      "prix": "",
      "duree": "",
      "mapsUrl": "https://maps.google.com/?q=43.7691916,11.2558784",
      "lat": 43.7691916,
      "lng": 11.2558784,
      "source": "osm"
    },
    {
      "id": "a43284457",
      "nom": "Loggia dei Lanzi",
      "categorie": "attraction",
      "description": "",
      "prix": "",
      "duree": "",
      "mapsUrl": "https://maps.google.com/?q=43.7692,11.2555551",
      "lat": 43.7692,
      "lng": 11.2555551,
      "source": "osm"
    },
    {
      "id": "a5906014163",
      "nom": "L'importuno di Michelangelo",
      "categorie": "artwork",
      "description": "",
      "prix": "",
      "duree": "",
      "mapsUrl": "https://maps.google.com/?q=43.7691679,11.2559166",
      "lat": 43.7691679,
      "lng": 11.2559166,
      "source": "osm"
    },
    {
      "id": "a3391028128",
      "nom": "Neottolemo rapisce Polissena dalle braccia di Ecuba",
      "categorie": "artwork",
      "description": "",
      "prix": "",
      "duree": "",
      "mapsUrl": "https://maps.google.com/?q=43.7691496,11.2557289",
      "lat": 43.7691496,
      "lng": 11.2557289,
      "source": "osm"
    },
    {
      "id": "a3391028127",
      "nom": "Menelao e Patroclo",
      "categorie": "artwork",
      "description": "",
      "prix": "",
      "duree": "",
      "mapsUrl": "https://maps.google.com/?q=43.7691875,11.2555292",
      "lat": 43.7691875,
      "lng": 11.2555292,
      "source": "osm"
    },
    {
      "id": "a3391028125",
      "nom": "Ercole uccide il centauro Nesso",
      "categorie": "artwork",
      "description": "",
      "prix": "",
      "duree": "",
      "mapsUrl": "https://maps.google.com/?q=43.769244,11.2553872",
      "lat": 43.769244,
      "lng": 11.2553872,
      "source": "osm"
    },
    {
      "id": "a9958023021",
      "nom": "Thusnelda",
      "categorie": "artwork",
      "description": "",
      "prix": "",
      "duree": "",
      "mapsUrl": "https://maps.google.com/?q=43.769153,11.2555408",
      "lat": 43.769153,
      "lng": 11.2555408,
      "source": "osm"
    },
    {
      "id": "a9958023020",
      "nom": "Sabina",
      "categorie": "artwork",
      "description": "",
      "prix": "",
      "duree": "",
      "mapsUrl": "https://maps.google.com/?q=43.7691688,11.2554857",
      "lat": 43.7691688,
      "lng": 11.2554857,
      "source": "osm"
    },
    {
      "id": "a9964774371",
      "nom": "Andrea Orcagna",
      "categorie": "artwork",
      "description": "",
      "prix": "",
      "duree": "",
      "mapsUrl": "https://maps.google.com/?q=43.7690422,11.2559163",
      "lat": 43.7690422,
      "lng": 11.2559163,
      "source": "osm"
    },
    {
      "id": "a1536508482",
      "nom": "Gucci Museum",
      "categorie": "museum",
      "description": "",
      "prix": "",
      "duree": "",
      "mapsUrl": "https://maps.google.com/?q=43.7697152,11.2567733",
      "lat": 43.7697152,
      "lng": 11.2567733,
      "source": "osm"
    },
    {
      "id": "a7589506286",
      "nom": "Lediesis - Frida Kalo",
      "categorie": "artwork",
      "description": "",
      "prix": "",
      "duree": "",
      "mapsUrl": "https://maps.google.com/?q=43.7689251,11.2563367",
      "lat": 43.7689251,
      "lng": 11.2563367,
      "source": "osm"
    },
    {
      "id": "a8037518285",
      "nom": "Bizzarri Spezie",
      "categorie": "attraction",
      "description": "",
      "prix": "",
      "duree": "",
      "mapsUrl": "https://maps.google.com/?q=43.7702562,11.2564932",
      "lat": 43.7702562,
      "lng": 11.2564932,
      "source": "osm"
    },
    {
      "id": "a1536508344",
      "nom": "Gabinetto dei Disegni e delle Stampe degli Uffizi",
      "categorie": "museum",
      "description": "",
      "prix": "",
      "duree": "",
      "mapsUrl": "https://maps.google.com/?q=43.7687716,11.2561725",
      "lat": 43.7687716,
      "lng": 11.2561725,
      "source": "osm"
    },
    {
      "id": "a7486414206",
      "nom": "Soldati in battaglia",
      "categorie": "memorial",
      "description": "",
      "prix": "",
      "duree": "",
      "mapsUrl": "https://maps.google.com/?q=43.7701994,11.2549123",
      "lat": 43.7701994,
      "lng": 11.2549123,
      "source": "osm"
    },
    {
      "id": "a1536508367",
      "nom": "Museo di Orsanmichele",
      "categorie": "museum",
      "description": "",
      "prix": "",
      "duree": "",
      "mapsUrl": "https://maps.google.com/?q=43.7706758,11.2551815",
      "lat": 43.7706758,
      "lng": 11.2551815,
      "source": "osm"
    },
    {
      "id": "a3391028134",
      "nom": "Fontana del Porcellino",
      "categorie": "artwork",
      "description": "",
      "prix": "",
      "duree": "",
      "mapsUrl": "https://maps.google.com/?q=43.7698729,11.254215",
      "lat": 43.7698729,
      "lng": 11.254215,
      "source": "osm"
    },
    {
      "id": "a9968650565",
      "nom": "Albero della Pace",
      "categorie": "artwork",
      "description": "",
      "prix": "",
      "duree": "",
      "mapsUrl": "https://maps.google.com/?q=43.7685859,11.254969",
      "lat": 43.7685859,
      "lng": 11.254969,
      "source": "osm"
    },
    {
      "id": "a27590454",
      "nom": "Mercato del Porcellino",
      "categorie": "attraction",
      "description": "",
      "prix": "",
      "duree": "",
      "mapsUrl": "https://maps.google.com/?q=43.7700231,11.254236",
      "lat": 43.7700231,
      "lng": 11.254236,
      "source": "osm"
    },
    {
      "id": "a6256025773",
      "nom": "Pietra dello scandalo",
      "categorie": "artwork",
      "description": "",
      "prix": "",
      "duree": "",
      "mapsUrl": "https://maps.google.com/?q=43.7700281,11.2542211",
      "lat": 43.7700281,
      "lng": 11.2542211,
      "source": "osm"
    },
    {
      "id": "a477279033",
      "nom": "Galleria degli Uffizi",
      "categorie": "museum",
      "description": "",
      "prix": "",
      "duree": "",
      "mapsUrl": "https://maps.google.com/?q=43.7683966,11.2554739",
      "lat": 43.7683966,
      "lng": 11.2554739,
      "source": "osm"
    },
    {
      "id": "a6967443987",
      "nom": "San Giorgio di Donatello",
      "categorie": "artwork",
      "description": "",
      "prix": "",
      "duree": "",
      "mapsUrl": "https://maps.google.com/?q=43.7708299,11.2548553",
      "lat": 43.7708299,
      "lng": 11.2548553,
      "source": "osm"
    },
    {
      "id": "a95537272",
      "nom": "Palazzo dell'Arte della Lana",
      "categorie": "museum",
      "description": "",
      "prix": "",
      "duree": "",
      "mapsUrl": "https://maps.google.com/?q=43.770729,11.2546111",
      "lat": 43.770729,
      "lng": 11.2546111,
      "source": "osm"
    },
    {
      "id": "a253942619",
      "nom": "Chiesa di Santo Stefano al Ponte",
      "categorie": "museum",
      "description": "",
      "prix": "",
      "duree": "",
      "mapsUrl": "https://maps.google.com/?q=43.7686292,11.2543086",
      "lat": 43.7686292,
      "lng": 11.2543086,
      "source": "osm"
    },
    {
      "id": "a5964329388",
      "nom": "Fondazione Zeffirelli Onlus",
      "categorie": "museum",
      "description": "",
      "prix": "",
      "duree": "",
      "mapsUrl": "https://maps.google.com/?q=43.7696353,11.2578115",
      "lat": 43.7696353,
      "lng": 11.2578115,
      "source": "osm"
    },
    {
      "id": "a3909378476",
      "nom": "Strage di via dei Georgofili",
      "categorie": "artwork",
      "description": "",
      "prix": "",
      "duree": "",
      "mapsUrl": "https://maps.google.com/?q=43.7682028,11.2548123",
      "lat": 43.7682028,
      "lng": 11.2548123,
      "source": "osm"
    },
    {
      "id": "a3519960102",
      "nom": "Museo diocesano di Santo Stefano al Ponte",
      "categorie": "museum",
      "description": "",
      "prix": "",
      "duree": "",
      "mapsUrl": "https://maps.google.com/?q=43.7686415,11.2540451",
      "lat": 43.7686415,
      "lng": 11.2540451,
      "source": "osm"
    },
    {
      "id": "a6961619587",
      "nom": "Lediesis - La Madonna",
      "categorie": "artwork",
      "description": "",
      "prix": "",
      "duree": "",
      "mapsUrl": "https://maps.google.com/?q=43.7708926,11.2572229",
      "lat": 43.7708926,
      "lng": 11.2572229,
      "source": "osm"
    },
    {
      "id": "a2934171474",
      "nom": "Casa di Dante",
      "categorie": "museum",
      "description": "",
      "prix": "",
      "duree": "",
      "mapsUrl": "https://maps.google.com/?q=43.7710921,11.2570496",
      "lat": 43.7710921,
      "lng": 11.2570496,
      "source": "osm"
    },
    {
      "id": "a6960597285",
      "nom": "Lediesis - Black Mamba",
      "categorie": "artwork",
      "description": "",
      "prix": "",
      "duree": "",
      "mapsUrl": "https://maps.google.com/?q=43.7691594,11.2533978",
      "lat": 43.7691594,
      "lng": 11.2533978,
      "source": "osm"
    },
    {
      "id": "a6960592285",
      "nom": "ExitEnter - Caos cittadino",
      "categorie": "artwork",
      "description": "",
      "prix": "",
      "duree": "",
      "mapsUrl": "https://maps.google.com/?q=43.7691114,11.2533701",
      "lat": 43.7691114,
      "lng": 11.2533701,
      "source": "osm"
    },
    {
      "id": "a43837065",
      "nom": "Palazzo del Bargello",
      "categorie": "museum",
      "description": "",
      "prix": "",
      "duree": "",
      "mapsUrl": "https://maps.google.com/?q=43.7703909,11.2582473",
      "lat": 43.7703909,
      "lng": 11.2582473,
      "source": "osm"
    },
    {
      "id": "a3518187675",
      "nom": "Museo Galileo - Istituto e Museo di Storia della Scienza",
      "categorie": "museum",
      "description": "",
      "prix": "",
      "duree": "",
      "mapsUrl": "https://maps.google.com/?q=43.7676642,11.2559063",
      "lat": 43.7676642,
      "lng": 11.2559063,
      "source": "osm"
    },
    {
      "id": "a6961609488",
      "nom": "Lediesis - Rita Levi Montalcini",
      "categorie": "artwork",
      "description": "",
      "prix": "",
      "duree": "",
      "mapsUrl": "https://maps.google.com/?q=43.7714931,11.2566472",
      "lat": 43.7714931,
      "lng": 11.2566472,
      "source": "osm"
    },
    {
      "id": "a946019247",
      "nom": "Le Giubbe Rosse",
      "categorie": "attraction",
      "description": "",
      "prix": "",
      "duree": "",
      "mapsUrl": "https://maps.google.com/?q=43.7710855,11.2539249",
      "lat": 43.7710855,
      "lng": 11.2539249,
      "source": "osm"
    },
    {
      "id": "a7192709049",
      "nom": "MARIO MELLI GENAZZANI",
      "categorie": "memorial",
      "description": "",
      "prix": "",
      "duree": "",
      "mapsUrl": "https://maps.google.com/?q=43.7710036,11.2579319",
      "lat": 43.7710036,
      "lng": 11.2579319,
      "source": "osm"
    },
    {
      "id": "a7192692643",
      "nom": "ELENA GENAZZANI",
      "categorie": "memorial",
      "description": "",
      "prix": "",
      "duree": "",
      "mapsUrl": "https://maps.google.com/?q=43.7710051,11.2579326",
      "lat": 43.7710051,
      "lng": 11.2579326,
      "source": "osm"
    },
    {
      "id": "a7192633353",
      "nom": "ABRAMO GENAZZANI",
      "categorie": "memorial",
      "description": "",
      "prix": "",
      "duree": "",
      "mapsUrl": "https://maps.google.com/?q=43.771008,11.2579332",
      "lat": 43.771008,
      "lng": 11.2579332,
      "source": "osm"
    },
    {
      "id": "a307153268",
      "nom": "Palazzo Davanzati",
      "categorie": "museum",
      "description": "",
      "prix": "",
      "duree": "",
      "mapsUrl": "https://maps.google.com/?q=43.7700371,11.2528976",
      "lat": 43.7700371,
      "lng": 11.2528976,
      "source": "osm"
    },
    {
      "id": "a2732676607",
      "nom": "Colonna dell’Abbondanza",
      "categorie": "artwork",
      "description": "",
      "prix": "",
      "duree": "",
      "mapsUrl": "https://maps.google.com/?q=43.7715692,11.2544299",
      "lat": 43.7715692,
      "lng": 11.2544299,
      "source": "osm"
    },
    {
      "id": "a1715896562",
      "nom": "Benvenuto Cellini",
      "categorie": "memorial",
      "description": "",
      "prix": "",
      "duree": "",
      "mapsUrl": "https://maps.google.com/?q=43.7680593,11.253084",
      "lat": 43.7680593,
      "lng": 11.253084,
      "source": "osm"
    },
    {
      "id": "a9994719898",
      "nom": "DIODATO GASTONE SADUN",
      "categorie": "memorial",
      "description": "",
      "prix": "",
      "duree": "",
      "mapsUrl": "https://maps.google.com/?q=43.7722,11.2558077",
      "lat": 43.7722,
      "lng": 11.2558077,
      "source": "osm"
    },
    {
      "id": "a518287976",
      "nom": "Museo delle illusioni",
      "categorie": "museum",
      "description": "",
      "prix": "",
      "duree": "",
      "mapsUrl": "https://maps.google.com/?q=43.7714146,11.2584895",
      "lat": 43.7714146,
      "lng": 11.2584895,
      "source": "osm"
    },
    {
      "id": "a1344547176",
      "nom": "Corridoio Vasariano",
      "categorie": "museum",
      "description": "",
      "prix": "",
      "duree": "",
      "mapsUrl": "https://maps.google.com/?q=43.7674568,11.2536218",
      "lat": 43.7674568,
      "lng": 11.2536218,
      "source": "osm"
    },
    {
      "id": "a3120274425",
      "nom": "Museo nazionale di antropologia ed etnologia",
      "categorie": "museum",
      "description": "",
      "prix": "",
      "duree": "",
      "mapsUrl": "https://maps.google.com/?q=43.7717206,11.2580662",
      "lat": 43.7717206,
      "lng": 11.2580662,
      "source": "osm"
    },
    {
      "id": "a2462720057",
      "nom": "Monumento ai caduti della battaglia de Mentana",
      "categorie": "memorial",
      "description": "",
      "prix": "",
      "duree": "",
      "mapsUrl": "https://maps.google.com/?q=43.7672678,11.2577335",
      "lat": 43.7672678,
      "lng": 11.2577335,
      "source": "osm"
    },
    {
      "id": "a5934103586",
      "nom": "Belvedere sull'Arno",
      "categorie": "viewpoint",
      "description": "",
      "prix": "",
      "duree": "",
      "mapsUrl": "https://maps.google.com/?q=43.7670509,11.2544408",
      "lat": 43.7670509,
      "lng": 11.2544408,
      "source": "osm"
    },
    {
      "id": "a946018387",
      "nom": "Caffè Concerto Paszkowski",
      "categorie": "attraction",
      "description": "",
      "prix": "",
      "duree": "",
      "mapsUrl": "https://maps.google.com/?q=43.7719481,11.2537037",
      "lat": 43.7719481,
      "lng": 11.2537037,
      "source": "osm"
    },
    {
      "id": "a2361767419",
      "nom": "Pandolfini Casa d'Aste",
      "categorie": "gallery;auction",
      "description": "",
      "prix": "",
      "duree": "",
      "mapsUrl": "https://maps.google.com/?q=43.7715434,11.2586743",
      "lat": 43.7715434,
      "lng": 11.2586743,
      "source": "osm"
    },
    {
      "id": "a5646904120",
      "nom": "San Giovanni Battista",
      "categorie": "artwork",
      "description": "",
      "prix": "",
      "duree": "",
      "mapsUrl": "https://maps.google.com/?q=43.7668548,11.2546048",
      "lat": 43.7668548,
      "lng": 11.2546048,
      "source": "osm"
    },
    {
      "id": "a7319882305",
      "nom": "Chiesa di San Benedetto",
      "categorie": "museum",
      "description": "",
      "prix": "",
      "duree": "",
      "mapsUrl": "https://maps.google.com/?q=43.7723337,11.2572492",
      "lat": 43.7723337,
      "lng": 11.2572492,
      "source": "osm"
    },
    {
      "id": "a3999086976",
      "nom": "Museo della Misericordia",
      "categorie": "museum",
      "description": "",
      "prix": "",
      "duree": "",
      "mapsUrl": "https://maps.google.com/?q=43.7725613,11.2556168",
      "lat": 43.7725613,
      "lng": 11.2556168,
      "source": "osm"
    },
    {
      "id": "a272379110",
      "nom": "Ex anfiteatro romano di Firenze",
      "categorie": "archaeological site",
      "description": "",
      "prix": "",
      "duree": "",
      "mapsUrl": "https://maps.google.com/?q=43.7690913,11.2600035",
      "lat": 43.7690913,
      "lng": 11.2600035,
      "source": "osm"
    },
    {
      "id": "a7319882307",
      "nom": "Cccs - Centro di Cultura Contemporanea Strozzina",
      "categorie": "museum",
      "description": "",
      "prix": "",
      "duree": "",
      "mapsUrl": "https://maps.google.com/?q=43.7711722,11.2519068",
      "lat": 43.7711722,
      "lng": 11.2519068,
      "source": "osm"
    },
    {
      "id": "a1701709655",
      "nom": "Museo del Bigallo",
      "categorie": "museum",
      "description": "",
      "prix": "",
      "duree": "",
      "mapsUrl": "https://maps.google.com/?q=43.772803,11.2552379",
      "lat": 43.772803,
      "lng": 11.2552379,
      "source": "osm"
    },
    {
      "id": "a251650632",
      "nom": "Campanile di Giotto",
      "categorie": "attraction",
      "description": "",
      "prix": "",
      "duree": "",
      "mapsUrl": "https://maps.google.com/?q=43.7728498,11.2556964",
      "lat": 43.7728498,
      "lng": 11.2556964,
      "source": "osm"
    },
    {
      "id": "a2426842882",
      "nom": "Colonna della Giustizia",
      "categorie": "artwork",
      "description": "",
      "prix": "",
      "duree": "",
      "mapsUrl": "https://maps.google.com/?q=43.770121,11.2512705",
      "lat": 43.770121,
      "lng": 11.2512705,
      "source": "osm"
    },
    {
      "id": "a4274486896",
      "nom": "Museo Salvatore Ferragamo",
      "categorie": "museum",
      "description": "",
      "prix": "",
      "duree": "",
      "mapsUrl": "https://maps.google.com/?q=43.7698492,11.2511748",
      "lat": 43.7698492,
      "lng": 11.2511748,
      "source": "osm"
    },
    {
      "id": "a3063152182",
      "nom": "Palazzo Strozzi",
      "categorie": "museum",
      "description": "",
      "prix": "",
      "duree": "",
      "mapsUrl": "https://maps.google.com/?q=43.7712779,11.2517708",
      "lat": 43.7712779,
      "lng": 11.2517708,
      "source": "osm"
    },
    {
      "id": "a307106623",
      "nom": "Museo Horne",
      "categorie": "museum",
      "description": "",
      "prix": "",
      "duree": "",
      "mapsUrl": "https://maps.google.com/?q=43.7675254,11.259511",
      "lat": 43.7675254,
      "lng": 11.259511,
      "source": "osm"
    },
    {
      "id": "a5041557941",
      "nom": "Cripta di Santa Reparata",
      "categorie": "museum",
      "description": "",
      "prix": "",
      "duree": "",
      "mapsUrl": "https://maps.google.com/?q=43.7729974,11.2560497",
      "lat": 43.7729974,
      "lng": 11.2560497,
      "source": "osm"
    },
    {
      "id": "a12522512845",
      "nom": "Palla del Verrocchio",
      "categorie": "memorial",
      "description": "",
      "prix": "",
      "duree": "",
      "mapsUrl": "https://maps.google.com/?q=43.7727744,11.2575183",
      "lat": 43.7727744,
      "lng": 11.2575183,
      "source": "osm"
    },
    {
      "id": "a2361872384",
      "nom": "Museo del Giocattolo e di Pinocchio",
      "categorie": "museum",
      "description": "",
      "prix": "",
      "duree": "",
      "mapsUrl": "https://maps.google.com/?q=43.7724874,11.2583544",
      "lat": 43.7724874,
      "lng": 11.2583544,
      "source": "osm"
    },
    {
      "id": "a3116646971",
      "nom": "Colonna di Santa Felicita",
      "categorie": "artwork",
      "description": "",
      "prix": "",
      "duree": "",
      "mapsUrl": "https://maps.google.com/?q=43.7671222,11.2522949",
      "lat": 43.7671222,
      "lng": 11.2522949,
      "source": "osm"
    },
    {
      "id": "a397848200",
      "nom": "Cupola del Brunelleschi",
      "categorie": "attraction",
      "description": "",
      "prix": "",
      "duree": "",
      "mapsUrl": "https://maps.google.com/?q=43.7731191,11.2569511",
      "lat": 43.7731191,
      "lng": 11.2569511,
      "source": "osm"
    },
    {
      "id": "a13002299104",
      "nom": "Primavera",
      "categorie": "artwork",
      "description": "",
      "prix": "",
      "duree": "",
      "mapsUrl": "https://maps.google.com/?q=43.7694145,11.250661",
      "lat": 43.7694145,
      "lng": 11.250661,
      "source": "osm"
    },
    {
      "id": "a4129833608",
      "nom": "Porta della Mandorla",
      "categorie": "attraction",
      "description": "",
      "prix": "",
      "duree": "",
      "mapsUrl": "https://maps.google.com/?q=43.7733319,11.2565651",
      "lat": 43.7733319,
      "lng": 11.2565651,
      "source": "osm"
    },
    {
      "id": "a13002269881",
      "nom": "Estate",
      "categorie": "artwork",
      "description": "",
      "prix": "",
      "duree": "",
      "mapsUrl": "https://maps.google.com/?q=43.7694588,11.2505427",
      "lat": 43.7694588,
      "lng": 11.2505427,
      "source": "osm"
    },
    {
      "id": "a1701709644",
      "nom": "Colonna di San Zanobi",
      "categorie": "memorial",
      "description": "",
      "prix": "",
      "duree": "",
      "mapsUrl": "https://maps.google.com/?q=43.7733518,11.254951",
      "lat": 43.7733518,
      "lng": 11.254951,
      "source": "osm"
    },
    {
      "id": "a5630264627",
      "nom": "Le Mie Ceramiche",
      "categorie": "artwork",
      "description": "",
      "prix": "",
      "duree": "",
      "mapsUrl": "https://maps.google.com/?q=43.7695377,11.2610856",
      "lat": 43.7695377,
      "lng": 11.2610856,
      "source": "osm"
    },
    {
      "id": "a7192709050",
      "nom": "DAVID GENAZZANI",
      "categorie": "memorial",
      "description": "",
      "prix": "",
      "duree": "",
      "mapsUrl": "https://maps.google.com/?q=43.7703626,11.2610582",
      "lat": 43.7703626,
      "lng": 11.2610582,
      "source": "osm"
    },
    {
      "id": "a7319882309",
      "nom": "Casa Giorgio Vasari",
      "categorie": "museum",
      "description": "",
      "prix": "",
      "duree": "",
      "mapsUrl": "https://maps.google.com/?q=43.7680051,11.2607259",
      "lat": 43.7680051,
      "lng": 11.2607259,
      "source": "osm"
    },
    {
      "id": "a909283757",
      "nom": "L'Uomo Comune",
      "categorie": "artwork",
      "description": "",
      "prix": "",
      "duree": "",
      "mapsUrl": "https://maps.google.com/?q=43.7660576,11.2585514",
      "lat": 43.7660576,
      "lng": 11.2585514,
      "source": "osm"
    },
    {
      "id": "a456578419",
      "nom": "Museo dell'Opera del Duomo",
      "categorie": "museum",
      "description": "",
      "prix": "",
      "duree": "",
      "mapsUrl": "https://maps.google.com/?q=43.7733408,11.2580713",
      "lat": 43.7733408,
      "lng": 11.2580713,
      "source": "osm"
    },
    {
      "id": "a13002234672",
      "nom": "Inverno",
      "categorie": "artwork",
      "description": "",
      "prix": "",
      "duree": "",
      "mapsUrl": "https://maps.google.com/?q=43.7686102,11.2501159",
      "lat": 43.7686102,
      "lng": 11.2501159,
      "source": "osm"
    },
    {
      "id": "a8528081446",
      "nom": "Taras Ševčenko",
      "categorie": "memorial",
      "description": "",
      "prix": "",
      "duree": "",
      "mapsUrl": "https://maps.google.com/?q=43.772289,11.260347",
      "lat": 43.772289,
      "lng": 11.260347,
      "source": "osm"
    },
    {
      "id": "a1715096057",
      "nom": "Autunno",
      "categorie": "artwork",
      "description": "",
      "prix": "",
      "duree": "",
      "mapsUrl": "https://maps.google.com/?q=43.7686569,11.2499859",
      "lat": 43.7686569,
      "lng": 11.2499859,
      "source": "osm"
    },
    {
      "id": "a5487878061",
      "nom": "Museo fiorentino di preistoria \"Paolo Graziosi\"",
      "categorie": "museum",
      "description": "",
      "prix": "",
      "duree": "",
      "mapsUrl": "https://maps.google.com/?q=43.7726239,11.2601736",
      "lat": 43.7726239,
      "lng": 11.2601736,
      "source": "osm"
    },
    {
      "id": "a6961570186",
      "nom": "Lediesis - Nefertiti",
      "categorie": "artwork",
      "description": "",
      "prix": "",
      "duree": "",
      "mapsUrl": "https://maps.google.com/?q=43.7669272,11.2504537",
      "lat": 43.7669272,
      "lng": 11.2504537,
      "source": "osm"
    },
    {
      "id": "a5058041321",
      "nom": "Museo dell' Opera di Santa Croce",
      "categorie": "museum",
      "description": "",
      "prix": "",
      "duree": "",
      "mapsUrl": "https://maps.google.com/?q=43.7680959,11.2620213",
      "lat": 43.7680959,
      "lng": 11.2620213,
      "source": "osm"
    },
    {
      "id": "a662908307",
      "nom": "Statua Dante Alighieri",
      "categorie": "memorial",
      "description": "",
      "prix": "",
      "duree": "",
      "mapsUrl": "https://maps.google.com/?q=43.7688541,11.2622933",
      "lat": 43.7688541,
      "lng": 11.2622933,
      "source": "osm"
    },
    {
      "id": "a3609574965",
      "nom": "Museo Marino Marini (Chiesa di San Pancrazio)",
      "categorie": "museum",
      "description": "",
      "prix": "",
      "duree": "",
      "mapsUrl": "https://maps.google.com/?q=43.7718815,11.249965",
      "lat": 43.7718815,
      "lng": 11.249965,
      "source": "osm"
    },
    {
      "id": "a4277830370",
      "nom": "Museo di Casa Martelli",
      "categorie": "museum",
      "description": "",
      "prix": "",
      "duree": "",
      "mapsUrl": "https://maps.google.com/?q=43.7740729,11.2533908",
      "lat": 43.7740729,
      "lng": 11.2533908,
      "source": "osm"
    },
    {
      "id": "a9994719897",
      "nom": "NATHAN CASSUTO",
      "categorie": "memorial",
      "description": "",
      "prix": "",
      "duree": "",
      "mapsUrl": "https://maps.google.com/?q=43.7742333,11.2576294",
      "lat": 43.7742333,
      "lng": 11.2576294,
      "source": "osm"
    },
    {
      "id": "a7319882301",
      "nom": "Galleria Corsini",
      "categorie": "museum",
      "description": "",
      "prix": "",
      "duree": "",
      "mapsUrl": "https://maps.google.com/?q=43.7707206,11.249214",
      "lat": 43.7707206,
      "lng": 11.249214,
      "source": "osm"
    },
    {
      "id": "a6311659709",
      "nom": "Casa Abitata",
      "categorie": "gallery",
      "description": "",
      "prix": "",
      "duree": "",
      "mapsUrl": "https://maps.google.com/?q=43.7729995,11.2508214",
      "lat": 43.7729995,
      "lng": 11.2508214,
      "source": "osm"
    },
    {
      "id": "a11850503965",
      "nom": "Sfera Di Luce",
      "categorie": "artwork",
      "description": "",
      "prix": "",
      "duree": "",
      "mapsUrl": "https://maps.google.com/?q=43.7682282,11.2624273",
      "lat": 43.7682282,
      "lng": 11.2624273,
      "source": "osm"
    },
    {
      "id": "a949722969",
      "nom": "Museo Stefano Bardini",
      "categorie": "museum",
      "description": "",
      "prix": "",
      "duree": "",
      "mapsUrl": "https://maps.google.com/?q=43.7649708,11.2583954",
      "lat": 43.7649708,
      "lng": 11.2583954,
      "source": "osm"
    }
  ],
  "scoreIndicatif": true,
  "osmEnriched": true,
  "osmEnrichedAt": "2026-06-30",
  "description_en": "Florence may not be a Muslim-majority destination, but it welcomes Muslim travelers with real halal options. You'll find 37 halal restaurants and 11 mosques nearby, plus real-time prayer times and the Qibla direction — everything to explore Florence, Italy, with peace of mind.",
  "metaDescription_en": "Halal guide to Florence: 37+ halal restaurants, 11 mosques, prayer times and tips for Muslim travelers. Halal Trust Score 3.1/5.",
  "nom_en": "Florence"
}