{
 "slug": "florence",
 "nom": "Florence",
 "pays": "Italie",
 "pays_slug": "italie",
 "continent": "Europe",
 "region": "Italie",
 "coordonnees": {
  "lat": 43.7696,
  "lng": 11.2558
 },
 "codeISO": "IT",
 "score_halal": 3.1,
 "halalScore": 6.2,
 "villeNonMusulmane": true,
 "description": "Berceau de la Renaissance. Quelques adresses halal et kebabs certifiés autour de la gare ; communauté musulmane présente.",
 "metaDescription": "Berceau de la Renaissance. Quelques adresses halal et kebabs certifiés autour de la gare ; communauté musulmane présente.",
 "image": "https://upload.wikimedia.org/wikipedia/commons/1/1d/FlorenceSkyline.jpg",
 "image_hero": "https://upload.wikimedia.org/wikipedia/commons/1/1d/FlorenceSkyline.jpg",
 "imageCredit": "Wikimedia Commons",
 "statistiques": {
  "restaurants_halal": 35,
  "mosquees": 10,
  "hotels": 30
 },
 "infoPratique": {
  "transport": "Accessible par avion et transports en commun locaux.",
  "meilleureEpoque": "Printemps et automne (climat tempéré).",
  "conseilHalal": "Ville non-musulmane : repérez les restaurants halal certifiés et les mosquées via l'application avant votre visite."
 },
 "tags": [
  "halal",
  "ville non-musulmane",
  "europe"
 ],
 "restaurants": [
  {
   "nom": "Madina",
   "type": "kebab",
   "priceRange": "€€",
   "mapsUrl": "https://maps.google.com/?q=43.7769777,11.2536835",
   "lat": 43.7769777,
   "lng": 11.2536835,
   "halalConfidence": "only",
   "source": "osm"
  },
  {
   "nom": "Crispy Chicken",
   "type": "Restaurant halal",
   "priceRange": "€€",
   "mapsUrl": "https://maps.google.com/?q=43.776181,11.2506123",
   "lat": 43.776181,
   "lng": 11.2506123,
   "halalConfidence": "yes",
   "source": "osm"
  },
  {
   "nom": "Santo Falafel",
   "type": "lebanese",
   "priceRange": "€€",
   "mapsUrl": "https://maps.google.com/?q=43.7678179,11.2454688",
   "lat": 43.7678179,
   "lng": 11.2454688,
   "halalConfidence": "yes",
   "source": "osm"
  },
  {
   "nom": "Asporto Halal",
   "type": "mediterranean",
   "priceRange": "€€",
   "mapsUrl": "https://maps.google.com/?q=43.773063,11.2449088",
   "lat": 43.773063,
   "lng": 11.2449088,
   "halalConfidence": "only",
   "source": "osm"
  },
  {
   "nom": "Antico Ristoro di Cambi",
   "type": "italian, regional",
   "priceRange": "€€",
   "mapsUrl": "https://maps.google.com/?q=43.7704199,11.2420415",
   "lat": 43.7704199,
   "lng": 11.2420415,
   "halalConfidence": "yes",
   "source": "osm"
  },
  {
   "nom": "Spizza",
   "type": "pizza",
   "priceRange": "€€",
   "mapsUrl": "https://maps.google.com/?q=43.7873185,11.2386076",
   "lat": 43.7873185,
   "lng": 11.2386076,
   "halalConfidence": "only",
   "source": "osm"
  },
  {
   "nom": "L’Aragosta",
   "type": "restaurant, kebab, italian, indian, turkish, grill",
   "priceRange": "€€",
   "mapsUrl": "https://maps.google.com/?q=43.7622422,11.1744706",
   "lat": 43.7622422,
   "lng": 11.1744706,
   "halalConfidence": "yes",
   "source": "osm"
  },
  {
   "nom": "THE KING RISTORANTE SCANDICCI",
   "type": "ristorante, kebab, indian, italian, turkish, fast food, grill, hookah bar, seafood, pakistani",
   "priceRange": "€€",
   "mapsUrl": "https://maps.google.com/?q=43.7622791,11.1743737",
   "lat": 43.7622791,
   "lng": 11.1743737,
   "halalConfidence": "yes",
   "source": "osm"
  },
  {
   "nom": "Ristorante Persiano Teheran",
   "type": "persian",
   "priceRange": "€€",
   "mapsUrl": "https://maps.google.com/?q=43.7709875,11.2560738",
   "lat": 43.7709875,
   "lng": 11.2560738,
   "halalConfidence": "likely",
   "source": "osm"
  },
  {
   "nom": "Paninoteca Kebab Babilonia",
   "type": "kebab, sandwich",
   "priceRange": "€€",
   "mapsUrl": "https://maps.google.com/?q=43.7685482,11.2572647",
   "lat": 43.7685482,
   "lng": 11.2572647,
   "halalConfidence": "likely",
   "source": "osm"
  },
  {
   "nom": "Mesopotamia",
   "type": "kebab",
   "priceRange": "€€",
   "mapsUrl": "https://maps.google.com/?q=43.7717496,11.2620852",
   "lat": 43.7717496,
   "lng": 11.2620852,
   "halalConfidence": "likely",
   "source": "osm"
  },
  {
   "nom": "Sraz",
   "type": "persian",
   "priceRange": "€€",
   "mapsUrl": "https://maps.google.com/?q=43.7696277,11.2642083",
   "lat": 43.7696277,
   "lng": 11.2642083,
   "halalConfidence": "likely",
   "source": "osm"
  },
  {
   "nom": "Newroz Kebab",
   "type": "kebab",
   "priceRange": "€€",
   "mapsUrl": "https://maps.google.com/?q=43.7758582,11.2527724",
   "lat": 43.7758582,
   "lng": 11.2527724,
   "halalConfidence": "likely",
   "source": "osm"
  },
  {
   "nom": "BD Halla",
   "type": "kebab",
   "priceRange": "€€",
   "mapsUrl": "https://maps.google.com/?q=43.7775498,11.2551385",
   "lat": 43.7775498,
   "lng": 11.2551385,
   "halalConfidence": "likely",
   "source": "osm"
  },
  {
   "nom": "Atomic Falafel",
   "type": "arab, mediterranean",
   "priceRange": "€€",
   "mapsUrl": "https://maps.google.com/?q=43.777511,11.2580046",
   "lat": 43.777511,
   "lng": 11.2580046,
   "halalConfidence": "likely",
   "source": "osm"
  },
  {
   "nom": "Ayasofya Istanbul",
   "type": "kebab",
   "priceRange": "€€",
   "mapsUrl": "https://maps.google.com/?q=43.7775926,11.2538647",
   "lat": 43.7775926,
   "lng": 11.2538647,
   "halalConfidence": "likely",
   "source": "osm"
  },
  {
   "nom": "Pitti Kebab",
   "type": "kebab",
   "priceRange": "€€",
   "mapsUrl": "https://maps.google.com/?q=43.7614139,11.2423594",
   "lat": 43.7614139,
   "lng": 11.2423594,
   "halalConfidence": "likely",
   "source": "osm"
  },
  {
   "nom": "Star Kebab",
   "type": "kebab",
   "priceRange": "€€",
   "mapsUrl": "https://maps.google.com/?q=43.7635396,11.2727486",
   "lat": 43.7635396,
   "lng": 11.2727486,
   "halalConfidence": "likely",
   "source": "osm"
  },
  {
   "nom": "Star Kebab",
   "type": "kebab",
   "priceRange": "€€",
   "mapsUrl": "https://maps.google.com/?q=43.7635445,11.2727691",
   "lat": 43.7635445,
   "lng": 11.2727691,
   "halalConfidence": "likely",
   "source": "osm"
  },
  {
   "nom": "Ualima",
   "type": "moroccan",
   "priceRange": "€€",
   "mapsUrl": "https://maps.google.com/?q=43.7833133,11.2581221",
   "lat": 43.7833133,
   "lng": 11.2581221,
   "halalConfidence": "likely",
   "source": "osm"
  },
  {
   "nom": "Halal Kabab",
   "type": "kebab",
   "priceRange": "€€",
   "mapsUrl": "https://maps.google.com/?q=43.7810145,11.2435861",
   "lat": 43.7810145,
   "lng": 11.2435861,
   "halalConfidence": "likely",
   "source": "osm"
  },
  {
   "nom": "Punjab Kebab",
   "type": "kebab",
   "priceRange": "€€",
   "mapsUrl": "https://maps.google.com/?q=43.7844096,11.2670946",
   "lat": 43.7844096,
   "lng": 11.2670946,
   "halalConfidence": "likely",
   "source": "osm"
  },
  {
   "nom": "Kasbah Bistrot",
   "type": "moroccan",
   "priceRange": "€€",
   "mapsUrl": "https://maps.google.com/?q=43.7729643,11.2253912",
   "lat": 43.7729643,
   "lng": 11.2253912,
   "halalConfidence": "likely",
   "source": "osm"
  },
  {
   "nom": "King Hamburger",
   "type": "kebab",
   "priceRange": "€€",
   "mapsUrl": "https://maps.google.com/?q=43.7898403,11.2425761",
   "lat": 43.7898403,
   "lng": 11.2425761,
   "halalConfidence": "likely",
   "source": "osm"
  },
  {
   "nom": "Jpc",
   "type": "kebab",
   "priceRange": "€€",
   "mapsUrl": "https://maps.google.com/?q=43.7856703,11.2323425",
   "lat": 43.7856703,
   "lng": 11.2323425,
   "halalConfidence": "likely",
   "source": "osm"
  },
  {
   "nom": "Kashmir Kebab",
   "type": "kebab",
   "priceRange": "€€",
   "mapsUrl": "https://maps.google.com/?q=43.7593131,11.2859176",
   "lat": 43.7593131,
   "lng": 11.2859176,
   "halalConfidence": "likely",
   "source": "osm"
  },
  {
   "nom": "Kashmir View",
   "type": "kebab, pizza",
   "priceRange": "€€",
   "mapsUrl": "https://maps.google.com/?q=43.7968425,11.2410128",
   "lat": 43.7968425,
   "lng": 11.2410128,
   "halalConfidence": "likely",
   "source": "osm"
  },
  {
   "nom": "FC",
   "type": "kebab",
   "priceRange": "€€",
   "mapsUrl": "https://maps.google.com/?q=43.8003572,11.2372302",
   "lat": 43.8003572,
   "lng": 11.2372302,
   "halalConfidence": "likely",
   "source": "osm"
  },
  {
   "nom": "Ali baba kebab bar",
   "type": "kebab",
   "priceRange": "€€",
   "mapsUrl": "https://maps.google.com/?q=43.775112,11.209945",
   "lat": 43.775112,
   "lng": 11.209945,
   "halalConfidence": "likely",
   "source": "osm"
  },
  {
   "nom": "Happy Kebab",
   "type": "kebab, falafel",
   "priceRange": "€€",
   "mapsUrl": "https://maps.google.com/?q=43.8009709,11.2385614",
   "lat": 43.8009709,
   "lng": 11.2385614,
   "halalConfidence": "likely",
   "source": "osm"
  },
  {
   "nom": "Hachmy tacos",
   "type": "sandwich, moroccan",
   "priceRange": "€€",
   "mapsUrl": "https://maps.google.com/?q=43.792311,11.2139547",
   "lat": 43.792311,
   "lng": 11.2139547,
   "halalConfidence": "likely",
   "source": "osm"
  },
  {
   "nom": "FC Kebab Pizza",
   "type": "kebab",
   "priceRange": "€€",
   "mapsUrl": "https://maps.google.com/?q=43.7782168,11.2024387",
   "lat": 43.7782168,
   "lng": 11.2024387,
   "halalConfidence": "likely",
   "source": "osm"
  },
  {
   "nom": "kebab Fiesole",
   "type": "kebab",
   "priceRange": "€€",
   "mapsUrl": "https://maps.google.com/?q=43.8070195,11.2947927",
   "lat": 43.8070195,
   "lng": 11.2947927,
   "halalConfidence": "likely",
   "source": "osm"
  },
  {
   "nom": "Bar Pizza Kebab",
   "type": "kebab, pizza",
   "priceRange": "€€",
   "mapsUrl": "https://maps.google.com/?q=43.7999341,11.1931604",
   "lat": 43.7999341,
   "lng": 11.1931604,
   "halalConfidence": "likely",
   "source": "osm"
  },
  {
   "nom": "Star",
   "type": "kebab",
   "priceRange": "€€",
   "mapsUrl": "https://maps.google.com/?q=43.7653587,11.1705872",
   "lat": 43.7653587,
   "lng": 11.1705872,
   "halalConfidence": "likely",
   "source": "osm"
  }
 ],
 "hotels": [
  {
   "nom": "Hostel Veronique",
   "categorie": "Hôtel",
   "priceRange": "€€",
   "mapsUrl": "https://maps.google.com/?q=43.7702402,11.2550551",
   "lat": 43.7702402,
   "lng": 11.2550551,
   "halalFriendly": false,
   "bookingUrl": "https://maps.google.com/?q=43.7702402,11.2550551",
   "source": "osm"
  },
  {
   "nom": "Bronze Horse",
   "categorie": "Maison d'hôtes",
   "priceRange": "€€",
   "mapsUrl": "https://maps.google.com/?q=43.7701862,11.2567171",
   "lat": 43.7701862,
   "lng": 11.2567171,
   "halalFriendly": false,
   "bookingUrl": "https://maps.google.com/?q=43.7701862,11.2567171",
   "source": "osm"
  },
  {
   "nom": "Por Santa Maria",
   "categorie": "Hôtel",
   "priceRange": "€€",
   "mapsUrl": "https://maps.google.com/?q=43.7698358,11.2545678",
   "lat": 43.7698358,
   "lng": 11.2545678,
   "halalFriendly": false,
   "bookingUrl": "https://maps.google.com/?q=43.7698358,11.2545678",
   "source": "osm"
  },
  {
   "nom": "Piazza di San Firenze 3",
   "categorie": "Hôtel",
   "priceRange": "€€",
   "mapsUrl": "https://maps.google.com/?q=43.7701025,11.2569589",
   "lat": 43.7701025,
   "lng": 11.2569589,
   "halalFriendly": false,
   "bookingUrl": "https://www.sanfirenzesuites.com/",
   "source": "osm"
  },
  {
   "nom": "Il Gattopardo B&B",
   "categorie": "Maison d'hôtes",
   "priceRange": "€€",
   "mapsUrl": "https://maps.google.com/?q=43.7704631,11.2567985",
   "lat": 43.7704631,
   "lng": 11.2567985,
   "halalFriendly": false,
   "bookingUrl": "https://www.gattopardofirenze.it/",
   "source": "osm"
  },
  {
   "nom": "San Firenze Suites",
   "categorie": "Hôtel",
   "priceRange": "€€",
   "mapsUrl": "https://maps.google.com/?q=43.7700684,11.2573366",
   "lat": 43.7700684,
   "lng": 11.2573366,
   "halalFriendly": false,
   "bookingUrl": "https://maps.google.com/?q=43.7700684,11.2573366",
   "source": "osm"
  },
  {
   "nom": "Le stanze del David",
   "categorie": "Maison d'hôtes",
   "priceRange": "€€",
   "mapsUrl": "https://maps.google.com/?q=43.7708113,11.2558179",
   "lat": 43.7708113,
   "lng": 11.2558179,
   "halalFriendly": false,
   "bookingUrl": "https://www.stanzedeldavid.it/",
   "source": "osm"
  },
  {
   "nom": "Hotel Bernini",
   "categorie": "Hôtel",
   "priceRange": "€€",
   "mapsUrl": "https://maps.google.com/?q=43.7693614,11.2575861",
   "lat": 43.7693614,
   "lng": 11.2575861,
   "halalFriendly": false,
   "bookingUrl": "https://maps.google.com/?q=43.7693614,11.2575861",
   "source": "osm"
  },
  {
   "nom": "Hotel della Signoria",
   "categorie": "Hôtel",
   "priceRange": "€€",
   "mapsUrl": "https://maps.google.com/?q=43.7693026,11.2538719",
   "lat": 43.7693026,
   "lng": 11.2538719,
   "halalFriendly": false,
   "bookingUrl": "https://maps.google.com/?q=43.7693026,11.2538719",
   "source": "osm"
  },
  {
   "nom": "Relais Cavalcanti Guest House",
   "categorie": "Hôtel",
   "priceRange": "€€",
   "mapsUrl": "https://maps.google.com/?q=43.769919,11.2536657",
   "lat": 43.769919,
   "lng": 11.2536657,
   "halalFriendly": false,
   "bookingUrl": "https://www.relaiscavalcanti.com/",
   "source": "osm"
  },
  {
   "nom": "Hotel Pierre",
   "categorie": "Hôtel",
   "priceRange": "€€",
   "mapsUrl": "https://maps.google.com/?q=43.770519,11.253998",
   "lat": 43.770519,
   "lng": 11.253998,
   "halalFriendly": false,
   "bookingUrl": "https://maps.google.com/?q=43.770519,11.253998",
   "source": "osm"
  },
  {
   "nom": "Hotel Hermitage",
   "categorie": "Hôtel",
   "priceRange": "€€",
   "mapsUrl": "https://maps.google.com/?q=43.7684759,11.2539488",
   "lat": 43.7684759,
   "lng": 11.2539488,
   "halalFriendly": false,
   "bookingUrl": "https://maps.google.com/?q=43.7684759,11.2539488",
   "source": "osm"
  },
  {
   "nom": "Hotel degli Orafi",
   "categorie": "Hôtel",
   "priceRange": "€€",
   "mapsUrl": "https://maps.google.com/?q=43.7681139,11.2545178",
   "lat": 43.7681139,
   "lng": 11.2545178,
   "halalFriendly": false,
   "bookingUrl": "https://www.hoteldegliorafi.it/",
   "source": "osm"
  },
  {
   "nom": "Olimpia",
   "categorie": "Hôtel",
   "priceRange": "€€",
   "mapsUrl": "https://maps.google.com/?q=43.7710608,11.2542802",
   "lat": 43.7710608,
   "lng": 11.2542802,
   "halalFriendly": false,
   "bookingUrl": "https://maps.google.com/?q=43.7710608,11.2542802",
   "source": "osm"
  },
  {
   "nom": "Sani Tourist House",
   "categorie": "Maison d'hôtes",
   "priceRange": "€€",
   "mapsUrl": "https://maps.google.com/?q=43.7710917,11.257271",
   "lat": 43.7710917,
   "lng": 11.257271,
   "halalFriendly": false,
   "bookingUrl": "https://maps.google.com/?q=43.7710917,11.257271",
   "source": "osm"
  },
  {
   "nom": "BB Repubblica",
   "categorie": "Hôtel",
   "priceRange": "€€",
   "mapsUrl": "https://maps.google.com/?q=43.7710801,11.2542802",
   "lat": 43.7710801,
   "lng": 11.2542802,
   "halalFriendly": false,
   "bookingUrl": "https://maps.google.com/?q=43.7710801,11.2542802",
   "source": "osm"
  },
  {
   "nom": "Albergo Firenze",
   "categorie": "Hôtel",
   "priceRange": "€€€",
   "score": 3,
   "mapsUrl": "https://maps.google.com/?q=43.7713211,11.2567268",
   "lat": 43.7713211,
   "lng": 11.2567268,
   "halalFriendly": false,
   "bookingUrl": "https://www.hotelfirenze-fi.it/it/",
   "source": "osm"
  },
  {
   "nom": "Grand Hotel Cavour",
   "categorie": "Hôtel",
   "priceRange": "€€",
   "mapsUrl": "https://maps.google.com/?q=43.7711053,11.2577948",
   "lat": 43.7711053,
   "lng": 11.2577948,
   "halalFriendly": false,
   "bookingUrl": "https://www.hotelcavour.com/",
   "source": "osm"
  },
  {
   "nom": "B&B Il Bargello",
   "categorie": "Maison d'hôtes",
   "priceRange": "€€",
   "mapsUrl": "https://maps.google.com/?q=43.770883,11.2581325",
   "lat": 43.770883,
   "lng": 11.2581325,
   "halalFriendly": false,
   "bookingUrl": "https://maps.google.com/?q=43.770883,11.2581325",
   "source": "osm"
  },
  {
   "nom": "Hotel Torre Guelfa",
   "categorie": "Hôtel",
   "priceRange": "€€",
   "mapsUrl": "https://maps.google.com/?q=43.7692561,11.2529017",
   "lat": 43.7692561,
   "lng": 11.2529017,
   "halalFriendly": false,
   "bookingUrl": "https://maps.google.com/?q=43.7692561,11.2529017",
   "source": "osm"
  },
  {
   "nom": "Hotel Brunelleschi Firenze",
   "categorie": "Hôtel",
   "priceRange": "€€",
   "mapsUrl": "https://maps.google.com/?q=43.7717261,11.2558767",
   "lat": 43.7717261,
   "lng": 11.2558767,
   "halalFriendly": false,
   "bookingUrl": "https://maps.google.com/?q=43.7717261,11.2558767",
   "source": "osm"
  },
  {
   "nom": "Hotel Davanzati",
   "categorie": "Hôtel",
   "priceRange": "€€€",
   "score": 3,
   "mapsUrl": "https://maps.google.com/?q=43.77016,11.2529479",
   "lat": 43.77016,
   "lng": 11.2529479,
   "halalFriendly": false,
   "bookingUrl": "https://www.hoteldavanzati.it",
   "source": "osm"
  },
  {
   "nom": "Portrait Firenze",
   "categorie": "Hôtel",
   "priceRange": "€€",
   "mapsUrl": "https://maps.google.com/?q=43.7688217,11.2528604",
   "lat": 43.7688217,
   "lng": 11.2528604,
   "halalFriendly": false,
   "bookingUrl": "https://maps.google.com/?q=43.7688217,11.2528604",
   "source": "osm"
  },
  {
   "nom": "Savoy",
   "categorie": "Hôtel",
   "priceRange": "€€€€",
   "score": 5,
   "mapsUrl": "https://maps.google.com/?q=43.7717214,11.2545542",
   "lat": 43.7717214,
   "lng": 11.2545542,
   "halalFriendly": false,
   "bookingUrl": "http://www.hotelsavoy.it/",
   "source": "osm"
  },
  {
   "nom": "Hotel Alessandra",
   "categorie": "Hôtel",
   "priceRange": "€€",
   "mapsUrl": "https://maps.google.com/?q=43.76927,11.2525587",
   "lat": 43.76927,
   "lng": 11.2525587,
   "halalFriendly": false,
   "bookingUrl": "https://maps.google.com/?q=43.76927,11.2525587",
   "source": "osm"
  },
  {
   "nom": "Medici",
   "categorie": "Hôtel",
   "priceRange": "€€",
   "mapsUrl": "https://maps.google.com/?q=43.7720158,11.2548755",
   "lat": 43.7720158,
   "lng": 11.2548755,
   "halalFriendly": false,
   "bookingUrl": "https://www.hotelmedici.it/",
   "source": "osm"
  },
  {
   "nom": "Santa Croce",
   "categorie": "Hôtel",
   "priceRange": "€€",
   "mapsUrl": "https://maps.google.com/?q=43.7692594,11.2592579",
   "lat": 43.7692594,
   "lng": 11.2592579,
   "halalFriendly": false,
   "bookingUrl": "https://maps.google.com/?q=43.7692594,11.2592579",
   "source": "osm"
  },
  {
   "nom": "Hotel De Lanzi",
   "categorie": "Hôtel",
   "priceRange": "€€",
   "mapsUrl": "https://maps.google.com/?q=43.7721856,11.2557648",
   "lat": 43.7721856,
   "lng": 11.2557648,
   "halalFriendly": false,
   "bookingUrl": "https://maps.google.com/?q=43.7721856,11.2557648",
   "source": "osm"
  },
  {
   "nom": "Hotel Benivieni",
   "categorie": "Hôtel",
   "priceRange": "€€€",
   "score": 3,
   "mapsUrl": "https://maps.google.com/?q=43.7721603,11.2564079",
   "lat": 43.7721603,
   "lng": 11.2564079,
   "halalFriendly": false,
   "bookingUrl": "https://hotelbenivieni.it/",
   "source": "osm"
  },
  {
   "nom": "Pendini",
   "categorie": "Hôtel",
   "priceRange": "€€",
   "mapsUrl": "https://maps.google.com/?q=43.7715204,11.2533292",
   "lat": 43.7715204,
   "lng": 11.2533292,
   "halalFriendly": false,
   "bookingUrl": "https://maps.google.com/?q=43.7715204,11.2533292",
   "source": "osm"
  }
 ],
 "mosqueesPrincipales": [
  {
   "id": "m442508011",
   "nom": "Chiesa di Orsanmichele",
   "type": "Mosquée",
   "adresse": "",
   "description": "Lieu de prière (OpenStreetMap).",
   "mapsUrl": "https://maps.google.com/?q=43.770714,11.2550182",
   "lat": 43.770714,
   "lng": 11.2550182,
   "source": "osm"
  },
  {
   "id": "m43768260",
   "nom": "Cattedrale di Santa Maria del Fiore",
   "type": "Mosquée",
   "adresse": "",
   "description": "Lieu de prière (OpenStreetMap).",
   "mapsUrl": "https://maps.google.com/?q=43.7731165,11.2565741",
   "lat": 43.7731165,
   "lng": 11.2565741,
   "source": "osm"
  },
  {
   "id": "m166821303",
   "nom": "Battistero di San Giovanni",
   "type": "Mosquée",
   "adresse": "",
   "description": "Lieu de prière (OpenStreetMap).",
   "mapsUrl": "https://maps.google.com/?q=43.7731479,11.2550301",
   "lat": 43.7731479,
   "lng": 11.2550301,
   "source": "osm"
  },
  {
   "id": "m777563049",
   "nom": "Basilica di Santa Croce",
   "type": "Mosquée",
   "adresse": "Piazza Santa Croce",
   "description": "Lieu de prière (OpenStreetMap).",
   "mapsUrl": "https://maps.google.com/?q=43.768361,11.2628865",
   "lat": 43.768361,
   "lng": 11.2628865,
   "source": "osm"
  },
  {
   "id": "m599900778",
   "nom": "Basilica di San Lorenzo",
   "type": "Mosquée",
   "adresse": "",
   "description": "Lieu de prière (OpenStreetMap).",
   "mapsUrl": "https://maps.google.com/?q=43.774962,11.2540389",
   "lat": 43.774962,
   "lng": 11.2540389,
   "source": "osm"
  },
  {
   "id": "m4701406592",
   "nom": "Cappella dei Magi",
   "type": "Mosquée",
   "adresse": "",
   "description": "Lieu de prière (OpenStreetMap).",
   "mapsUrl": "https://maps.google.com/?q=43.7751181,11.2558589",
   "lat": 43.7751181,
   "lng": 11.2558589,
   "source": "osm"
  },
  {
   "id": "m449369047",
   "nom": "Basilica di Santa Maria Novella",
   "type": "Mosquée",
   "adresse": "Piazza di Santa Maria Novella, Firenze",
   "description": "Lieu de prière (OpenStreetMap).",
   "mapsUrl": "https://maps.google.com/?q=43.7746763,11.24942",
   "lat": 43.7746763,
   "lng": 11.24942,
   "source": "osm"
  },
  {
   "id": "m306378155",
   "nom": "Oratorio di San Sebastiano de' Bini",
   "type": "Mosquée",
   "adresse": "",
   "description": "Lieu de prière (OpenStreetMap).",
   "mapsUrl": "https://maps.google.com/?q=43.7646667,11.2469239",
   "lat": 43.7646667,
   "lng": 11.2469239,
   "source": "osm"
  },
  {
   "id": "m184781037",
   "nom": "Basilica di San Miniato al Monte",
   "type": "Mosquée",
   "adresse": "",
   "description": "Lieu de prière (OpenStreetMap).",
   "mapsUrl": "https://maps.google.com/?q=43.7594513,11.2651073",
   "lat": 43.7594513,
   "lng": 11.2651073,
   "source": "osm"
  },
  {
   "id": "m173926785",
   "nom": "Chiesa di San Francesco",
   "type": "Mosquée",
   "adresse": "",
   "description": "Lieu de prière (OpenStreetMap).",
   "mapsUrl": "https://maps.google.com/?q=43.8079501,11.2899438",
   "lat": 43.8079501,
   "lng": 11.2899438,
   "source": "osm"
  }
 ],
 "activites": [
  {
   "id": "a6511055585",
   "nom": "Girolamo Savonarola",
   "categorie": "memorial",
   "description": "",
   "prix": "",
   "duree": "",
   "mapsUrl": "https://maps.google.com/?q=43.7696269,11.2557568",
   "lat": 43.7696269,
   "lng": 11.2557568,
   "source": "osm"
  },
  {
   "id": "a6548893485",
   "nom": "Cortile di Michelozzo",
   "categorie": "attraction",
   "description": "",
   "prix": "",
   "duree": "",
   "mapsUrl": "https://maps.google.com/?q=43.7692155,11.2559974",
   "lat": 43.7692155,
   "lng": 11.2559974,
   "source": "osm"
  },
  {
   "id": "a43284457",
   "nom": "Loggia dei Lanzi",
   "categorie": "attraction",
   "description": "",
   "prix": "",
   "duree": "",
   "mapsUrl": "https://maps.google.com/?q=43.7692,11.2555551",
   "lat": 43.7692,
   "lng": 11.2555551,
   "source": "osm"
  },
  {
   "id": "a1536508482",
   "nom": "Gucci Museum",
   "categorie": "museum",
   "description": "",
   "prix": "",
   "duree": "",
   "mapsUrl": "https://maps.google.com/?q=43.7697152,11.2567733",
   "lat": 43.7697152,
   "lng": 11.2567733,
   "source": "osm"
  },
  {
   "id": "a8037518285",
   "nom": "Bizzarri Spezie",
   "categorie": "attraction",
   "description": "",
   "prix": "",
   "duree": "",
   "mapsUrl": "https://maps.google.com/?q=43.7702562,11.2564932",
   "lat": 43.7702562,
   "lng": 11.2564932,
   "source": "osm"
  },
  {
   "id": "a1536508344",
   "nom": "Gabinetto dei Disegni e delle Stampe degli Uffizi",
   "categorie": "museum",
   "description": "",
   "prix": "",
   "duree": "",
   "mapsUrl": "https://maps.google.com/?q=43.7687716,11.2561725",
   "lat": 43.7687716,
   "lng": 11.2561725,
   "source": "osm"
  },
  {
   "id": "a7486414206",
   "nom": "Soldati in battaglia",
   "categorie": "memorial",
   "description": "",
   "prix": "",
   "duree": "",
   "mapsUrl": "https://maps.google.com/?q=43.7701994,11.2549123",
   "lat": 43.7701994,
   "lng": 11.2549123,
   "source": "osm"
  },
  {
   "id": "a1536508367",
   "nom": "Museo di Orsanmichele",
   "categorie": "museum",
   "description": "",
   "prix": "",
   "duree": "",
   "mapsUrl": "https://maps.google.com/?q=43.7706758,11.2551815",
   "lat": 43.7706758,
   "lng": 11.2551815,
   "source": "osm"
  },
  {
   "id": "a27590454",
   "nom": "Mercato del Porcellino",
   "categorie": "attraction",
   "description": "",
   "prix": "",
   "duree": "",
   "mapsUrl": "https://maps.google.com/?q=43.7700231,11.254236",
   "lat": 43.7700231,
   "lng": 11.254236,
   "source": "osm"
  },
  {
   "id": "a477279033",
   "nom": "Galleria degli Uffizi",
   "categorie": "museum",
   "description": "",
   "prix": "",
   "duree": "",
   "mapsUrl": "https://maps.google.com/?q=43.7683966,11.2554739",
   "lat": 43.7683966,
   "lng": 11.2554739,
   "source": "osm"
  },
  {
   "id": "a95537272",
   "nom": "Palazzo dell'Arte della Lana",
   "categorie": "museum",
   "description": "",
   "prix": "",
   "duree": "",
   "mapsUrl": "https://maps.google.com/?q=43.770729,11.2546111",
   "lat": 43.770729,
   "lng": 11.2546111,
   "source": "osm"
  },
  {
   "id": "a253942619",
   "nom": "Chiesa di Santo Stefano al Ponte",
   "categorie": "museum",
   "description": "",
   "prix": "",
   "duree": "",
   "mapsUrl": "https://maps.google.com/?q=43.7686292,11.2543086",
   "lat": 43.7686292,
   "lng": 11.2543086,
   "source": "osm"
  },
  {
   "id": "a5964329388",
   "nom": "Fondazione Zeffirelli Onlus",
   "categorie": "museum",
   "description": "",
   "prix": "",
   "duree": "",
   "mapsUrl": "https://maps.google.com/?q=43.7696353,11.2578115",
   "lat": 43.7696353,
   "lng": 11.2578115,
   "source": "osm"
  },
  {
   "id": "a3519960102",
   "nom": "Museo diocesano di Santo Stefano al Ponte",
   "categorie": "museum",
   "description": "",
   "prix": "",
   "duree": "",
   "mapsUrl": "https://maps.google.com/?q=43.7686415,11.2540451",
   "lat": 43.7686415,
   "lng": 11.2540451,
   "source": "osm"
  },
  {
   "id": "a2934171474",
   "nom": "Casa di Dante",
   "categorie": "museum",
   "description": "",
   "prix": "",
   "duree": "",
   "mapsUrl": "https://maps.google.com/?q=43.7710921,11.2570496",
   "lat": 43.7710921,
   "lng": 11.2570496,
   "source": "osm"
  },
  {
   "id": "a43837065",
   "nom": "Palazzo del Bargello",
   "categorie": "museum",
   "description": "",
   "prix": "",
   "duree": "",
   "mapsUrl": "https://maps.google.com/?q=43.7703909,11.2582473",
   "lat": 43.7703909,
   "lng": 11.2582473,
   "source": "osm"
  },
  {
   "id": "a3518187675",
   "nom": "Museo Galileo - Istituto e Museo di Storia della Scienza",
   "categorie": "museum",
   "description": "",
   "prix": "",
   "duree": "",
   "mapsUrl": "https://maps.google.com/?q=43.7676642,11.2559063",
   "lat": 43.7676642,
   "lng": 11.2559063,
   "source": "osm"
  },
  {
   "id": "a946019247",
   "nom": "Le Giubbe Rosse",
   "categorie": "attraction",
   "description": "",
   "prix": "",
   "duree": "",
   "mapsUrl": "https://maps.google.com/?q=43.7710855,11.2539249",
   "lat": 43.7710855,
   "lng": 11.2539249,
   "source": "osm"
  },
  {
   "id": "a7192709049",
   "nom": "MARIO MELLI GENAZZANI",
   "categorie": "memorial",
   "description": "",
   "prix": "",
   "duree": "",
   "mapsUrl": "https://maps.google.com/?q=43.7710036,11.2579319",
   "lat": 43.7710036,
   "lng": 11.2579319,
   "source": "osm"
  },
  {
   "id": "a7192692643",
   "nom": "ELENA GENAZZANI",
   "categorie": "memorial",
   "description": "",
   "prix": "",
   "duree": "",
   "mapsUrl": "https://maps.google.com/?q=43.7710051,11.2579326",
   "lat": 43.7710051,
   "lng": 11.2579326,
   "source": "osm"
  },
  {
   "id": "a7192633353",
   "nom": "ABRAMO GENAZZANI",
   "categorie": "memorial",
   "description": "",
   "prix": "",
   "duree": "",
   "mapsUrl": "https://maps.google.com/?q=43.771008,11.2579332",
   "lat": 43.771008,
   "lng": 11.2579332,
   "source": "osm"
  },
  {
   "id": "a307153268",
   "nom": "Palazzo Davanzati",
   "categorie": "museum",
   "description": "",
   "prix": "",
   "duree": "",
   "mapsUrl": "https://maps.google.com/?q=43.7700371,11.2528976",
   "lat": 43.7700371,
   "lng": 11.2528976,
   "source": "osm"
  },
  {
   "id": "a1715896562",
   "nom": "Benvenuto Cellini",
   "categorie": "memorial",
   "description": "",
   "prix": "",
   "duree": "",
   "mapsUrl": "https://maps.google.com/?q=43.7680593,11.253084",
   "lat": 43.7680593,
   "lng": 11.253084,
   "source": "osm"
  },
  {
   "id": "a9994719898",
   "nom": "DIODATO GASTONE SADUN",
   "categorie": "memorial",
   "description": "",
   "prix": "",
   "duree": "",
   "mapsUrl": "https://maps.google.com/?q=43.7722,11.2558077",
   "lat": 43.7722,
   "lng": 11.2558077,
   "source": "osm"
  },
  {
   "id": "a518287976",
   "nom": "Museo delle illusioni",
   "categorie": "museum",
   "description": "",
   "prix": "",
   "duree": "",
   "mapsUrl": "https://maps.google.com/?q=43.7714146,11.2584895",
   "lat": 43.7714146,
   "lng": 11.2584895,
   "source": "osm"
  },
  {
   "id": "a1344547176",
   "nom": "Corridoio Vasariano",
   "categorie": "museum",
   "description": "",
   "prix": "",
   "duree": "",
   "mapsUrl": "https://maps.google.com/?q=43.7674568,11.2536218",
   "lat": 43.7674568,
   "lng": 11.2536218,
   "source": "osm"
  },
  {
   "id": "a3120274425",
   "nom": "Museo nazionale di antropologia ed etnologia",
   "categorie": "museum",
   "description": "",
   "prix": "",
   "duree": "",
   "mapsUrl": "https://maps.google.com/?q=43.7717206,11.2580662",
   "lat": 43.7717206,
   "lng": 11.2580662,
   "source": "osm"
  },
  {
   "id": "a2462720057",
   "nom": "Monumento ai caduti della battaglia de Mentana",
   "categorie": "memorial",
   "description": "",
   "prix": "",
   "duree": "",
   "mapsUrl": "https://maps.google.com/?q=43.7672678,11.2577335",
   "lat": 43.7672678,
   "lng": 11.2577335,
   "source": "osm"
  },
  {
   "id": "a5934103586",
   "nom": "Belvedere sull'Arno",
   "categorie": "viewpoint",
   "description": "",
   "prix": "",
   "duree": "",
   "mapsUrl": "https://maps.google.com/?q=43.7670509,11.2544408",
   "lat": 43.7670509,
   "lng": 11.2544408,
   "source": "osm"
  },
  {
   "id": "a946018387",
   "nom": "Caffè Concerto Paszkowski",
   "categorie": "attraction",
   "description": "",
   "prix": "",
   "duree": "",
   "mapsUrl": "https://maps.google.com/?q=43.7719481,11.2537037",
   "lat": 43.7719481,
   "lng": 11.2537037,
   "source": "osm"
  }
 ],
 "scoreIndicatif": true,
 "osmEnriched": true,
 "osmEnrichedAt": "2026-06-30"
}
