{
  "slug": "gaza",
  "nom": "Gaza",
  "pays": "Palestine",
  "pays_slug": "palestine",
  "continent": "Moyen-Orient",
  "region": "Palestine",
  "coordonnees": {
    "lat": 31.5017,
    "lng": 34.4668
  },
  "codeISO": "PS",
  "score_halal": 4.2,
  "halalScore": 8.4,
  "description": "Gaza, Palestine. Forte présence musulmane : nombreuses adresses halal et mosquées.",
  "metaDescription": "Gaza, Palestine. Forte présence musulmane : nombreuses adresses halal et mosquées.",
  "image": "https://upload.wikimedia.org/wikipedia/commons/thumb/0/0c/Gaza_Beach.jpg/1920px-Gaza_Beach.jpg",
  "image_hero": "https://upload.wikimedia.org/wikipedia/commons/thumb/0/0c/Gaza_Beach.jpg/1920px-Gaza_Beach.jpg",
  "imageCredit": "Wikimedia Commons",
  "scoreIndicatif": true,
  "statistiques": {
    "restaurants_halal": 7,
    "mosquees": 150,
    "hotels": 120
  },
  "infoPratique": {
    "transport": "Accessible par avion et transports locaux.",
    "meilleureEpoque": "Selon la saison.",
    "conseilHalal": "Repérez restaurants halal et mosquées via l'application."
  },
  "tags": [
    "halal",
    "moyen-orient"
  ],
  "restaurants": [
    {
      "nom": "مطعم لفة شاورما",
      "type": "شاورما دجاج, شاورما ضاني",
      "priceRange": "€€",
      "mapsUrl": "https://maps.google.com/?q=31.5071167,34.4708098",
      "lat": 31.5071167,
      "lng": 34.4708098,
      "halalConfidence": "yes",
      "source": "osm"
    },
    {
      "nom": "Sha'foot Restaurant",
      "type": "kebab",
      "priceRange": "€€",
      "mapsUrl": "https://maps.google.com/?q=31.4927187,34.4540271",
      "lat": 31.4927187,
      "lng": 34.4540271,
      "halalConfidence": "likely",
      "source": "osm"
    },
    {
      "nom": "Almalooky",
      "type": "shawarma",
      "priceRange": "€€",
      "mapsUrl": "https://maps.google.com/?q=31.5177219,34.4460296",
      "lat": 31.5177219,
      "lng": 34.4460296,
      "halalConfidence": "likely",
      "source": "osm"
    },
    {
      "nom": "مطعم بريك",
      "type": "arab, breakfast, burger, cake, chicken, crepe, chinese, coffee shop, ice cream, pizza, sandwich, tea",
      "priceRange": "€€",
      "mapsUrl": "https://maps.google.com/?q=31.5105177,34.4388104",
      "lat": 31.5105177,
      "lng": 34.4388104,
      "halalConfidence": "likely",
      "source": "osm"
    },
    {
      "nom": "Al-Shawa Restaurant",
      "type": "kebab",
      "priceRange": "€€",
      "mapsUrl": "https://maps.google.com/?q=31.5222622,34.4461919",
      "lat": 31.5222622,
      "lng": 34.4461919,
      "halalConfidence": "likely",
      "source": "osm"
    },
    {
      "nom": "مطعم العمدة",
      "type": "arab",
      "priceRange": "€€",
      "mapsUrl": "https://maps.google.com/?q=31.525072,34.449018",
      "lat": 31.525072,
      "lng": 34.449018,
      "halalConfidence": "likely",
      "source": "osm"
    },
    {
      "nom": "مطعم أبوالسعيد للمشاوي والمجمدات",
      "type": "barbecue, chicken, fish, grill, kebab, sandwich, steak house",
      "priceRange": "€€",
      "mapsUrl": "https://maps.google.com/?q=31.5040215,34.4268309",
      "lat": 31.5040215,
      "lng": 34.4268309,
      "halalConfidence": "likely",
      "source": "osm"
    }
  ],
  "hotels": [
    {
      "nom": "منزل د. أكرم الحلاق",
      "categorie": "Appartement",
      "priceRange": "€€",
      "mapsUrl": "https://maps.google.com/?q=31.5029827,34.4695069",
      "lat": 31.5029827,
      "lng": 34.4695069,
      "halalFriendly": false,
      "bookingUrl": "https://maps.google.com/?q=31.5029827,34.4695069",
      "source": "osm"
    },
    {
      "nom": "منزل ابو العون",
      "categorie": "Maison d'hôtes",
      "priceRange": "€€",
      "mapsUrl": "https://maps.google.com/?q=31.5021616,34.471467",
      "lat": 31.5021616,
      "lng": 34.471467,
      "halalFriendly": false,
      "bookingUrl": "https://maps.google.com/?q=31.5021616,34.471467",
      "source": "osm"
    },
    {
      "nom": "مبنى بلدية قديم",
      "categorie": "Appartement",
      "priceRange": "€€",
      "mapsUrl": "https://maps.google.com/?q=31.5050358,34.4629179",
      "lat": 31.5050358,
      "lng": 34.4629179,
      "halalFriendly": false,
      "bookingUrl": "https://maps.google.com/?q=31.5050358,34.4629179",
      "source": "osm"
    },
    {
      "nom": "غالب الخضري",
      "categorie": "Appartement",
      "priceRange": "€€",
      "mapsUrl": "https://maps.google.com/?q=31.5013836,34.4727215",
      "lat": 31.5013836,
      "lng": 34.4727215,
      "halalFriendly": false,
      "bookingUrl": "https://maps.google.com/?q=31.5013836,34.4727215",
      "source": "osm"
    },
    {
      "nom": "عايشة - الغولة",
      "categorie": "Appartement",
      "priceRange": "€€",
      "mapsUrl": "https://maps.google.com/?q=31.5002263,34.4728219",
      "lat": 31.5002263,
      "lng": 34.4728219,
      "halalFriendly": false,
      "bookingUrl": "https://maps.google.com/?q=31.5002263,34.4728219",
      "source": "osm"
    },
    {
      "nom": "منزل ابو على مشتهي",
      "categorie": "Maison d'hôtes",
      "priceRange": "€€",
      "mapsUrl": "https://maps.google.com/?q=31.5013414,34.474653",
      "lat": 31.5013414,
      "lng": 34.474653,
      "halalFriendly": false,
      "bookingUrl": "https://maps.google.com/?q=31.5013414,34.474653",
      "source": "osm"
    },
    {
      "nom": "احمد الحاج سالم",
      "categorie": "Appartement",
      "priceRange": "€€",
      "mapsUrl": "https://maps.google.com/?q=31.4947961,34.4663063",
      "lat": 31.4947961,
      "lng": 34.4663063,
      "halalFriendly": false,
      "bookingUrl": "https://maps.google.com/?q=31.4947961,34.4663063",
      "source": "osm"
    },
    {
      "nom": "مستفيد HI",
      "categorie": "Appartement",
      "priceRange": "€€",
      "mapsUrl": "https://maps.google.com/?q=31.496811,34.4725694",
      "lat": 31.496811,
      "lng": 34.4725694,
      "halalFriendly": false,
      "bookingUrl": "https://maps.google.com/?q=31.496811,34.4725694",
      "source": "osm"
    },
    {
      "nom": "بيت أبو علاء السيقلي",
      "categorie": "Appartement",
      "priceRange": "€€",
      "mapsUrl": "https://maps.google.com/?q=31.5012227,34.4750803",
      "lat": 31.5012227,
      "lng": 34.4750803,
      "halalFriendly": false,
      "bookingUrl": "https://maps.google.com/?q=31.5012227,34.4750803",
      "source": "osm"
    },
    {
      "nom": "ديوان ال دلول",
      "categorie": "Maison d'hôtes",
      "priceRange": "€€",
      "mapsUrl": "https://maps.google.com/?q=31.4983353,34.4594206",
      "lat": 31.4983353,
      "lng": 34.4594206,
      "halalFriendly": false,
      "bookingUrl": "https://maps.google.com/?q=31.4983353,34.4594206",
      "source": "osm"
    },
    {
      "nom": "أبو جميل الغفري",
      "categorie": "Appartement",
      "priceRange": "€€",
      "mapsUrl": "https://maps.google.com/?q=31.5088231,34.4715878",
      "lat": 31.5088231,
      "lng": 34.4715878,
      "halalFriendly": false,
      "bookingUrl": "https://maps.google.com/?q=31.5088231,34.4715878",
      "source": "osm"
    },
    {
      "nom": "ديوان",
      "categorie": "Appartement",
      "priceRange": "€€",
      "mapsUrl": "https://maps.google.com/?q=31.5098837,34.464197",
      "lat": 31.5098837,
      "lng": 34.464197,
      "halalFriendly": false,
      "bookingUrl": "https://maps.google.com/?q=31.5098837,34.464197",
      "source": "osm"
    },
    {
      "nom": "منزل احمد ابو العطا",
      "categorie": "Appartement",
      "priceRange": "€€",
      "mapsUrl": "https://maps.google.com/?q=31.4942679,34.471889",
      "lat": 31.4942679,
      "lng": 34.471889,
      "halalFriendly": false,
      "bookingUrl": "https://maps.google.com/?q=31.4942679,34.471889",
      "source": "osm"
    },
    {
      "nom": "أبو خالد",
      "categorie": "Appartement",
      "priceRange": "€€",
      "mapsUrl": "https://maps.google.com/?q=31.4995586,34.4771938",
      "lat": 31.4995586,
      "lng": 34.4771938,
      "halalFriendly": false,
      "bookingUrl": "https://maps.google.com/?q=31.4995586,34.4771938",
      "source": "osm"
    },
    {
      "nom": "حلس",
      "categorie": "Appartement",
      "priceRange": "€€",
      "mapsUrl": "https://maps.google.com/?q=31.4932382,34.4708563",
      "lat": 31.4932382,
      "lng": 34.4708563,
      "halalFriendly": false,
      "bookingUrl": "https://maps.google.com/?q=31.4932382,34.4708563",
      "source": "osm"
    },
    {
      "nom": "عايشة - الحلو",
      "categorie": "Appartement",
      "priceRange": "€€",
      "mapsUrl": "https://maps.google.com/?q=31.4964726,34.4760801",
      "lat": 31.4964726,
      "lng": 34.4760801,
      "halalFriendly": false,
      "bookingUrl": "https://maps.google.com/?q=31.4964726,34.4760801",
      "source": "osm"
    },
    {
      "nom": "مسجد الفتح المبين",
      "categorie": "Hôtel",
      "priceRange": "€€",
      "mapsUrl": "https://maps.google.com/?q=31.5040543,34.4559893",
      "lat": 31.5040543,
      "lng": 34.4559893,
      "halalFriendly": false,
      "bookingUrl": "https://maps.google.com/?q=31.5040543,34.4559893",
      "source": "osm"
    },
    {
      "nom": "ابو عاصي",
      "categorie": "Maison d'hôtes",
      "priceRange": "€€",
      "mapsUrl": "https://maps.google.com/?q=31.5113346,34.4658028",
      "lat": 31.5113346,
      "lng": 34.4658028,
      "halalFriendly": false,
      "bookingUrl": "https://maps.google.com/?q=31.5113346,34.4658028",
      "source": "osm"
    },
    {
      "nom": "عمارة الزوتينة",
      "categorie": "Appartement",
      "priceRange": "€€",
      "mapsUrl": "https://maps.google.com/?q=31.5091683,34.4742596",
      "lat": 31.5091683,
      "lng": 34.4742596,
      "halalFriendly": false,
      "bookingUrl": "https://maps.google.com/?q=31.5091683,34.4742596",
      "source": "osm"
    },
    {
      "nom": "حسونه حجي",
      "categorie": "Appartement",
      "priceRange": "€€",
      "mapsUrl": "https://maps.google.com/?q=31.4988922,34.4557584",
      "lat": 31.4988922,
      "lng": 34.4557584,
      "halalFriendly": false,
      "bookingUrl": "https://maps.google.com/?q=31.4988922,34.4557584",
      "source": "osm"
    },
    {
      "nom": "جهاد سكر",
      "categorie": "Appartement",
      "priceRange": "€€",
      "mapsUrl": "https://maps.google.com/?q=31.4997899,34.4788378",
      "lat": 31.4997899,
      "lng": 34.4788378,
      "halalFriendly": false,
      "bookingUrl": "https://maps.google.com/?q=31.4997899,34.4788378",
      "source": "osm"
    },
    {
      "nom": "بيت سمير المشهراوي",
      "categorie": "Maison d'hôtes",
      "priceRange": "€€",
      "mapsUrl": "https://maps.google.com/?q=31.5086498,34.4761186",
      "lat": 31.5086498,
      "lng": 34.4761186,
      "halalFriendly": false,
      "bookingUrl": "https://maps.google.com/?q=31.5086498,34.4761186",
      "source": "osm"
    },
    {
      "nom": "عمارة بور سعيد",
      "categorie": "Appartement",
      "priceRange": "€€",
      "mapsUrl": "https://maps.google.com/?q=31.5118179,34.4629019",
      "lat": 31.5118179,
      "lng": 34.4629019,
      "halalFriendly": false,
      "bookingUrl": "https://maps.google.com/?q=31.5118179,34.4629019",
      "source": "osm"
    },
    {
      "nom": "ديوان مختار الخضري",
      "categorie": "Maison d'hôtes",
      "priceRange": "€€",
      "mapsUrl": "https://maps.google.com/?q=31.4991815,34.4790531",
      "lat": 31.4991815,
      "lng": 34.4790531,
      "halalFriendly": false,
      "bookingUrl": "https://maps.google.com/?q=31.4991815,34.4790531",
      "source": "osm"
    },
    {
      "nom": "عمارة الحداد",
      "categorie": "Appartement",
      "priceRange": "€€",
      "mapsUrl": "https://maps.google.com/?q=31.5103711,34.459306",
      "lat": 31.5103711,
      "lng": 34.459306,
      "halalFriendly": false,
      "bookingUrl": "https://maps.google.com/?q=31.5103711,34.459306",
      "source": "osm"
    },
    {
      "nom": "عايشة - قدوم",
      "categorie": "Appartement",
      "priceRange": "€€",
      "mapsUrl": "https://maps.google.com/?q=31.4908483,34.4666406",
      "lat": 31.4908483,
      "lng": 34.4666406,
      "halalFriendly": false,
      "bookingUrl": "https://maps.google.com/?q=31.4908483,34.4666406",
      "source": "osm"
    },
    {
      "nom": "القواليشي - EducAid",
      "categorie": "Appartement",
      "priceRange": "€€",
      "mapsUrl": "https://maps.google.com/?q=31.4907119,34.4675845",
      "lat": 31.4907119,
      "lng": 34.4675845,
      "halalFriendly": false,
      "bookingUrl": "https://maps.google.com/?q=31.4907119,34.4675845",
      "source": "osm"
    },
    {
      "nom": "عايشة - عليوة",
      "categorie": "Appartement",
      "priceRange": "€€",
      "mapsUrl": "https://maps.google.com/?q=31.5028449,34.4803463",
      "lat": 31.5028449,
      "lng": 34.4803463,
      "halalFriendly": false,
      "bookingUrl": "https://maps.google.com/?q=31.5028449,34.4803463",
      "source": "osm"
    },
    {
      "nom": "عايشة - ابو سكران",
      "categorie": "Appartement",
      "priceRange": "€€",
      "mapsUrl": "https://maps.google.com/?q=31.5002748,34.4805508",
      "lat": 31.5002748,
      "lng": 34.4805508,
      "halalFriendly": false,
      "bookingUrl": "https://maps.google.com/?q=31.5002748,34.4805508",
      "source": "osm"
    },
    {
      "nom": "ابو محمد الانقر",
      "categorie": "Maison d'hôtes",
      "priceRange": "€€",
      "mapsUrl": "https://maps.google.com/?q=31.4903437,34.4623355",
      "lat": 31.4903437,
      "lng": 34.4623355,
      "halalFriendly": false,
      "bookingUrl": "https://maps.google.com/?q=31.4903437,34.4623355",
      "source": "osm"
    },
    {
      "nom": "ديوان عائلة الوادية",
      "categorie": "Maison d'hôtes",
      "priceRange": "€€",
      "mapsUrl": "https://maps.google.com/?q=31.4976906,34.480106",
      "lat": 31.4976906,
      "lng": 34.480106,
      "halalFriendly": false,
      "bookingUrl": "https://maps.google.com/?q=31.4976906,34.480106",
      "source": "osm"
    },
    {
      "nom": "عمارة الطارق",
      "categorie": "Appartement",
      "priceRange": "€€",
      "mapsUrl": "https://maps.google.com/?q=31.5089735,34.4555434",
      "lat": 31.5089735,
      "lng": 34.4555434,
      "halalFriendly": false,
      "bookingUrl": "https://maps.google.com/?q=31.5089735,34.4555434",
      "source": "osm"
    },
    {
      "nom": "سبيتان ستانلس",
      "categorie": "Appartement",
      "priceRange": "€€",
      "mapsUrl": "https://maps.google.com/?q=31.5124288,34.4736476",
      "lat": 31.5124288,
      "lng": 34.4736476,
      "halalFriendly": false,
      "bookingUrl": "https://maps.google.com/?q=31.5124288,34.4736476",
      "source": "osm"
    },
    {
      "nom": "Ayyad's home",
      "categorie": "Appartement",
      "priceRange": "€€",
      "mapsUrl": "https://maps.google.com/?q=31.5090253,34.4551268",
      "lat": 31.5090253,
      "lng": 34.4551268,
      "halalFriendly": false,
      "bookingUrl": "https://maps.google.com/?q=31.5090253,34.4551268",
      "source": "osm"
    },
    {
      "nom": "عايشة - ابو شخصه",
      "categorie": "Appartement",
      "priceRange": "€€",
      "mapsUrl": "https://maps.google.com/?q=31.491439,34.475021",
      "lat": 31.491439,
      "lng": 34.475021,
      "halalFriendly": false,
      "bookingUrl": "https://maps.google.com/?q=31.491439,34.475021",
      "source": "osm"
    },
    {
      "nom": "أبوعادل الوادية",
      "categorie": "Auberge",
      "priceRange": "€€",
      "mapsUrl": "https://maps.google.com/?q=31.4970577,34.4803797",
      "lat": 31.4970577,
      "lng": 34.4803797,
      "halalFriendly": false,
      "bookingUrl": "https://maps.google.com/?q=31.4970577,34.4803797",
      "source": "osm"
    },
    {
      "nom": "عمارة البدر",
      "categorie": "Appartement",
      "priceRange": "€€",
      "mapsUrl": "https://maps.google.com/?q=31.5111236,34.4571959",
      "lat": 31.5111236,
      "lng": 34.4571959,
      "halalFriendly": false,
      "bookingUrl": "https://maps.google.com/?q=31.5111236,34.4571959",
      "source": "osm"
    },
    {
      "nom": "عمارة الملش",
      "categorie": "Appartement",
      "priceRange": "€€",
      "mapsUrl": "https://maps.google.com/?q=31.5126058,34.4739426",
      "lat": 31.5126058,
      "lng": 34.4739426,
      "halalFriendly": false,
      "bookingUrl": "https://maps.google.com/?q=31.5126058,34.4739426",
      "source": "osm"
    },
    {
      "nom": "عايشة - العرعير",
      "categorie": "Appartement",
      "priceRange": "€€",
      "mapsUrl": "https://maps.google.com/?q=31.4935241,34.4782078",
      "lat": 31.4935241,
      "lng": 34.4782078,
      "halalFriendly": false,
      "bookingUrl": "https://maps.google.com/?q=31.4935241,34.4782078",
      "source": "osm"
    },
    {
      "nom": "عمارة أبو ظبي ٢",
      "categorie": "Appartement",
      "priceRange": "€€",
      "mapsUrl": "https://maps.google.com/?q=31.5096017,34.4551017",
      "lat": 31.5096017,
      "lng": 34.4551017,
      "halalFriendly": false,
      "bookingUrl": "https://maps.google.com/?q=31.5096017,34.4551017",
      "source": "osm"
    },
    {
      "nom": "بيت ابوحازم الوادية",
      "categorie": "Appartement",
      "priceRange": "€€",
      "mapsUrl": "https://maps.google.com/?q=31.4974782,34.4811362",
      "lat": 31.4974782,
      "lng": 34.4811362,
      "halalFriendly": false,
      "bookingUrl": "https://maps.google.com/?q=31.4974782,34.4811362",
      "source": "osm"
    },
    {
      "nom": "منزل ابو عليان المملوك",
      "categorie": "Maison d'hôtes",
      "priceRange": "€€",
      "mapsUrl": "https://maps.google.com/?q=31.4973935,34.4816357",
      "lat": 31.4973935,
      "lng": 34.4816357,
      "halalFriendly": false,
      "bookingUrl": "https://maps.google.com/?q=31.4973935,34.4816357",
      "source": "osm"
    },
    {
      "nom": "مهندسة عايشة",
      "categorie": "Appartement",
      "priceRange": "€€",
      "mapsUrl": "https://maps.google.com/?q=31.4923664,34.4782023",
      "lat": 31.4923664,
      "lng": 34.4782023,
      "halalFriendly": false,
      "bookingUrl": "https://maps.google.com/?q=31.4923664,34.4782023",
      "source": "osm"
    },
    {
      "nom": "برج شرف",
      "categorie": "Appartement",
      "priceRange": "€€",
      "mapsUrl": "https://maps.google.com/?q=31.5087309,34.4532744",
      "lat": 31.5087309,
      "lng": 34.4532744,
      "halalFriendly": false,
      "bookingUrl": "https://maps.google.com/?q=31.5087309,34.4532744",
      "source": "osm"
    },
    {
      "nom": "منزل الأستاذ يوسف حبوب",
      "categorie": "Maison d'hôtes",
      "priceRange": "€€",
      "mapsUrl": "https://maps.google.com/?q=31.4938143,34.4799818",
      "lat": 31.4938143,
      "lng": 34.4799818,
      "halalFriendly": false,
      "bookingUrl": "https://maps.google.com/?q=31.4938143,34.4799818",
      "source": "osm"
    },
    {
      "nom": "عايشة - جندية",
      "categorie": "Appartement",
      "priceRange": "€€",
      "mapsUrl": "https://maps.google.com/?q=31.487481,34.4696969",
      "lat": 31.487481,
      "lng": 34.4696969,
      "halalFriendly": false,
      "bookingUrl": "https://maps.google.com/?q=31.487481,34.4696969",
      "source": "osm"
    },
    {
      "nom": "Firas Ferwana",
      "categorie": "Maison d'hôtes",
      "priceRange": "€€",
      "mapsUrl": "https://maps.google.com/?q=31.510548,34.452915",
      "lat": 31.510548,
      "lng": 34.452915,
      "halalFriendly": false,
      "bookingUrl": "https://maps.google.com/?q=31.510548,34.452915",
      "source": "osm"
    },
    {
      "nom": "عمارة فدا",
      "categorie": "Appartement",
      "priceRange": "€€",
      "mapsUrl": "https://maps.google.com/?q=31.5153079,34.4595218",
      "lat": 31.5153079,
      "lng": 34.4595218,
      "halalFriendly": false,
      "bookingUrl": "https://maps.google.com/?q=31.5153079,34.4595218",
      "source": "osm"
    },
    {
      "nom": "بيت أبو محمد شابط",
      "categorie": "Appartement",
      "priceRange": "€€",
      "mapsUrl": "https://maps.google.com/?q=31.5118619,34.4798013",
      "lat": 31.5118619,
      "lng": 34.4798013,
      "halalFriendly": false,
      "bookingUrl": "https://maps.google.com/?q=31.5118619,34.4798013",
      "source": "osm"
    },
    {
      "nom": "عايشة - عابد",
      "categorie": "Appartement",
      "priceRange": "€€",
      "mapsUrl": "https://maps.google.com/?q=31.4866663,34.4651263",
      "lat": 31.4866663,
      "lng": 34.4651263,
      "halalFriendly": false,
      "bookingUrl": "https://maps.google.com/?q=31.4866663,34.4651263",
      "source": "osm"
    },
    {
      "nom": "M.Hazem jaouni",
      "categorie": "Appartement",
      "priceRange": "€€",
      "mapsUrl": "https://maps.google.com/?q=31.515538,34.474002",
      "lat": 31.515538,
      "lng": 34.474002,
      "halalFriendly": false,
      "bookingUrl": "https://maps.google.com/?q=31.515538,34.474002",
      "source": "osm"
    },
    {
      "nom": "ديوان ال حبيب",
      "categorie": "Appartement",
      "priceRange": "€€",
      "mapsUrl": "https://maps.google.com/?q=31.4951459,34.4832098",
      "lat": 31.4951459,
      "lng": 34.4832098,
      "halalFriendly": false,
      "bookingUrl": "https://maps.google.com/?q=31.4951459,34.4832098",
      "source": "osm"
    },
    {
      "nom": "عمارة النجمة",
      "categorie": "Appartement",
      "priceRange": "€€",
      "mapsUrl": "https://maps.google.com/?q=31.5110202,34.4522331",
      "lat": 31.5110202,
      "lng": 34.4522331,
      "halalFriendly": false,
      "bookingUrl": "https://maps.google.com/?q=31.5110202,34.4522331",
      "source": "osm"
    },
    {
      "nom": "مسجد الصالحين",
      "categorie": "Maison d'hôtes",
      "priceRange": "€€",
      "mapsUrl": "https://maps.google.com/?q=31.5061999,34.4492691",
      "lat": 31.5061999,
      "lng": 34.4492691,
      "halalFriendly": false,
      "bookingUrl": "https://maps.google.com/?q=31.5061999,34.4492691",
      "source": "osm"
    },
    {
      "nom": "عمارة الزايغ",
      "categorie": "Appartement",
      "priceRange": "€€",
      "mapsUrl": "https://maps.google.com/?q=31.5113039,34.4520949",
      "lat": 31.5113039,
      "lng": 34.4520949,
      "halalFriendly": false,
      "bookingUrl": "https://maps.google.com/?q=31.5113039,34.4520949",
      "source": "osm"
    },
    {
      "nom": "ابو زهير الخطيب",
      "categorie": "Appartement",
      "priceRange": "€€",
      "mapsUrl": "https://maps.google.com/?q=31.5075934,34.4839864",
      "lat": 31.5075934,
      "lng": 34.4839864,
      "halalFriendly": false,
      "bookingUrl": "https://maps.google.com/?q=31.5075934,34.4839864",
      "source": "osm"
    },
    {
      "nom": "بيت اهلي",
      "categorie": "Appartement",
      "priceRange": "€€",
      "mapsUrl": "https://maps.google.com/?q=31.5112676,34.4517665",
      "lat": 31.5112676,
      "lng": 34.4517665,
      "halalFriendly": false,
      "bookingUrl": "https://maps.google.com/?q=31.5112676,34.4517665",
      "source": "osm"
    },
    {
      "nom": "عمارة الحداد",
      "categorie": "Appartement",
      "priceRange": "€€",
      "mapsUrl": "https://maps.google.com/?q=31.5104355,34.4510734",
      "lat": 31.5104355,
      "lng": 34.4510734,
      "halalFriendly": false,
      "bookingUrl": "https://maps.google.com/?q=31.5104355,34.4510734",
      "source": "osm"
    },
    {
      "nom": "عمارة مشتهى 7",
      "categorie": "Appartement",
      "priceRange": "€€",
      "mapsUrl": "https://maps.google.com/?q=31.5111179,34.4515171",
      "lat": 31.5111179,
      "lng": 34.4515171,
      "halalFriendly": false,
      "bookingUrl": "https://maps.google.com/?q=31.5111179,34.4515171",
      "source": "osm"
    },
    {
      "nom": "عايشة - ابو القمبز",
      "categorie": "Appartement",
      "priceRange": "€€",
      "mapsUrl": "https://maps.google.com/?q=31.4852832,34.4656566",
      "lat": 31.4852832,
      "lng": 34.4656566,
      "halalFriendly": false,
      "bookingUrl": "https://maps.google.com/?q=31.4852832,34.4656566",
      "source": "osm"
    },
    {
      "nom": "برج القادسية",
      "categorie": "Appartement",
      "priceRange": "€€",
      "mapsUrl": "https://maps.google.com/?q=31.5120241,34.4513327",
      "lat": 31.5120241,
      "lng": 34.4513327,
      "halalFriendly": false,
      "bookingUrl": "https://maps.google.com/?q=31.5120241,34.4513327",
      "source": "osm"
    },
    {
      "nom": "عمارة ابو حليمة",
      "categorie": "Appartement",
      "priceRange": "€€",
      "mapsUrl": "https://maps.google.com/?q=31.5159665,34.4555",
      "lat": 31.5159665,
      "lng": 34.4555,
      "halalFriendly": false,
      "bookingUrl": "https://maps.google.com/?q=31.5159665,34.4555",
      "source": "osm"
    },
    {
      "nom": "ابو تامر النبيه",
      "categorie": "Maison d'hôtes",
      "priceRange": "€€",
      "mapsUrl": "https://maps.google.com/?q=31.499241,34.446617",
      "lat": 31.499241,
      "lng": 34.446617,
      "halalFriendly": false,
      "bookingUrl": "https://maps.google.com/?q=31.499241,34.446617",
      "source": "osm"
    },
    {
      "nom": "عايشة - بكرون",
      "categorie": "Appartement",
      "priceRange": "€€",
      "mapsUrl": "https://maps.google.com/?q=31.4849768,34.4726841",
      "lat": 31.4849768,
      "lng": 34.4726841,
      "halalFriendly": false,
      "bookingUrl": "https://maps.google.com/?q=31.4849768,34.4726841",
      "source": "osm"
    },
    {
      "nom": "عمارة الجملة",
      "categorie": "Appartement",
      "priceRange": "€€",
      "mapsUrl": "https://maps.google.com/?q=31.5104881,34.448949",
      "lat": 31.5104881,
      "lng": 34.448949,
      "halalFriendly": false,
      "bookingUrl": "https://maps.google.com/?q=31.5104881,34.448949",
      "source": "osm"
    },
    {
      "nom": "برج القدس 1",
      "categorie": "Appartement",
      "priceRange": "€€",
      "mapsUrl": "https://maps.google.com/?q=31.5185339,34.4606458",
      "lat": 31.5185339,
      "lng": 34.4606458,
      "halalFriendly": false,
      "bookingUrl": "https://maps.google.com/?q=31.5185339,34.4606458",
      "source": "osm"
    },
    {
      "nom": "منجرة قنوع",
      "categorie": "Appartement",
      "priceRange": "€€",
      "mapsUrl": "https://maps.google.com/?q=31.4848054,34.4727795",
      "lat": 31.4848054,
      "lng": 34.4727795,
      "halalFriendly": false,
      "bookingUrl": "https://maps.google.com/?q=31.4848054,34.4727795",
      "source": "osm"
    },
    {
      "nom": "مجمع حرز الاول",
      "categorie": "Appartement",
      "priceRange": "€€",
      "mapsUrl": "https://maps.google.com/?q=31.516604,34.4552539",
      "lat": 31.516604,
      "lng": 34.4552539,
      "halalFriendly": false,
      "bookingUrl": "https://maps.google.com/?q=31.516604,34.4552539",
      "source": "osm"
    },
    {
      "nom": "مجمع عنان",
      "categorie": "Appartement",
      "priceRange": "€€",
      "mapsUrl": "https://maps.google.com/?q=31.5150751,34.4525904",
      "lat": 31.5150751,
      "lng": 34.4525904,
      "halalFriendly": false,
      "bookingUrl": "https://maps.google.com/?q=31.5150751,34.4525904",
      "source": "osm"
    },
    {
      "nom": "عمارة حمد",
      "categorie": "Appartement",
      "priceRange": "€€",
      "mapsUrl": "https://maps.google.com/?q=31.5183368,34.4583855",
      "lat": 31.5183368,
      "lng": 34.4583855,
      "halalFriendly": false,
      "bookingUrl": "https://maps.google.com/?q=31.5183368,34.4583855",
      "source": "osm"
    },
    {
      "nom": "منزل المختار أبو موسى الديري",
      "categorie": "Maison d'hôtes",
      "priceRange": "€€",
      "mapsUrl": "https://maps.google.com/?q=31.5048616,34.4457036",
      "lat": 31.5048616,
      "lng": 34.4457036,
      "halalFriendly": false,
      "bookingUrl": "https://maps.google.com/?q=31.5048616,34.4457036",
      "source": "osm"
    },
    {
      "nom": "ديوان عائلة الديري",
      "categorie": "Maison d'hôtes",
      "priceRange": "€€",
      "mapsUrl": "https://maps.google.com/?q=31.5054035,34.4457162",
      "lat": 31.5054035,
      "lng": 34.4457162,
      "halalFriendly": false,
      "bookingUrl": "https://maps.google.com/?q=31.5054035,34.4457162",
      "source": "osm"
    },
    {
      "nom": "عمارة الدهدار",
      "categorie": "Appartement",
      "priceRange": "€€",
      "mapsUrl": "https://maps.google.com/?q=31.5195619,34.4600431",
      "lat": 31.5195619,
      "lng": 34.4600431,
      "halalFriendly": false,
      "bookingUrl": "https://maps.google.com/?q=31.5195619,34.4600431",
      "source": "osm"
    },
    {
      "nom": "برج مشتهى ٤",
      "categorie": "Appartement",
      "priceRange": "€€",
      "mapsUrl": "https://maps.google.com/?q=31.5183884,34.4566411",
      "lat": 31.5183884,
      "lng": 34.4566411,
      "halalFriendly": false,
      "bookingUrl": "https://maps.google.com/?q=31.5183884,34.4566411",
      "source": "osm"
    },
    {
      "nom": "عمارة الرائد ٢",
      "categorie": "Appartement",
      "priceRange": "€€",
      "mapsUrl": "https://maps.google.com/?q=31.5184821,34.4564967",
      "lat": 31.5184821,
      "lng": 34.4564967,
      "halalFriendly": false,
      "bookingUrl": "https://maps.google.com/?q=31.5184821,34.4564967",
      "source": "osm"
    },
    {
      "nom": "عمارة الاصدقاء ²",
      "categorie": "Appartement",
      "priceRange": "€€",
      "mapsUrl": "https://maps.google.com/?q=31.5100873,34.4466565",
      "lat": 31.5100873,
      "lng": 34.4466565,
      "halalFriendly": false,
      "bookingUrl": "https://maps.google.com/?q=31.5100873,34.4466565",
      "source": "osm"
    },
    {
      "nom": "عمارة وفا أبو رمضان",
      "categorie": "Appartement",
      "priceRange": "€€",
      "mapsUrl": "https://maps.google.com/?q=31.5166074,34.4524409",
      "lat": 31.5166074,
      "lng": 34.4524409,
      "halalFriendly": false,
      "bookingUrl": "https://maps.google.com/?q=31.5166074,34.4524409",
      "source": "osm"
    },
    {
      "nom": "عمارة التاج",
      "categorie": "Appartement",
      "priceRange": "€€",
      "mapsUrl": "https://maps.google.com/?q=31.5200852,34.4599118",
      "lat": 31.5200852,
      "lng": 34.4599118,
      "halalFriendly": false,
      "bookingUrl": "https://maps.google.com/?q=31.5200852,34.4599118",
      "source": "osm"
    },
    {
      "nom": "عمارة العاهد",
      "categorie": "Appartement",
      "priceRange": "€€",
      "mapsUrl": "https://maps.google.com/?q=31.5202732,34.4601535",
      "lat": 31.5202732,
      "lng": 34.4601535,
      "halalFriendly": false,
      "bookingUrl": "https://maps.google.com/?q=31.5202732,34.4601535",
      "source": "osm"
    },
    {
      "nom": "الجدبه",
      "categorie": "Maison d'hôtes",
      "priceRange": "€€",
      "mapsUrl": "https://maps.google.com/?q=31.5203199,34.474065",
      "lat": 31.5203199,
      "lng": 34.474065,
      "halalFriendly": false,
      "bookingUrl": "https://maps.google.com/?q=31.5203199,34.474065",
      "source": "osm"
    },
    {
      "nom": "صالة مون لايت",
      "categorie": "Maison d'hôtes",
      "priceRange": "€€",
      "mapsUrl": "https://maps.google.com/?q=31.4974597,34.4442705",
      "lat": 31.4974597,
      "lng": 34.4442705,
      "halalFriendly": false,
      "bookingUrl": "https://maps.google.com/?q=31.4974597,34.4442705",
      "source": "osm"
    },
    {
      "nom": "ابو محمد ارحيم",
      "categorie": "Maison d'hôtes",
      "priceRange": "€€",
      "mapsUrl": "https://maps.google.com/?q=31.4948842,34.4451047",
      "lat": 31.4948842,
      "lng": 34.4451047,
      "halalFriendly": false,
      "bookingUrl": "https://maps.google.com/?q=31.4948842,34.4451047",
      "source": "osm"
    },
    {
      "nom": "منزل محمد عثمان السراج",
      "categorie": "Maison d'hôtes",
      "priceRange": "€€",
      "mapsUrl": "https://maps.google.com/?q=31.5137653,34.448198",
      "lat": 31.5137653,
      "lng": 34.448198,
      "halalFriendly": false,
      "bookingUrl": "https://maps.google.com/?q=31.5137653,34.448198",
      "source": "osm"
    },
    {
      "nom": "عمارة خضير الجلاء",
      "categorie": "Hôtel",
      "priceRange": "€€",
      "mapsUrl": "https://maps.google.com/?q=31.519089,34.4552598",
      "lat": 31.519089,
      "lng": 34.4552598,
      "halalFriendly": false,
      "bookingUrl": "https://maps.google.com/?q=31.519089,34.4552598",
      "source": "osm"
    },
    {
      "nom": "عمارة طيبة 4",
      "categorie": "Appartement",
      "priceRange": "€€",
      "mapsUrl": "https://maps.google.com/?q=31.5179208,34.4530837",
      "lat": 31.5179208,
      "lng": 34.4530837,
      "halalFriendly": false,
      "bookingUrl": "https://maps.google.com/?q=31.5179208,34.4530837",
      "source": "osm"
    },
    {
      "nom": "مشتهى 8",
      "categorie": "Appartement",
      "priceRange": "€€",
      "mapsUrl": "https://maps.google.com/?q=31.5169228,34.4515584",
      "lat": 31.5169228,
      "lng": 34.4515584,
      "halalFriendly": false,
      "bookingUrl": "https://maps.google.com/?q=31.5169228,34.4515584",
      "source": "osm"
    },
    {
      "nom": "عمارة الصنوبر",
      "categorie": "Appartement",
      "priceRange": "€€",
      "mapsUrl": "https://maps.google.com/?q=31.5194729,34.455904",
      "lat": 31.5194729,
      "lng": 34.455904,
      "halalFriendly": false,
      "bookingUrl": "https://maps.google.com/?q=31.5194729,34.455904",
      "source": "osm"
    },
    {
      "nom": "برج سوهاد",
      "categorie": "Appartement",
      "priceRange": "€€",
      "mapsUrl": "https://maps.google.com/?q=31.5177797,34.4526433",
      "lat": 31.5177797,
      "lng": 34.4526433,
      "halalFriendly": false,
      "bookingUrl": "https://maps.google.com/?q=31.5177797,34.4526433",
      "source": "osm"
    },
    {
      "nom": "عمارة الوليد",
      "categorie": "Appartement",
      "priceRange": "€€",
      "mapsUrl": "https://maps.google.com/?q=31.5166377,34.4508671",
      "lat": 31.5166377,
      "lng": 34.4508671,
      "halalFriendly": false,
      "bookingUrl": "https://maps.google.com/?q=31.5166377,34.4508671",
      "source": "osm"
    },
    {
      "nom": "عمارة بيروت",
      "categorie": "Appartement",
      "priceRange": "€€",
      "mapsUrl": "https://maps.google.com/?q=31.5179959,34.4527143",
      "lat": 31.5179959,
      "lng": 34.4527143,
      "halalFriendly": false,
      "bookingUrl": "https://maps.google.com/?q=31.5179959,34.4527143",
      "source": "osm"
    },
    {
      "nom": "عمارة البورنو",
      "categorie": "Appartement",
      "priceRange": "€€",
      "mapsUrl": "https://maps.google.com/?q=31.5182342,34.452768",
      "lat": 31.5182342,
      "lng": 34.452768,
      "halalFriendly": false,
      "bookingUrl": "https://maps.google.com/?q=31.5182342,34.452768",
      "source": "osm"
    },
    {
      "nom": "عمارة العيسوي",
      "categorie": "Appartement",
      "priceRange": "€€",
      "mapsUrl": "https://maps.google.com/?q=31.5193842,34.4544133",
      "lat": 31.5193842,
      "lng": 34.4544133,
      "halalFriendly": false,
      "bookingUrl": "https://maps.google.com/?q=31.5193842,34.4544133",
      "source": "osm"
    },
    {
      "nom": "عمارة المدني",
      "categorie": "Appartement",
      "priceRange": "€€",
      "mapsUrl": "https://maps.google.com/?q=31.5110937,34.4452535",
      "lat": 31.5110937,
      "lng": 34.4452535,
      "halalFriendly": false,
      "bookingUrl": "https://maps.google.com/?q=31.5110937,34.4452535",
      "source": "osm"
    },
    {
      "nom": "نادي اليرموك",
      "categorie": "Appartement",
      "priceRange": "€€",
      "mapsUrl": "https://maps.google.com/?q=31.5224063,34.4688176",
      "lat": 31.5224063,
      "lng": 34.4688176,
      "halalFriendly": false,
      "bookingUrl": "https://maps.google.com/?q=31.5224063,34.4688176",
      "source": "osm"
    },
    {
      "nom": "عمارة الزهور",
      "categorie": "Appartement",
      "priceRange": "€€",
      "mapsUrl": "https://maps.google.com/?q=31.5215595,34.4594781",
      "lat": 31.5215595,
      "lng": 34.4594781,
      "halalFriendly": false,
      "bookingUrl": "https://maps.google.com/?q=31.5215595,34.4594781",
      "source": "osm"
    },
    {
      "nom": "عمارة الجميل",
      "categorie": "Appartement",
      "priceRange": "€€",
      "mapsUrl": "https://maps.google.com/?q=31.4997145,34.4424929",
      "lat": 31.4997145,
      "lng": 34.4424929,
      "halalFriendly": false,
      "bookingUrl": "https://maps.google.com/?q=31.4997145,34.4424929",
      "source": "osm"
    },
    {
      "nom": "عمارة صامد",
      "categorie": "Appartement",
      "priceRange": "€€",
      "mapsUrl": "https://maps.google.com/?q=31.5202721,34.4555265",
      "lat": 31.5202721,
      "lng": 34.4555265,
      "halalFriendly": false,
      "bookingUrl": "https://maps.google.com/?q=31.5202721,34.4555265",
      "source": "osm"
    },
    {
      "nom": "عمارة الكحلوت 5",
      "categorie": "Appartement",
      "priceRange": "€€",
      "mapsUrl": "https://maps.google.com/?q=31.5195699,34.4540376",
      "lat": 31.5195699,
      "lng": 34.4540376,
      "halalFriendly": false,
      "bookingUrl": "https://maps.google.com/?q=31.5195699,34.4540376",
      "source": "osm"
    },
    {
      "nom": "عمارة الدولي ١",
      "categorie": "Appartement",
      "priceRange": "€€",
      "mapsUrl": "https://maps.google.com/?q=31.5138215,34.4466301",
      "lat": 31.5138215,
      "lng": 34.4466301,
      "halalFriendly": false,
      "bookingUrl": "https://maps.google.com/?q=31.5138215,34.4466301",
      "source": "osm"
    },
    {
      "nom": "عمارة الغفري",
      "categorie": "Auberge",
      "priceRange": "€€",
      "mapsUrl": "https://maps.google.com/?q=31.5218735,34.4597869",
      "lat": 31.5218735,
      "lng": 34.4597869,
      "halalFriendly": false,
      "bookingUrl": "https://maps.google.com/?q=31.5218735,34.4597869",
      "source": "osm"
    },
    {
      "nom": "عمارة دريم",
      "categorie": "Appartement",
      "priceRange": "€€",
      "mapsUrl": "https://maps.google.com/?q=31.5209501,34.4565045",
      "lat": 31.5209501,
      "lng": 34.4565045,
      "halalFriendly": false,
      "bookingUrl": "https://maps.google.com/?q=31.5209501,34.4565045",
      "source": "osm"
    },
    {
      "nom": "عمارة الوفاء",
      "categorie": "Appartement",
      "priceRange": "€€",
      "mapsUrl": "https://maps.google.com/?q=31.51775,34.4501609",
      "lat": 31.51775,
      "lng": 34.4501609,
      "halalFriendly": false,
      "bookingUrl": "https://maps.google.com/?q=31.51775,34.4501609",
      "source": "osm"
    },
    {
      "nom": "منزل السيد ابو محمد دادر",
      "categorie": "Maison d'hôtes",
      "priceRange": "€€",
      "mapsUrl": "https://maps.google.com/?q=31.4969697,34.4422237",
      "lat": 31.4969697,
      "lng": 34.4422237,
      "halalFriendly": false,
      "bookingUrl": "https://maps.google.com/?q=31.4969697,34.4422237",
      "source": "osm"
    },
    {
      "nom": "عمارة الصديق ٢",
      "categorie": "Appartement",
      "priceRange": "€€",
      "mapsUrl": "https://maps.google.com/?q=31.5219193,34.4582377",
      "lat": 31.5219193,
      "lng": 34.4582377,
      "halalFriendly": false,
      "bookingUrl": "https://maps.google.com/?q=31.5219193,34.4582377",
      "source": "osm"
    },
    {
      "nom": "عمارة عبد العال 3",
      "categorie": "Appartement",
      "priceRange": "€€",
      "mapsUrl": "https://maps.google.com/?q=31.5221313,34.4576753",
      "lat": 31.5221313,
      "lng": 34.4576753,
      "halalFriendly": false,
      "bookingUrl": "https://maps.google.com/?q=31.5221313,34.4576753",
      "source": "osm"
    },
    {
      "nom": "عمارة حجي شنار",
      "categorie": "Appartement",
      "priceRange": "€€",
      "mapsUrl": "https://maps.google.com/?q=31.4970508,34.4416927",
      "lat": 31.4970508,
      "lng": 34.4416927,
      "halalFriendly": false,
      "bookingUrl": "https://maps.google.com/?q=31.4970508,34.4416927",
      "source": "osm"
    },
    {
      "nom": "عمارة فيينا",
      "categorie": "Appartement",
      "priceRange": "€€",
      "mapsUrl": "https://maps.google.com/?q=31.5222884,34.4569616",
      "lat": 31.5222884,
      "lng": 34.4569616,
      "halalFriendly": false,
      "bookingUrl": "https://maps.google.com/?q=31.5222884,34.4569616",
      "source": "osm"
    },
    {
      "nom": "منزل السيد حمدي النخالة",
      "categorie": "Maison d'hôtes",
      "priceRange": "€€",
      "mapsUrl": "https://maps.google.com/?q=31.510186,34.4426285",
      "lat": 31.510186,
      "lng": 34.4426285,
      "halalFriendly": false,
      "bookingUrl": "https://maps.google.com/?q=31.510186,34.4426285",
      "source": "osm"
    },
    {
      "nom": "عمارة غازي الشوا",
      "categorie": "Appartement",
      "priceRange": "€€",
      "mapsUrl": "https://maps.google.com/?q=31.5188162,34.4498148",
      "lat": 31.5188162,
      "lng": 34.4498148,
      "halalFriendly": false,
      "bookingUrl": "https://maps.google.com/?q=31.5188162,34.4498148",
      "source": "osm"
    },
    {
      "nom": "عمارة الرؤيا ١",
      "categorie": "Appartement",
      "priceRange": "€€",
      "mapsUrl": "https://maps.google.com/?q=31.5213217,34.4540447",
      "lat": 31.5213217,
      "lng": 34.4540447,
      "halalFriendly": false,
      "bookingUrl": "https://maps.google.com/?q=31.5213217,34.4540447",
      "source": "osm"
    },
    {
      "nom": "عمارة الامل",
      "categorie": "Appartement",
      "priceRange": "€€",
      "mapsUrl": "https://maps.google.com/?q=31.519426,34.4496807",
      "lat": 31.519426,
      "lng": 34.4496807,
      "halalFriendly": false,
      "bookingUrl": "https://maps.google.com/?q=31.519426,34.4496807",
      "source": "osm"
    }
  ],
  "mosqueesPrincipales": [
    {
      "id": "m41256123",
      "nom": "Al-Mahkama Mosque",
      "type": "Mosquée",
      "adresse": "",
      "description": "Lieu de prière (OpenStreetMap).",
      "mapsUrl": "https://maps.google.com/?q=31.5018052,34.469029",
      "lat": 31.5018052,
      "lng": 34.469029,
      "source": "osm"
    },
    {
      "id": "m297965280",
      "nom": "مسجد علي بن مروان",
      "type": "Mosquée",
      "adresse": "غزة",
      "description": "Lieu de prière (OpenStreetMap).",
      "mapsUrl": "https://maps.google.com/?q=31.5041571,34.4690171",
      "lat": 31.5041571,
      "lng": 34.4690171,
      "source": "osm"
    },
    {
      "id": "m298448097",
      "nom": "مسجد الست رقية",
      "type": "Mosquée",
      "adresse": "",
      "description": "Lieu de prière (OpenStreetMap).",
      "mapsUrl": "https://maps.google.com/?q=31.499998,34.4702808",
      "lat": 31.499998,
      "lng": 34.4702808,
      "source": "osm"
    },
    {
      "id": "m297045086",
      "nom": "مسجد المغربي",
      "type": "Mosquée",
      "adresse": "",
      "description": "Lieu de prière (OpenStreetMap).",
      "mapsUrl": "https://maps.google.com/?q=31.5053068,34.4667137",
      "lat": 31.5053068,
      "lng": 34.4667137,
      "source": "osm"
    },
    {
      "id": "m41254453",
      "nom": "Al-Sayyed Ali Mosque",
      "type": "Mosquée",
      "adresse": "",
      "description": "Lieu de prière (OpenStreetMap).",
      "mapsUrl": "https://maps.google.com/?q=31.5012067,34.4712297",
      "lat": 31.5012067,
      "lng": 34.4712297,
      "source": "osm"
    },
    {
      "id": "m41256638",
      "nom": "مسجد الشمعة",
      "type": "Mosquée",
      "adresse": "",
      "description": "Lieu de prière (OpenStreetMap).",
      "mapsUrl": "https://maps.google.com/?q=31.5017449,34.4619681",
      "lat": 31.5017449,
      "lng": 34.4619681,
      "source": "osm"
    },
    {
      "id": "m296786571",
      "nom": "مسجد كاتب ولاية",
      "type": "Mosquée",
      "adresse": "",
      "description": "Lieu de prière (OpenStreetMap).",
      "mapsUrl": "https://maps.google.com/?q=31.5040099,34.4623967",
      "lat": 31.5040099,
      "lng": 34.4623967,
      "source": "osm"
    },
    {
      "id": "m298448066",
      "nom": "مسجد الهواشي",
      "type": "Mosquée",
      "adresse": "بغداد",
      "description": "Lieu de prière (OpenStreetMap).",
      "mapsUrl": "https://maps.google.com/?q=31.4996249,34.4713858",
      "lat": 31.4996249,
      "lng": 34.4713858,
      "source": "osm"
    },
    {
      "id": "m504267106",
      "nom": "Al Hanood Mosque",
      "type": "Mosquée",
      "adresse": "",
      "description": "Lieu de prière (OpenStreetMap).",
      "mapsUrl": "https://maps.google.com/?q=31.5055401,34.4637665",
      "lat": 31.5055401,
      "lng": 34.4637665,
      "source": "osm"
    },
    {
      "id": "m299358457",
      "nom": "مسجد الهدى",
      "type": "Mosquée",
      "adresse": "",
      "description": "Lieu de prière (OpenStreetMap).",
      "mapsUrl": "https://maps.google.com/?q=31.4979487,34.4704052",
      "lat": 31.4979487,
      "lng": 34.4704052,
      "source": "osm"
    },
    {
      "id": "m504255134",
      "nom": "مسجد الروضة",
      "type": "Mosquée",
      "adresse": "غزة",
      "description": "Lieu de prière (OpenStreetMap).",
      "mapsUrl": "https://maps.google.com/?q=31.5051339,34.4627697",
      "lat": 31.5051339,
      "lng": 34.4627697,
      "source": "osm"
    },
    {
      "id": "m41256226",
      "nom": "Al-Haq Mosque",
      "type": "Mosquée",
      "adresse": "",
      "description": "Lieu de prière (OpenStreetMap).",
      "mapsUrl": "https://maps.google.com/?q=31.4990784,34.4722576",
      "lat": 31.4990784,
      "lng": 34.4722576,
      "source": "osm"
    },
    {
      "id": "m297432257",
      "nom": "Shaykh Ahmed Zawiya",
      "type": "Mosquée",
      "adresse": "",
      "description": "Lieu de prière (OpenStreetMap).",
      "mapsUrl": "https://maps.google.com/?q=31.5071714,34.4649716",
      "lat": 31.5071714,
      "lng": 34.4649716,
      "source": "osm"
    },
    {
      "id": "m41254773",
      "nom": "مسجد الإصلاح",
      "type": "Mosquée",
      "adresse": "",
      "description": "Lieu de prière (OpenStreetMap).",
      "mapsUrl": "https://maps.google.com/?q=31.4961043,34.4680283",
      "lat": 31.4961043,
      "lng": 34.4680283,
      "source": "osm"
    },
    {
      "id": "m299248933",
      "nom": "مسجد السدره",
      "type": "Mosquée",
      "adresse": "غزة",
      "description": "Lieu de prière (OpenStreetMap).",
      "mapsUrl": "https://maps.google.com/?q=31.5068547,34.4703921",
      "lat": 31.5068547,
      "lng": 34.4703921,
      "source": "osm"
    },
    {
      "id": "m5460602225",
      "nom": "مسجد ذو النورين",
      "type": "Mosquée",
      "adresse": "",
      "description": "Lieu de prière (OpenStreetMap).",
      "mapsUrl": "https://maps.google.com/?q=31.5034858,34.4743046",
      "lat": 31.5034858,
      "lng": 34.4743046,
      "source": "osm"
    },
    {
      "id": "m297701606",
      "nom": "مسجد المغربي",
      "type": "Mosquée",
      "adresse": "",
      "description": "Lieu de prière (OpenStreetMap).",
      "mapsUrl": "https://maps.google.com/?q=31.5084106,34.4688508",
      "lat": 31.5084106,
      "lng": 34.4688508,
      "source": "osm"
    },
    {
      "id": "m296911614",
      "nom": "مسجد الشيخ شعبان",
      "type": "Mosquée",
      "adresse": "غزة",
      "description": "Lieu de prière (OpenStreetMap).",
      "mapsUrl": "https://maps.google.com/?q=31.5067477,34.4612194",
      "lat": 31.5067477,
      "lng": 34.4612194,
      "source": "osm"
    },
    {
      "id": "m1009884908",
      "nom": "مسجد الإمام الشافعي",
      "type": "Mosquée",
      "adresse": "",
      "description": "Lieu de prière (OpenStreetMap).",
      "mapsUrl": "https://maps.google.com/?q=31.5013619,34.4576651",
      "lat": 31.5013619,
      "lng": 34.4576651,
      "source": "osm"
    },
    {
      "id": "m296952905",
      "nom": "مسجد الشيخ خالد",
      "type": "Mosquée",
      "adresse": "غزة",
      "description": "Lieu de prière (OpenStreetMap).",
      "mapsUrl": "https://maps.google.com/?q=31.5084795,34.4619376",
      "lat": 31.5084795,
      "lng": 34.4619376,
      "source": "osm"
    },
    {
      "id": "m296953045",
      "nom": "مسجد الهجاني",
      "type": "Mosquée",
      "adresse": "",
      "description": "Lieu de prière (OpenStreetMap).",
      "mapsUrl": "https://maps.google.com/?q=31.5094854,34.4633625",
      "lat": 31.5094854,
      "lng": 34.4633625,
      "source": "osm"
    },
    {
      "id": "m8495087327",
      "nom": "مسجد الشهيد عماد عقل",
      "type": "Mosquée",
      "adresse": "",
      "description": "Lieu de prière (OpenStreetMap).",
      "mapsUrl": "https://maps.google.com/?q=31.4935422,34.4644622",
      "lat": 31.4935422,
      "lng": 34.4644622,
      "source": "osm"
    },
    {
      "id": "m296952755",
      "nom": "مسجد الشيخ زكريا",
      "type": "Mosquée",
      "adresse": "غزة",
      "description": "Lieu de prière (OpenStreetMap).",
      "mapsUrl": "https://maps.google.com/?q=31.5087951,34.4611479",
      "lat": 31.5087951,
      "lng": 34.4611479,
      "source": "osm"
    },
    {
      "id": "m5462046828",
      "nom": "مسجد الخلافة الراشدة",
      "type": "Mosquée",
      "adresse": "",
      "description": "Lieu de prière (OpenStreetMap).",
      "mapsUrl": "https://maps.google.com/?q=31.5104282,34.4677707",
      "lat": 31.5104282,
      "lng": 34.4677707,
      "source": "osm"
    },
    {
      "id": "m41253941",
      "nom": "مسجد صلاح الدين",
      "type": "Mosquée",
      "adresse": "",
      "description": "Lieu de prière (OpenStreetMap).",
      "mapsUrl": "https://maps.google.com/?q=31.4971815,34.4577913",
      "lat": 31.4971815,
      "lng": 34.4577913,
      "source": "osm"
    },
    {
      "id": "m41254476",
      "nom": "Al-Redwan Mosque",
      "type": "Mosquée",
      "adresse": "",
      "description": "Lieu de prière (OpenStreetMap).",
      "mapsUrl": "https://maps.google.com/?q=31.4926051,34.4690696",
      "lat": 31.4926051,
      "lng": 34.4690696,
      "source": "osm"
    },
    {
      "id": "m299388004",
      "nom": "مسجد جعفر",
      "type": "Mosquée",
      "adresse": "",
      "description": "Lieu de prière (OpenStreetMap).",
      "mapsUrl": "https://maps.google.com/?q=31.5019438,34.4777847",
      "lat": 31.5019438,
      "lng": 34.4777847,
      "source": "osm"
    },
    {
      "id": "m5118157825",
      "nom": "مسجد الفضيلة",
      "type": "Mosquée",
      "adresse": "",
      "description": "Lieu de prière (OpenStreetMap).",
      "mapsUrl": "https://maps.google.com/?q=31.4948459,34.4586161",
      "lat": 31.4948459,
      "lng": 34.4586161,
      "source": "osm"
    },
    {
      "id": "m9042386048",
      "nom": "جامع أبو سمرة",
      "type": "Mosquée",
      "adresse": "",
      "description": "Lieu de prière (OpenStreetMap).",
      "mapsUrl": "https://maps.google.com/?q=31.4919517,34.465842",
      "lat": 31.4919517,
      "lng": 34.465842,
      "source": "osm"
    },
    {
      "id": "m298979028",
      "nom": "مسجد الحرمين",
      "type": "Mosquée",
      "adresse": "",
      "description": "Lieu de prière (OpenStreetMap).",
      "mapsUrl": "https://maps.google.com/?q=31.5066119,34.4768961",
      "lat": 31.5066119,
      "lng": 34.4768961,
      "source": "osm"
    },
    {
      "id": "m9121774520",
      "nom": "مسجد الصديقين",
      "type": "Mosquée",
      "adresse": "",
      "description": "Lieu de prière (OpenStreetMap).",
      "mapsUrl": "https://maps.google.com/?q=31.492958,34.4612638",
      "lat": 31.492958,
      "lng": 34.4612638,
      "source": "osm"
    },
    {
      "id": "m41257586",
      "nom": "Qubbaa Al Jadded Mosque",
      "type": "Mosquée",
      "adresse": "",
      "description": "Lieu de prière (OpenStreetMap).",
      "mapsUrl": "https://maps.google.com/?q=31.5073059,34.45696",
      "lat": 31.5073059,
      "lng": 34.45696,
      "source": "osm"
    },
    {
      "id": "m298979164",
      "nom": "مسجد صلاح شحادة",
      "type": "Mosquée",
      "adresse": "شارع 8",
      "description": "Lieu de prière (OpenStreetMap).",
      "mapsUrl": "https://maps.google.com/?q=31.5056287,34.4779956",
      "lat": 31.5056287,
      "lng": 34.4779956,
      "source": "osm"
    },
    {
      "id": "m297036567",
      "nom": "مسجد ومقبرة آل بسيسو",
      "type": "Mosquée",
      "adresse": "",
      "description": "Lieu de prière (OpenStreetMap).",
      "mapsUrl": "https://maps.google.com/?q=31.495083,34.4761519",
      "lat": 31.495083,
      "lng": 34.4761519,
      "source": "osm"
    },
    {
      "id": "m41254801",
      "nom": "Tareq Bin Zeyad Mosque",
      "type": "Mosquée",
      "adresse": "",
      "description": "Lieu de prière (OpenStreetMap).",
      "mapsUrl": "https://maps.google.com/?q=31.4925944,34.4735095",
      "lat": 31.4925944,
      "lng": 34.4735095,
      "source": "osm"
    },
    {
      "id": "m5462137622",
      "nom": "مسجد التوبة",
      "type": "Mosquée",
      "adresse": "",
      "description": "Lieu de prière (OpenStreetMap).",
      "mapsUrl": "https://maps.google.com/?q=31.5126448,34.4659454",
      "lat": 31.5126448,
      "lng": 34.4659454,
      "source": "osm"
    },
    {
      "id": "m41257281",
      "nom": "Shuhadaa Al-Shejaeya Mosque",
      "type": "Mosquée",
      "adresse": "",
      "description": "Lieu de prière (OpenStreetMap).",
      "mapsUrl": "https://maps.google.com/?q=31.4905557,34.4674628",
      "lat": 31.4905557,
      "lng": 34.4674628,
      "source": "osm"
    },
    {
      "id": "m6103819485",
      "nom": "مسجد الخلفاء الراشدين",
      "type": "Mosquée",
      "adresse": "",
      "description": "Lieu de prière (OpenStreetMap).",
      "mapsUrl": "https://maps.google.com/?q=31.4996689,34.4797145",
      "lat": 31.4996689,
      "lng": 34.4797145,
      "source": "osm"
    },
    {
      "id": "m299379679",
      "nom": "مسجد الخلفاء الراشدين",
      "type": "Mosquée",
      "adresse": "",
      "description": "Lieu de prière (OpenStreetMap).",
      "mapsUrl": "https://maps.google.com/?q=31.4997396,34.4798648",
      "lat": 31.4997396,
      "lng": 34.4798648,
      "source": "osm"
    },
    {
      "id": "m8310812617",
      "nom": "مسجد انس عبد ربه",
      "type": "Mosquée",
      "adresse": "Wadi Al-Arayes Street",
      "description": "Lieu de prière (OpenStreetMap).",
      "mapsUrl": "https://maps.google.com/?q=31.4904654,34.4639286",
      "lat": 31.4904654,
      "lng": 34.4639286,
      "source": "osm"
    },
    {
      "id": "m41254426",
      "nom": "مسجد الرحمن",
      "type": "Mosquée",
      "adresse": "",
      "description": "Lieu de prière (OpenStreetMap).",
      "mapsUrl": "https://maps.google.com/?q=31.5043699,34.4800092",
      "lat": 31.5043699,
      "lng": 34.4800092,
      "source": "osm"
    },
    {
      "id": "m299325944",
      "nom": "مسجد الرحمن والفرآن",
      "type": "Mosquée",
      "adresse": "",
      "description": "Lieu de prière (OpenStreetMap).",
      "mapsUrl": "https://maps.google.com/?q=31.4983077,34.4801778",
      "lat": 31.4983077,
      "lng": 34.4801778,
      "source": "osm"
    },
    {
      "id": "m41255323",
      "nom": "مسجد بلال بن رباح",
      "type": "Mosquée",
      "adresse": "",
      "description": "Lieu de prière (OpenStreetMap).",
      "mapsUrl": "https://maps.google.com/?q=31.5023489,34.4526746",
      "lat": 31.5023489,
      "lng": 34.4526746,
      "source": "osm"
    },
    {
      "id": "m4790193123",
      "nom": "مسجد التوابين",
      "type": "Mosquée",
      "adresse": "",
      "description": "Lieu de prière (OpenStreetMap).",
      "mapsUrl": "https://maps.google.com/?q=31.5067584,34.4539463",
      "lat": 31.5067584,
      "lng": 34.4539463,
      "source": "osm"
    },
    {
      "id": "m4487633089",
      "nom": "مسجد السلام (آل حمادة)",
      "type": "Mosquée",
      "adresse": "Yaffa Street",
      "description": "Lieu de prière (OpenStreetMap).",
      "mapsUrl": "https://maps.google.com/?q=31.51293,34.472384",
      "lat": 31.51293,
      "lng": 34.472384,
      "source": "osm"
    },
    {
      "id": "m5460602226",
      "nom": "مسجد السلف الصالح",
      "type": "Mosquée",
      "adresse": "",
      "description": "Lieu de prière (OpenStreetMap).",
      "mapsUrl": "https://maps.google.com/?q=31.5132589,34.4733234",
      "lat": 31.5132589,
      "lng": 34.4733234,
      "source": "osm"
    },
    {
      "id": "m6303003586",
      "nom": "مصلى الهدى",
      "type": "Mosquée",
      "adresse": "شارع جمال عبد الناصر",
      "description": "Lieu de prière (OpenStreetMap).",
      "mapsUrl": "https://maps.google.com/?q=31.5070009,34.4529726",
      "lat": 31.5070009,
      "lng": 34.4529726,
      "source": "osm"
    },
    {
      "id": "m41254947",
      "nom": "Al-Basheer Mosque",
      "type": "Mosquée",
      "adresse": "",
      "description": "Lieu de prière (OpenStreetMap).",
      "mapsUrl": "https://maps.google.com/?q=31.5023331,34.4822338",
      "lat": 31.5023331,
      "lng": 34.4822338,
      "source": "osm"
    },
    {
      "id": "m5460602421",
      "nom": "مسجد العائدون",
      "type": "Mosquée",
      "adresse": "",
      "description": "Lieu de prière (OpenStreetMap).",
      "mapsUrl": "https://maps.google.com/?q=31.4919841,34.4773441",
      "lat": 31.4919841,
      "lng": 34.4773441,
      "source": "osm"
    },
    {
      "id": "m1265187201",
      "nom": "Al-Shaheed Ahmad Yaseen Mosque",
      "type": "Mosquée",
      "adresse": "",
      "description": "Lieu de prière (OpenStreetMap).",
      "mapsUrl": "https://maps.google.com/?q=31.4879647,34.468929",
      "lat": 31.4879647,
      "lng": 34.468929,
      "source": "osm"
    },
    {
      "id": "m41254810",
      "nom": "Al-Mashahra Mosque",
      "type": "Mosquée",
      "adresse": "Al-Mashahra Street",
      "description": "Lieu de prière (OpenStreetMap).",
      "mapsUrl": "https://maps.google.com/?q=31.515579,34.4676889",
      "lat": 31.515579,
      "lng": 34.4676889,
      "source": "osm"
    },
    {
      "id": "m41254856",
      "nom": "Al-Morabeteen",
      "type": "Mosquée",
      "adresse": "",
      "description": "Lieu de prière (OpenStreetMap).",
      "mapsUrl": "https://maps.google.com/?q=31.4960073,34.481685",
      "lat": 31.4960073,
      "lng": 34.481685,
      "source": "osm"
    },
    {
      "id": "m504297226",
      "nom": "مسجد شهداء الزيتون",
      "type": "Mosquée",
      "adresse": "",
      "description": "Lieu de prière (OpenStreetMap).",
      "mapsUrl": "https://maps.google.com/?q=31.4971176,34.4513864",
      "lat": 31.4971176,
      "lng": 34.4513864,
      "source": "osm"
    },
    {
      "id": "m6162106185",
      "nom": "مسجد معمر المبيض",
      "type": "Mosquée",
      "adresse": "",
      "description": "Lieu de prière (OpenStreetMap).",
      "mapsUrl": "https://maps.google.com/?q=31.4974293,34.4829666",
      "lat": 31.4974293,
      "lng": 34.4829666,
      "source": "osm"
    },
    {
      "id": "m41255280",
      "nom": "Abdallah Azzam Mosque",
      "type": "Mosquée",
      "adresse": "",
      "description": "Lieu de prière (OpenStreetMap).",
      "mapsUrl": "https://maps.google.com/?q=31.5059286,34.4504918",
      "lat": 31.5059286,
      "lng": 34.4504918,
      "source": "osm"
    },
    {
      "id": "m504283094",
      "nom": "Hasan Al-Banna Mosque",
      "type": "Mosquée",
      "adresse": "",
      "description": "Lieu de prière (OpenStreetMap).",
      "mapsUrl": "https://maps.google.com/?q=31.4943101,34.4518004",
      "lat": 31.4943101,
      "lng": 34.4518004,
      "source": "osm"
    },
    {
      "id": "m41258188",
      "nom": "Ezz Al-Deen Mosque",
      "type": "Mosquée",
      "adresse": "",
      "description": "Lieu de prière (OpenStreetMap).",
      "mapsUrl": "https://maps.google.com/?q=31.5158405,34.4616537",
      "lat": 31.5158405,
      "lng": 34.4616537,
      "source": "osm"
    },
    {
      "id": "m41256150",
      "nom": "Al-Tawheed And Al-Sunna Mosque",
      "type": "Mosquée",
      "adresse": "",
      "description": "Lieu de prière (OpenStreetMap).",
      "mapsUrl": "https://maps.google.com/?q=31.5164978,34.4646367",
      "lat": 31.5164978,
      "lng": 34.4646367,
      "source": "osm"
    },
    {
      "id": "m5462046827",
      "nom": "مسجد الفردوس الأعلى",
      "type": "Mosquée",
      "adresse": "",
      "description": "Lieu de prière (OpenStreetMap).",
      "mapsUrl": "https://maps.google.com/?q=31.5052259,34.4843961",
      "lat": 31.5052259,
      "lng": 34.4843961,
      "source": "osm"
    },
    {
      "id": "m504255111",
      "nom": "Al-Rahman Mosque",
      "type": "Mosquée",
      "adresse": "",
      "description": "Lieu de prière (OpenStreetMap).",
      "mapsUrl": "https://maps.google.com/?q=31.4912795,34.4534214",
      "lat": 31.4912795,
      "lng": 34.4534214,
      "source": "osm"
    },
    {
      "id": "m504257446",
      "nom": "Omer Bin Al-Khattab Mosque",
      "type": "Mosquée",
      "adresse": "",
      "description": "Lieu de prière (OpenStreetMap).",
      "mapsUrl": "https://maps.google.com/?q=31.5171322,34.469009",
      "lat": 31.5171322,
      "lng": 34.469009,
      "source": "osm"
    },
    {
      "id": "m2309508003",
      "nom": "Amar ben Yasser Mosque",
      "type": "Mosquée",
      "adresse": "",
      "description": "Lieu de prière (OpenStreetMap).",
      "mapsUrl": "https://maps.google.com/?q=31.5100964,34.4824469",
      "lat": 31.5100964,
      "lng": 34.4824469,
      "source": "osm"
    },
    {
      "id": "m41256134",
      "nom": "Al-Zakaa Mosque",
      "type": "Mosquée",
      "adresse": "",
      "description": "Lieu de prière (OpenStreetMap).",
      "mapsUrl": "https://maps.google.com/?q=31.5173746,34.4743651",
      "lat": 31.5173746,
      "lng": 34.4743651,
      "source": "osm"
    },
    {
      "id": "m5460602227",
      "nom": "مسجد الزكاة",
      "type": "Mosquée",
      "adresse": "",
      "description": "Lieu de prière (OpenStreetMap).",
      "mapsUrl": "https://maps.google.com/?q=31.5175099,34.4744099",
      "lat": 31.5175099,
      "lng": 34.4744099,
      "source": "osm"
    },
    {
      "id": "m4111982093",
      "nom": "مسجد سعد بن عاشور الغفري",
      "type": "Mosquée",
      "adresse": "",
      "description": "Lieu de prière (OpenStreetMap).",
      "mapsUrl": "https://maps.google.com/?q=31.5187321,34.4644579",
      "lat": 31.5187321,
      "lng": 34.4644579,
      "source": "osm"
    },
    {
      "id": "m1001522646",
      "nom": "Al-Shaheed Fathi Al Sheqaqi Mosque",
      "type": "Mosquée",
      "adresse": "",
      "description": "Lieu de prière (OpenStreetMap).",
      "mapsUrl": "https://maps.google.com/?q=31.4850376,34.4716119",
      "lat": 31.4850376,
      "lng": 34.4716119,
      "source": "osm"
    },
    {
      "id": "m41254711",
      "nom": "Al-Salam Mosque",
      "type": "Mosquée",
      "adresse": "",
      "description": "Lieu de prière (OpenStreetMap).",
      "mapsUrl": "https://maps.google.com/?q=31.4954354,34.4862873",
      "lat": 31.4954354,
      "lng": 34.4862873,
      "source": "osm"
    },
    {
      "id": "m41258031",
      "nom": "Al-Azeez Mosque",
      "type": "Mosquée",
      "adresse": "",
      "description": "Lieu de prière (OpenStreetMap).",
      "mapsUrl": "https://maps.google.com/?q=31.5193599,34.4693126",
      "lat": 31.5193599,
      "lng": 34.4693126,
      "source": "osm"
    },
    {
      "id": "m41254775",
      "nom": "Al-Tabe'en Mosque",
      "type": "Mosquée",
      "adresse": "",
      "description": "Lieu de prière (OpenStreetMap).",
      "mapsUrl": "https://maps.google.com/?q=31.5183542,34.4592202",
      "lat": 31.5183542,
      "lng": 34.4592202,
      "source": "osm"
    },
    {
      "id": "m372292648",
      "nom": "مسجد السلام",
      "type": "Mosquée",
      "adresse": "",
      "description": "Lieu de prière (OpenStreetMap).",
      "mapsUrl": "https://maps.google.com/?q=31.5085745,34.447435",
      "lat": 31.5085745,
      "lng": 34.447435,
      "source": "osm"
    },
    {
      "id": "m41257831",
      "nom": "Saqallah Mosque",
      "type": "Mosquée",
      "adresse": "",
      "description": "Lieu de prière (OpenStreetMap).",
      "mapsUrl": "https://maps.google.com/?q=31.4894515,34.4510782",
      "lat": 31.4894515,
      "lng": 34.4510782,
      "source": "osm"
    },
    {
      "id": "m41257434",
      "nom": "Al-Iman Mosque",
      "type": "Mosquée",
      "adresse": "",
      "description": "Lieu de prière (OpenStreetMap).",
      "mapsUrl": "https://maps.google.com/?q=31.5044126,34.4456868",
      "lat": 31.5044126,
      "lng": 34.4456868,
      "source": "osm"
    },
    {
      "id": "m6772767385",
      "nom": "مسجد ابو ايوب الأنصاري",
      "type": "Mosquée",
      "adresse": "Al-Thawra Street",
      "description": "Lieu de prière (OpenStreetMap).",
      "mapsUrl": "https://maps.google.com/?q=31.5169665,34.4547113",
      "lat": 31.5169665,
      "lng": 34.4547113,
      "source": "osm"
    },
    {
      "id": "m504265923",
      "nom": "مصلى الصلاح",
      "type": "Mosquée",
      "adresse": "",
      "description": "Lieu de prière (OpenStreetMap).",
      "mapsUrl": "https://maps.google.com/?q=31.5010918,34.4445667",
      "lat": 31.5010918,
      "lng": 34.4445667,
      "source": "osm"
    },
    {
      "id": "m41255501",
      "nom": "مسجد الحسين",
      "type": "Mosquée",
      "adresse": "",
      "description": "Lieu de prière (OpenStreetMap).",
      "mapsUrl": "https://maps.google.com/?q=31.5090597,34.4874885",
      "lat": 31.5090597,
      "lng": 34.4874885,
      "source": "osm"
    },
    {
      "id": "m297276640",
      "nom": "مسجد أسماء بنت أبي بكر",
      "type": "Mosquée",
      "adresse": "",
      "description": "Lieu de prière (OpenStreetMap).",
      "mapsUrl": "https://maps.google.com/?q=31.5213243,34.4680814",
      "lat": 31.5213243,
      "lng": 34.4680814,
      "source": "osm"
    },
    {
      "id": "m8364128319",
      "nom": "مسجد دار السلام",
      "type": "Mosquée",
      "adresse": "شارع طوطح",
      "description": "Lieu de prière (OpenStreetMap).",
      "mapsUrl": "https://maps.google.com/?q=31.4920706,34.4466098",
      "lat": 31.4920706,
      "lng": 34.4466098,
      "source": "osm"
    },
    {
      "id": "m299551680",
      "nom": "Shohada Al-Mojama' Al-Islami Mosque",
      "type": "Mosquée",
      "adresse": "",
      "description": "Lieu de prière (OpenStreetMap).",
      "mapsUrl": "https://maps.google.com/?q=31.4998777,34.4436821",
      "lat": 31.4998777,
      "lng": 34.4436821,
      "source": "osm"
    },
    {
      "id": "m296786077",
      "nom": "مسجد بنت خويلد",
      "type": "Mosquée",
      "adresse": "",
      "description": "Lieu de prière (OpenStreetMap).",
      "mapsUrl": "https://maps.google.com/?q=31.5014799,34.4909404",
      "lat": 31.5014799,
      "lng": 34.4909404,
      "source": "osm"
    },
    {
      "id": "m41256197",
      "nom": "Qebaa Mosque",
      "type": "Mosquée",
      "adresse": "",
      "description": "Lieu de prière (OpenStreetMap).",
      "mapsUrl": "https://maps.google.com/?q=31.5184159,34.4810666",
      "lat": 31.5184159,
      "lng": 34.4810666,
      "source": "osm"
    },
    {
      "id": "m504290386",
      "nom": "Ihyaa Al-Sunna Mosque",
      "type": "Mosquée",
      "adresse": "",
      "description": "Lieu de prière (OpenStreetMap).",
      "mapsUrl": "https://maps.google.com/?q=31.5219984,34.4738888",
      "lat": 31.5219984,
      "lng": 34.4738888,
      "source": "osm"
    },
    {
      "id": "m298966590",
      "nom": "مسجد السيد البدوي",
      "type": "Mosquée",
      "adresse": "Al-Maslakh Street",
      "description": "Lieu de prière (OpenStreetMap).",
      "mapsUrl": "https://maps.google.com/?q=31.4935214,34.4427759",
      "lat": 31.4935214,
      "lng": 34.4427759,
      "source": "osm"
    },
    {
      "id": "m295759965",
      "nom": "مسجد الايمان و الهدى",
      "type": "Mosquée",
      "adresse": "Zake Khayal Street",
      "description": "Lieu de prière (OpenStreetMap).",
      "mapsUrl": "https://maps.google.com/?q=31.5156296,34.4459004",
      "lat": 31.5156296,
      "lng": 34.4459004,
      "source": "osm"
    },
    {
      "id": "m41257868",
      "nom": "Palestine Mosque",
      "type": "Mosquée",
      "adresse": "",
      "description": "Lieu de prière (OpenStreetMap).",
      "mapsUrl": "https://maps.google.com/?q=31.5222578,34.4557118",
      "lat": 31.5222578,
      "lng": 34.4557118,
      "source": "osm"
    },
    {
      "id": "m504281754",
      "nom": "Al-Ghofran Mosque",
      "type": "Mosquée",
      "adresse": "",
      "description": "Lieu de prière (OpenStreetMap).",
      "mapsUrl": "https://maps.google.com/?q=31.5245485,34.4687064",
      "lat": 31.5245485,
      "lng": 34.4687064,
      "source": "osm"
    },
    {
      "id": "m41257020",
      "nom": "مسجد أرض الرباط",
      "type": "Mosquée",
      "adresse": "",
      "description": "Lieu de prière (OpenStreetMap).",
      "mapsUrl": "https://maps.google.com/?q=31.4857083,34.447305",
      "lat": 31.4857083,
      "lng": 34.447305,
      "source": "osm"
    },
    {
      "id": "m504277321",
      "nom": "Al-Shaheed Mahmoud Tawalba Mosque",
      "type": "Mosquée",
      "adresse": "",
      "description": "Lieu de prière (OpenStreetMap).",
      "mapsUrl": "https://maps.google.com/?q=31.5244935,34.4710874",
      "lat": 31.5244935,
      "lng": 34.4710874,
      "source": "osm"
    },
    {
      "id": "m5351237538",
      "nom": "مسجد الرحمة",
      "type": "Mosquée",
      "adresse": "",
      "description": "Lieu de prière (OpenStreetMap).",
      "mapsUrl": "https://maps.google.com/?q=31.5084233,34.4408032",
      "lat": 31.5084233,
      "lng": 34.4408032,
      "source": "osm"
    },
    {
      "id": "m298012424",
      "nom": "Mesquita da Misericórdia",
      "type": "Mosquée",
      "adresse": "",
      "description": "Lieu de prière (OpenStreetMap).",
      "mapsUrl": "https://maps.google.com/?q=31.5084778,34.44079",
      "lat": 31.5084778,
      "lng": 34.44079,
      "source": "osm"
    },
    {
      "id": "m295714594",
      "nom": "Islamic Complex Mosque",
      "type": "Mosquée",
      "adresse": "",
      "description": "Lieu de prière (OpenStreetMap).",
      "mapsUrl": "https://maps.google.com/?q=31.4999884,34.4393671",
      "lat": 31.4999884,
      "lng": 34.4393671,
      "source": "osm"
    },
    {
      "id": "m41257493",
      "nom": "Al-Noor Mosque",
      "type": "Mosquée",
      "adresse": "",
      "description": "Lieu de prière (OpenStreetMap).",
      "mapsUrl": "https://maps.google.com/?q=31.5208383,34.4503452",
      "lat": 31.5208383,
      "lng": 34.4503452,
      "source": "osm"
    },
    {
      "id": "m504257478",
      "nom": "El Salah Mosque",
      "type": "Mosquée",
      "adresse": "",
      "description": "Lieu de prière (OpenStreetMap).",
      "mapsUrl": "https://maps.google.com/?q=31.5222485,34.4813062",
      "lat": 31.5222485,
      "lng": 34.4813062,
      "source": "osm"
    },
    {
      "id": "m9121773043",
      "nom": "مصلى",
      "type": "Mosquée",
      "adresse": "",
      "description": "Lieu de prière (OpenStreetMap).",
      "mapsUrl": "https://maps.google.com/?q=31.5137611,34.4424767",
      "lat": 31.5137611,
      "lng": 34.4424767,
      "source": "osm"
    },
    {
      "id": "m41254352",
      "nom": "Al-Kenz Mosque",
      "type": "Mosquée",
      "adresse": "",
      "description": "Lieu de prière (OpenStreetMap).",
      "mapsUrl": "https://maps.google.com/?q=31.5190876,34.4472564",
      "lat": 31.5190876,
      "lng": 34.4472564,
      "source": "osm"
    },
    {
      "id": "m298689304",
      "nom": "Al-Tawheed Mosque",
      "type": "Mosquée",
      "adresse": "",
      "description": "Lieu de prière (OpenStreetMap).",
      "mapsUrl": "https://maps.google.com/?q=31.5242698,34.477934",
      "lat": 31.5242698,
      "lng": 34.477934,
      "source": "osm"
    },
    {
      "id": "m296094717",
      "nom": "مسجد الجامعة",
      "type": "Mosquée",
      "adresse": "",
      "description": "Lieu de prière (OpenStreetMap).",
      "mapsUrl": "https://maps.google.com/?q=31.5137702,34.4413811",
      "lat": 31.5137702,
      "lng": 34.4413811,
      "source": "osm"
    },
    {
      "id": "m41256472",
      "nom": "Al-Rawda Mosque",
      "type": "Mosquée",
      "adresse": "",
      "description": "Lieu de prière (OpenStreetMap).",
      "mapsUrl": "https://maps.google.com/?q=31.5257958,34.4597926",
      "lat": 31.5257958,
      "lng": 34.4597926,
      "source": "osm"
    },
    {
      "id": "m297045872",
      "nom": "Al-Zakereen Mosque",
      "type": "Mosquée",
      "adresse": "",
      "description": "Lieu de prière (OpenStreetMap).",
      "mapsUrl": "https://maps.google.com/?q=31.526272,34.4722632",
      "lat": 31.526272,
      "lng": 34.4722632,
      "source": "osm"
    },
    {
      "id": "m296336782",
      "nom": "Hamza Ben Abed Elmotaleb Mosque",
      "type": "Mosquée",
      "adresse": "Khaleel Al-Wazeer Street - شارع خليل الوزير",
      "description": "Lieu de prière (OpenStreetMap).",
      "mapsUrl": "https://maps.google.com/?q=31.525611,34.4573526",
      "lat": 31.525611,
      "lng": 34.4573526,
      "source": "osm"
    },
    {
      "id": "m41244520",
      "nom": "Al Sideeq Mosque",
      "type": "Mosquée",
      "adresse": "",
      "description": "Lieu de prière (OpenStreetMap).",
      "mapsUrl": "https://maps.google.com/?q=31.5181651,34.4892311",
      "lat": 31.5181651,
      "lng": 34.4892311,
      "source": "osm"
    },
    {
      "id": "m4566291390",
      "nom": "ورشة القولق",
      "type": "Mosquée",
      "adresse": "",
      "description": "Lieu de prière (OpenStreetMap).",
      "mapsUrl": "https://maps.google.com/?q=31.5209052,34.4474862",
      "lat": 31.5209052,
      "lng": 34.4474862,
      "source": "osm"
    },
    {
      "id": "m41254858",
      "nom": "مسجد حطين",
      "type": "Mosquée",
      "adresse": "",
      "description": "Lieu de prière (OpenStreetMap).",
      "mapsUrl": "https://maps.google.com/?q=31.5268717,34.4629046",
      "lat": 31.5268717,
      "lng": 34.4629046,
      "source": "osm"
    },
    {
      "id": "m295713077",
      "nom": "مسجد البراء بن عازب",
      "type": "Mosquée",
      "adresse": "",
      "description": "Lieu de prière (OpenStreetMap).",
      "mapsUrl": "https://maps.google.com/?q=31.5017811,34.43701",
      "lat": 31.5017811,
      "lng": 34.43701,
      "source": "osm"
    },
    {
      "id": "m41258269",
      "nom": "مسجد عليين",
      "type": "Mosquée",
      "adresse": "",
      "description": "Lieu de prière (OpenStreetMap).",
      "mapsUrl": "https://maps.google.com/?q=31.4865132,34.4425384",
      "lat": 31.4865132,
      "lng": 34.4425384,
      "source": "osm"
    },
    {
      "id": "m41255172",
      "nom": "Mosque",
      "type": "Mosquée",
      "adresse": "",
      "description": "Lieu de prière (OpenStreetMap).",
      "mapsUrl": "https://maps.google.com/?q=31.4804308,34.4499538",
      "lat": 31.4804308,
      "lng": 34.4499538,
      "source": "osm"
    },
    {
      "id": "m41257386",
      "nom": "Amro Bin Al-A'as Mosque",
      "type": "Mosquée",
      "adresse": "",
      "description": "Lieu de prière (OpenStreetMap).",
      "mapsUrl": "https://maps.google.com/?q=31.4918981,34.4389541",
      "lat": 31.4918981,
      "lng": 34.4389541,
      "source": "osm"
    },
    {
      "id": "m504264746",
      "nom": "Aman Mosque",
      "type": "Mosquée",
      "adresse": "",
      "description": "Lieu de prière (OpenStreetMap).",
      "mapsUrl": "https://maps.google.com/?q=31.5274163,34.4668225",
      "lat": 31.5274163,
      "lng": 34.4668225,
      "source": "osm"
    },
    {
      "id": "m684944384",
      "nom": "مسجد امباشي حسن",
      "type": "Mosquée",
      "adresse": "",
      "description": "Lieu de prière (OpenStreetMap).",
      "mapsUrl": "https://maps.google.com/?q=31.5081643,34.437184",
      "lat": 31.5081643,
      "lng": 34.437184,
      "source": "osm"
    },
    {
      "id": "m41256348",
      "nom": "Al-Quraan And Al-Sunnah Mosque",
      "type": "Mosquée",
      "adresse": "",
      "description": "Lieu de prière (OpenStreetMap).",
      "mapsUrl": "https://maps.google.com/?q=31.5243082,34.4511831",
      "lat": 31.5243082,
      "lng": 34.4511831,
      "source": "osm"
    },
    {
      "id": "m297539716",
      "nom": "Al-Sahwa Mosque",
      "type": "Mosquée",
      "adresse": "",
      "description": "Lieu de prière (OpenStreetMap).",
      "mapsUrl": "https://maps.google.com/?q=31.5084182,34.4368413",
      "lat": 31.5084182,
      "lng": 34.4368413,
      "source": "osm"
    },
    {
      "id": "m297810626",
      "nom": "Alehsan Mosque",
      "type": "Mosquée",
      "adresse": "",
      "description": "Lieu de prière (OpenStreetMap).",
      "mapsUrl": "https://maps.google.com/?q=31.5217903,34.4876388",
      "lat": 31.5217903,
      "lng": 34.4876388,
      "source": "osm"
    },
    {
      "id": "m296094713",
      "nom": "مسجد الكوثر",
      "type": "Mosquée",
      "adresse": "Safad Street",
      "description": "Lieu de prière (OpenStreetMap).",
      "mapsUrl": "https://maps.google.com/?q=31.5119228,34.4375392",
      "lat": 31.5119228,
      "lng": 34.4375392,
      "source": "osm"
    },
    {
      "id": "m9882332818",
      "nom": "مسجد الحمد\"حمدي حرزالله\"",
      "type": "Mosquée",
      "adresse": "",
      "description": "Lieu de prière (OpenStreetMap).",
      "mapsUrl": "https://maps.google.com/?q=31.5282638,34.4605697",
      "lat": 31.5282638,
      "lng": 34.4605697,
      "source": "osm"
    },
    {
      "id": "m298686315",
      "nom": "مسجد القدس",
      "type": "Mosquée",
      "adresse": "",
      "description": "Lieu de prière (OpenStreetMap).",
      "mapsUrl": "https://maps.google.com/?q=31.4955446,34.4356794",
      "lat": 31.4955446,
      "lng": 34.4356794,
      "source": "osm"
    },
    {
      "id": "m297056526",
      "nom": "Al-Taqwa Mosque",
      "type": "Mosquée",
      "adresse": "",
      "description": "Lieu de prière (OpenStreetMap).",
      "mapsUrl": "https://maps.google.com/?q=31.528822,34.4702044",
      "lat": 31.528822,
      "lng": 34.4702044,
      "source": "osm"
    },
    {
      "id": "m41254912",
      "nom": "Abo Horira Mosque",
      "type": "Mosquée",
      "adresse": "",
      "description": "Lieu de prière (OpenStreetMap).",
      "mapsUrl": "https://maps.google.com/?q=31.5286195,34.4587232",
      "lat": 31.5286195,
      "lng": 34.4587232,
      "source": "osm"
    },
    {
      "id": "m299733068",
      "nom": "المسجد العمرى",
      "type": "Mosquée",
      "adresse": "",
      "description": "Lieu de prière (OpenStreetMap).",
      "mapsUrl": "https://maps.google.com/?q=31.5256749,34.483908",
      "lat": 31.5256749,
      "lng": 34.483908,
      "source": "osm"
    },
    {
      "id": "m41254921",
      "nom": "Al-Harazen Mosque",
      "type": "Mosquée",
      "adresse": "",
      "description": "Lieu de prière (OpenStreetMap).",
      "mapsUrl": "https://maps.google.com/?q=31.5291236,34.4596336",
      "lat": 31.5291236,
      "lng": 34.4596336,
      "source": "osm"
    },
    {
      "id": "m3299036182",
      "nom": "مسجد الإمام أبي حنيفة النعمان",
      "type": "Mosquée",
      "adresse": "",
      "description": "Lieu de prière (OpenStreetMap).",
      "mapsUrl": "https://maps.google.com/?q=31.5202653,34.4916924",
      "lat": 31.5202653,
      "lng": 34.4916924,
      "source": "osm"
    },
    {
      "id": "m8237029419",
      "nom": "مسجد شهداء الشيخ رضوان",
      "type": "Mosquée",
      "adresse": "Al-Khansaa Street",
      "description": "Lieu de prière (OpenStreetMap).",
      "mapsUrl": "https://maps.google.com/?q=31.5299994,34.4653993",
      "lat": 31.5299994,
      "lng": 34.4653993,
      "source": "osm"
    },
    {
      "id": "m5460602221",
      "nom": "مسجد الراجحي",
      "type": "Mosquée",
      "adresse": "",
      "description": "Lieu de prière (OpenStreetMap).",
      "mapsUrl": "https://maps.google.com/?q=31.523607,34.4882957",
      "lat": 31.523607,
      "lng": 34.4882957,
      "source": "osm"
    },
    {
      "id": "m299740460",
      "nom": "مسجد صلاح الدين الايوبي",
      "type": "Mosquée",
      "adresse": "",
      "description": "Lieu de prière (OpenStreetMap).",
      "mapsUrl": "https://maps.google.com/?q=31.5233553,34.4887569",
      "lat": 31.5233553,
      "lng": 34.4887569,
      "source": "osm"
    },
    {
      "id": "m41255305",
      "nom": "مسجد عمار بن ياسر",
      "type": "Mosquée",
      "adresse": "",
      "description": "Lieu de prière (OpenStreetMap).",
      "mapsUrl": "https://maps.google.com/?q=31.5067558,34.4334468",
      "lat": 31.5067558,
      "lng": 34.4334468,
      "source": "osm"
    },
    {
      "id": "m6762360686",
      "nom": "مسجد الحبيب محمد",
      "type": "Mosquée",
      "adresse": "Khaleel Al-Wazeer Street - شارع خليل الوزير",
      "description": "Lieu de prière (OpenStreetMap).",
      "mapsUrl": "https://maps.google.com/?q=31.5283933,34.4534876",
      "lat": 31.5283933,
      "lng": 34.4534876,
      "source": "osm"
    },
    {
      "id": "m504272737",
      "nom": "Al-Shefa'a Mosque",
      "type": "Mosquée",
      "adresse": "",
      "description": "Lieu de prière (OpenStreetMap).",
      "mapsUrl": "https://maps.google.com/?q=31.5237484,34.4445315",
      "lat": 31.5237484,
      "lng": 34.4445315,
      "source": "osm"
    },
    {
      "id": "m504266076",
      "nom": "Hamza Mosque",
      "type": "Mosquée",
      "adresse": "",
      "description": "Lieu de prière (OpenStreetMap).",
      "mapsUrl": "https://maps.google.com/?q=31.5288254,34.479288",
      "lat": 31.5288254,
      "lng": 34.479288,
      "source": "osm"
    },
    {
      "id": "m504270408",
      "nom": "Haraa Masged Mosque",
      "type": "Mosquée",
      "adresse": "",
      "description": "Lieu de prière (OpenStreetMap).",
      "mapsUrl": "https://maps.google.com/?q=31.5276816,34.482485",
      "lat": 31.5276816,
      "lng": 34.482485,
      "source": "osm"
    },
    {
      "id": "m295975462",
      "nom": "مسجد حفصة بنت عمر",
      "type": "Mosquée",
      "adresse": "Abd Al-Qader Al-Hoseiny Street",
      "description": "Lieu de prière (OpenStreetMap).",
      "mapsUrl": "https://maps.google.com/?q=31.5300427,34.45826",
      "lat": 31.5300427,
      "lng": 34.45826,
      "source": "osm"
    },
    {
      "id": "m587030251",
      "nom": "مسجد حمزة بن عبد المطلب",
      "type": "Mosquée",
      "adresse": "شارع ابراج تل الهوا",
      "description": "Lieu de prière (OpenStreetMap).",
      "mapsUrl": "https://maps.google.com/?q=31.5035905,34.4318698",
      "lat": 31.5035905,
      "lng": 34.4318698,
      "source": "osm"
    },
    {
      "id": "m8366354019",
      "nom": "مسجد الفاروق عمربن الخطاب",
      "type": "Mosquée",
      "adresse": "",
      "description": "Lieu de prière (OpenStreetMap).",
      "mapsUrl": "https://maps.google.com/?q=31.5301216,34.4546482",
      "lat": 31.5301216,
      "lng": 34.4546482,
      "source": "osm"
    },
    {
      "id": "m41254040",
      "nom": "Al-Abbas Mosque",
      "type": "Mosquée",
      "adresse": "",
      "description": "Lieu de prière (OpenStreetMap).",
      "mapsUrl": "https://maps.google.com/?q=31.5225256,34.4410056",
      "lat": 31.5225256,
      "lng": 34.4410056,
      "source": "osm"
    },
    {
      "id": "m41256010",
      "nom": "Al-Sheikh Zayed Mosque",
      "type": "Mosquée",
      "adresse": "",
      "description": "Lieu de prière (OpenStreetMap).",
      "mapsUrl": "https://maps.google.com/?q=31.5175117,34.4364307",
      "lat": 31.5175117,
      "lng": 34.4364307,
      "source": "osm"
    },
    {
      "id": "m6190429285",
      "nom": "مسجد الاسراء",
      "type": "Mosquée",
      "adresse": "Mohammed Yosef Alnajjar Street",
      "description": "Lieu de prière (OpenStreetMap).",
      "mapsUrl": "https://maps.google.com/?q=31.5319702,34.4636951",
      "lat": 31.5319702,
      "lng": 34.4636951,
      "source": "osm"
    },
    {
      "id": "m295941517",
      "nom": "Mesquita Al-Farouq",
      "type": "Mosquée",
      "adresse": "",
      "description": "Lieu de prière (OpenStreetMap).",
      "mapsUrl": "https://maps.google.com/?q=31.5301485,34.4541734",
      "lat": 31.5301485,
      "lng": 34.4541734,
      "source": "osm"
    },
    {
      "id": "m6495869786",
      "nom": "مسجد الفاروق",
      "type": "Mosquée",
      "adresse": "Alqouthi Street",
      "description": "Lieu de prière (OpenStreetMap).",
      "mapsUrl": "https://maps.google.com/?q=31.5302043,34.4542454",
      "lat": 31.5302043,
      "lng": 34.4542454,
      "source": "osm"
    },
    {
      "id": "m299737124",
      "nom": "abu el keer",
      "type": "Mosquée",
      "adresse": "",
      "description": "Lieu de prière (OpenStreetMap).",
      "mapsUrl": "https://maps.google.com/?q=31.5246735,34.4903536",
      "lat": 31.5246735,
      "lng": 34.4903536,
      "source": "osm"
    },
    {
      "id": "m295858648",
      "nom": "مسجد الصابرين",
      "type": "Mosquée",
      "adresse": "",
      "description": "Lieu de prière (OpenStreetMap).",
      "mapsUrl": "https://maps.google.com/?q=31.5262477,34.4439111",
      "lat": 31.5262477,
      "lng": 34.4439111,
      "source": "osm"
    },
    {
      "id": "m504262273",
      "nom": "Al Imran Mosque",
      "type": "Mosquée",
      "adresse": "",
      "description": "Lieu de prière (OpenStreetMap).",
      "mapsUrl": "https://maps.google.com/?q=31.5024967,34.4298833",
      "lat": 31.5024967,
      "lng": 34.4298833,
      "source": "osm"
    },
    {
      "id": "m504302020",
      "nom": "Al-Wehda Mosque",
      "type": "Mosquée",
      "adresse": "",
      "description": "Lieu de prière (OpenStreetMap).",
      "mapsUrl": "https://maps.google.com/?q=31.5299826,34.4501788",
      "lat": 31.5299826,
      "lng": 34.4501788,
      "source": "osm"
    },
    {
      "id": "m504284571",
      "nom": "Abdalllah Bin Omar Mosque",
      "type": "Mosquée",
      "adresse": "Shati Camp, gaza",
      "description": "Lieu de prière (OpenStreetMap).",
      "mapsUrl": "https://maps.google.com/?q=31.5294541,34.4470998",
      "lat": 31.5294541,
      "lng": 34.4470998,
      "source": "osm"
    },
    {
      "id": "m5256213021",
      "nom": "مسجد زيد ابن حارثة",
      "type": "Mosquée",
      "adresse": "",
      "description": "Lieu de prière (OpenStreetMap).",
      "mapsUrl": "https://maps.google.com/?q=31.5201229,34.4350559",
      "lat": 31.5201229,
      "lng": 34.4350559,
      "source": "osm"
    },
    {
      "id": "m297061662",
      "nom": "مسجد بئر السبع",
      "type": "Mosquée",
      "adresse": "",
      "description": "Lieu de prière (OpenStreetMap).",
      "mapsUrl": "https://maps.google.com/?q=31.53439,34.471846",
      "lat": 31.53439,
      "lng": 34.471846,
      "source": "osm"
    },
    {
      "id": "m41254383",
      "nom": "Al-Ameen Mosque",
      "type": "Mosquée",
      "adresse": "Gaza",
      "description": "Lieu de prière (OpenStreetMap).",
      "mapsUrl": "https://maps.google.com/?q=31.5140997,34.4309437",
      "lat": 31.5140997,
      "lng": 34.4309437,
      "source": "osm"
    },
    {
      "id": "m297515638",
      "nom": "Said Bin Aby Waqas Mosque",
      "type": "Mosquée",
      "adresse": "",
      "description": "Lieu de prière (OpenStreetMap).",
      "mapsUrl": "https://maps.google.com/?q=31.5276454,34.4908028",
      "lat": 31.5276454,
      "lng": 34.4908028,
      "source": "osm"
    },
    {
      "id": "m4370997896",
      "nom": "مركز الدعوة والتوحيد",
      "type": "Mosquée",
      "adresse": "",
      "description": "Lieu de prière (OpenStreetMap).",
      "mapsUrl": "https://maps.google.com/?q=31.534662,34.4598592",
      "lat": 31.534662,
      "lng": 34.4598592,
      "source": "osm"
    },
    {
      "id": "m41255913",
      "nom": "Marj Al-Zohoor Mosque",
      "type": "Mosquée",
      "adresse": "",
      "description": "Lieu de prière (OpenStreetMap).",
      "mapsUrl": "https://maps.google.com/?q=31.5333606,34.4537914",
      "lat": 31.5333606,
      "lng": 34.4537914,
      "source": "osm"
    },
    {
      "id": "m4939031324",
      "nom": "مسجد الرضوان",
      "type": "Mosquée",
      "adresse": "",
      "description": "Lieu de prière (OpenStreetMap).",
      "mapsUrl": "https://maps.google.com/?q=31.5352894,34.4652025",
      "lat": 31.5352894,
      "lng": 34.4652025,
      "source": "osm"
    }
  ],
  "activites": [
    {
      "id": "a223881049",
      "nom": "الشجاعية رمزون",
      "categorie": "attraction",
      "description": "",
      "prix": "",
      "duree": "",
      "mapsUrl": "https://maps.google.com/?q=31.5024286,34.4677925",
      "lat": 31.5024286,
      "lng": 34.4677925,
      "source": "osm"
    },
    {
      "id": "a504268133",
      "nom": "Qaser Al-Basha Museum",
      "categorie": "museum",
      "description": "",
      "prix": "",
      "duree": "",
      "mapsUrl": "https://maps.google.com/?q=31.5045098,34.4662677",
      "lat": 31.5045098,
      "lng": 34.4662677,
      "source": "osm"
    },
    {
      "id": "a6399053886",
      "nom": "شارع الكماليه",
      "categorie": "memorial",
      "description": "",
      "prix": "",
      "duree": "",
      "mapsUrl": "https://maps.google.com/?q=31.5006145,34.4632263",
      "lat": 31.5006145,
      "lng": 34.4632263,
      "source": "osm"
    },
    {
      "id": "a4453609490",
      "nom": "ساحة الشوا",
      "categorie": "monument",
      "description": "",
      "prix": "",
      "duree": "",
      "mapsUrl": "https://maps.google.com/?q=31.5068718,34.468079",
      "lat": 31.5068718,
      "lng": 34.468079,
      "source": "osm"
    },
    {
      "id": "a1002629109",
      "nom": "نصب تذكاري لحرب 2014",
      "categorie": "monument",
      "description": "",
      "prix": "",
      "duree": "",
      "mapsUrl": "https://maps.google.com/?q=31.5060048,34.4619667",
      "lat": 31.5060048,
      "lng": 34.4619667,
      "source": "osm"
    },
    {
      "id": "a4235356701",
      "nom": "ميدان فلسطين (الساحة)",
      "categorie": "monument",
      "description": "",
      "prix": "",
      "duree": "",
      "mapsUrl": "https://maps.google.com/?q=31.5060251,34.461757",
      "lat": 31.5060251,
      "lng": 34.461757,
      "source": "osm"
    },
    {
      "id": "a229849562",
      "nom": "AlBdrasawe Super Dealer",
      "categorie": "attraction",
      "description": "",
      "prix": "",
      "duree": "",
      "mapsUrl": "https://maps.google.com/?q=31.5063938,34.4618409",
      "lat": 31.5063938,
      "lng": 34.4618409,
      "source": "osm"
    },
    {
      "id": "a7131013986",
      "nom": "ورشة فايز جرادة للخراطة",
      "categorie": "artwork",
      "description": "",
      "prix": "",
      "duree": "",
      "mapsUrl": "https://maps.google.com/?q=31.5076838,34.4719835",
      "lat": 31.5076838,
      "lng": 34.4719835,
      "source": "osm"
    },
    {
      "id": "a4736150822",
      "nom": "المكتب الحديث للأعمال المساحية (احداثيات)",
      "categorie": "attraction",
      "description": "",
      "prix": "",
      "duree": "",
      "mapsUrl": "https://maps.google.com/?q=31.5073263,34.4603179",
      "lat": 31.5073263,
      "lng": 34.4603179,
      "source": "osm"
    },
    {
      "id": "a9024400531",
      "nom": "مطبعة ألوان الحديثة",
      "categorie": "artwork",
      "description": "",
      "prix": "",
      "duree": "",
      "mapsUrl": "https://maps.google.com/?q=31.4946345,34.4616248",
      "lat": 31.4946345,
      "lng": 34.4616248,
      "source": "osm"
    },
    {
      "id": "a9033689303",
      "nom": "نصب تذكاري للشهيد ماجد الحرازين",
      "categorie": "monument",
      "description": "",
      "prix": "",
      "duree": "",
      "mapsUrl": "https://maps.google.com/?q=31.4943928,34.4612272",
      "lat": 31.4943928,
      "lng": 34.4612272,
      "source": "osm"
    },
    {
      "id": "a9253921238",
      "nom": "دوار حبيب",
      "categorie": "monument",
      "description": "",
      "prix": "",
      "duree": "",
      "mapsUrl": "https://maps.google.com/?q=31.4984288,34.4542821",
      "lat": 31.4984288,
      "lng": 34.4542821,
      "source": "osm"
    },
    {
      "id": "a13383399301",
      "nom": "مسجد الصحابة",
      "categorie": "attraction",
      "description": "",
      "prix": "",
      "duree": "",
      "mapsUrl": "https://maps.google.com/?q=31.5131599,34.4619463",
      "lat": 31.5131599,
      "lng": 34.4619463,
      "source": "osm"
    },
    {
      "id": "a5463777522",
      "nom": "Vape",
      "categorie": "attraction",
      "description": "",
      "prix": "",
      "duree": "",
      "mapsUrl": "https://maps.google.com/?q=31.5154307,34.4631079",
      "lat": 31.5154307,
      "lng": 34.4631079,
      "source": "osm"
    },
    {
      "id": "a4111977005",
      "nom": "مصنع فخار صبري عطالله",
      "categorie": "attraction",
      "description": "",
      "prix": "",
      "duree": "",
      "mapsUrl": "https://maps.google.com/?q=31.5164152,34.465085",
      "lat": 31.5164152,
      "lng": 34.465085,
      "source": "osm"
    },
    {
      "id": "a7332270685",
      "nom": "7up",
      "categorie": "attraction",
      "description": "",
      "prix": "",
      "duree": "",
      "mapsUrl": "https://maps.google.com/?q=31.5128868,34.4797017",
      "lat": 31.5128868,
      "lng": 34.4797017,
      "source": "osm"
    },
    {
      "id": "a4362376090",
      "nom": "الكوربة",
      "categorie": "attraction",
      "description": "",
      "prix": "",
      "duree": "",
      "mapsUrl": "https://maps.google.com/?q=31.4910395,34.4804593",
      "lat": 31.4910395,
      "lng": 34.4804593,
      "source": "osm"
    },
    {
      "id": "a6341177688",
      "nom": "دوار أبو عيدة",
      "categorie": "memorial",
      "description": "",
      "prix": "",
      "duree": "",
      "mapsUrl": "https://maps.google.com/?q=31.5051493,34.4483683",
      "lat": 31.5051493,
      "lng": 34.4483683,
      "source": "osm"
    },
    {
      "id": "a2309509925",
      "nom": "برية الانجليز",
      "categorie": "memorial",
      "description": "",
      "prix": "",
      "duree": "",
      "mapsUrl": "https://maps.google.com/?q=31.5115502,34.4817919",
      "lat": 31.5115502,
      "lng": 34.4817919,
      "source": "osm"
    },
    {
      "id": "a6559351385",
      "nom": "دوار دوله",
      "categorie": "memorial",
      "description": "",
      "prix": "",
      "duree": "",
      "mapsUrl": "https://maps.google.com/?q=31.4910274,34.4525479",
      "lat": 31.4910274,
      "lng": 34.4525479,
      "source": "osm"
    },
    {
      "id": "a11261224137",
      "nom": "מחוז בארי",
      "categorie": "attraction",
      "description": "",
      "prix": "",
      "duree": "",
      "mapsUrl": "https://maps.google.com/?q=31.5061457,34.4467228",
      "lat": 31.5061457,
      "lng": 34.4467228,
      "source": "osm"
    },
    {
      "id": "a5897803285",
      "nom": "مطبعة اتقان",
      "categorie": "artwork",
      "description": "",
      "prix": "",
      "duree": "",
      "mapsUrl": "https://maps.google.com/?q=31.5146775,34.4482942",
      "lat": 31.5146775,
      "lng": 34.4482942,
      "source": "osm"
    },
    {
      "id": "a8834793217",
      "nom": "مزرعة ابو شادي",
      "categorie": "viewpoint",
      "description": "",
      "prix": "",
      "duree": "",
      "mapsUrl": "https://maps.google.com/?q=31.4938035,34.4891588",
      "lat": 31.4938035,
      "lng": 34.4891588,
      "source": "osm"
    },
    {
      "id": "a4326964789",
      "nom": "مؤسسه البيارق",
      "categorie": "attraction",
      "description": "",
      "prix": "",
      "duree": "",
      "mapsUrl": "https://maps.google.com/?q=31.5225079,34.4601365",
      "lat": 31.5225079,
      "lng": 34.4601365,
      "source": "osm"
    },
    {
      "id": "a8213848417",
      "nom": "مفترق الصناعة",
      "categorie": "monument",
      "description": "",
      "prix": "",
      "duree": "",
      "mapsUrl": "https://maps.google.com/?q=31.5125808,34.4447811",
      "lat": 31.5125808,
      "lng": 34.4447811,
      "source": "osm"
    },
    {
      "id": "a4687759414",
      "nom": "مفترق الغفري",
      "categorie": "monument",
      "description": "",
      "prix": "",
      "duree": "",
      "mapsUrl": "https://maps.google.com/?q=31.5227177,34.4604541",
      "lat": 31.5227177,
      "lng": 34.4604541,
      "source": "osm"
    },
    {
      "id": "a223644272",
      "nom": "Rabee Co.",
      "categorie": "attraction",
      "description": "",
      "prix": "",
      "duree": "",
      "mapsUrl": "https://maps.google.com/?q=31.5091485,34.440962",
      "lat": 31.5091485,
      "lng": 34.440962,
      "source": "osm"
    },
    {
      "id": "a8213848317",
      "nom": "مفترق الصناعة",
      "categorie": "monument",
      "description": "",
      "prix": "",
      "duree": "",
      "mapsUrl": "https://maps.google.com/?q=31.5060168,34.439395",
      "lat": 31.5060168,
      "lng": 34.439395,
      "source": "osm"
    },
    {
      "id": "a4391746991",
      "nom": "زمرد",
      "categorie": "artwork",
      "description": "",
      "prix": "",
      "duree": "",
      "mapsUrl": "https://maps.google.com/?q=31.5254414,34.4638203",
      "lat": 31.5254414,
      "lng": 34.4638203,
      "source": "osm"
    },
    {
      "id": "a4210646289",
      "nom": "عمارة الرائد 1",
      "categorie": "memorial",
      "description": "",
      "prix": "",
      "duree": "",
      "mapsUrl": "https://maps.google.com/?q=31.5236557,34.4552629",
      "lat": 31.5236557,
      "lng": 34.4552629,
      "source": "osm"
    },
    {
      "id": "a4537640996",
      "nom": "I design للهندسة",
      "categorie": "artwork",
      "description": "",
      "prix": "",
      "duree": "",
      "mapsUrl": "https://maps.google.com/?q=31.5192692,34.4470602",
      "lat": 31.5192692,
      "lng": 34.4470602,
      "source": "osm"
    },
    {
      "id": "a4326841091",
      "nom": "الجوهره",
      "categorie": "attraction",
      "description": "",
      "prix": "",
      "duree": "",
      "mapsUrl": "https://maps.google.com/?q=31.5255856,34.4604296",
      "lat": 31.5255856,
      "lng": 34.4604296,
      "source": "osm"
    },
    {
      "id": "a4327009992",
      "nom": "ال النبيه",
      "categorie": "attraction",
      "description": "",
      "prix": "",
      "duree": "",
      "mapsUrl": "https://maps.google.com/?q=31.5255252,34.4599308",
      "lat": 31.5255252,
      "lng": 34.4599308,
      "source": "osm"
    },
    {
      "id": "a4840006624",
      "nom": "دار محمود اسليم",
      "categorie": "memorial",
      "description": "",
      "prix": "",
      "duree": "",
      "mapsUrl": "https://maps.google.com/?q=31.5259171,34.4620295",
      "lat": 31.5259171,
      "lng": 34.4620295,
      "source": "osm"
    },
    {
      "id": "a223880726",
      "nom": "القرم دوار",
      "categorie": "attraction",
      "description": "",
      "prix": "",
      "duree": "",
      "mapsUrl": "https://maps.google.com/?q=31.5183652,34.4888641",
      "lat": 31.5183652,
      "lng": 34.4888641,
      "source": "osm"
    },
    {
      "id": "a4660623689",
      "nom": "مركز المنى التعليمي",
      "categorie": "attraction",
      "description": "",
      "prix": "",
      "duree": "",
      "mapsUrl": "https://maps.google.com/?q=31.5029655,34.4372226",
      "lat": 31.5029655,
      "lng": 34.4372226,
      "source": "osm"
    },
    {
      "id": "a4947385222",
      "nom": "قبر ام اياد الهيثم",
      "categorie": "monument",
      "description": "",
      "prix": "",
      "duree": "",
      "mapsUrl": "https://maps.google.com/?q=31.5263634,34.4578852",
      "lat": 31.5263634,
      "lng": 34.4578852,
      "source": "osm"
    },