{
 "slug": "genes",
 "nom": "Gênes",
 "pays": "Italie",
 "pays_slug": "italie",
 "continent": "Europe",
 "region": "Italie",
 "coordonnees": {
  "lat": 44.4056,
  "lng": 8.9463
 },
 "codeISO": "IT",
 "score_halal": 3.2,
 "halalScore": 6.4,
 "description": "Gênes, Italie. Repérez les restaurants halal et les mosquées via l'application.",
 "metaDescription": "Gênes, Italie. Repérez les restaurants halal et les mosquées via l'application.",
 "image": "https://images.unsplash.com/photo-1469474968028-56623f02e42e?w=1200&q=80",
 "image_hero": "https://images.unsplash.com/photo-1469474968028-56623f02e42e?w=1200&q=80",
 "imageAVenir": true,
 "imageCredit": "",
 "scoreIndicatif": true,
 "statistiques": {
  "restaurants_halal": 27,
  "mosquees": 6,
  "hotels": 120
 },
 "infoPratique": {
  "transport": "Accessible par avion et transports locaux.",
  "meilleureEpoque": "Selon la saison.",
  "conseilHalal": "Repérez restaurants halal et mosquées via l'application."
 },
 "tags": [
  "halal",
  "europe"
 ],
 "restaurants": [
  {
   "nom": "Gandhi Kebab",
   "type": "kebab",
   "priceRange": "€€",
   "mapsUrl": "https://maps.google.com/?q=44.404046,8.9476892",
   "lat": 44.404046,
   "lng": 8.9476892,
   "halalConfidence": "likely",
   "source": "osm"
  },
  {
   "nom": "Lanterna Fast Food",
   "type": "kebab",
   "priceRange": "€€",
   "mapsUrl": "https://maps.google.com/?q=44.4031199,8.9508939",
   "lat": 44.4031199,
   "lng": 8.9508939,
   "halalConfidence": "likely",
   "source": "osm"
  },
  {
   "nom": "Chicken Inn",
   "type": "kebab",
   "priceRange": "€€",
   "mapsUrl": "https://maps.google.com/?q=44.4078751,8.9531709",
   "lat": 44.4078751,
   "lng": 8.9531709,
   "halalConfidence": "likely",
   "source": "osm"
  },
  {
   "nom": "Kebhouze",
   "type": "kebab",
   "priceRange": "€€",
   "mapsUrl": "https://maps.google.com/?q=44.4090541,8.9557045",
   "lat": 44.4090541,
   "lng": 8.9557045,
   "halalConfidence": "likely",
   "source": "osm"
  },
  {
   "nom": "Yummy",
   "type": "kebab",
   "priceRange": "€€",
   "mapsUrl": "https://maps.google.com/?q=44.406388,8.9581263",
   "lat": 44.406388,
   "lng": 8.9581263,
   "halalConfidence": "likely",
   "source": "osm"
  },
  {
   "nom": "Turkish House",
   "type": "kebab",
   "priceRange": "€€",
   "mapsUrl": "https://maps.google.com/?q=44.413375,8.9516129",
   "lat": 44.413375,
   "lng": 8.9516129,
   "halalConfidence": "likely",
   "source": "osm"
  },
  {
   "nom": "Asia Kebab & Fast-food",
   "type": "kebab",
   "priceRange": "€€",
   "mapsUrl": "https://maps.google.com/?q=44.4065775,8.9321374",
   "lat": 44.4065775,
   "lng": 8.9321374,
   "halalConfidence": "likely",
   "source": "osm"
  },
  {
   "nom": "Kebab Canneto",
   "type": "kebab",
   "priceRange": "€€",
   "mapsUrl": "https://maps.google.com/?q=44.407417,8.9305969",
   "lat": 44.407417,
   "lng": 8.9305969,
   "halalConfidence": "likely",
   "source": "osm"
  },
  {
   "nom": "Canneto",
   "type": "kebab",
   "priceRange": "€€",
   "mapsUrl": "https://maps.google.com/?q=44.4077586,8.9304762",
   "lat": 44.4077586,
   "lng": 8.9304762,
   "halalConfidence": "likely",
   "source": "osm"
  },
  {
   "nom": "Lasani Fast Food",
   "type": "kebab",
   "priceRange": "€€",
   "mapsUrl": "https://maps.google.com/?q=44.4144413,8.9567612",
   "lat": 44.4144413,
   "lng": 8.9567612,
   "halalConfidence": "likely",
   "source": "osm"
  },
  {
   "nom": "Al Baraca",
   "type": "kebab",
   "priceRange": "€€",
   "mapsUrl": "https://maps.google.com/?q=44.4167505,8.9540665",
   "lat": 44.4167505,
   "lng": 8.9540665,
   "halalConfidence": "likely",
   "source": "osm"
  },
  {
   "nom": "Chez Abdul",
   "type": "kebab",
   "priceRange": "€€",
   "mapsUrl": "https://maps.google.com/?q=44.4097218,8.9293158",
   "lat": 44.4097218,
   "lng": 8.9293158,
   "halalConfidence": "likely",
   "source": "osm"
  },
  {
   "nom": "Reza kebab",
   "type": "kebab",
   "priceRange": "€€",
   "mapsUrl": "https://maps.google.com/?q=44.407123,8.9642782",
   "lat": 44.407123,
   "lng": 8.9642782,
   "halalConfidence": "likely",
   "source": "osm"
  },
  {
   "nom": "Fresh",
   "type": "sandwich, kebab",
   "priceRange": "€€",
   "mapsUrl": "https://maps.google.com/?q=44.4160643,8.9581311",
   "lat": 44.4160643,
   "lng": 8.9581311,
   "halalConfidence": "likely",
   "source": "osm"
  },
  {
   "nom": "La Darsena",
   "type": "kebab",
   "priceRange": "€€",
   "mapsUrl": "https://maps.google.com/?q=44.4133136,8.9265067",
   "lat": 44.4133136,
   "lng": 8.9265067,
   "halalConfidence": "likely",
   "source": "osm"
  },
  {
   "nom": "Byblos",
   "type": "lebanese",
   "priceRange": "€€",
   "mapsUrl": "https://maps.google.com/?q=44.4115952,8.9252352",
   "lat": 44.4115952,
   "lng": 8.9252352,
   "halalConfidence": "likely",
   "source": "osm"
  },
  {
   "nom": "Kebab La Darsena",
   "type": "kebab",
   "priceRange": "€€",
   "mapsUrl": "https://maps.google.com/?q=44.4133767,8.92639",
   "lat": 44.4133767,
   "lng": 8.92639,
   "halalConfidence": "likely",
   "source": "osm"
  },
  {
   "nom": "Istanbul Kebap",
   "type": "kebab",
   "priceRange": "€€",
   "mapsUrl": "https://maps.google.com/?q=44.4136912,8.9258639",
   "lat": 44.4136912,
   "lng": 8.9258639,
   "halalConfidence": "likely",
   "source": "osm"
  },
  {
   "nom": "Scialla Kebab Contemporaneo",
   "type": "kebab",
   "priceRange": "€€",
   "mapsUrl": "https://maps.google.com/?q=44.3923733,8.9857713",
   "lat": 44.3923733,
   "lng": 8.9857713,
   "halalConfidence": "likely",
   "source": "osm"
  },
  {
   "nom": "Pizzeria Kebab \"Ke Pizza\"",
   "type": "kebab, pizza",
   "priceRange": "€€",
   "mapsUrl": "https://maps.google.com/?q=44.4436528,8.9639752",
   "lat": 44.4436528,
   "lng": 8.9639752,
   "halalConfidence": "likely",
   "source": "osm"
  },
  {
   "nom": "Malik kebab",
   "type": "turkish, kebab, chicken",
   "priceRange": "€€",
   "mapsUrl": "https://maps.google.com/?q=44.4159078,8.8733995",
   "lat": 44.4159078,
   "lng": 8.8733995,
   "halalConfidence": "likely",
   "source": "osm"
  },
  {
   "nom": "Turkish Kebab",
   "type": "turkish, kebab, chicken",
   "priceRange": "€€",
   "mapsUrl": "https://maps.google.com/?q=44.4158277,8.8725209",
   "lat": 44.4158277,
   "lng": 8.8725209,
   "halalConfidence": "likely",
   "source": "osm"
  },
  {
   "nom": "Gnam Gnam",
   "type": "kebab",
   "priceRange": "€€",
   "mapsUrl": "https://maps.google.com/?q=44.384859,9.016981",
   "lat": 44.384859,
   "lng": 9.016981,
   "halalConfidence": "likely",
   "source": "osm"
  },
  {
   "nom": "Dany's",
   "type": "kebab, pizza",
   "priceRange": "€€",
   "mapsUrl": "https://maps.google.com/?q=44.4155067,8.8692839",
   "lat": 44.4155067,
   "lng": 8.8692839,
   "halalConfidence": "likely",
   "source": "osm"
  },
  {
   "nom": "Hira",
   "type": "kebab",
   "priceRange": "€€",
   "mapsUrl": "https://maps.google.com/?q=44.4600053,8.9021825",
   "lat": 44.4600053,
   "lng": 8.9021825,
   "halalConfidence": "likely",
   "source": "osm"
  },
  {
   "nom": "Ristorante Soraya",
   "type": "persian",
   "priceRange": "€€",
   "mapsUrl": "https://maps.google.com/?q=44.3830181,9.0288549",
   "lat": 44.3830181,
   "lng": 9.0288549,
   "halalConfidence": "likely",
   "source": "osm"
  },
  {
   "nom": "Hira",
   "type": "chicken, kebab",
   "priceRange": "€€",
   "mapsUrl": "https://maps.google.com/?q=44.5008216,8.9047168",
   "lat": 44.5008216,
   "lng": 8.9047168,
   "halalConfidence": "likely",
   "source": "osm"
  }
 ],
 "hotels": [
  {
   "nom": "Hotel Fiume",
   "categorie": "Hôtel",
   "priceRange": "€€",
   "score": 2,
   "mapsUrl": "https://maps.google.com/?q=44.4058792,8.9448061",
   "lat": 44.4058792,
   "lng": 8.9448061,
   "halalFriendly": false,
   "bookingUrl": "https://www.hotelfiume.com/",
   "source": "osm"
  },
  {
   "nom": "La Divina Dimora",
   "categorie": "Maison d'hôtes",
   "priceRange": "€€",
   "mapsUrl": "https://maps.google.com/?q=44.4059829,8.9442526",
   "lat": 44.4059829,
   "lng": 8.9442526,
   "halalFriendly": false,
   "bookingUrl": "https://maps.google.com/?q=44.4059829,8.9442526",
   "source": "osm"
  },
  {
   "nom": "Best Western Hotel Moderno Verdi",
   "categorie": "Hôtel",
   "priceRange": "€€€€",
   "score": 4,
   "mapsUrl": "https://maps.google.com/?q=44.4069568,8.945353",
   "lat": 44.4069568,
   "lng": 8.945353,
   "halalFriendly": false,
   "bookingUrl": "https://maps.google.com/?q=44.4069568,8.945353",
   "source": "osm"
  },
  {
   "nom": "Starhotels President",
   "categorie": "Hôtel",
   "priceRange": "€€€€",
   "score": 4,
   "mapsUrl": "https://maps.google.com/?q=44.4048816,8.9484129",
   "lat": 44.4048816,
   "lng": 8.9484129,
   "halalFriendly": false,
   "bookingUrl": "https://maps.google.com/?q=44.4048816,8.9484129",
   "source": "osm"
  },
  {
   "nom": "Brignole",
   "categorie": "Hôtel",
   "priceRange": "€€€",
   "score": 3,
   "mapsUrl": "https://maps.google.com/?q=44.4070347,8.9447123",
   "lat": 44.4070347,
   "lng": 8.9447123,
   "halalFriendly": false,
   "bookingUrl": "https://maps.google.com/?q=44.4070347,8.9447123",
   "source": "osm"
  },
  {
   "nom": "Barone",
   "categorie": "Hôtel",
   "priceRange": "€",
   "score": 1,
   "mapsUrl": "https://maps.google.com/?q=44.4047042,8.9439362",
   "lat": 44.4047042,
   "lng": 8.9439362,
   "halalFriendly": false,
   "bookingUrl": "https://maps.google.com/?q=44.4047042,8.9439362",
   "source": "osm"
  },
  {
   "nom": "Hotel Astro",
   "categorie": "Hôtel",
   "priceRange": "€",
   "score": 1,
   "mapsUrl": "https://maps.google.com/?q=44.4050563,8.9435689",
   "lat": 44.4050563,
   "lng": 8.9435689,
   "halalFriendly": false,
   "bookingUrl": "https://maps.google.com/?q=44.4050563,8.9435689",
   "source": "osm"
  },
  {
   "nom": "Hotel Ricci",
   "categorie": "Hôtel",
   "priceRange": "€€",
   "score": 2,
   "mapsUrl": "https://maps.google.com/?q=44.4060454,8.9431537",
   "lat": 44.4060454,
   "lng": 8.9431537,
   "halalFriendly": false,
   "bookingUrl": "https://www.hotelricci.com",
   "source": "osm"
  },
  {
   "nom": "Suite 1906 Appartamenti",
   "categorie": "Maison d'hôtes",
   "priceRange": "€€",
   "mapsUrl": "https://maps.google.com/?q=44.4046777,8.9492648",
   "lat": 44.4046777,
   "lng": 8.9492648,
   "halalFriendly": false,
   "bookingUrl": "https://www.suite1906.it/",
   "source": "osm"
  },
  {
   "nom": "Bed & Breakfast Domus Patrizia",
   "categorie": "Auberge",
   "priceRange": "€€€",
   "score": 3,
   "mapsUrl": "https://maps.google.com/?q=44.4053722,8.9423905",
   "lat": 44.4053722,
   "lng": 8.9423905,
   "halalFriendly": false,
   "bookingUrl": "https://www.domuspatrizia.com/",
   "source": "osm"
  },
  {
   "nom": "Hotel No Logo",
   "categorie": "Hôtel",
   "priceRange": "€€",
   "score": 2,
   "mapsUrl": "https://maps.google.com/?q=44.4072753,8.9424907",
   "lat": 44.4072753,
   "lng": 8.9424907,
   "halalFriendly": false,
   "bookingUrl": "https://www.hotelnologo.it/",
   "source": "osm"
  },
  {
   "nom": "Il borgo di Genova",
   "categorie": "Maison d'hôtes",
   "priceRange": "€€€",
   "score": 3,
   "mapsUrl": "https://maps.google.com/?q=44.4082266,8.9494231",
   "lat": 44.4082266,
   "lng": 8.9494231,
   "halalFriendly": false,
   "bookingUrl": "https://www.ilborgodigenova.com/",
   "source": "osm"
  },
  {
   "nom": "Bruxelles Margherita",
   "categorie": "Hôtel",
   "priceRange": "€€",
   "mapsUrl": "https://maps.google.com/?q=44.4057447,8.9408779",
   "lat": 44.4057447,
   "lng": 8.9408779,
   "halalFriendly": false,
   "bookingUrl": "https://maps.google.com/?q=44.4057447,8.9408779",
   "source": "osm"
  },
  {
   "nom": "Affittacamere Buenos Ayres",
   "categorie": "Maison d'hôtes",
   "priceRange": "€€",
   "mapsUrl": "https://maps.google.com/?q=44.4030266,8.9504247",
   "lat": 44.4030266,
   "lng": 8.9504247,
   "halalFriendly": false,
   "bookingUrl": "http://www.affittacamerebuenosayres.com",
   "source": "osm"
  },
  {
   "nom": "Check Inn Rooms",
   "categorie": "Hôtel",
   "priceRange": "€€",
   "mapsUrl": "https://maps.google.com/?q=44.4057541,8.9408151",
   "lat": 44.4057541,
   "lng": 8.9408151,
   "halalFriendly": false,
   "bookingUrl": "https://maps.google.com/?q=44.4057541,8.9408151",
   "source": "osm"
  },
  {
   "nom": "Hotel Youri il magnifico",
   "categorie": "Maison d'hôtes",
   "priceRange": "€€",
   "score": 2,
   "mapsUrl": "https://maps.google.com/?q=44.4054796,8.9408041",
   "lat": 44.4054796,
   "lng": 8.9408041,
   "halalFriendly": false,
   "bookingUrl": "https://maps.google.com/?q=44.4054796,8.9408041",
   "source": "osm"
  },
  {
   "nom": "Bel Soggiorno",
   "categorie": "Hôtel",
   "priceRange": "€€",
   "score": 2,
   "mapsUrl": "https://maps.google.com/?q=44.4059486,8.9407692",
   "lat": 44.4059486,
   "lng": 8.9407692,
   "halalFriendly": false,
   "bookingUrl": "https://maps.google.com/?q=44.4059486,8.9407692",
   "source": "osm"
  },
  {
   "nom": "Hotel Astoria",
   "categorie": "Hôtel",
   "priceRange": "€€€",
   "score": 3,
   "mapsUrl": "https://maps.google.com/?q=44.4091991,8.9435457",
   "lat": 44.4091991,
   "lng": 8.9435457,
   "halalFriendly": false,
   "bookingUrl": "https://maps.google.com/?q=44.4091991,8.9435457",
   "source": "osm"
  },
  {
   "nom": "Hotel Olympia",
   "categorie": "Hôtel",
   "priceRange": "€€",
   "score": 2,
   "mapsUrl": "https://maps.google.com/?q=44.4058257,8.9403857",
   "lat": 44.4058257,
   "lng": 8.9403857,
   "halalFriendly": false,
   "bookingUrl": "https://www.olympiahotelgenova.com",
   "source": "osm"
  },
  {
   "nom": "Hotel Suisse",
   "categorie": "Hôtel",
   "priceRange": "€€",
   "score": 2,
   "mapsUrl": "https://maps.google.com/?q=44.4058482,8.9402937",
   "lat": 44.4058482,
   "lng": 8.9402937,
   "halalFriendly": false,
   "bookingUrl": "https://www.hotelsuissegenova.it/",
   "source": "osm"
  },
  {
   "nom": "Victoria House",
   "categorie": "Auberge",
   "priceRange": "€€",
   "mapsUrl": "https://maps.google.com/?q=44.4096719,8.9437887",
   "lat": 44.4096719,
   "lng": 8.9437887,
   "halalFriendly": false,
   "bookingUrl": "https://maps.google.com/?q=44.4096719,8.9437887",
   "source": "osm"
  },
  {
   "nom": "Essiale B&B",
   "categorie": "Maison d'hôtes",
   "priceRange": "€€",
   "mapsUrl": "https://maps.google.com/?q=44.4099287,8.9446355",
   "lat": 44.4099287,
   "lng": 8.9446355,
   "halalFriendly": false,
   "bookingUrl": "https://www.essiale.com/",
   "source": "osm"
  },
  {
   "nom": "Hotel Genova Liberty",
   "categorie": "Hôtel",
   "priceRange": "€€",
   "score": 2,
   "mapsUrl": "https://maps.google.com/?q=44.4060782,8.9400238",
   "lat": 44.4060782,
   "lng": 8.9400238,
   "halalFriendly": false,
   "bookingUrl": "https://www.hotelgenovaliberty.it/",
   "source": "osm"
  },
  {
   "nom": "Argentina",
   "categorie": "Hôtel",
   "priceRange": "€",
   "score": 1,
   "mapsUrl": "https://maps.google.com/?q=44.4097959,8.9438387",
   "lat": 44.4097959,
   "lng": 8.9438387,
   "halalFriendly": false,
   "bookingUrl": "https://maps.google.com/?q=44.4097959,8.9438387",
   "source": "osm"
  },
  {
   "nom": "Novecento",
   "categorie": "Hôtel",
   "priceRange": "€€",
   "score": 2,
   "mapsUrl": "https://maps.google.com/?q=44.4098309,8.9438473",
   "lat": 44.4098309,
   "lng": 8.9438473,
   "halalFriendly": false,
   "bookingUrl": "https://www.albergonovecento.com/",
   "source": "osm"
  },
  {
   "nom": "Fanny Rooms and Breakfast",
   "categorie": "Maison d'hôtes",
   "priceRange": "€€",
   "mapsUrl": "https://maps.google.com/?q=44.4013161,8.949153",
   "lat": 44.4013161,
   "lng": 8.949153,
   "halalFriendly": false,
   "bookingUrl": "https://maps.google.com/?q=44.4013161,8.949153",
   "source": "osm"
  },
  {
   "nom": "B&B Hotel Genova City Center",
   "categorie": "Hôtel",
   "priceRange": "€€",
   "mapsUrl": "https://maps.google.com/?q=44.4048002,8.9396984",
   "lat": 44.4048002,
   "lng": 8.9396984,
   "halalFriendly": false,
   "bookingUrl": "https://maps.google.com/?q=44.4048002,8.9396984",
   "source": "osm"
  },
  {
   "nom": "Marathon Hostel",
   "categorie": "Auberge",
   "priceRange": "€€",
   "mapsUrl": "https://maps.google.com/?q=44.4052667,8.9395411",
   "lat": 44.4052667,
   "lng": 8.9395411,
   "halalFriendly": false,
   "bookingUrl": "https://maps.google.com/?q=44.4052667,8.9395411",
   "source": "osm"
  },
  {
   "nom": "Ostello di Orione",
   "categorie": "Auberge",
   "priceRange": "€€",
   "mapsUrl": "https://maps.google.com/?q=44.407486,8.9390969",
   "lat": 44.407486,
   "lng": 8.9390969,
   "halalFriendly": false,
   "bookingUrl": "https://ostellodiorione.jimdo.com",
   "source": "osm"
  },
  {
   "nom": "Hotel Fieramare",
   "categorie": "Hôtel",
   "priceRange": "€",
   "score": 1,
   "mapsUrl": "https://maps.google.com/?q=44.4004939,8.9497033",
   "lat": 44.4004939,
   "lng": 8.9497033,
   "halalFriendly": false,
   "bookingUrl": "www.albergofieramaregenova.it",
   "source": "osm"
  },
  {
   "nom": "Hotel Arcobaleno",
   "categorie": "Hôtel",
   "priceRange": "€",
   "score": 1,
   "mapsUrl": "https://maps.google.com/?q=44.4004258,8.9496843",
   "lat": 44.4004258,
   "lng": 8.9496843,
   "halalFriendly": false,
   "bookingUrl": "https://maps.google.com/?q=44.4004258,8.9496843",
   "source": "osm"
  },
  {
   "nom": "Hotel Boccascena",
   "categorie": "Hôtel",
   "priceRange": "€€€",
   "score": 3,
   "mapsUrl": "https://maps.google.com/?q=44.3999372,8.9490435",
   "lat": 44.3999372,
   "lng": 8.9490435,
   "halalFriendly": false,
   "bookingUrl": "https://www.hotelboccascena.it",
   "source": "osm"
  },
  {
   "nom": "Tommaseo",
   "categorie": "Hôtel",
   "priceRange": "€",
   "score": 1,
   "mapsUrl": "https://maps.google.com/?q=44.4017657,8.9532507",
   "lat": 44.4017657,
   "lng": 8.9532507,
   "halalFriendly": false,
   "bookingUrl": "http://www.hoteltommaseo.it",
   "source": "osm"
  },
  {
   "nom": "Locanda Alambra",
   "categorie": "Auberge",
   "priceRange": "€€",
   "mapsUrl": "https://maps.google.com/?q=44.4064739,8.9367062",
   "lat": 44.4064739,
   "lng": 8.9367062,
   "halalFriendly": false,
   "bookingUrl": "https://maps.google.com/?q=44.4064739,8.9367062",
   "source": "osm"
  },
  {
   "nom": "La Briosa Nicole",
   "categorie": "Auberge",
   "priceRange": "€€",
   "mapsUrl": "https://maps.google.com/?q=44.4064856,8.9366821",
   "lat": 44.4064856,
   "lng": 8.9366821,
   "halalFriendly": false,
   "bookingUrl": "https://maps.google.com/?q=44.4064856,8.9366821",
   "source": "osm"
  },
  {
   "nom": "Hotel Meliã",
   "categorie": "Hôtel",
   "priceRange": "€€€€",
   "score": 5,
   "mapsUrl": "https://maps.google.com/?q=44.4017491,8.9381435",
   "lat": 44.4017491,
   "lng": 8.9381435,
   "halalFriendly": false,
   "bookingUrl": "https://www.melia.com/hotels/italy/genoa/melia-genova/index.html",
   "source": "osm"
  },
  {
   "nom": "Hotel Assarotti",
   "categorie": "Hôtel",
   "priceRange": "€€",
   "score": 2,
   "mapsUrl": "https://maps.google.com/?q=44.4123135,8.9430852",
   "lat": 44.4123135,
   "lng": 8.9430852,
   "halalFriendly": false,
   "bookingUrl": "hotelassarotti.it",
   "source": "osm"
  },
  {
   "nom": "Bed & Breakfast Al Centro di Genova",
   "categorie": "Maison d'hôtes",
   "priceRange": "€€€",
   "score": 3,
   "mapsUrl": "https://maps.google.com/?q=44.4116557,8.9519277",
   "lat": 44.4116557,
   "lng": 8.9519277,
   "halalFriendly": false,
   "bookingUrl": "https://www.bbalcentrodigenova.it/",
   "source": "osm"
  },
  {
   "nom": "Hotel Bristol Palace",
   "categorie": "Hôtel",
   "priceRange": "€€€€",
   "score": 4,
   "mapsUrl": "https://maps.google.com/?q=44.4068422,8.9362672",
   "lat": 44.4068422,
   "lng": 8.9362672,
   "halalFriendly": false,
   "bookingUrl": "https://www.hotelbristolpalace.it/",
   "source": "osm"
  },
  {
   "nom": "NH Genova Centro",
   "categorie": "Hôtel",
   "priceRange": "€€€€",
   "score": 4,
   "mapsUrl": "https://maps.google.com/?q=44.4108474,8.938075",
   "lat": 44.4108474,
   "lng": 8.938075,
   "halalFriendly": false,
   "bookingUrl": "https://maps.google.com/?q=44.4108474,8.938075",
   "source": "osm"
  },
  {
   "nom": "NH Genova Centro",
   "categorie": "Hôtel",
   "priceRange": "€€€€",
   "score": 4,
   "mapsUrl": "https://maps.google.com/?q=44.411002,8.9381873",
   "lat": 44.411002,
   "lng": 8.9381873,
   "halalFriendly": false,
   "bookingUrl": "https://maps.google.com/?q=44.411002,8.9381873",
   "source": "osm"
  },
  {
   "nom": "Genova Fieschi Rooms",
   "categorie": "Maison d'hôtes",
   "priceRange": "€€",
   "mapsUrl": "https://maps.google.com/?q=44.4032579,8.9352553",
   "lat": 44.4032579,
   "lng": 8.9352553,
   "halalFriendly": false,
   "bookingUrl": "https://maps.google.com/?q=44.4032579,8.9352553",
   "source": "osm"
  },
  {
   "nom": "Bed and Breakfast Casa Caminetto Vallese",
   "categorie": "Maison d'hôtes",
   "priceRange": "€€",
   "mapsUrl": "https://maps.google.com/?q=44.4132708,8.9418357",
   "lat": 44.4132708,
   "lng": 8.9418357,
   "halalFriendly": false,
   "bookingUrl": "http://www.casacaminetto.com/",
   "source": "osm"
  },
  {
   "nom": "Bed and Breakfast Le stanze",
   "categorie": "Maison d'hôtes",
   "priceRange": "€€",
   "mapsUrl": "https://maps.google.com/?q=44.4132881,8.94187",
   "lat": 44.4132881,
   "lng": 8.94187,
   "halalFriendly": false,
   "bookingUrl": "http://www.le-stanze.it/",
   "source": "osm"
  },
  {
   "nom": "Virginia's rooms",
   "categorie": "Maison d'hôtes",
   "priceRange": "€€€",
   "score": 3,
   "mapsUrl": "https://maps.google.com/?q=44.4015999,8.9360568",
   "lat": 44.4015999,
   "lng": 8.9360568,
   "halalFriendly": false,
   "bookingUrl": "https://maps.google.com/?q=44.4015999,8.9360568",
   "source": "osm"
  },
  {
   "nom": "Actor Hotel",
   "categorie": "Hôtel",
   "priceRange": "€€€",
   "score": 3,
   "mapsUrl": "https://maps.google.com/?q=44.4123615,8.9394543",
   "lat": 44.4123615,
   "lng": 8.9394543,
   "halalFriendly": false,
   "bookingUrl": "https://maps.google.com/?q=44.4123615,8.9394543",
   "source": "osm"
  },
  {
   "nom": "BEST WESTERN City Hotel",
   "categorie": "Hôtel",
   "priceRange": "€€€€",
   "score": 4,
   "mapsUrl": "https://maps.google.com/?q=44.4092881,8.9354674",
   "lat": 44.4092881,
   "lng": 8.9354674,
   "halalFriendly": false,
   "bookingUrl": "https://www.bwcityhotel-ge.it/",
   "source": "osm"
  },
  {
   "nom": "Hotel Colombo",
   "categorie": "Hôtel",
   "priceRange": "€€€",
   "score": 3,
   "mapsUrl": "https://maps.google.com/?q=44.4058805,8.9338877",
   "lat": 44.4058805,
   "lng": 8.9338877,
   "halalFriendly": false,
   "bookingUrl": "https://www.hotelcolombo.it/",
   "source": "osm"
  },
  {
   "nom": "OStellin Genova - Hostel",
   "categorie": "Auberge",
   "priceRange": "€€",
   "mapsUrl": "https://maps.google.com/?q=44.4098259,8.9353545",
   "lat": 44.4098259,
   "lng": 8.9353545,
   "halalFriendly": false,
   "bookingUrl": "https://www.ostellingenova.it/",
   "source": "osm"
  },
  {
   "nom": "Best Western Metropoli",
   "categorie": "Hôtel",
   "priceRange": "€€€",
   "score": 3,
   "mapsUrl": "https://maps.google.com/?q=44.4100064,8.935048",
   "lat": 44.4100064,
   "lng": 8.935048,
   "halalFriendly": false,
   "bookingUrl": "https://www.hotelmetropoli.it/",
   "source": "osm"
  },
  {
   "nom": "Albergo Doria",
   "categorie": "Hôtel",
   "priceRange": "€",
   "score": 1,
   "mapsUrl": "https://maps.google.com/?q=44.4090191,8.9343114",
   "lat": 44.4090191,
   "lng": 8.9343114,
   "halalFriendly": false,
   "bookingUrl": "https://www.hoteldoriagenova.com/",
   "source": "osm"
  },
  {
   "nom": "Lovin Genoa guest house",
   "categorie": "Maison d'hôtes",
   "priceRange": "€€€",
   "score": 3,
   "mapsUrl": "https://maps.google.com/?q=44.4063074,8.9330773",
   "lat": 44.4063074,
   "lng": 8.9330773,
   "halalFriendly": false,
   "bookingUrl": "https://www.lovingenoa.it/",
   "source": "osm"
  },
  {
   "nom": "Hotel Major",
   "categorie": "Hôtel",
   "priceRange": "€",
   "score": 1,
   "mapsUrl": "https://maps.google.com/?q=44.4101358,8.9343435",
   "lat": 44.4101358,
   "lng": 8.9343435,
   "halalFriendly": false,
   "bookingUrl": "https://maps.google.com/?q=44.4101358,8.9343435",
   "source": "osm"
  },
  {
   "nom": "Genuadomus",
   "categorie": "Maison d'hôtes",
   "priceRange": "€€",
   "mapsUrl": "https://maps.google.com/?q=44.4138804,8.9388625",
   "lat": 44.4138804,
   "lng": 8.9388625,
   "halalFriendly": false,
   "bookingUrl": "http://www.genuadomus.it/",
   "source": "osm"
  },
  {
   "nom": "B&B U Sente",
   "categorie": "Maison d'hôtes",
   "priceRange": "€€",
   "mapsUrl": "https://maps.google.com/?q=44.4124039,8.9356239",
   "lat": 44.4124039,
   "lng": 8.9356239,
   "halalFriendly": false,
   "bookingUrl": "https://maps.google.com/?q=44.4124039,8.9356239",
   "source": "osm"
  },
  {
   "nom": "Manena Hostel",
   "categorie": "Auberge",
   "priceRange": "€€",
   "mapsUrl": "https://maps.google.com/?q=44.4106034,8.933561",
   "lat": 44.4106034,
   "lng": 8.933561,
   "halalFriendly": false,
   "bookingUrl": "https://www.manenahostel.it/",
   "source": "osm"
  },
  {
   "nom": "Albergo Caffaro",
   "categorie": "Hôtel",
   "priceRange": "€",
   "score": 1,
   "mapsUrl": "https://maps.google.com/?q=44.4119565,8.9347546",
   "lat": 44.4119565,
   "lng": 8.9347546,
   "halalFriendly": false,
   "bookingUrl": "https://albergocaffaro.it/",
   "source": "osm"
  },
  {
   "nom": "Bed & Breakfast Flair House",
   "categorie": "Maison d'hôtes",
   "priceRange": "€€€",
   "score": 3,
   "mapsUrl": "https://maps.google.com/?q=44.4119955,8.9347381",
   "lat": 44.4119955,
   "lng": 8.9347381,
   "halalFriendly": false,
   "bookingUrl": "https://flairhouse.it",
   "source": "osm"
  },
  {
   "nom": "Il cielo sui tetti",
   "categorie": "Maison d'hôtes",
   "priceRange": "€€€",
   "score": 3,
   "mapsUrl": "https://maps.google.com/?q=44.4103654,8.9331994",
   "lat": 44.4103654,
   "lng": 8.9331994,
   "halalFriendly": false,
   "bookingUrl": "https://maps.google.com/?q=44.4103654,8.9331994",
   "source": "osm"
  },
  {
   "nom": "House fede",
   "categorie": "Appartement",
   "priceRange": "€€",
   "mapsUrl": "https://maps.google.com/?q=44.3958647,8.9518604",
   "lat": 44.3958647,
   "lng": 8.9518604,
   "halalFriendly": false,
   "bookingUrl": "https://maps.google.com/?q=44.3958647,8.9518604",
   "source": "osm"
  },
  {
   "nom": "Hermitage",
   "categorie": "Hôtel",
   "priceRange": "€€€",
   "score": 3,
   "mapsUrl": "https://maps.google.com/?q=44.3979976,8.9567712",
   "lat": 44.3979976,
   "lng": 8.9567712,
   "halalFriendly": false,
   "bookingUrl": "http://www.hermitagehotel.ge.it/",
   "source": "osm"
  },
  {
   "nom": "Al Villino Bruzza",
   "categorie": "Maison d'hôtes",
   "priceRange": "€€€",
   "score": 3,
   "mapsUrl": "https://maps.google.com/?q=44.4131646,8.9351759",
   "lat": 44.4131646,
   "lng": 8.9351759,
   "halalFriendly": false,
   "bookingUrl": "http://www.alvillinobruzza.it",
   "source": "osm"
  },
  {
   "nom": "Happy Family Apartments Vigne",
   "categorie": "Appartement",
   "priceRange": "€€",
   "mapsUrl": "https://maps.google.com/?q=44.4098953,8.931912",
   "lat": 44.4098953,
   "lng": 8.931912,
   "halalFriendly": false,
   "bookingUrl": "https://maps.google.com/?q=44.4098953,8.931912",
   "source": "osm"
  },
  {
   "nom": "B&B i Rivi",
   "categorie": "Maison d'hôtes",
   "priceRange": "€€€",
   "score": 3,
   "mapsUrl": "https://maps.google.com/?q=44.4128461,8.9342724",
   "lat": 44.4128461,
   "lng": 8.9342724,
   "halalFriendly": false,
   "bookingUrl": "https://maps.google.com/?q=44.4128461,8.9342724",
   "source": "osm"
  },
  {
   "nom": "Locanda di Palazzo Cicala",
   "categorie": "Hôtel",
   "priceRange": "€€€€",
   "score": 4,
   "mapsUrl": "https://maps.google.com/?q=44.4081634,8.930681",
   "lat": 44.4081634,
   "lng": 8.930681,
   "halalFriendly": false,
   "bookingUrl": "https://www.palazzocicala.it/",
   "source": "osm"
  },
  {
   "nom": "Palazzo Grillo",
   "categorie": "Hôtel",
   "priceRange": "€€€€",
   "score": 4,
   "mapsUrl": "https://maps.google.com/?q=44.4094701,8.9310118",
   "lat": 44.4094701,
   "lng": 8.9310118,
   "halalFriendly": false,
   "bookingUrl": "https://maps.google.com/?q=44.4094701,8.9310118",
   "source": "osm"
  },
  {
   "nom": "B&B Le Coccole",
   "categorie": "Maison d'hôtes",
   "priceRange": "€€€",
   "score": 3,
   "mapsUrl": "https://maps.google.com/?q=44.40978,8.931059",
   "lat": 44.40978,
   "lng": 8.931059,
   "halalFriendly": false,
   "bookingUrl": "https://maps.google.com/?q=44.40978,8.931059",
   "source": "osm"
  },
  {
   "nom": "Residenza universitaria Casa Paganini",
   "categorie": "Maison d'hôtes",
   "priceRange": "€€",
   "mapsUrl": "https://maps.google.com/?q=44.4054331,8.9299299",
   "lat": 44.4054331,
   "lng": 8.9299299,
   "halalFriendly": false,
   "bookingUrl": "https://maps.google.com/?q=44.4054331,8.9299299",
   "source": "osm"
  },
  {
   "nom": "Le Nuvole",
   "categorie": "Hôtel",
   "priceRange": "€€",
   "mapsUrl": "https://maps.google.com/?q=44.4096263,8.9308714",
   "lat": 44.4096263,
   "lng": 8.9308714,
   "halalFriendly": false,
   "bookingUrl": "https://www.hotellenuvole.it",
   "source": "osm"
  },
  {
   "nom": "La Sosta della Tartaruga",
   "categorie": "Maison d'hôtes",
   "priceRange": "€€",
   "mapsUrl": "https://maps.google.com/?q=44.4139952,8.934819",
   "lat": 44.4139952,
   "lng": 8.934819,
   "halalFriendly": false,
   "bookingUrl": "https://compagniadellatartaruga.it/home/?page_id=13",
   "source": "osm"
  },
  {
   "nom": "Casa Sauli",
   "categorie": "Hôtel",
   "priceRange": "€€",
   "mapsUrl": "https://maps.google.com/?q=44.4076175,8.929918",
   "lat": 44.4076175,
   "lng": 8.929918,
   "halalFriendly": false,
   "bookingUrl": "https://maps.google.com/?q=44.4076175,8.929918",
   "source": "osm"
  },
  {
   "nom": "Hotel Genziana",
   "categorie": "Hôtel",
   "priceRange": "€",
   "score": 1,
   "mapsUrl": "https://maps.google.com/?q=44.4100187,8.9306003",
   "lat": 44.4100187,
   "lng": 8.9306003,
   "halalFriendly": false,
   "bookingUrl": "https://maps.google.com/?q=44.4100187,8.9306003",
   "source": "osm"
  },
  {
   "nom": "Palazzo Zecchino",
   "categorie": "Maison d'hôtes",
   "priceRange": "€€",
   "mapsUrl": "https://maps.google.com/?q=44.4109509,8.9308299",
   "lat": 44.4109509,
   "lng": 8.9308299,
   "halalFriendly": false,
   "bookingUrl": "https://palazzo-zecchino.genoa-hotels.com/",
   "source": "osm"
  },
  {
   "nom": "Pellicceria Guest House",
   "categorie": "Maison d'hôtes",
   "priceRange": "€€",
   "mapsUrl": "https://maps.google.com/?q=44.4105636,8.9305546",
   "lat": 44.4105636,
   "lng": 8.9305546,
   "halalFriendly": false,
   "bookingUrl": "https://maps.google.com/?q=44.4105636,8.9305546",
   "source": "osm"
  },
  {
   "nom": "B&B QuartoPiano",
   "categorie": "Maison d'hôtes",
   "priceRange": "€€",
   "mapsUrl": "https://maps.google.com/?q=44.4109183,8.9305033",
   "lat": 44.4109183,
   "lng": 8.9305033,
   "halalFriendly": false,
   "bookingUrl": "https://www.quarto-piano.it/",
   "source": "osm"
  },
  {
   "nom": "Bed and Breakfast Casa Aurora",
   "categorie": "Maison d'hôtes",
   "priceRange": "€€",
   "mapsUrl": "https://maps.google.com/?q=44.4074056,8.9289979",
   "lat": 44.4074056,
   "lng": 8.9289979,
   "halalFriendly": false,
   "bookingUrl": "https://maps.google.com/?q=44.4074056,8.9289979",
   "source": "osm"
  },
  {
   "nom": "Green House B&B",
   "categorie": "Maison d'hôtes",
   "priceRange": "€€",
   "mapsUrl": "https://maps.google.com/?q=44.4084235,8.9292",
   "lat": 44.4084235,
   "lng": 8.9292,
   "halalFriendly": false,
   "bookingUrl": "https://maps.google.com/?q=44.4084235,8.9292",
   "source": "osm"
  },
  {
   "nom": "Leone X Genova",
   "categorie": "Maison d'hôtes",
   "priceRange": "€€",
   "mapsUrl": "https://maps.google.com/?q=44.4154594,8.9354313",
   "lat": 44.4154594,
   "lng": 8.9354313,
   "halalFriendly": false,
   "bookingUrl": "www.leonexgenova.com",
   "source": "osm"
  },
  {
   "nom": "B&B Dormire dai Grimaldi",
   "categorie": "Maison d'hôtes",
   "priceRange": "€€",
   "mapsUrl": "https://maps.google.com/?q=44.410529,8.9300538",
   "lat": 44.410529,
   "lng": 8.9300538,
   "halalFriendly": false,
   "bookingUrl": "https://maps.google.com/?q=44.410529,8.9300538",
   "source": "osm"
  },
  {
   "nom": "SanCosmoSuite",
   "categorie": "Maison d'hôtes",
   "priceRange": "€€",
   "mapsUrl": "https://maps.google.com/?q=44.406688,8.9286805",
   "lat": 44.406688,
   "lng": 8.9286805,
   "halalFriendly": false,
   "bookingUrl": "https://maps.google.com/?q=44.406688,8.9286805",
   "source": "osm"
  },
  {
   "nom": "Bigo Guest house",
   "categorie": "Maison d'hôtes",
   "priceRange": "€€€",
   "score": 3,
   "mapsUrl": "https://maps.google.com/?q=44.4081864,8.928988",
   "lat": 44.4081864,
   "lng": 8.928988,
   "halalFriendly": false,
   "bookingUrl": "https://maps.google.com/?q=44.4081864,8.928988",
   "source": "osm"
  },
  {
   "nom": "Bed&Breakfast Palazzo Morali",
   "categorie": "Maison d'hôtes",
   "priceRange": "€€",
   "mapsUrl": "https://maps.google.com/?q=44.4084927,8.9288591",
   "lat": 44.4084927,
   "lng": 8.9288591,
   "halalFriendly": false,
   "bookingUrl": "https://maps.google.com/?q=44.4084927,8.9288591",
   "source": "osm"
  },
  {
   "nom": "Affittacamere B&B Cavour",
   "categorie": "Maison d'hôtes",
   "priceRange": "€€",
   "score": 2,
   "mapsUrl": "https://maps.google.com/?q=44.4059375,8.9279493",
   "lat": 44.4059375,
   "lng": 8.9279493,
   "halalFriendly": false,
   "bookingUrl": "https://maps.google.com/?q=44.4059375,8.9279493",
   "source": "osm"
  },
  {
   "nom": "Hotel Veronese",
   "categorie": "Hôtel",
   "priceRange": "€€€",
   "score": 3,
   "mapsUrl": "https://maps.google.com/?q=44.4110046,8.9289986",
   "lat": 44.4110046,
   "lng": 8.9289986,
   "halalFriendly": false,
   "bookingUrl": "https://www.hotelveronese.com/",
   "source": "osm"
  },
  {
   "nom": "Bed and Breakfast Old Port",
   "categorie": "Auberge",
   "priceRange": "€€€",
   "score": 3,
   "mapsUrl": "https://maps.google.com/?q=44.4109703,8.9288763",
   "lat": 44.4109703,
   "lng": 8.9288763,
   "halalFriendly": false,
   "bookingUrl": "https://maps.google.com/?q=44.4109703,8.9288763",
   "source": "osm"
  },
  {
   "nom": "Acquario",
   "categorie": "Hôtel",
   "priceRange": "€€€",
   "score": 3,
   "mapsUrl": "https://maps.google.com/?q=44.4118023,8.9293783",
   "lat": 44.4118023,
   "lng": 8.9293783,
   "halalFriendly": false,
   "bookingUrl": "https://maps.google.com/?q=44.4118023,8.9293783",
   "source": "osm"
  },
  {
   "nom": "Le finestre sul Porto Antico",
   "categorie": "Maison d'hôtes",
   "priceRange": "€€",
   "mapsUrl": "https://maps.google.com/?q=44.410983,8.9288295",
   "lat": 44.410983,
   "lng": 8.9288295,
   "halalFriendly": false,
   "bookingUrl": "https://maps.google.com/?q=44.410983,8.9288295",
   "source": "osm"
  },
  {
   "nom": "Helvetia Suite",
   "categorie": "Maison d'hôtes",
   "priceRange": "€€",
   "mapsUrl": "https://maps.google.com/?q=44.4126375,8.9300075",
   "lat": 44.4126375,
   "lng": 8.9300075,
   "halalFriendly": false,
   "bookingUrl": "https://www.helvetiasuitegenova.it",
   "source": "osm"
  },
  {
   "nom": "B&B Il Belvedere",
   "categorie": "Maison d'hôtes",
   "priceRange": "€€",
   "mapsUrl": "https://maps.google.com/?q=44.4129593,8.9302378",
   "lat": 44.4129593,
   "lng": 8.9302378,
   "halalFriendly": false,
   "bookingUrl": "http://www.ilbelvederegenova.it",
   "source": "osm"
  },
  {
   "nom": "Hotel Cairoli",
   "categorie": "Hôtel",
   "priceRange": "€€",
   "mapsUrl": "https://maps.google.com/?q=44.4128871,8.9299056",
   "lat": 44.4128871,
   "lng": 8.9299056,
   "halalFriendly": false,
   "bookingUrl": "https://www.hotelcairoligenova.com/",
   "source": "osm"
  },
  {
   "nom": "Mini Hotel",
   "categorie": "Hôtel",
   "priceRange": "€€",
   "score": 2,
   "mapsUrl": "https://maps.google.com/?q=44.4125336,8.9292802",
   "lat": 44.4125336,
   "lng": 8.9292802,
   "halalFriendly": false,
   "bookingUrl": "https://maps.google.com/?q=44.4125336,8.9292802",
   "source": "osm"
  },
  {
   "nom": "BEST WESTERN Hotel Porto Antico",
   "categorie": "Hôtel",
   "priceRange": "€€€",
   "score": 3,
   "mapsUrl": "https://maps.google.com/?q=44.4117977,8.9287126",
   "lat": 44.4117977,
   "lng": 8.9287126,
   "halalFriendly": false,
   "bookingUrl": "https://www.hotelportoantico.it/",
   "source": "osm"
  },
  {
   "nom": "Palazzo Cambiaso Apartments",
   "categorie": "Appartement",
   "priceRange": "€€",
   "mapsUrl": "https://maps.google.com/?q=44.4118916,8.9286465",
   "lat": 44.4118916,
   "lng": 8.9286465,
   "halalFriendly": false,
   "bookingUrl": "http://www.palazzocambiaso.it/",
   "source": "osm"
  },
  {
   "nom": "GenovaBnB",
   "categorie": "Maison d'hôtes",
   "priceRange": "€€",
   "mapsUrl": "https://maps.google.com/?q=44.411549,8.9284064",
   "lat": 44.411549,
   "lng": 8.9284064,
   "halalFriendly": false,
   "bookingUrl": "https://maps.google.com/?q=44.411549,8.9284064",
   "source": "osm"
  },
  {
   "nom": "Il Genovino",
   "categorie": "Maison d'hôtes",
   "priceRange": "€€",
   "mapsUrl": "https://maps.google.com/?q=44.399452,8.9644164",
   "lat": 44.399452,
   "lng": 8.9644164,
   "halalFriendly": false,
   "bookingUrl": "https://www.ilgenovino.com/",
   "source": "osm"
  },
  {
   "nom": "B&B dell'Acquario",
   "categorie": "Maison d'hôtes",
   "priceRange": "€€",
   "mapsUrl": "https://maps.google.com/?q=44.4067672,8.9258386",
   "lat": 44.4067672,
   "lng": 8.9258386,
   "halalFriendly": false,
   "bookingUrl": "https://maps.google.com/?q=44.4067672,8.9258386",
   "source": "osm"
  },
  {
   "nom": "Ostello SuGenova",
   "categorie": "Auberge",
   "priceRange": "€€",
   "mapsUrl": "https://maps.google.com/?q=44.4132624,8.9639852",
   "lat": 44.4132624,
   "lng": 8.9639852,
   "halalFriendly": false,
   "bookingUrl": "https://maps.google.com/?q=44.4132624,8.9639852",
   "source": "osm"
  },
  {
   "nom": "Bed & Breaksfat I Portici di Sottoripa",
   "categorie": "Auberge",
   "priceRange": "€€",
   "score": 2,
   "mapsUrl": "https://maps.google.com/?q=44.4121171,8.9276928",
   "lat": 44.4121171,
   "lng": 8.9276928,
   "halalFriendly": false,
   "bookingUrl": "https://maps.google.com/?q=44.4121171,8.9276928",
   "source": "osm"
  },
  {
   "nom": "Helvetia",
   "categorie": "Hôtel",
   "priceRange": "€€€",
   "score": 3,
   "mapsUrl": "https://maps.google.com/?q=44.4134715,8.9286938",
   "lat": 44.4134715,
   "lng": 8.9286938,
   "halalFriendly": false,
   "bookingUrl": "https://www.hotelhelvetiagenova.it/",
   "source": "osm"
  },
  {
   "nom": "genova bnb",
   "categorie": "Maison d'hôtes",
   "priceRange": "€€",
   "mapsUrl": "https://maps.google.com/?q=44.4149332,8.9300497",
   "lat": 44.4149332,
   "lng": 8.9300497,
   "halalFriendly": false,
   "bookingUrl": "https://maps.google.com/?q=44.4149332,8.9300497",
   "source": "osm"
  },
  {
   "nom": "NH Collection Genova Marina",
   "categorie": "Hôtel",
   "priceRange": "€€€€",
   "score": 4,
   "mapsUrl": "https://maps.google.com/?q=44.4111059,8.926761",
   "lat": 44.4111059,
   "lng": 8.926761,
   "halalFriendly": false,
   "bookingUrl": "https://www.nh-collection.com/it/hotel/nh-collection-genova-marina",
   "source": "osm"
  },
  {
   "nom": "B&B Bandabrisca",
   "categorie": "Maison d'hôtes",
   "priceRange": "€€",
   "mapsUrl": "https://maps.google.com/?q=44.4152668,8.929468",
   "lat": 44.4152668,
   "lng": 8.929468,
   "halalFriendly": false,
   "bookingUrl": "https://maps.google.com/?q=44.4152668,8.929468",
   "source": "osm"
  },
  {
   "nom": "Ostello, The Hostel Abbey",
   "categorie": "Auberge",
   "priceRange": "€€",
   "mapsUrl": "https://maps.google.com/?q=44.4137251,8.9270701",
   "lat": 44.4137251,
   "lng": 8.9270701,
   "halalFriendly": false,
   "bookingUrl": "https://www.thehostel.it/",
   "source": "osm"
  },
  {
   "nom": "La casa del viaggiatore",
   "categorie": "Maison d'hôtes",
   "priceRange": "€€",
   "mapsUrl": "https://maps.google.com/?q=44.4156428,8.9286369",
   "lat": 44.4156428,
   "lng": 8.9286369,
   "halalFriendly": false,
   "bookingUrl": "https://maps.google.com/?q=44.4156428,8.9286369",
   "source": "osm"
  },
  {
   "nom": "Residenza Universitaria Gramsci",
   "categorie": "Maison d'hôtes",
   "priceRange": "€€",
   "mapsUrl": "https://maps.google.com/?q=44.4133559,8.9264223",
   "lat": 44.4133559,
   "lng": 8.9264223,
   "halalFriendly": false,
   "bookingUrl": "https://maps.google.com/?q=44.4133559,8.9264223",
   "source": "osm"
  },
  {
   "nom": "Bologna",
   "categorie": "Hôtel",
   "priceRange": "€",
   "score": 1,
   "mapsUrl": "https://maps.google.com/?q=44.4141445,8.9266848",
   "lat": 44.4141445,
   "lng": 8.9266848,
   "halalFriendly": false,
   "bookingUrl": "https://maps.google.com/?q=44.4141445,8.9266848",
   "source": "osm"
  },
  {
   "nom": "Ostello;Castle the Hostel",
   "categorie": "Auberge",
   "priceRange": "€€",
   "mapsUrl": "https://maps.google.com/?q=44.4177245,8.9307119",
   "lat": 44.4177245,
   "lng": 8.9307119,
   "halalFriendly": false,
   "bookingUrl": "https://www.thehostel.it/ostello-castle/",
   "source": "osm"
  },
  {
   "nom": "Hotel Bar Armonia",
   "categorie": "Hôtel",
   "priceRange": "€€",
   "score": 2,
   "mapsUrl": "https://maps.google.com/?q=44.4137727,8.9262922",
   "lat": 44.4137727,
   "lng": 8.9262922,
   "halalFriendly": false,
   "bookingUrl": "https://maps.google.com/?q=44.4137727,8.9262922",
   "source": "osm"
  },
  {
   "nom": "Elena",
   "categorie": "Hôtel",
   "priceRange": "€",
   "score": 1,
   "mapsUrl": "https://maps.google.com/?q=44.4155806,8.9253741",
   "lat": 44.4155806,
   "lng": 8.9253741,
   "halalFriendly": false,
   "bookingUrl": "https://maps.google.com/?q=44.4155806,8.9253741",
   "source": "osm"
  },
  {
   "nom": "Hotel Bernheof",
   "categorie": "Hôtel",
   "priceRange": "€",
   "score": 1,
   "mapsUrl": "https://maps.google.com/?q=44.4155887,8.9252873",
   "lat": 44.4155887,
   "lng": 8.9252873,
   "halalFriendly": false,
   "bookingUrl": "https://sites.google.com/view/hotel-bernheof-genova/",
   "source": "osm"
  },
  {
   "nom": "Ginevra",
   "categorie": "Hôtel",
   "priceRange": "€",
   "score": 1,
   "mapsUrl": "https://maps.google.com/?q=44.415656,8.9252765",
   "lat": 44.415656,
   "lng": 8.9252765,
   "halalFriendly": false,
   "bookingUrl": "https://maps.google.com/?q=44.415656,8.9252765",
   "source": "osm"
  },
  {
   "nom": "Della Posta",
   "categorie": "Hôtel",
   "priceRange": "€€",
   "score": 2,
   "mapsUrl": "https://maps.google.com/?q=44.4157,8.9246766",
   "lat": 44.4157,
   "lng": 8.9246766,
   "halalFriendly": false,
   "bookingUrl": "https://maps.google.com/?q=44.4157,8.9246766",
   "source": "osm"
  },
  {
   "nom": "Residenza Universitaria Arssu Marinelle",
   "categorie": "Maison d'hôtes",
   "priceRange": "€€",
   "mapsUrl": "https://maps.google.com/?q=44.4153801,8.9243239",
   "lat": 44.4153801,
   "lng": 8.9243239,
   "halalFriendly": false,
   "bookingUrl": "https://maps.google.com/?q=44.4153801,8.9243239",
   "source": "osm"
  },
  {
   "nom": "Hotel Balbi Genova",
   "categorie": "Hôtel",
   "priceRange": "€€",
   "score": 2,
   "mapsUrl": "https://maps.google.com/?q=44.4159224,8.9246399",
   "lat": 44.4159224,
   "lng": 8.9246399,
   "halalFriendly": false,
   "bookingUrl": "http://www.hotelbalbi.com",
   "source": "osm"
  },
  {
   "nom": "B&B Madonnetta",
   "categorie": "Maison d'hôtes",
   "priceRange": "€€",
   "mapsUrl": "https://maps.google.com/?q=44.4213892,8.9319233",
   "lat": 44.4213892,
   "lng": 8.9319233,
   "halalFriendly": false,
   "bookingUrl": "https://maps.google.com/?q=44.4213892,8.9319233",
   "source": "osm"
  },
  {
   "nom": "Residenza Universitaria Arssu Balbi",
   "categorie": "Maison d'hôtes",
   "priceRange": "€€",
   "mapsUrl": "https://maps.google.com/?q=44.4158471,8.9240207",
   "lat": 44.4158471,
   "lng": 8.9240207,
   "halalFriendly": false,
   "bookingUrl": "https://maps.google.com/?q=44.4158471,8.9240207",
   "source": "osm"
  },
  {
   "nom": "Nuovo nord",
   "categorie": "Hôtel",
   "priceRange": "€€",
   "score": 2,
   "mapsUrl": "https://maps.google.com/?q=44.4161831,8.9241967",
   "lat": 44.4161831,
   "lng": 8.9241967,
   "halalFriendly": false,
   "bookingUrl": "https://maps.google.com/?q=44.4161831,8.9241967",
   "source": "osm"
  },
  {
   "nom": "Agnello D'Oro",
   "categorie": "Hôtel",
   "priceRange": "€€€",
   "score": 3,
   "mapsUrl": "https://maps.google.com/?q=44.4158448,8.9237289",
   "lat": 44.4158448,
   "lng": 8.9237289,
   "halalFriendly": false,
   "bookingUrl": "https://maps.google.com/?q=44.4158448,8.9237289",
   "source": "osm"
  },
  {
   "nom": "Albergo Rinascente",
   "categorie": "Hôtel",
   "priceRange": "€",
   "score": 1,
   "mapsUrl": "https://maps.google.com/?q=44.4155013,8.9233377",
   "lat": 44.4155013,
   "lng": 8.9233377,
   "halalFriendly": false,
   "bookingUrl": "https://maps.google.com/?q=44.4155013,8.9233377",
   "source": "osm"
  },
  {
   "nom": "Comfort Hotel Europa",
   "categorie": "Hôtel",
   "priceRange": "€€€",
   "score": 3,
   "mapsUrl": "https://maps.google.com/?q=44.4160586,8.9236753",
   "lat": 44.4160586,
   "lng": 8.9236753,
   "halalFriendly": false,
   "bookingUrl": "https://maps.google.com/?q=44.4160586,8.9236753",
   "source": "osm"
  }
 ],
 "mosqueesPrincipales": [
  {
   "id": "m153185240",
   "nom": "Chiesa di San Matteo",
   "type": "Mosquée",
   "adresse": "",
   "description": "Lieu de prière (OpenStreetMap).",
   "mapsUrl": "https://maps.google.com/?q=44.4082207,8.9331153",
   "lat": 44.4082207,
   "lng": 8.9331153,
   "source": "osm"
  },
  {
   "id": "m663875514",
   "nom": "Cattedrale di San Lorenzo",
   "type": "Mosquée",
   "adresse": "",
   "description": "Lieu de prière (OpenStreetMap).",
   "mapsUrl": "https://maps.google.com/?q=44.4076293,8.931449",
   "lat": 44.4076293,
   "lng": 8.931449,
   "source": "osm"
  },
  {
   "id": "m13381226658",
   "nom": "Dawah Center",
   "type": "Mosquée",
   "adresse": "Via di Sottoripa, Genova",
   "description": "Lieu de prière (OpenStreetMap).",
   "mapsUrl": "https://maps.google.com/?q=44.4103309,8.9291253",
   "lat": 44.4103309,
   "lng": 8.9291253,
   "source": "osm"
  },
  {
   "id": "m2336334448",
   "nom": "Centro culturale d'amicizia",
   "type": "Mosquée",
   "adresse": "",
   "description": "Lieu de prière (OpenStreetMap).",
   "mapsUrl": "https://maps.google.com/?q=44.4141016,8.9258738",
   "lat": 44.4141016,
   "lng": 8.9258738,
   "source": "osm"
  },
  {
   "id": "m13381295769",
   "nom": "Al-Fajr",
   "type": "Mosquée",
   "adresse": "Piazza Durazzo, Genova",
   "description": "Lieu de prière (OpenStreetMap).",
   "mapsUrl": "https://maps.google.com/?q=44.415225,8.9252143",
   "lat": 44.415225,
   "lng": 8.9252143,
   "source": "osm"
  },
  {
   "id": "m27542188",
   "nom": "Chiesa Santissima Annunziata della Costa",
   "type": "Mosquée",
   "adresse": "",
   "description": "Lieu de prière (OpenStreetMap).",
   "mapsUrl": "https://maps.google.com/?q=44.4330367,8.8455209",
   "lat": 44.4330367,
   "lng": 8.8455209,
   "source": "osm"
  }
 ],
 "activites": [
  {
   "id": "a10131725349",
   "nom": "Ulisse e la nave cavallo",
   "categorie": "artwork",
   "description": "",
   "prix": "",
   "duree": "",
   "mapsUrl": "https://maps.google.com/?q=44.4042863,8.9472499",
   "lat": 44.4042863,
   "lng": 8.9472499,
   "source": "osm"
  },
  {
   "id": "a420551858",
   "nom": "Porta Pila",
   "categorie": "monument",
   "description": "",
   "prix": "",
   "duree": "",
   "mapsUrl": "https://maps.google.com/?q=44.4082005,8.9467337",
   "lat": 44.4082005,
   "lng": 8.9467337,
   "source": "osm"
  },
  {
   "id": "a42116330",
   "nom": "Arco ai Caduti",
   "categorie": "monument",
   "description": "",
   "prix": "",
   "duree": "",
   "mapsUrl": "https://maps.google.com/?q=44.4030798,8.944961",
   "lat": 44.4030798,
   "lng": 8.944961,
   "source": "osm"
  },
  {
   "id": "a12613432076",
   "nom": "Vittorio Emanuele III",
   "categorie": "memorial",
   "description": "",
   "prix": "",
   "duree": "",
   "mapsUrl": "https://maps.google.com/?q=44.4031119,8.9448358",
   "lat": 44.4031119,
   "lng": 8.9448358,
   "source": "osm"
  },
  {
   "id": "a10678192329",
   "nom": "Museo Agostiniano di Arte Sacra",
   "categorie": "museum",
   "description": "",
   "prix": "",
   "duree": "",
   "mapsUrl": "https://maps.google.com/?q=44.4061988,8.941333",
   "lat": 44.4061988,
   "lng": 8.941333,
   "source": "osm"
  },
  {
   "id": "a171834602",
   "nom": "Ponte di Sant'Agata",
   "categorie": "ruins",
   "description": "",
   "prix": "",
   "duree": "",
   "mapsUrl": "https://maps.google.com/?q=44.4080524,8.950749",
   "lat": 44.4080524,
   "lng": 8.950749,
   "source": "osm"
  },
  {
   "id": "a570538183",
   "nom": "Ponte Monumentale",
   "categorie": "attraction",
   "description": "",
   "prix": "",
   "duree": "",
   "mapsUrl": "https://maps.google.com/?q=44.4059414,8.9394507",
   "lat": 44.4059414,
   "lng": 8.9394507,
   "source": "osm"
  },
  {
   "id": "a8766032542",
   "nom": "Statua a Giorgio Parodi",
   "categorie": "artwork",
   "description": "",
   "prix": "",
   "duree": "",
   "mapsUrl": "https://maps.google.com/?q=44.400876,8.9431889",
   "lat": 44.400876,
   "lng": 8.9431889,
   "source": "osm"
  },
  {
   "id": "a7182123327",
   "nom": "Ercole Deangelis",
   "categorie": "memorial",
   "description": "",
   "prix": "",
   "duree": "",
   "mapsUrl": "https://maps.google.com/?q=44.4003229,8.9478778",
   "lat": 44.4003229,
   "lng": 8.9478778,
   "source": "osm"
  },
  {
   "id": "a6379313053",
   "nom": "Ufficio Antitubercolare",
   "categorie": "memorial",
   "description": "",
   "prix": "",
   "duree": "",
   "mapsUrl": "https://maps.google.com/?q=44.4024533,8.9398123",
   "lat": 44.4024533,
   "lng": 8.9398123,
   "source": "osm"
  },
  {
   "id": "a6379313051",
   "nom": "Nicola Do Rosario",
   "categorie": "memorial",
   "description": "",
   "prix": "",
   "duree": "",
   "mapsUrl": "https://maps.google.com/?q=44.4011244,8.9411461",
   "lat": 44.4011244,
   "lng": 8.9411461,
   "source": "osm"
  },
  {
   "id": "a97257467",
   "nom": "Museo Biblioteca dell'attore",
   "categorie": "museum",
   "description": "",
   "prix": "",
   "duree": "",
   "mapsUrl": "https://maps.google.com/?q=44.4086948,8.939296",
   "lat": 44.4086948,
   "lng": 8.939296,
   "source": "osm"
  },
  {
   "id": "a328743284",
   "nom": "Ponte di Sant'Agata",
   "categorie": "ruins",
   "description": "",
   "prix": "",
   "duree": "",
   "mapsUrl": "https://maps.google.com/?q=44.4075296,8.954154",
   "lat": 44.4075296,
   "lng": 8.954154,
   "source": "osm"
  },
  {
   "id": "a5863973563",
   "nom": "Martin Piaggio",
   "categorie": "memorial",
   "description": "",
   "prix": "",
   "duree": "",
   "mapsUrl": "https://maps.google.com/?q=44.4090486,8.9393775",
   "lat": 44.4090486,
   "lng": 8.9393775,
   "source": "osm"
  },
  {
   "id": "a1730414200",
   "nom": "Memoriale degli Alpini Caduti",
   "categorie": "memorial",
   "description": "",
   "prix": "",
   "duree": "",
   "mapsUrl": "https://maps.google.com/?q=44.3997235,8.9440778",
   "lat": 44.3997235,
   "lng": 8.9440778,
   "source": "osm"
  },
  {
   "id": "a5773069768",
   "nom": "Cippo a Carlo Giuliani",
   "categorie": "memorial",
   "description": "",
   "prix": "",
   "duree": "",
   "mapsUrl": "https://maps.google.com/?q=44.4036757,8.9544167",
   "lat": 44.4036757,
   "lng": 8.9544167,
   "source": "osm"
  },
  {
   "id": "a5795656807",
   "nom": "Nicolò Bacigalupo",
   "categorie": "memorial",
   "description": "",
   "prix": "",
   "duree": "",
   "mapsUrl": "https://maps.google.com/?q=44.4090812,8.9392005",
   "lat": 44.4090812,
   "lng": 8.9392005,
   "source": "osm"
  },
  {
   "id": "a6385774634",
   "nom": "José Martí",
   "categorie": "memorial",
   "description": "",
   "prix": "",
   "duree": "",
   "mapsUrl": "https://maps.google.com/?q=44.4091172,8.9387935",
   "lat": 44.4091172,
   "lng": 8.9387935,
   "source": "osm"
  },
  {
   "id": "a24738669",
   "nom": "Casa del Mutilato di Genova",
   "categorie": "museum",
   "description": "",
   "prix": "",
   "duree": "",
   "mapsUrl": "https://maps.google.com/?q=44.3993906,8.9439601",
   "lat": 44.3993906,
   "lng": 8.9439601,
   "source": "osm"
  },
  {
   "id": "a12959186531",
   "nom": "Casa del Mutilato di Genova - Fondazione A.N.M.I.G.",
   "categorie": "museum",
   "description": "",
   "prix": "",
   "duree": "",
   "mapsUrl": "https://maps.google.com/?q=44.399318,8.943974",
   "lat": 44.399318,
   "lng": 8.943974,
   "source": "osm"
  },
  {
   "id": "a12437168392",
   "nom": "A Niccolò Paganini",
   "categorie": "memorial",
   "description": "",
   "prix": "",
   "duree": "",
   "mapsUrl": "https://maps.google.com/?q=44.4076113,8.9376468",
   "lat": 44.4076113,
   "lng": 8.9376468,
   "source": "osm"
  },
  {
   "id": "a881327319",
   "nom": "Statua Duchessa di Galliera",
   "categorie": "artwork",
   "description": "",
   "prix": "",
   "duree": "",
   "mapsUrl": "https://maps.google.com/?q=44.399981,8.9415294",
   "lat": 44.399981,
   "lng": 8.9415294,
   "source": "osm"
  },
  {
   "id": "a945227201",
   "nom": "Monumento a Balilla",
   "categorie": "memorial",
   "description": "",
   "prix": "",
   "duree": "",
   "mapsUrl": "https://maps.google.com/?q=44.4075958,8.9374523",
   "lat": 44.4075958,
   "lng": 8.9374523,
   "source": "osm"
  },
  {
   "id": "a530891458",
   "nom": "Manuel Belgrano",
   "categorie": "monument",
   "description": "",
   "prix": "",
   "duree": "",
   "mapsUrl": "https://maps.google.com/?q=44.4021336,8.9542571",
   "lat": 44.4021336,
   "lng": 8.9542571,
   "source": "osm"
  },
  {
   "id": "a6767278038",
   "nom": "Monumento al Fante",
   "categorie": "artwork",
   "description": "",
   "prix": "",
   "duree": "",
   "mapsUrl": "https://maps.google.com/?q=44.3991266,8.9439853",
   "lat": 44.3991266,
   "lng": 8.9439853,
   "source": "osm"
  },
  {
   "id": "a5795656806",
   "nom": "Aldo Gastaldi",
   "categorie": "memorial",
   "description": "",
   "prix": "",
   "duree": "",
   "mapsUrl": "https://maps.google.com/?q=44.4095583,8.9384468",
   "lat": 44.4095583,
   "lng": 8.9384468,
   "source": "osm"
  },
  {
   "id": "a2990541508",
   "nom": "Moti di Genova",
   "categorie": "memorial",
   "description": "",
   "prix": "",
   "duree": "",
   "mapsUrl": "https://maps.google.com/?q=44.4096636,8.9383583",
   "lat": 44.4096636,
   "lng": 8.9383583,
   "source": "osm"
  },
  {
   "id": "a5836119399",
   "nom": "Guido Rossa",
   "categorie": "memorial",
   "description": "",
   "prix": "",
   "duree": "",
   "mapsUrl": "https://maps.google.com/?q=44.4073155,8.9365175",
   "lat": 44.4073155,
   "lng": 8.9365175,
   "source": "osm"
  },
  {
   "id": "a22978483",
   "nom": "Statua a Vittorio Emanuele Secondo",
   "categorie": "monument",
   "description": "",
   "prix": "",
   "duree": "",
   "mapsUrl": "https://maps.google.com/?q=44.4100745,8.9382587",
   "lat": 44.4100745,
   "lng": 8.9382587,
   "source": "osm"
  },
  {
   "id": "a6381359024",
   "nom": "Luigi Lanfranconi",
   "categorie": "memorial",
   "description": "",
   "prix": "",
   "duree": "",
   "mapsUrl": "https://maps.google.com/?q=44.4097338,8.9376388",
   "lat": 44.4097338,
   "lng": 8.9376388,
   "source": "osm"
  },
  {
   "id": "a6323587739",
   "nom": "Maria Mazzini",
   "categorie": "memorial",
   "description": "",
   "prix": "",
   "duree": "",
   "mapsUrl": "https://maps.google.com/?q=44.4105393,8.938023",
   "lat": 44.4105393,
   "lng": 8.938023,
   "source": "osm"
  },
  {
   "id": "a11575890117",
   "nom": "Scultura di via Morcento",
   "categorie": "artwork",
   "description": "",
   "prix": "",
   "duree": "",
   "mapsUrl": "https://maps.google.com/?q=44.4064438,8.9355392",
   "lat": 44.4064438,
   "lng": 8.9355392,
   "source": "osm"
  },
  {
   "id": "a6312560601",
   "nom": "Giuseppe Mazzini",
   "categorie": "memorial",
   "description": "",
   "prix": "",
   "duree": "",
   "mapsUrl": "https://maps.google.com/?q=44.4107474,8.9380322",
   "lat": 44.4107474,
   "lng": 8.9380322,
   "source": "osm"
  },
  {
   "id": "a6366090909",
   "nom": "Guglielmo Embriaco",
   "categorie": "memorial",
   "description": "",
   "prix": "",
   "duree": "",
   "mapsUrl": "https://maps.google.com/?q=44.4104081,8.9374007",
   "lat": 44.4104081,
   "lng": 8.9374007,
   "source": "osm"
  },
  {
   "id": "a6366090908",
   "nom": "Andrea Doria",
   "categorie": "memorial",
   "description": "",
   "prix": "",
   "duree": "",
   "mapsUrl": "https://maps.google.com/?q=44.4103812,8.9373605",
   "lat": 44.4103812,
   "lng": 8.9373605,
   "source": "osm"
  },
  {
   "id": "a841737348",
   "nom": "Statua di Nino Bixio",
   "categorie": "monument",
   "description": "",
   "prix": "",
   "duree": "",
   "mapsUrl": "https://maps.google.com/?q=44.4009064,8.9372692",
   "lat": 44.4009064,
   "lng": 8.9372692,
   "source": "osm"
  },
  {
   "id": "a198253017",
   "nom": "Casa di Cristoforo Colombo",
   "categorie": "attraction",
   "description": "",
   "prix": "",
   "duree": "",
   "mapsUrl": "https://maps.google.com/?q=44.4056188,8.9351133",
   "lat": 44.4056188,
   "lng": 8.9351133,
   "source": "osm"
  },
  {
   "id": "a663674240",
   "nom": "Monumento a Giuseppe Mazzini",
   "categorie": "monument",
   "description": "",
   "prix": "",
   "duree": "",
   "mapsUrl": "https://maps.google.com/?q=44.4107143,8.9375254",
   "lat": 44.4107143,
   "lng": 8.9375254,
   "source": "osm"
  },
  {
   "id": "a34886346",
   "nom": "Chiostro di Sant'Andrea",
   "categorie": "ruins",
   "description": "",
   "prix": "",
   "duree": "",
   "mapsUrl": "https://maps.google.com/?q=44.4056919,8.9349432",
   "lat": 44.4056919,
   "lng": 8.9349432,
   "source": "osm"
  },
  {
   "id": "a9685274284",
   "nom": "Ai Trilli",
   "categorie": "memorial",
   "description": "",
   "prix": "",
   "duree": "",
   "mapsUrl": "https://maps.google.com/?q=44.4056441,8.9346662",
   "lat": 44.4056441,
   "lng": 8.9346662,
   "source": "osm"
  },
  {
   "id": "a6327563125",
   "nom": "Antonio Burlando",
   "categorie": "memorial",
   "description": "",
   "prix": "",
   "duree": "",
   "mapsUrl": "https://maps.google.com/?q=44.4110748,8.9374295",
   "lat": 44.4110748,
   "lng": 8.9374295,
   "source": "osm"
  },
  {
   "id": "a6327563123",
   "nom": "Antonio Mosto",
   "categorie": "memorial",
   "description": "",
   "prix": "",
   "duree": "",
   "mapsUrl": "https://maps.google.com/?q=44.4110126,8.9373189",
   "lat": 44.4110126,
   "lng": 8.9373189,
   "source": "osm"
  },
  {
   "id": "a6327563124",
   "nom": "Aurelio Saffi",
   "categorie": "memorial",
   "description": "",
   "prix": "",
   "duree": "",
   "mapsUrl": "https://maps.google.com/?q=44.410968,8.9372579",
   "lat": 44.410968,
   "lng": 8.9372579,
   "source": "osm"
  },
  {
   "id": "a187939884",
   "nom": "Porta Soprana",
   "categorie": "attraction",
   "description": "",
   "prix": "",
   "duree": "",
   "mapsUrl": "https://maps.google.com/?q=44.4055599,8.9344827",
   "lat": 44.4055599,
   "lng": 8.9344827,
   "source": "osm"
  },
  {
   "id": "a253489497",
   "nom": "Museo dell'Accademia Ligustica di Belle Arti",
   "categorie": "museum",
   "description": "",
   "prix": "",
   "duree": "",
   "mapsUrl": "https://maps.google.com/?q=44.4075798,8.934801",
   "lat": 44.4075798,
   "lng": 8.934801,
   "source": "osm"
  },
  {
   "id": "a6012266423",
   "nom": "Targa ai caduti della Galleria delle Grazie",
   "categorie": "memorial",
   "description": "",
   "prix": "",
   "duree": "",
   "mapsUrl": "https://maps.google.com/?q=44.4056375,8.9344652",
   "lat": 44.4056375,
   "lng": 8.9344652,
   "source": "osm"
  },
  {
   "id": "a6327563121",
   "nom": "Giuseppe Cesare Abba",
   "categorie": "memorial",
   "description": "",
   "prix": "",
   "duree": "",
   "mapsUrl": "https://maps.google.com/?q=44.4112023,8.9373256",
   "lat": 44.4112023,
   "lng": 8.9373256,
   "source": "osm"
  },
  {
   "id": "a12201376570",
   "nom": "A Luigi Tenco",
   "categorie": "memorial",
   "description": "",
   "prix": "",
   "duree": "",
   "mapsUrl": "https://maps.google.com/?q=44.3973883,8.9495528",
   "lat": 44.3973883,
   "lng": 8.9495528,
   "source": "osm"
  },
  {
   "id": "a6381359022",
   "nom": "Sestiere della Maddalena",
   "categorie": "memorial",
   "description": "",
   "prix": "",
   "duree": "",
   "mapsUrl": "https://maps.google.com/?q=44.4100936,8.9361183",
   "lat": 44.4100936,
   "lng": 8.9361183,
   "source": "osm"
  },
  {
   "id": "a6348291318",
   "nom": "Sestiere del Molo",
   "categorie": "memorial",
   "description": "",
   "prix": "",
   "duree": "",
   "mapsUrl": "https://maps.google.com/?q=44.4055143,8.9343295",
   "lat": 44.4055143,
   "lng": 8.9343295,
   "source": "osm"
  },
  {
   "id": "a6368875536",
   "nom": "Sestiere del Molo",
   "categorie": "memorial",
   "description": "",
   "prix": "",
   "duree": "",
   "mapsUrl": "https://maps.google.com/?q=44.4055392,8.9343278",
   "lat": 44.4055392,
   "lng": 8.9343278,
   "source": "osm"
  },
  {
   "id": "a6381359023",
   "nom": "Sestiere del Molo",
   "categorie": "memorial",
   "description": "",
   "prix": "",
   "duree": "",
   "mapsUrl": "https://maps.google.com/?q=44.4100563,8.9360437",
   "lat": 44.4100563,
   "lng": 8.9360437,
   "source": "osm"
  },
  {
   "id": "a9407454475",
   "nom": "A Luciano Bolis",
   "categorie": "memorial",
   "description": "",
   "prix": "",
   "duree": "",
   "mapsUrl": "https://maps.google.com/?q=44.4075684,8.9345781",
   "lat": 44.4075684,
   "lng": 8.9345781,
   "source": "osm"
  },
  {
   "id": "a6379313055",
   "nom": "Sestiere di Portoria",
   "categorie": "memorial",
   "description": "",
   "prix": "",
   "duree": "",
   "mapsUrl": "https://maps.google.com/?q=44.4075791,8.9344973",
   "lat": 44.4075791,
   "lng": 8.9344973,
   "source": "osm"
  },
  {
   "id": "a9388238064",
   "nom": "Renato De Barbieri",
   "categorie": "memorial",
   "description": "",
   "prix": "",
   "duree": "",
   "mapsUrl": "https://maps.google.com/?q=44.4081506,8.9346972",
   "lat": 44.4081506,
   "lng": 8.9346972,
   "source": "osm"
  },
  {
   "id": "a663672471",
   "nom": "Monumento a Giuseppe Garibaldi",
   "categorie": "artwork",
   "description": "",
   "prix": "",
   "duree": "",
   "mapsUrl": "https://maps.google.com/?q=44.4078484,8.9343806",
   "lat": 44.4078484,
   "lng": 8.9343806,
   "source": "osm"
  },
  {
   "id": "a9197875097",
   "nom": "Niccolò Paganini",
   "categorie": "memorial",
   "description": "",
   "prix": "",
   "duree": "",
   "mapsUrl": "https://maps.google.com/?q=44.4082676,8.9345422",
   "lat": 44.4082676,
   "lng": 8.9345422,
   "source": "osm"
  },
  {
   "id": "a5394279721",
   "nom": "Palazzo Spinola dei Marmi",
   "categorie": "attraction",
   "description": "",
   "prix": "",
   "duree": "",
   "mapsUrl": "https://maps.google.com/?q=44.4099896,8.9354714",
   "lat": 44.4099896,
   "lng": 8.9354714,
   "source": "osm"
  },
  {
   "id": "a5916000112",
   "nom": "Carlo Malinverni",
   "categorie": "memorial",
   "description": "",
   "prix": "",
   "duree": "",
   "mapsUrl": "https://maps.google.com/?q=44.4119045,8.9371634",
   "lat": 44.4119045,
   "lng": 8.9371634,
   "source": "osm"
  },
  {
   "id": "a663669349",
   "nom": "Statua del Navigatore",
   "categorie": "artwork",
   "description": "",
   "prix": "",
   "duree": "",
   "mapsUrl": "https://maps.google.com/?q=44.39667,8.9437267",
   "lat": 44.39667,
   "lng": 8.9437267,
   "source": "osm"
  },
  {
   "id": "a11012636117",
   "nom": "Carrozza Centoporte",
   "categorie": "attraction",
   "description": "",
   "prix": "",
   "duree": "",
   "mapsUrl": "https://maps.google.com/?q=44.3967071,8.9491351",
   "lat": 44.3967071,
   "lng": 8.9491351,
   "source": "osm"
  },
  {
   "id": "a7321715258",
   "nom": "Col.Tuttobene - App. Casu",
   "categorie": "memorial",
   "description": "",
   "prix": "",
   "duree": "",
   "mapsUrl": "https://maps.google.com/?q=44.4000822,8.9565074",
   "lat": 44.4000822,
   "lng": 8.9565074,
   "source": "osm"
  },
  {
   "id": "a6379313056",
   "nom": "Sestiere del Molo",
   "categorie": "memorial",
   "description": "",
   "prix": "",
   "duree": "",
   "mapsUrl": "https://maps.google.com/?q=44.4077804,8.9338426",
   "lat": 44.4077804,
   "lng": 8.9338426,
   "source": "osm"
  },
  {
   "id": "a6419695443",
   "nom": "Francesco da Camporosso",
   "categorie": "memorial",
   "description": "",
   "prix": "",
   "duree": "",
   "mapsUrl": "https://maps.google.com/?q=44.412204,8.9373465",
   "lat": 44.412204,
   "lng": 8.9373465,
   "source": "osm"
  },
  {
   "id": "a43311482",
   "nom": "Museo d'arte orientale Edoardo Chiossone",
   "categorie": "museum",
   "description": "",
   "prix": "",
   "duree": "",
   "mapsUrl": "https://maps.google.com/?q=44.4112717,8.9361694",
   "lat": 44.4112717,
   "lng": 8.9361694,
   "source": "osm"
  },
  {
   "id": "a4164077319",
   "nom": "Targa a Giorgio Byron",
   "categorie": "memorial",
   "description": "",
   "prix": "",
   "duree": "",
   "mapsUrl": "https://maps.google.com/?q=44.4005013,8.9571113",
   "lat": 44.4005013,
   "lng": 8.9571113,
   "source": "osm"
  },
  {
   "id": "a8768248824",
   "nom": "Juan Pablo Duarte Díaz",
   "categorie": "memorial",
   "description": "",
   "prix": "",
   "duree": "",
   "mapsUrl": "https://maps.google.com/?q=44.3962944,8.9452878",
   "lat": 44.3962944,
   "lng": 8.9452878,
   "source": "osm"
  },
  {
   "id": "a22977972",
   "nom": "Museo d'arte contemporanea Villa Croce",
   "categorie": "museum",
   "description": "",
   "prix": "",
   "duree": "",
   "mapsUrl": "https://maps.google.com/?q=44.3982865,8.9381559",
   "lat": 44.3982865,
   "lng": 8.9381559,
   "source": "osm"
  },
  {
   "id": "a12246330503",
   "nom": "A Daisaku Ikeda",
   "categorie": "memorial",
   "description": "",
   "prix": "",
   "duree": "",
   "mapsUrl": "https://maps.google.com/?q=44.4117256,8.936415",
   "lat": 44.4117256,
   "lng": 8.936415,
   "source": "osm"
  },
  {
   "id": "a4405712552",
   "nom": "Collezioni di Arte Banca Carige",
   "categorie": "museum",
   "description": "",
   "prix": "",
   "duree": "",
   "mapsUrl": "https://maps.google.com/?q=44.4087333,8.9339627",
   "lat": 44.4087333,
   "lng": 8.9339627,
   "source": "osm"
  },
  {
   "id": "a6368014686",
   "nom": "Domenico Serra",
   "categorie": "memorial",
   "description": "",
   "prix": "",
   "duree": "",
   "mapsUrl": "https://maps.google.com/?q=44.4119024,8.9365686",
   "lat": 44.4119024,
   "lng": 8.9365686,
   "source": "osm"
  },
  {
   "id": "a663669350",
   "nom": "Rosa dei Venti",
   "categorie": "artwork",
   "description": "",
   "prix": "",
   "duree": "",
   "mapsUrl": "https://maps.google.com/?q=44.3963524,8.9436078",
   "lat": 44.3963524,
   "lng": 8.9436078,
   "source": "osm"
  },
  {
   "id": "a3858747893",
   "nom": "Colonna infame di Piazza Sarzano",
   "categorie": "memorial",
   "description": "",
   "prix": "",
   "duree": "",
   "mapsUrl": "https://maps.google.com/?q=44.4048938,8.9326736",
   "lat": 44.4048938,
   "lng": 8.9326736,
   "source": "osm"
  },
  {
   "id": "a3475291254",
   "nom": "#StreetArt",
   "categorie": "artwork",
   "description": "",
   "prix": "",
   "duree": "",
   "mapsUrl": "https://maps.google.com/?q=44.4130662,8.9373312",
   "lat": 44.4130662,
   "lng": 8.9373312,
   "source": "osm"
  },
  {
   "id": "a6394802150",
   "nom": "Chiostro dei Doria",
   "categorie": "memorial",
   "description": "",
   "prix": "",
   "duree": "",
   "mapsUrl": "https://maps.google.com/?q=44.4083565,8.9330643",
   "lat": 44.4083565,
   "lng": 8.9330643,
   "source": "osm"
  },
  {
   "id": "a6394802148",
   "nom": "Andrea Doria",
   "categorie": "memorial",
   "description": "",
   "prix": "",
   "duree": "",
   "mapsUrl": "https://maps.google.com/?q=44.4082342,8.9329662",
   "lat": 44.4082342,
   "lng": 8.9329662,
   "source": "osm"
  },
  {
   "id": "a1759467004",
   "nom": "Portale storico \"Il trionfo dei Doria\"",
   "categorie": "artwork",
   "description": "",
   "prix": "",
   "duree": "",
   "mapsUrl": "https://maps.google.com/?q=44.4087871,8.9331835",
   "lat": 44.4087871,
   "lng": 8.9331835,
   "source": "osm"
  },
  {
   "id": "a9182023055",
   "nom": "Casa Luzzati",
   "categorie": "museum",
   "description": "",
   "prix": "",
   "duree": "",
   "mapsUrl": "https://maps.google.com/?q=44.407573,8.9326765",
   "lat": 44.407573,
   "lng": 8.9326765,
   "source": "osm"
  },
  {
   "id": "a6068302775",
   "nom": "Monte Grappa - Termopili d'Italia",
   "categorie": "memorial",
   "description": "",
   "prix": "",
   "duree": "",
   "mapsUrl": "https://maps.google.com/?q=44.3984825,8.9365733",
   "lat": 44.3984825,
   "lng": 8.9365733,
   "source": "osm"
  },
  {
   "id": "a54168632",
   "nom": "Castello Mackenzie",
   "categorie": "castle",
   "description": "",
   "prix": "",
   "duree": "",
   "mapsUrl": "https://maps.google.com/?q=44.415553,8.9468916",
   "lat": 44.415553,
   "lng": 8.9468916,
   "source": "osm"
  },
  {
   "id": "a6073640273",
   "nom": "Monumento al Duca di Galliera",
   "categorie": "memorial",
   "description": "",
   "prix": "",
   "duree": "",
   "mapsUrl": "https://maps.google.com/?q=44.3992117,8.9354527",
   "lat": 44.3992117,
   "lng": 8.9354527,
   "source": "osm"
  },
  {
   "id": "a4363611547",
   "nom": "Nella pestilenza del MDCLVI",
   "categorie": "memorial",
   "description": "",
   "prix": "",
   "duree": "",
   "mapsUrl": "https://maps.google.com/?q=44.405801,8.9320961",
   "lat": 44.405801,
   "lng": 8.9320961,
   "source": "osm"
  },
  {
   "id": "a284388464",
   "nom": "Torre Grimaldina",
   "categorie": "viewpoint",
   "description": "",
   "prix": "",
   "duree": "",
   "mapsUrl": "https://maps.google.com/?q=44.4076246,8.9323501",
   "lat": 44.4076246,
   "lng": 8.9323501,
   "source": "osm"
  },
  {
   "id": "a391005371",
   "nom": "Pozzo di Giano",
   "categorie": "monument",
   "description": "",
   "prix": "",
   "duree": "",
   "mapsUrl": "https://maps.google.com/?q=44.4043519,8.9321728",
   "lat": 44.4043519,
   "lng": 8.9321728,
   "source": "osm"
  },
  {
   "id": "a310450475",
   "nom": "Louisiana Jazz Club",
   "categorie": "museum",
   "description": "",
   "prix": "",
   "duree": "",
   "mapsUrl": "https://maps.google.com/?q=44.407406,8.9322588",
   "lat": 44.407406,
   "lng": 8.9322588,
   "source": "osm"
  },
  {
   "id": "a4405714625",
   "nom": "Museo del Jazz Gianni Dagnino - Italian Jazz Institute",
   "categorie": "museum",
   "description": "",
   "prix": "",
   "duree": "",
   "mapsUrl": "https://maps.google.com/?q=44.4078451,8.9323805",
   "lat": 44.4078451,
   "lng": 8.9323805,
   "source": "osm"
  },
  {
   "id": "a28244674",
   "nom": "Palazzo Agostino e Benedetto Viale",
   "categorie": "castle",
   "description": "",
   "prix": "",
   "duree": "",
   "mapsUrl": "https://maps.google.com/?q=44.4067783,8.9320226",
   "lat": 44.4067783,
   "lng": 8.9320226,
   "source": "osm"
  },
  {
   "id": "a8664908690",
   "nom": "Alle lotte del centro storico contro le violenze fasciste",
   "categorie": "memorial",
   "description": "",
   "prix": "",
   "duree": "",
   "mapsUrl": "https://maps.google.com/?q=44.4053466,8.9318854",
   "lat": 44.4053466,
   "lng": 8.9318854,
   "source": "osm"
  },
  {
   "id": "a252630595",
   "nom": "Museo di Sant'Agostino",
   "categorie": "museum",
   "description": "",
   "prix": "",
   "duree": "",
   "mapsUrl": "https://maps.google.com/?q=44.4043725,8.9319129",
   "lat": 44.4043725,
   "lng": 8.9319129,
   "source": "osm"
  },
  {
   "id": "a268116089",
   "nom": "Villa Gruber De Mari",
   "categorie": "museum",
   "description": "",
   "prix": "",
   "duree": "",
   "mapsUrl": "https://maps.google.com/?q=44.415193,8.9401857",
   "lat": 44.415193,
   "lng": 8.9401857,
   "source": "osm"
  },
  {
   "id": "a1027897731",
   "nom": "Artroom Piazza Ferretto",
   "categorie": "gallery",
   "description": "",
   "prix": "",
   "duree": "",
   "mapsUrl": "https://maps.google.com/?q=44.4060687,8.9314881",
   "lat": 44.4060687,
   "lng": 8.9314881,
   "source": "osm"
  },
  {
   "id": "a1758866785",
   "nom": "Tabernacolo di San Giovanni Battista e dell'Eterno",
   "categorie": "artwork",
   "description": "",
   "prix": "",
   "duree": "",
   "mapsUrl": "https://maps.google.com/?q=44.4094696,8.9323621",
   "lat": 44.4094696,
   "lng": 8.9323621,
   "source": "osm"
  },
  {
   "id": "a6394802146",
   "nom": "Italia",
   "categorie": "memorial",
   "description": "",
   "prix": "",
   "duree": "",
   "mapsUrl": "https://maps.google.com/?q=44.4086429,8.9318502",
   "lat": 44.4086429,
   "lng": 8.9318502,
   "source": "osm"
  },
  {
   "id": "a5390832422",
   "nom": "Aldo Acquarone",
   "categorie": "monument",
   "description": "",
   "prix": "",
   "duree": "",
   "mapsUrl": "https://maps.google.com/?q=44.4145282,8.9378328",
   "lat": 44.4145282,
   "lng": 8.9378328,
   "source": "osm"
  },
  {
   "id": "a4256208886",
   "nom": "Iacobus Imperialis",
   "categorie": "memorial",
   "description": "",
   "prix": "",
   "duree": "",
   "mapsUrl": "https://maps.google.com/?q=44.4087043,8.9318374",
   "lat": 44.4087043,
   "lng": 8.9318374,
   "source": "osm"
  },
  {
   "id": "a4771455529",
   "nom": "Nicolò Garaventa",
   "categorie": "memorial",
   "description": "",
   "prix": "",
   "duree": "",
   "mapsUrl": "https://maps.google.com/?q=44.3999681,8.9334008",
   "lat": 44.3999681,
   "lng": 8.9334008,
   "source": "osm"
  },
  {
   "id": "a284388466",
   "nom": "Torre di Palazzo Nicolosio Lomellino",
   "categorie": "monument",
   "description": "",
   "prix": "",
   "duree": "",
   "mapsUrl": "https://maps.google.com/?q=44.4117585,8.9338088",
   "lat": 44.4117585,
   "lng": 8.9338088,
   "source": "osm"
  },
  {
   "id": "a2501733191",
   "nom": "Caduti di Digione",
   "categorie": "memorial",
   "description": "",
   "prix": "",
   "duree": "",
   "mapsUrl": "https://maps.google.com/?q=44.4005061,8.9327894",
   "lat": 44.4005061,
   "lng": 8.9327894,
   "source": "osm"
  },
  {
   "id": "a227715509",
   "nom": "Torre dei Maruffo",
   "categorie": "monument",
   "description": "",
   "prix": "",
   "duree": "",
   "mapsUrl": "https://maps.google.com/?q=44.4072341,8.9310764",
   "lat": 44.4072341,
   "lng": 8.9310764,
   "source": "osm"
  },
  {
   "id": "a899889817",
   "nom": "Muraglia Marina",
   "categorie": "artwork",
   "description": "",
   "prix": "",
   "duree": "",
   "mapsUrl": "https://maps.google.com/?q=44.3973558,8.9360385",
   "lat": 44.3973558,
   "lng": 8.9360385,
   "source": "osm"
  }
 ],
 "villeNonMusulmane": true,
 "osmEnriched": true,
 "osmEnrichedAt": "2026-06-30"
}
