{
  "slug": "hebron",
  "nom": "Hébron",
  "pays": "Palestine",
  "pays_slug": "palestine",
  "continent": "Moyen-Orient",
  "region": "Palestine",
  "coordonnees": {
    "lat": 31.5326,
    "lng": 35.0998
  },
  "codeISO": "PS",
  "score_halal": 4.2,
  "halalScore": 8.4,
  "description": "Hébron, Palestine. Forte présence musulmane : nombreuses adresses halal et mosquées.",
  "metaDescription": "Hébron, Palestine. Forte présence musulmane : nombreuses adresses halal et mosquées.",
  "image": "https://upload.wikimedia.org/wikipedia/commons/d/db/Hebron172.JPG",
  "image_hero": "https://upload.wikimedia.org/wikipedia/commons/d/db/Hebron172.JPG",
  "imageCredit": "Wikimedia Commons",
  "scoreIndicatif": true,
  "statistiques": {
    "restaurants_halal": 4,
    "mosquees": 145,
    "hotels": 62
  },
  "infoPratique": {
    "transport": "Accessible par avion et transports locaux.",
    "meilleureEpoque": "Selon la saison.",
    "conseilHalal": "Repérez restaurants halal et mosquées via l'application."
  },
  "tags": [
    "halal",
    "moyen-orient"
  ],
  "restaurants": [
    {
      "nom": "KetCake",
      "type": "coffee shop, ice cream, cake, pastry",
      "priceRange": "€€",
      "mapsUrl": "https://maps.google.com/?q=31.5361596,35.0985099",
      "lat": 31.5361596,
      "lng": 35.0985099,
      "halalConfidence": "yes",
      "source": "osm"
    },
    {
      "nom": "AL-Madena Restaurant",
      "type": "regional, grill",
      "priceRange": "€€",
      "mapsUrl": "https://maps.google.com/?q=31.5058378,35.0785282",
      "lat": 31.5058378,
      "lng": 35.0785282,
      "halalConfidence": "yes",
      "source": "osm"
    },
    {
      "nom": "مطعم القصراوي للقدر والوجبات",
      "type": "arab",
      "priceRange": "€€",
      "mapsUrl": "https://maps.google.com/?q=31.5284154,35.0918164",
      "lat": 31.5284154,
      "lng": 35.0918164,
      "halalConfidence": "likely",
      "source": "osm"
    },
    {
      "nom": "مطعم الربيع",
      "type": "arab, oriental",
      "priceRange": "€€",
      "mapsUrl": "https://maps.google.com/?q=31.543192,35.0900565",
      "lat": 31.543192,
      "lng": 35.0900565,
      "halalConfidence": "likely",
      "source": "osm"
    }
  ],
  "hotels": [
    {
      "nom": "Hebron Hotel",
      "categorie": "Hôtel",
      "priceRange": "€€",
      "mapsUrl": "https://maps.google.com/?q=31.5355535,35.0977413",
      "lat": 31.5355535,
      "lng": 35.0977413,
      "halalFriendly": false,
      "bookingUrl": "https://maps.google.com/?q=31.5355535,35.0977413",
      "source": "osm"
    },
    {
      "nom": "فندق الخليل السياحي",
      "categorie": "Hôtel",
      "priceRange": "€€",
      "mapsUrl": "https://maps.google.com/?q=31.5356429,35.0978375",
      "lat": 31.5356429,
      "lng": 35.0978375,
      "halalFriendly": false,
      "bookingUrl": "https://maps.google.com/?q=31.5356429,35.0978375",
      "source": "osm"
    },
    {
      "nom": "Hbr122",
      "categorie": "Appartement",
      "priceRange": "€€",
      "mapsUrl": "https://maps.google.com/?q=31.5364626,35.1028662",
      "lat": 31.5364626,
      "lng": 35.1028662,
      "halalFriendly": false,
      "bookingUrl": "https://maps.google.com/?q=31.5364626,35.1028662",
      "source": "osm"
    },
    {
      "nom": "H2 Hostel Hebron",
      "categorie": "Auberge",
      "priceRange": "€€",
      "mapsUrl": "https://maps.google.com/?q=31.5277347,35.1006775",
      "lat": 31.5277347,
      "lng": 35.1006775,
      "halalFriendly": false,
      "bookingUrl": "https://hostelinhebron.wixsite.com/h2hostel",
      "source": "osm"
    },
    {
      "nom": "عمارة الجزيرة (خالد)",
      "categorie": "Appartement",
      "priceRange": "€€",
      "mapsUrl": "https://maps.google.com/?q=31.5368993,35.1045159",
      "lat": 31.5368993,
      "lng": 35.1045159,
      "halalFriendly": false,
      "bookingUrl": "https://maps.google.com/?q=31.5368993,35.1045159",
      "source": "osm"
    },
    {
      "nom": "عمارة الجزىرة",
      "categorie": "Appartement",
      "priceRange": "€€",
      "mapsUrl": "https://maps.google.com/?q=31.5375619,35.1036657",
      "lat": 31.5375619,
      "lng": 35.1036657,
      "halalFriendly": false,
      "bookingUrl": "https://maps.google.com/?q=31.5375619,35.1036657",
      "source": "osm"
    },
    {
      "nom": "Friends Hostel.Area B",
      "categorie": "Auberge",
      "priceRange": "€€",
      "mapsUrl": "https://maps.google.com/?q=31.5270862,35.1027198",
      "lat": 31.5270862,
      "lng": 35.1027198,
      "halalFriendly": false,
      "bookingUrl": "https://maps.google.com/?q=31.5270862,35.1027198",
      "source": "osm"
    },
    {
      "nom": "عبد ابراهيم اسعيد",
      "categorie": "Appartement",
      "priceRange": "€€",
      "mapsUrl": "https://maps.google.com/?q=31.5360316,35.1056837",
      "lat": 31.5360316,
      "lng": 35.1056837,
      "halalFriendly": false,
      "bookingUrl": "https://maps.google.com/?q=31.5360316,35.1056837",
      "source": "osm"
    },
    {
      "nom": "Friend’s hostel",
      "categorie": "Auberge",
      "priceRange": "€€",
      "mapsUrl": "https://maps.google.com/?q=31.5270337,35.102714",
      "lat": 31.5270337,
      "lng": 35.102714,
      "halalFriendly": false,
      "bookingUrl": "https://maps.google.com/?q=31.5270337,35.102714",
      "source": "osm"
    },
    {
      "nom": "فندق الاعمار",
      "categorie": "Maison d'hôtes",
      "priceRange": "€€",
      "mapsUrl": "https://maps.google.com/?q=31.5277566,35.1061707",
      "lat": 31.5277566,
      "lng": 35.1061707,
      "halalFriendly": false,
      "bookingUrl": "https://www.facebook.com/lamarguesthouse/",
      "source": "osm"
    },
    {
      "nom": "Yehya Adhami",
      "categorie": "Appartement",
      "priceRange": "€€",
      "mapsUrl": "https://maps.google.com/?q=31.5297811,35.1093107",
      "lat": 31.5297811,
      "lng": 35.1093107,
      "halalFriendly": false,
      "bookingUrl": "https://maps.google.com/?q=31.5297811,35.1093107",
      "source": "osm"
    },
    {
      "nom": "ديوان ال الجعبري",
      "categorie": "Maison d'hôtes",
      "priceRange": "€€",
      "mapsUrl": "https://maps.google.com/?q=31.5375819,35.1107193",
      "lat": 31.5375819,
      "lng": 35.1107193,
      "halalFriendly": false,
      "bookingUrl": "https://maps.google.com/?q=31.5375819,35.1107193",
      "source": "osm"
    },
    {
      "nom": "Hebron Heritage guesthouse",
      "categorie": "Maison d'hôtes",
      "priceRange": "€€",
      "mapsUrl": "https://maps.google.com/?q=31.5240215,35.1074408",
      "lat": 31.5240215,
      "lng": 35.1074408,
      "halalFriendly": false,
      "bookingUrl": "https://maps.google.com/?q=31.5240215,35.1074408",
      "source": "osm"
    },
    {
      "nom": "منزل وليد قفيشة",
      "categorie": "Maison d'hôtes",
      "priceRange": "€€",
      "mapsUrl": "https://maps.google.com/?q=31.5219148,35.1023378",
      "lat": 31.5219148,
      "lng": 35.1023378,
      "halalFriendly": false,
      "bookingUrl": "https://maps.google.com/?q=31.5219148,35.1023378",
      "source": "osm"
    },
    {
      "nom": "منزل الحاج محمد فياض قفيشه",
      "categorie": "Maison d'hôtes",
      "priceRange": "€€",
      "mapsUrl": "https://maps.google.com/?q=31.5217462,35.102328",
      "lat": 31.5217462,
      "lng": 35.102328,
      "halalFriendly": false,
      "bookingUrl": "https://maps.google.com/?q=31.5217462,35.102328",
      "source": "osm"
    },
    {
      "nom": "مسجد المحسنين",
      "categorie": "Appartement",
      "priceRange": "€€",
      "mapsUrl": "https://maps.google.com/?q=31.5385067,35.1109232",
      "lat": 31.5385067,
      "lng": 35.1109232,
      "halalFriendly": false,
      "bookingUrl": "https://maps.google.com/?q=31.5385067,35.1109232",
      "source": "osm"
    },
    {
      "nom": "ايمن ناصر الدين",
      "categorie": "Appartement",
      "priceRange": "€€",
      "mapsUrl": "https://maps.google.com/?q=31.5382981,35.0869363",
      "lat": 31.5382981,
      "lng": 35.0869363,
      "halalFriendly": false,
      "bookingUrl": "https://maps.google.com/?q=31.5382981,35.0869363",
      "source": "osm"
    },
    {
      "nom": "ديوان ال السيوري - الشعابة",
      "categorie": "Maison d'hôtes",
      "priceRange": "€€",
      "mapsUrl": "https://maps.google.com/?q=31.542315,35.1122554",
      "lat": 31.542315,
      "lng": 35.1122554,
      "halalFriendly": false,
      "bookingUrl": "https://maps.google.com/?q=31.542315,35.1122554",
      "source": "osm"
    },
    {
      "nom": "فندق ومطعم أبو مازن",
      "categorie": "Hôtel",
      "priceRange": "€€",
      "mapsUrl": "https://maps.google.com/?q=31.5465138,35.1044182",
      "lat": 31.5465138,
      "lng": 35.1044182,
      "halalFriendly": false,
      "bookingUrl": "https://maps.google.com/?q=31.5465138,35.1044182",
      "source": "osm"
    },
    {
      "nom": "عبد الشافي ناصر الدين",
      "categorie": "Appartement",
      "priceRange": "€€",
      "mapsUrl": "https://maps.google.com/?q=31.5420825,35.0869656",
      "lat": 31.5420825,
      "lng": 35.0869656,
      "halalFriendly": false,
      "bookingUrl": "https://maps.google.com/?q=31.5420825,35.0869656",
      "source": "osm"
    },
    {
      "nom": "فراس السيوري",
      "categorie": "Appartement",
      "priceRange": "€€",
      "mapsUrl": "https://maps.google.com/?q=31.5431369,35.1117268",
      "lat": 31.5431369,
      "lng": 35.1117268,
      "halalFriendly": false,
      "bookingUrl": "https://maps.google.com/?q=31.5431369,35.1117268",
      "source": "osm"
    },
    {
      "nom": "باسم الجعبه",
      "categorie": "Appartement",
      "priceRange": "€€",
      "mapsUrl": "https://maps.google.com/?q=31.5264186,35.0837656",
      "lat": 31.5264186,
      "lng": 35.0837656,
      "halalFriendly": false,
      "bookingUrl": "https://maps.google.com/?q=31.5264186,35.0837656",
      "source": "osm"
    },
    {
      "nom": "Hebron Hope Guest House",
      "categorie": "Auberge",
      "priceRange": "€€",
      "mapsUrl": "https://maps.google.com/?q=31.5204105,35.1114498",
      "lat": 31.5204105,
      "lng": 35.1114498,
      "halalFriendly": false,
      "bookingUrl": "https://maps.google.com/?q=31.5204105,35.1114498",
      "source": "osm"
    },
    {
      "nom": "مازن القواسمي",
      "categorie": "Appartement",
      "priceRange": "€€",
      "mapsUrl": "https://maps.google.com/?q=31.5454451,35.0885774",
      "lat": 31.5454451,
      "lng": 35.0885774,
      "halalFriendly": false,
      "bookingUrl": "https://maps.google.com/?q=31.5454451,35.0885774",
      "source": "osm"
    },
    {
      "nom": "القاعة الماسية",
      "categorie": "Maison d'hôtes",
      "priceRange": "€€",
      "mapsUrl": "https://maps.google.com/?q=31.5137168,35.0998539",
      "lat": 31.5137168,
      "lng": 35.0998539,
      "halalFriendly": false,
      "bookingUrl": "https://maps.google.com/?q=31.5137168,35.0998539",
      "source": "osm"
    },
    {
      "nom": "ديوان آل الجنيدي",
      "categorie": "Maison d'hôtes",
      "priceRange": "€€",
      "mapsUrl": "https://maps.google.com/?q=31.5463184,35.0843896",
      "lat": 31.5463184,
      "lng": 35.0843896,
      "halalFriendly": false,
      "bookingUrl": "https://maps.google.com/?q=31.5463184,35.0843896",
      "source": "osm"
    },
    {
      "nom": "صخر",
      "categorie": "Appartement",
      "priceRange": "€€",
      "mapsUrl": "https://maps.google.com/?q=31.5527141,35.0994532",
      "lat": 31.5527141,
      "lng": 35.0994532,
      "halalFriendly": false,
      "bookingUrl": "https://maps.google.com/?q=31.5527141,35.0994532",
      "source": "osm"
    },
    {
      "nom": "Royal Suites Hotel",
      "categorie": "Hôtel",
      "priceRange": "€€",
      "mapsUrl": "https://maps.google.com/?q=31.5530779,35.1029016",
      "lat": 31.5530779,
      "lng": 35.1029016,
      "halalFriendly": false,
      "bookingUrl": "https://maps.google.com/?q=31.5530779,35.1029016",
      "source": "osm"
    },
    {
      "nom": "هاشم سرور",
      "categorie": "Appartement",
      "priceRange": "€€",
      "mapsUrl": "https://maps.google.com/?q=31.5532243,35.0957241",
      "lat": 31.5532243,
      "lng": 35.0957241,
      "halalFriendly": false,
      "bookingUrl": "https://maps.google.com/?q=31.5532243,35.0957241",
      "source": "osm"
    },
    {
      "nom": "تيسير اقنيبي",
      "categorie": "Appartement",
      "priceRange": "€€",
      "mapsUrl": "https://maps.google.com/?q=31.5135429,35.0878308",
      "lat": 31.5135429,
      "lng": 35.0878308,
      "halalFriendly": false,
      "bookingUrl": "https://maps.google.com/?q=31.5135429,35.0878308",
      "source": "osm"
    },
    {
      "nom": "ابو اشرف ابو ميزر",
      "categorie": "Appartement",
      "priceRange": "€€",
      "mapsUrl": "https://maps.google.com/?q=31.5273393,35.0743852",
      "lat": 31.5273393,
      "lng": 35.0743852,
      "halalFriendly": false,
      "bookingUrl": "https://maps.google.com/?q=31.5273393,35.0743852",
      "source": "osm"
    },
    {
      "nom": "ديوان آل ابوسنينه",
      "categorie": "Maison d'hôtes",
      "priceRange": "€€",
      "mapsUrl": "https://maps.google.com/?q=31.5103472,35.1049399",
      "lat": 31.5103472,
      "lng": 35.1049399,
      "halalFriendly": false,
      "bookingUrl": "https://maps.google.com/?q=31.5103472,35.1049399",
      "source": "osm"
    },
    {
      "nom": "الصرصور",
      "categorie": "Appartement",
      "priceRange": "€€",
      "mapsUrl": "https://maps.google.com/?q=31.5109198,35.091906",
      "lat": 31.5109198,
      "lng": 35.091906,
      "halalFriendly": false,
      "bookingUrl": "https://maps.google.com/?q=31.5109198,35.091906",
      "source": "osm"
    },
    {
      "nom": "هشام وائل ابو منشار",
      "categorie": "Appartement",
      "priceRange": "€€",
      "mapsUrl": "https://maps.google.com/?q=31.5179365,35.0772631",
      "lat": 31.5179365,
      "lng": 35.0772631,
      "halalFriendly": false,
      "bookingUrl": "https://maps.google.com/?q=31.5179365,35.0772631",
      "source": "osm"
    },
    {
      "nom": "هشام وائل ابو منشار",
      "categorie": "Appartement",
      "priceRange": "€€",
      "mapsUrl": "https://maps.google.com/?q=31.5179087,35.0772385",
      "lat": 31.5179087,
      "lng": 35.0772385,
      "halalFriendly": false,
      "bookingUrl": "https://maps.google.com/?q=31.5179087,35.0772385",
      "source": "osm"
    },
    {
      "nom": "ديوان غيث",
      "categorie": "Maison d'hôtes",
      "priceRange": "€€",
      "mapsUrl": "https://maps.google.com/?q=31.5115791,35.1151528",
      "lat": 31.5115791,
      "lng": 35.1151528,
      "halalFriendly": false,
      "bookingUrl": "https://maps.google.com/?q=31.5115791,35.1151528",
      "source": "osm"
    },
    {
      "nom": "اياد رياح الصرصور",
      "categorie": "Appartement",
      "priceRange": "€€",
      "mapsUrl": "https://maps.google.com/?q=31.5580287,35.1087768",
      "lat": 31.5580287,
      "lng": 35.1087768,
      "halalFriendly": false,
      "bookingUrl": "https://maps.google.com/?q=31.5580287,35.1087768",
      "source": "osm"
    },
    {
      "nom": "رياض الأدهمي",
      "categorie": "Appartement",
      "priceRange": "€€",
      "mapsUrl": "https://maps.google.com/?q=31.5099995,35.0831298",
      "lat": 31.5099995,
      "lng": 35.0831298,
      "halalFriendly": false,
      "bookingUrl": "https://maps.google.com/?q=31.5099995,35.0831298",
      "source": "osm"
    },
    {
      "nom": "بيت الاستاذ صهيب جنيد",
      "categorie": "Appartement",
      "priceRange": "€€",
      "mapsUrl": "https://maps.google.com/?q=31.5598227,35.1001607",
      "lat": 31.5598227,
      "lng": 35.1001607,
      "halalFriendly": false,
      "bookingUrl": "https://maps.google.com/?q=31.5598227,35.1001607",
      "source": "osm"
    },
    {
      "nom": "قاعات وايت دريم",
      "categorie": "Maison d'hôtes",
      "priceRange": "€€",
      "mapsUrl": "https://maps.google.com/?q=31.51287,35.0772928",
      "lat": 31.51287,
      "lng": 35.0772928,
      "halalFriendly": false,
      "bookingUrl": "https://maps.google.com/?q=31.51287,35.0772928",
      "source": "osm"
    },
    {
      "nom": "Mutasem Alheeh - house",
      "categorie": "Appartement",
      "priceRange": "€€",
      "mapsUrl": "https://maps.google.com/?q=31.506059,35.0910846",
      "lat": 31.506059,
      "lng": 35.0910846,
      "halalFriendly": false,
      "bookingUrl": "https://maps.google.com/?q=31.506059,35.0910846",
      "source": "osm"
    },
    {
      "nom": "c1",
      "categorie": "Appartement",
      "priceRange": "€€",
      "mapsUrl": "https://maps.google.com/?q=31.5557592,35.0785234",
      "lat": 31.5557592,
      "lng": 35.0785234,
      "halalFriendly": false,
      "bookingUrl": "https://maps.google.com/?q=31.5557592,35.0785234",
      "source": "osm"
    },
    {
      "nom": "صالة الشرق للافراح",
      "categorie": "Maison d'hôtes",
      "priceRange": "€€",
      "mapsUrl": "https://maps.google.com/?q=31.5037913,35.0924766",
      "lat": 31.5037913,
      "lng": 35.0924766,
      "halalFriendly": false,
      "bookingUrl": "https://maps.google.com/?q=31.5037913,35.0924766",
      "source": "osm"
    },
    {
      "nom": "ديوان آل اقنيبي",
      "categorie": "Maison d'hôtes",
      "priceRange": "€€",
      "mapsUrl": "https://maps.google.com/?q=31.5109844,35.0740984",
      "lat": 31.5109844,
      "lng": 35.0740984,
      "halalFriendly": false,
      "bookingUrl": "https://maps.google.com/?q=31.5109844,35.0740984",
      "source": "osm"
    },
    {
      "nom": "عابدين",
      "categorie": "Appartement",
      "priceRange": "€€",
      "mapsUrl": "https://maps.google.com/?q=31.5592986,35.0776668",
      "lat": 31.5592986,
      "lng": 35.0776668,
      "halalFriendly": false,
      "bookingUrl": "https://maps.google.com/?q=31.5592986,35.0776668",
      "source": "osm"
    },
    {
      "nom": "الخليل",
      "categorie": "Appartement",
      "priceRange": "€€",
      "mapsUrl": "https://maps.google.com/?q=31.5086233,35.0659974",
      "lat": 31.5086233,
      "lng": 35.0659974,
      "halalFriendly": false,
      "bookingUrl": "https://maps.google.com/?q=31.5086233,35.0659974",
      "source": "osm"
    },
    {
      "nom": "زغير",
      "categorie": "Maison d'hôtes",
      "priceRange": "€€",
      "mapsUrl": "https://maps.google.com/?q=31.555921,35.0609167",
      "lat": 31.555921,
      "lng": 35.0609167,
      "halalFriendly": false,
      "bookingUrl": "https://maps.google.com/?q=31.555921,35.0609167",
      "source": "osm"
    },
    {
      "nom": "taha home",
      "categorie": "Maison d'hôtes",
      "priceRange": "€€",
      "mapsUrl": "https://maps.google.com/?q=31.5755369,35.098809",
      "lat": 31.5755369,
      "lng": 35.098809,
      "halalFriendly": false,
      "bookingUrl": "https://maps.google.com/?q=31.5755369,35.098809",
      "source": "osm"
    },
    {
      "nom": "صالة السرايا للأفراح",
      "categorie": "Maison d'hôtes",
      "priceRange": "€€",
      "mapsUrl": "https://maps.google.com/?q=31.5041203,35.0434737",
      "lat": 31.5041203,
      "lng": 35.0434737,
      "halalFriendly": false,
      "bookingUrl": "https://maps.google.com/?q=31.5041203,35.0434737",
      "source": "osm"
    },
    {
      "nom": "منزل اياد السويطي",
      "categorie": "Auberge",
      "priceRange": "€€",
      "mapsUrl": "https://maps.google.com/?q=31.5046897,35.0429072",
      "lat": 31.5046897,
      "lng": 35.0429072,
      "halalFriendly": false,
      "bookingUrl": "https://maps.google.com/?q=31.5046897,35.0429072",
      "source": "osm"
    },
    {
      "nom": "دار شبلي رمضان حجة",
      "categorie": "Appartement",
      "priceRange": "€€",
      "mapsUrl": "https://maps.google.com/?q=31.5023901,35.0430627",
      "lat": 31.5023901,
      "lng": 35.0430627,
      "halalFriendly": false,
      "bookingUrl": "https://maps.google.com/?q=31.5023901,35.0430627",
      "source": "osm"
    },
    {
      "nom": "قاعات الواوي",
      "categorie": "Maison d'hôtes",
      "priceRange": "€€",
      "mapsUrl": "https://maps.google.com/?q=31.592408,35.1000255",
      "lat": 31.592408,
      "lng": 35.1000255,
      "halalFriendly": false,
      "bookingUrl": "https://maps.google.com/?q=31.592408,35.1000255",
      "source": "osm"
    },
    {
      "nom": "قاعات وفندق القصر الذهبي",
      "categorie": "Hôtel",
      "priceRange": "€€",
      "mapsUrl": "https://maps.google.com/?q=31.5059145,35.0367593",
      "lat": 31.5059145,
      "lng": 35.0367593,
      "halalFriendly": false,
      "bookingUrl": "https://maps.google.com/?q=31.5059145,35.0367593",
      "source": "osm"
    },
    {
      "nom": "قاعات وفندق برستيج",
      "categorie": "Hôtel",
      "priceRange": "€€",
      "mapsUrl": "https://maps.google.com/?q=31.5041173,35.0310656",
      "lat": 31.5041173,
      "lng": 35.0310656,
      "halalFriendly": false,
      "bookingUrl": "https://maps.google.com/?q=31.5041173,35.0310656",
      "source": "osm"
    },
    {
      "nom": "ديوان عشيرة السويطي",
      "categorie": "Maison d'hôtes",
      "priceRange": "€€",
      "mapsUrl": "https://maps.google.com/?q=31.5067663,35.0289614",
      "lat": 31.5067663,
      "lng": 35.0289614,
      "halalFriendly": false,
      "bookingUrl": "https://maps.google.com/?q=31.5067663,35.0289614",
      "source": "osm"
    },
    {
      "nom": "مشروع ابراهيم الادهمي",
      "categorie": "Appartement",
      "priceRange": "€€",
      "mapsUrl": "https://maps.google.com/?q=31.599173,35.102347",
      "lat": 31.599173,
      "lng": 35.102347,
      "halalFriendly": false,
      "bookingUrl": "https://maps.google.com/?q=31.599173,35.102347",
      "source": "osm"
    },
    {
      "nom": "ديوان عائلة عمرو",
      "categorie": "Maison d'hôtes",
      "priceRange": "€€",
      "mapsUrl": "https://maps.google.com/?q=31.5024277,35.0282572",
      "lat": 31.5024277,
      "lng": 35.0282572,
      "halalFriendly": false,
      "bookingUrl": "https://maps.google.com/?q=31.5024277,35.0282572",
      "source": "osm"
    },
    {
      "nom": "دار إبراهيم الباشا",
      "categorie": "Appartement",
      "priceRange": "€€",
      "mapsUrl": "https://maps.google.com/?q=31.501503,35.0282045",
      "lat": 31.501503,
      "lng": 35.0282045,
      "halalFriendly": false,
      "bookingUrl": "https://maps.google.com/?q=31.501503,35.0282045",
      "source": "osm"
    },
    {
      "nom": "منزل الاستاذ منيف الطروة",
      "categorie": "Auberge",
      "priceRange": "€€",
      "mapsUrl": "https://maps.google.com/?q=31.592775,35.1424715",
      "lat": 31.592775,
      "lng": 35.1424715,
      "halalFriendly": false,
      "bookingUrl": "https://maps.google.com/?q=31.592775,35.1424715",
      "source": "osm"
    },
    {
      "nom": "كريسه",
      "categorie": "Maison d'hôtes",
      "priceRange": "€€",
      "mapsUrl": "https://maps.google.com/?q=31.5205309,35.0157636",
      "lat": 31.5205309,
      "lng": 35.0157636,
      "halalFriendly": false,
      "bookingUrl": "https://maps.google.com/?q=31.5205309,35.0157636",
      "source": "osm"
    },
    {
      "nom": "الشيخ دچلس",
      "categorie": "Maison d'hôtes",
      "priceRange": "€€",
      "mapsUrl": "https://maps.google.com/?q=31.585317,35.1592481",
      "lat": 31.585317,
      "lng": 35.1592481,
      "halalFriendly": false,
      "bookingUrl": "https://maps.google.com/?q=31.585317,35.1592481",
      "source": "osm"
    },
    {
      "nom": "ديوان عشيرة الشحاتيت",
      "categorie": "Maison d'hôtes",
      "priceRange": "€€",
      "mapsUrl": "https://maps.google.com/?q=31.4903249,35.0198981",
      "lat": 31.4903249,
      "lng": 35.0198981,
      "halalFriendly": false,
      "bookingUrl": "https://maps.google.com/?q=31.4903249,35.0198981",
      "source": "osm"
    }
  ],
  "mosqueesPrincipales": [
    {
      "id": "m431877313",
      "nom": "Al-Atqia' Mosque",
      "type": "Mosquée",
      "adresse": "الخليل",
      "description": "Lieu de prière (OpenStreetMap).",
      "mapsUrl": "https://maps.google.com/?q=31.5304237,35.0980796",
      "lat": 31.5304237,
      "lng": 35.0980796,
      "source": "osm"
    },
    {
      "id": "m432106948",
      "nom": "مسجد عالية",
      "type": "Mosquée",
      "adresse": "الخليل",
      "description": "Lieu de prière (OpenStreetMap).",
      "mapsUrl": "https://maps.google.com/?q=31.5296993,35.1003598",
      "lat": 31.5296993,
      "lng": 35.1003598,
      "source": "osm"
    },
    {
      "id": "m431976271",
      "nom": "مسجد الحسين",
      "type": "Mosquée",
      "adresse": "",
      "description": "Lieu de prière (OpenStreetMap).",
      "mapsUrl": "https://maps.google.com/?q=31.5366957,35.0999289",
      "lat": 31.5366957,
      "lng": 35.0999289,
      "source": "osm"
    },
    {
      "id": "m431919869",
      "nom": "مسجد العابدين",
      "type": "Mosquée",
      "adresse": "الخليل",
      "description": "Lieu de prière (OpenStreetMap).",
      "mapsUrl": "https://maps.google.com/?q=31.5294492,35.0961255",
      "lat": 31.5294492,
      "lng": 35.0961255,
      "source": "osm"
    },
    {
      "id": "m432212560",
      "nom": "مسجد علي البكاء",
      "type": "Mosquée",
      "adresse": "",
      "description": "Lieu de prière (OpenStreetMap).",
      "mapsUrl": "https://maps.google.com/?q=31.5284584,35.1036963",
      "lat": 31.5284584,
      "lng": 35.1036963,
      "source": "osm"
    },
    {
      "id": "m431804536",
      "nom": "مسجد أبو عبيدة",
      "type": "Mosquée",
      "adresse": "الخليل",
      "description": "Lieu de prière (OpenStreetMap).",
      "mapsUrl": "https://maps.google.com/?q=31.5318569,35.1068738",
      "lat": 31.5318569,
      "lng": 35.1068738,
      "source": "osm"
    },
    {
      "id": "m1167824492",
      "nom": "مسجد باب الزاوية",
      "type": "Mosquée",
      "adresse": "شارع الشلالة القديم, الخليل",
      "description": "Lieu de prière (OpenStreetMap).",
      "mapsUrl": "https://maps.google.com/?q=31.5271438,35.103059",
      "lat": 31.5271438,
      "lng": 35.103059,
      "source": "osm"
    },
    {
      "id": "m432207516",
      "nom": "Alrawda",
      "type": "Mosquée",
      "adresse": "",
      "description": "Lieu de prière (OpenStreetMap).",
      "mapsUrl": "https://maps.google.com/?q=31.5349556,35.1075404",
      "lat": 31.5349556,
      "lng": 35.1075404,
      "source": "osm"
    },
    {
      "id": "m1419888276",
      "nom": "Al Zahra2 Mosque;Al Haja zahra Mosque",
      "type": "Mosquée",
      "adresse": "",
      "description": "Lieu de prière (OpenStreetMap).",
      "mapsUrl": "https://maps.google.com/?q=31.5307773,35.0916135",
      "lat": 31.5307773,
      "lng": 35.0916135,
      "source": "osm"
    },
    {
      "id": "m431961228",
      "nom": "مسجد الرباط",
      "type": "Mosquée",
      "adresse": "",
      "description": "Lieu de prière (OpenStreetMap).",
      "mapsUrl": "https://maps.google.com/?q=31.5282123,35.092333",
      "lat": 31.5282123,
      "lng": 35.092333,
      "source": "osm"
    },
    {
      "id": "m6385572166",
      "nom": "زاوية و مقام و مسجد الزاهد",
      "type": "Mosquée",
      "adresse": "",
      "description": "Lieu de prière (OpenStreetMap).",
      "mapsUrl": "https://maps.google.com/?q=31.5268521,35.1062603",
      "lat": 31.5268521,
      "lng": 35.1062603,
      "source": "osm"
    },
    {
      "id": "m432093559",
      "nom": "Jabal Al Rahma Mosque",
      "type": "Mosquée",
      "adresse": "",
      "description": "Lieu de prière (OpenStreetMap).",
      "mapsUrl": "https://maps.google.com/?q=31.5245083,35.1002601",
      "lat": 31.5245083,
      "lng": 35.1002601,
      "source": "osm"
    },
    {
      "id": "m432207847",
      "nom": "مسجد المهاجرين",
      "type": "Mosquée",
      "adresse": "الخليل",
      "description": "Lieu de prière (OpenStreetMap).",
      "mapsUrl": "https://maps.google.com/?q=31.5311466,35.1091935",
      "lat": 31.5311466,
      "lng": 35.1091935,
      "source": "osm"
    },
    {
      "id": "m3610991643",
      "nom": "مسجد السلام",
      "type": "Mosquée",
      "adresse": "",
      "description": "Lieu de prière (OpenStreetMap).",
      "mapsUrl": "https://maps.google.com/?q=31.5342474,35.0900403",
      "lat": 31.5342474,
      "lng": 35.0900403,
      "source": "osm"
    },
    {
      "id": "m432191823",
      "nom": "Al Rayan Mosque",
      "type": "Mosquée",
      "adresse": "",
      "description": "Lieu de prière (OpenStreetMap).",
      "mapsUrl": "https://maps.google.com/?q=31.524519,35.096763",
      "lat": 31.524519,
      "lng": 35.096763,
      "source": "osm"
    },
    {
      "id": "m432126940",
      "nom": "مسجد نمرة",
      "type": "Mosquée",
      "adresse": "",
      "description": "Lieu de prière (OpenStreetMap).",
      "mapsUrl": "https://maps.google.com/?q=31.5419677,35.1031312",
      "lat": 31.5419677,
      "lng": 35.1031312,
      "source": "osm"
    },
    {
      "id": "m431854335",
      "nom": "مسجد عمر بن الخطاب",
      "type": "Mosquée",
      "adresse": "الخليل",
      "description": "Lieu de prière (OpenStreetMap).",
      "mapsUrl": "https://maps.google.com/?q=31.5344153,35.0865982",
      "lat": 31.5344153,
      "lng": 35.0865982,
      "source": "osm"
    },
    {
      "id": "m6095312785",
      "nom": "مسجد محمد الفاتح",
      "type": "Mosquée",
      "adresse": "",
      "description": "Lieu de prière (OpenStreetMap).",
      "mapsUrl": "https://maps.google.com/?q=31.5439997,35.0955559",
      "lat": 31.5439997,
      "lng": 35.0955559,
      "source": "osm"
    },
    {
      "id": "m432140842",
      "nom": "Taybah Mosque",
      "type": "Mosquée",
      "adresse": "",
      "description": "Lieu de prière (OpenStreetMap).",
      "mapsUrl": "https://maps.google.com/?q=31.521543,35.1058953",
      "lat": 31.521543,
      "lng": 35.1058953,
      "source": "osm"
    },
    {
      "id": "m431926084",
      "nom": "Qub Al Janib Mosque",
      "type": "Mosquée",
      "adresse": "",
      "description": "Lieu de prière (OpenStreetMap).",
      "mapsUrl": "https://maps.google.com/?q=31.5204111,35.1026876",
      "lat": 31.5204111,
      "lng": 35.1026876,
      "source": "osm"
    },
    {
      "id": "m432137776",
      "nom": "مسجد الانصار",
      "type": "Mosquée",
      "adresse": "",
      "description": "Lieu de prière (OpenStreetMap).",
      "mapsUrl": "https://maps.google.com/?q=31.5418971,35.090105",
      "lat": 31.5418971,
      "lng": 35.090105,
      "source": "osm"
    },
    {
      "id": "m431864712",
      "nom": "Al Iman Mosque",
      "type": "Mosquée",
      "adresse": "",
      "description": "Lieu de prière (OpenStreetMap).",
      "mapsUrl": "https://maps.google.com/?q=31.5207444,35.0951274",
      "lat": 31.5207444,
      "lng": 35.0951274,
      "source": "osm"
    },
    {
      "id": "m432134655",
      "nom": "Omar Aziz Mosque",
      "type": "Mosquée",
      "adresse": "",
      "description": "Lieu de prière (OpenStreetMap).",
      "mapsUrl": "https://maps.google.com/?q=31.5284121,35.0858937",
      "lat": 31.5284121,
      "lng": 35.0858937,
      "source": "osm"
    },
    {
      "id": "m431978170",
      "nom": "Ibad Al Rahman Mosque",
      "type": "Mosquée",
      "adresse": "",
      "description": "Lieu de prière (OpenStreetMap).",
      "mapsUrl": "https://maps.google.com/?q=31.5407357,35.0875251",
      "lat": 31.5407357,
      "lng": 35.0875251,
      "source": "osm"
    },
    {
      "id": "m5762250770",
      "nom": "مسجد بر الوالدين",
      "type": "Mosquée",
      "adresse": "",
      "description": "Lieu de prière (OpenStreetMap).",
      "mapsUrl": "https://maps.google.com/?q=31.54532,35.1042812",
      "lat": 31.54532,
      "lng": 35.1042812,
      "source": "osm"
    },
    {
      "id": "m5266739921",
      "nom": "مسجد جواد الهشلمون",
      "type": "Mosquée",
      "adresse": "",
      "description": "Lieu de prière (OpenStreetMap).",
      "mapsUrl": "https://maps.google.com/?q=31.5442442,35.107325",
      "lat": 31.5442442,
      "lng": 35.107325,
      "source": "osm"
    },
    {
      "id": "m431832048",
      "nom": "Al Salheen Mosque",
      "type": "Mosquée",
      "adresse": "",
      "description": "Lieu de prière (OpenStreetMap).",
      "mapsUrl": "https://maps.google.com/?q=31.5232298,35.0868741",
      "lat": 31.5232298,
      "lng": 35.0868741,
      "source": "osm"
    },
    {
      "id": "m432166598",
      "nom": "Al Noor Mosque",
      "type": "Mosquée",
      "adresse": "",
      "description": "Lieu de prière (OpenStreetMap).",
      "mapsUrl": "https://maps.google.com/?q=31.518732,35.1080953",
      "lat": 31.518732,
      "lng": 35.1080953,
      "source": "osm"
    },
    {
      "id": "m3950520657",
      "nom": "Al-Haras Mosque",
      "type": "Mosquée",
      "adresse": "الخليل",
      "description": "Lieu de prière (OpenStreetMap).",
      "mapsUrl": "https://maps.google.com/?q=31.5480048,35.0970446",
      "lat": 31.5480048,
      "lng": 35.0970446,
      "source": "osm"
    },
    {
      "id": "m432206299",
      "nom": "Belal Mosque",
      "type": "Mosquée",
      "adresse": "",
      "description": "Lieu de prière (OpenStreetMap).",
      "mapsUrl": "https://maps.google.com/?q=31.5178626,35.1059116",
      "lat": 31.5178626,
      "lng": 35.1059116,
      "source": "osm"
    },
    {
      "id": "m432141361",
      "nom": "مسجد الجهاد",
      "type": "Mosquée",
      "adresse": "",
      "description": "Lieu de prière (OpenStreetMap).",
      "mapsUrl": "https://maps.google.com/?q=31.5461963,35.0905987",
      "lat": 31.5461963,
      "lng": 35.0905987,
      "source": "osm"
    },
    {
      "id": "m432227723",
      "nom": "مسجد خباب",
      "type": "Mosquée",
      "adresse": "",
      "description": "Lieu de prière (OpenStreetMap).",
      "mapsUrl": "https://maps.google.com/?q=31.5291823,35.0808569",
      "lat": 31.5291823,
      "lng": 35.0808569,
      "source": "osm"
    },
    {
      "id": "m5870671285",
      "nom": "مسجد طارق بن زياد",
      "type": "Mosquée",
      "adresse": "",
      "description": "Lieu de prière (OpenStreetMap).",
      "mapsUrl": "https://maps.google.com/?q=31.5191214,35.1120494",
      "lat": 31.5191214,
      "lng": 35.1120494,
      "source": "osm"
    },
    {
      "id": "m431848771",
      "nom": "Dar Al Islam Mosque",
      "type": "Mosquée",
      "adresse": "",
      "description": "Lieu de prière (OpenStreetMap).",
      "mapsUrl": "https://maps.google.com/?q=31.5155332,35.0996043",
      "lat": 31.5155332,
      "lng": 35.0996043,
      "source": "osm"
    },
    {
      "id": "m432238609",
      "nom": "Al-Farouk Mosque",
      "type": "Mosquée",
      "adresse": "",
      "description": "Lieu de prière (OpenStreetMap).",
      "mapsUrl": "https://maps.google.com/?q=31.5169391,35.1082014",
      "lat": 31.5169391,
      "lng": 35.1082014,
      "source": "osm"
    },
    {
      "id": "m432213143",
      "nom": "Al-Sabireen Mosque",
      "type": "Mosquée",
      "adresse": "",
      "description": "Lieu de prière (OpenStreetMap).",
      "mapsUrl": "https://maps.google.com/?q=31.5158357,35.1060543",
      "lat": 31.5158357,
      "lng": 35.1060543,
      "source": "osm"
    },
    {
      "id": "m431966765",
      "nom": "Al Rashdeen Mosque",
      "type": "Mosquée",
      "adresse": "",
      "description": "Lieu de prière (OpenStreetMap).",
      "mapsUrl": "https://maps.google.com/?q=31.5496914,35.1079572",
      "lat": 31.5496914,
      "lng": 35.1079572,
      "source": "osm"
    },
    {
      "id": "m431873605",
      "nom": "مسجد الغرباء",
      "type": "Mosquée",
      "adresse": "",
      "description": "Lieu de prière (OpenStreetMap).",
      "mapsUrl": "https://maps.google.com/?q=31.5404545,35.0802044",
      "lat": 31.5404545,
      "lng": 35.0802044,
      "source": "osm"
    },
    {
      "id": "m431850732",
      "nom": "مسجد عبدالله السعيد",
      "type": "Mosquée",
      "adresse": "",
      "description": "Lieu de prière (OpenStreetMap).",
      "mapsUrl": "https://maps.google.com/?q=31.550713,35.0954568",
      "lat": 31.550713,
      "lng": 35.0954568,
      "source": "osm"
    },
    {
      "id": "m431840929",
      "nom": "Al Mo'minen Mosque",
      "type": "Mosquée",
      "adresse": "",
      "description": "Lieu de prière (OpenStreetMap).",
      "mapsUrl": "https://maps.google.com/?q=31.5159536,35.1097828",
      "lat": 31.5159536,
      "lng": 35.1097828,
      "source": "osm"
    },
    {
      "id": "m431979580",
      "nom": "مسجد ال البيت",
      "type": "Mosquée",
      "adresse": "",
      "description": "Lieu de prière (OpenStreetMap).",
      "mapsUrl": "https://maps.google.com/?q=31.5499779,35.0913083",
      "lat": 31.5499779,
      "lng": 35.0913083,
      "source": "osm"
    },
    {
      "id": "m432090839",
      "nom": "Al-Imam Gnead Mosque",
      "type": "Mosquée",
      "adresse": "",
      "description": "Lieu de prière (OpenStreetMap).",
      "mapsUrl": "https://maps.google.com/?q=31.546392,35.084655",
      "lat": 31.546392,
      "lng": 35.084655,
      "source": "osm"
    },
    {
      "id": "m1328686559",
      "nom": "مسجد القاسم",
      "type": "Mosquée",
      "adresse": "الخليل",
      "description": "Lieu de prière (OpenStreetMap).",
      "mapsUrl": "https://maps.google.com/?q=31.5515518,35.1037483",
      "lat": 31.5515518,
      "lng": 35.1037483,
      "source": "osm"
    },
    {
      "id": "m5511652525",
      "nom": "مسجد المرابطون",
      "type": "Mosquée",
      "adresse": "",
      "description": "Lieu de prière (OpenStreetMap).",
      "mapsUrl": "https://maps.google.com/?q=31.5156454,35.0886065",
      "lat": 31.5156454,
      "lng": 35.0886065,
      "source": "osm"
    },
    {
      "id": "m432078657",
      "nom": "Khaled Bin Waleed Mosque",
      "type": "Mosquée",
      "adresse": "הרב גורן",
      "description": "Lieu de prière (OpenStreetMap).",
      "mapsUrl": "https://maps.google.com/?q=31.5255933,35.1212618",
      "lat": 31.5255933,
      "lng": 35.1212618,
      "source": "osm"
    },
    {
      "id": "m431825985",
      "nom": "Johar Mosque",
      "type": "Mosquée",
      "adresse": "",
      "description": "Lieu de prière (OpenStreetMap).",
      "mapsUrl": "https://maps.google.com/?q=31.5181575,35.1163121",
      "lat": 31.5181575,
      "lng": 35.1163121,
      "source": "osm"
    },
    {
      "id": "m432229806",
      "nom": "مسجد الفرقان",
      "type": "Mosquée",
      "adresse": "الخليل",
      "description": "Lieu de prière (OpenStreetMap).",
      "mapsUrl": "https://maps.google.com/?q=31.553343,35.0984618",
      "lat": 31.553343,
      "lng": 35.0984618,
      "source": "osm"
    },
    {
      "id": "m432058942",
      "nom": "Mohamad Al Sadeq Mosque",
      "type": "Mosquée",
      "adresse": "",
      "description": "Lieu de prière (OpenStreetMap).",
      "mapsUrl": "https://maps.google.com/?q=31.5268538,35.0759697",
      "lat": 31.5268538,
      "lng": 35.0759697,
      "source": "osm"
    },
    {
      "id": "m432084087",
      "nom": "Abu Thar Al Ghafari Mosque",
      "type": "Mosquée",
      "adresse": "",
      "description": "Lieu de prière (OpenStreetMap).",
      "mapsUrl": "https://maps.google.com/?q=31.5122436,35.0928097",
      "lat": 31.5122436,
      "lng": 35.0928097,
      "source": "osm"
    },
    {
      "id": "m432091451",
      "nom": "مسجد الرباط",
      "type": "Mosquée",
      "adresse": "",
      "description": "Lieu de prière (OpenStreetMap).",
      "mapsUrl": "https://maps.google.com/?q=31.5527313,35.0905332",
      "lat": 31.5527313,
      "lng": 35.0905332,
      "source": "osm"
    },
    {
      "id": "m2418607552",
      "nom": "مسجد الرضوان",
      "type": "Mosquée",
      "adresse": "",
      "description": "Lieu de prière (OpenStreetMap).",
      "mapsUrl": "https://maps.google.com/?q=31.5384317,35.0741148",
      "lat": 31.5384317,
      "lng": 35.0741148,
      "source": "osm"
    },
    {
      "id": "m431915371",
      "nom": "Alwala' Mosque",
      "type": "Mosquée",
      "adresse": "",
      "description": "Lieu de prière (OpenStreetMap).",
      "mapsUrl": "https://maps.google.com/?q=31.5304028,35.0733444",
      "lat": 31.5304028,
      "lng": 35.0733444,
      "source": "osm"
    },
    {
      "id": "m431842001",
      "nom": "Sahabet Rasol Allah Mosque",
      "type": "Mosquée",
      "adresse": "",
      "description": "Lieu de prière (OpenStreetMap).",
      "mapsUrl": "https://maps.google.com/?q=31.5122135,35.0870842",
      "lat": 31.5122135,
      "lng": 35.0870842,
      "source": "osm"
    },
    {
      "id": "m432094145",
      "nom": "Ahmade Bin Hanbal Mosque",
      "type": "Mosquée",
      "adresse": "",
      "description": "Lieu de prière (OpenStreetMap).",
      "mapsUrl": "https://maps.google.com/?q=31.5194778,35.0774336",
      "lat": 31.5194778,
      "lng": 35.0774336,
      "source": "osm"
    },
    {
      "id": "m432083865",
      "nom": "مسجد حمزة",
      "type": "Mosquée",
      "adresse": "",
      "description": "Lieu de prière (OpenStreetMap).",
      "mapsUrl": "https://maps.google.com/?q=31.5159237,35.080522",
      "lat": 31.5159237,
      "lng": 35.080522,
      "source": "osm"
    },
    {
      "id": "m432057161",
      "nom": "مسجد الشهداء",
      "type": "Mosquée",
      "adresse": "",
      "description": "Lieu de prière (OpenStreetMap).",
      "mapsUrl": "https://maps.google.com/?q=31.5135667,35.1167033",
      "lat": 31.5135667,
      "lng": 35.1167033,
      "source": "osm"
    },
    {
      "id": "m432192719",
      "nom": "Al Abbas Mosque",
      "type": "Mosquée",
      "adresse": "",
      "description": "Lieu de prière (OpenStreetMap).",
      "mapsUrl": "https://maps.google.com/?q=31.5234806,35.073709",
      "lat": 31.5234806,
      "lng": 35.073709,
      "source": "osm"
    },
    {
      "id": "m432040907",
      "nom": "Al Okhwa Mosque",
      "type": "Mosquée",
      "adresse": "",
      "description": "Lieu de prière (OpenStreetMap).",
      "mapsUrl": "https://maps.google.com/?q=31.5135654,35.0821112",
      "lat": 31.5135654,
      "lng": 35.0821112,
      "source": "osm"
    },
    {
      "id": "m431865176",
      "nom": "مسجد عبد الحي شاهين",
      "type": "Mosquée",
      "adresse": "الخليل",
      "description": "Lieu de prière (OpenStreetMap).",
      "mapsUrl": "https://maps.google.com/?q=31.5575285,35.0939709",
      "lat": 31.5575285,
      "lng": 35.0939709,
      "source": "osm"
    },
    {
      "id": "m432199523",
      "nom": "Al Kawthar Mosque",
      "type": "Mosquée",
      "adresse": "",
      "description": "Lieu de prière (OpenStreetMap).",
      "mapsUrl": "https://maps.google.com/?q=31.558147,35.1055885",
      "lat": 31.558147,
      "lng": 35.1055885,
      "source": "osm"
    },
    {
      "id": "m431843782",
      "nom": "مسجد الشعراوي",
      "type": "Mosquée",
      "adresse": "",
      "description": "Lieu de prière (OpenStreetMap).",
      "mapsUrl": "https://maps.google.com/?q=31.5589644,35.1006875",
      "lat": 31.5589644,
      "lng": 35.1006875,
      "source": "osm"
    },
    {
      "id": "m431796555",
      "nom": "مسجد الرحمن",
      "type": "Mosquée",
      "adresse": "",
      "description": "Lieu de prière (OpenStreetMap).",
      "mapsUrl": "https://maps.google.com/?q=31.5591301,35.1000863",
      "lat": 31.5591301,
      "lng": 35.1000863,
      "source": "osm"
    },
    {
      "id": "m432208752",
      "nom": "مسجد صلاح الدين",
      "type": "Mosquée",
      "adresse": "الخليل",
      "description": "Lieu de prière (OpenStreetMap).",
      "mapsUrl": "https://maps.google.com/?q=31.5087651,35.0806156",
      "lat": 31.5087651,
      "lng": 35.0806156,
      "source": "osm"
    },
    {
      "id": "m431843681",
      "nom": "Omar Bin Al As Mosque",
      "type": "Mosquée",
      "adresse": "",
      "description": "Lieu de prière (OpenStreetMap).",
      "mapsUrl": "https://maps.google.com/?q=31.5605765,35.0890333",
      "lat": 31.5605765,
      "lng": 35.0890333,
      "source": "osm"
    },
    {
      "id": "m431856099",
      "nom": "مسجد عابد الحرمين",
      "type": "Mosquée",
      "adresse": "الخليل",
      "description": "Lieu de prière (OpenStreetMap).",
      "mapsUrl": "https://maps.google.com/?q=31.5098852,35.0775524",
      "lat": 31.5098852,
      "lng": 35.0775524,
      "source": "osm"
    },
    {
      "id": "m432209257",
      "nom": "مسجد النور",
      "type": "Mosquée",
      "adresse": "الخليل",
      "description": "Lieu de prière (OpenStreetMap).",
      "mapsUrl": "https://maps.google.com/?q=31.5044362,35.0887188",
      "lat": 31.5044362,
      "lng": 35.0887188,
      "source": "osm"
    },
    {
      "id": "m432152347",
      "nom": "مسجد أجنادين",
      "type": "Mosquée",
      "adresse": "الخليل",
      "description": "Lieu de prière (OpenStreetMap).",
      "mapsUrl": "https://maps.google.com/?q=31.5591948,35.0825643",
      "lat": 31.5591948,
      "lng": 35.0825643,
      "source": "osm"
    },
    {
      "id": "m431899839",
      "nom": "Al Tawabeen",
      "type": "Mosquée",
      "adresse": "",
      "description": "Lieu de prière (OpenStreetMap).",
      "mapsUrl": "https://maps.google.com/?q=31.5094023,35.0730189",
      "lat": 31.5094023,
      "lng": 35.0730189,
      "source": "osm"
    },
    {
      "id": "m432221396",
      "nom": "مسجد البراء",
      "type": "Mosquée",
      "adresse": "الخليل",
      "description": "Lieu de prière (OpenStreetMap).",
      "mapsUrl": "https://maps.google.com/?q=31.5030027,35.0809441",
      "lat": 31.5030027,
      "lng": 35.0809441,
      "source": "osm"
    },
    {
      "id": "m431870942",
      "nom": "مسجد الأمجدين",
      "type": "Mosquée",
      "adresse": "الخليل",
      "description": "Lieu de prière (OpenStreetMap).",
      "mapsUrl": "https://maps.google.com/?q=31.5036062,35.0750935",
      "lat": 31.5036062,
      "lng": 35.0750935,
      "source": "osm"
    },
    {
      "id": "m7588384186",
      "nom": "مسجد صلاح الدين",
      "type": "Mosquée",
      "adresse": "",
      "description": "Lieu de prière (OpenStreetMap).",
      "mapsUrl": "https://maps.google.com/?q=31.5703185,35.0939594",
      "lat": 31.5703185,
      "lng": 35.0939594,
      "source": "osm"
    },
    {
      "id": "m8737336317",
      "nom": "مسجد صلاح الدين الايوبي",
      "type": "Mosquée",
      "adresse": "",
      "description": "Lieu de prière (OpenStreetMap).",
      "mapsUrl": "https://maps.google.com/?q=31.5705443,35.0939619",
      "lat": 31.5705443,
      "lng": 35.0939619,
      "source": "osm"
    },
    {
      "id": "m6196026291",
      "nom": "مسجد قلقس",
      "type": "Mosquée",
      "adresse": "",
      "description": "Lieu de prière (OpenStreetMap).",
      "mapsUrl": "https://maps.google.com/?q=31.4917961,35.0966",
      "lat": 31.4917961,
      "lng": 35.0966,
      "source": "osm"
    },
    {
      "id": "m431887164",
      "nom": "مسجد حسن البنا",
      "type": "Mosquée",
      "adresse": "بيت كاحل",
      "description": "Lieu de prière (OpenStreetMap).",
      "mapsUrl": "https://maps.google.com/?q=31.5678432,35.0747427",
      "lat": 31.5678432,
      "lng": 35.0747427,
      "source": "osm"
    },
    {
      "id": "m432237523",
      "nom": "مسجد سنجر",
      "type": "Mosquée",
      "adresse": "",
      "description": "Lieu de prière (OpenStreetMap).",
      "mapsUrl": "https://maps.google.com/?q=31.507829,35.0604947",
      "lat": 31.507829,
      "lng": 35.0604947,
      "source": "osm"
    },
    {
      "id": "m432226673",
      "nom": "Tafoh Big Mosque",
      "type": "Mosquée",
      "adresse": "",
      "description": "Lieu de prière (OpenStreetMap).",
      "mapsUrl": "https://maps.google.com/?q=31.5385776,35.0489125",
      "lat": 31.5385776,
      "lng": 35.0489125,
      "source": "osm"
    },
    {
      "id": "m431988670",
      "nom": "مسجد ابو عبيدة",
      "type": "Mosquée",
      "adresse": "",
      "description": "Lieu de prière (OpenStreetMap).",
      "mapsUrl": "https://maps.google.com/?q=31.5026817,35.0598443",
      "lat": 31.5026817,
      "lng": 35.0598443,
      "source": "osm"
    },
    {
      "id": "m3081389990",
      "nom": "مسجد",
      "type": "Mosquée",
      "adresse": "",
      "description": "Lieu de prière (OpenStreetMap).",
      "mapsUrl": "https://maps.google.com/?q=31.5039058,35.0556734",
      "lat": 31.5039058,
      "lng": 35.0556734,
      "source": "osm"
    },
    {
      "id": "m431926804",
      "nom": "Al Rahman Mosque",
      "type": "Mosquée",
      "adresse": "",
      "description": "Lieu de prière (OpenStreetMap).",
      "mapsUrl": "https://maps.google.com/?q=31.5696263,35.0647704",
      "lat": 31.5696263,
      "lng": 35.0647704,
      "source": "osm"
    },
    {
      "id": "m3949004019",
      "nom": "Al-Reda Mosque",
      "type": "Mosquée",
      "adresse": "الخليل",
      "description": "Lieu de prière (OpenStreetMap).",
      "mapsUrl": "https://maps.google.com/?q=31.5285716,35.0436444",
      "lat": 31.5285716,
      "lng": 35.0436444,
      "source": "osm"
    },
    {
      "id": "m4282796771",
      "nom": "مسجد",
      "type": "Mosquée",
      "adresse": "بني نعيم",
      "description": "Lieu de prière (OpenStreetMap).",
      "mapsUrl": "https://maps.google.com/?q=31.5231742,35.1571945",
      "lat": 31.5231742,
      "lng": 35.1571945,
      "source": "osm"
    },
    {
      "id": "m432204023",
      "nom": "مسجد الرباط",
      "type": "Mosquée",
      "adresse": "",
      "description": "Lieu de prière (OpenStreetMap).",
      "mapsUrl": "https://maps.google.com/?q=31.5831352,35.0960546",
      "lat": 31.5831352,
      "lng": 35.0960546,
      "source": "osm"
    },
    {
      "id": "m432107244",
      "nom": "مسجد التقوى",
      "type": "Mosquée",
      "adresse": "بني نعيم",
      "description": "Lieu de prière (OpenStreetMap).",
      "mapsUrl": "https://maps.google.com/?q=31.5173033,35.1577412",
      "lat": 31.5173033,
      "lng": 35.1577412,
      "source": "osm"
    },
    {
      "id": "m432169637",
      "nom": "Shyoukh Mosque",
      "type": "Mosquée",
      "adresse": "",
      "description": "Lieu de prière (OpenStreetMap).",
      "mapsUrl": "https://maps.google.com/?q=31.5727686,35.1395768",
      "lat": 31.5727686,
      "lng": 35.1395768,
      "source": "osm"
    },
    {
      "id": "m432224824",
      "nom": "ديوان آل الواوي",
      "type": "Mosquée",
      "adresse": "",
      "description": "Lieu de prière (OpenStreetMap).",
      "mapsUrl": "https://maps.google.com/?q=31.5859231,35.1068134",
      "lat": 31.5859231,
      "lng": 35.1068134,
      "source": "osm"
    },
    {
      "id": "m432138148",
      "nom": "مسجد الدروة",
      "type": "Mosquée",
      "adresse": "حلحول‎",
      "description": "Lieu de prière (OpenStreetMap).",
      "mapsUrl": "https://maps.google.com/?q=31.5863012,35.1025973",
      "lat": 31.5863012,
      "lng": 35.1025973,
      "source": "osm"
    },
    {
      "id": "m432004769",
      "nom": "مسجد المصابرين",
      "type": "Mosquée",
      "adresse": "بني نعيم",
      "description": "Lieu de prière (OpenStreetMap).",
      "mapsUrl": "https://maps.google.com/?q=31.5201915,35.1616531",
      "lat": 31.5201915,
      "lng": 35.1616531,
      "source": "osm"
    },
    {
      "id": "m431890367",
      "nom": "مسجد الشهداء",
      "type": "Mosquée",
      "adresse": "بيت كاحل",
      "description": "Lieu de prière (OpenStreetMap).",
      "mapsUrl": "https://maps.google.com/?q=31.5729593,35.0551168",
      "lat": 31.5729593,
      "lng": 35.0551168,
      "source": "osm"
    },
    {
      "id": "m432090791",
      "nom": "مسجد لوط",
      "type": "Mosquée",
      "adresse": "بني نعيم",
      "description": "Lieu de prière (OpenStreetMap).",
      "mapsUrl": "https://maps.google.com/?q=31.5171455,35.165175",
      "lat": 31.5171455,
      "lng": 35.165175,
      "source": "osm"
    },
    {
      "id": "m432151040",
      "nom": "مسجد بلال بن رباح",
      "type": "Mosquée",
      "adresse": "بني نعيم",
      "description": "Lieu de prière (OpenStreetMap).",
      "mapsUrl": "https://maps.google.com/?q=31.5229864,35.1676713",
      "lat": 31.5229864,
      "lng": 35.1676713,
      "source": "osm"
    },
    {
      "id": "m6165294288",
      "nom": "مسجد مصعب بن عمري",
      "type": "Mosquée",
      "adresse": "",
      "description": "Lieu de prière (OpenStreetMap).",
      "mapsUrl": "https://maps.google.com/?q=31.5695617,35.1560695",
      "lat": 31.5695617,
      "lng": 35.1560695,
      "source": "osm"
    },
    {
      "id": "m431955609",
      "nom": "Al Rahmah Mosque",
      "type": "Mosquée",
      "adresse": "",
      "description": "Lieu de prière (OpenStreetMap).",
      "mapsUrl": "https://maps.google.com/?q=31.5773559,35.1476658",
      "lat": 31.5773559,
      "lng": 35.1476658,
      "source": "osm"
    },
    {
      "id": "m432224198",
      "nom": "مسجد أبو بكر الصديق",
      "type": "Mosquée",
      "adresse": "",
      "description": "Lieu de prière (OpenStreetMap).",
      "mapsUrl": "https://maps.google.com/?q=31.482757,35.058067",
      "lat": 31.482757,
      "lng": 35.058067,
      "source": "osm"
    },
    {
      "id": "m432192881",
      "nom": "مسجد",
      "type": "Mosquée",
      "adresse": "بني نعيم",
      "description": "Lieu de prière (OpenStreetMap).",
      "mapsUrl": "https://maps.google.com/?q=31.5168218,35.1700496",
      "lat": 31.5168218,
      "lng": 35.1700496,
      "source": "osm"
    },
    {
      "id": "m432116243",
      "nom": "مسجد الفوار الكبير",
      "type": "Mosquée",
      "adresse": "",
      "description": "Lieu de prière (OpenStreetMap).",
      "mapsUrl": "https://maps.google.com/?q=31.4801718,35.0603041",
      "lat": 31.4801718,
      "lng": 35.0603041,
      "source": "osm"
    },
    {
      "id": "m431828351",
      "nom": "Al Hadmi Mosque",
      "type": "Mosquée",
      "adresse": "",
      "description": "Lieu de prière (OpenStreetMap).",
      "mapsUrl": "https://maps.google.com/?q=31.577916,35.1500152",
      "lat": 31.577916,
      "lng": 35.1500152,
      "source": "osm"
    },
    {
      "id": "m431892180",
      "nom": "مسجد معاذ بن جبل",
      "type": "Mosquée",
      "adresse": "",
      "description": "Lieu de prière (OpenStreetMap).",
      "mapsUrl": "https://maps.google.com/?q=31.4774233,35.0655287",
      "lat": 31.4774233,
      "lng": 35.0655287,
      "source": "osm"
    },
    {
      "id": "m431785831",
      "nom": "Al Ess Mosque",
      "type": "Mosquée",
      "adresse": "",
      "description": "Lieu de prière (OpenStreetMap).",
      "mapsUrl": "https://maps.google.com/?q=31.5835206,35.1436115",
      "lat": 31.5835206,
      "lng": 35.1436115,
      "source": "osm"
    },
    {
      "id": "m431974356",
      "nom": "مسجد عمر بن الخطاب",
      "type": "Mosquée",
      "adresse": "",
      "description": "Lieu de prière (OpenStreetMap).",
      "mapsUrl": "https://maps.google.com/?q=31.4798505,35.0561502",
      "lat": 31.4798505,
      "lng": 35.0561502,
      "source": "osm"
    },
    {
      "id": "m432211914",
      "nom": "مسجد السيد قطب",
      "type": "Mosquée",
      "adresse": "",
      "description": "Lieu de prière (OpenStreetMap).",
      "mapsUrl": "https://maps.google.com/?q=31.4718446,35.1259208",
      "lat": 31.4718446,
      "lng": 35.1259208,
      "source": "osm"
    },
    {
      "id": "m432005868",
      "nom": "مسجد الهدى",
      "type": "Mosquée",
      "adresse": "",
      "description": "Lieu de prière (OpenStreetMap).",
      "mapsUrl": "https://maps.google.com/?q=31.4698541,35.0789882",
      "lat": 31.4698541,
      "lng": 35.0789882,
      "source": "osm"
    },
    {
      "id": "m431935809",
      "nom": "مسجد صلاح الدين",
      "type": "Mosquée",
      "adresse": "",
      "description": "Lieu de prière (OpenStreetMap).",
      "mapsUrl": "https://maps.google.com/?q=31.4698982,35.0773072",
      "lat": 31.4698982,
      "lng": 35.0773072,
      "source": "osm"
    },
    {
      "id": "m4115989794",
      "nom": "مسجد دورا الكبير",
      "type": "Mosquée",
      "adresse": "شارع عمر المختار, دورا",
      "description": "Lieu de prière (OpenStreetMap).",
      "mapsUrl": "https://maps.google.com/?q=31.5080737,35.0263703",
      "lat": 31.5080737,
      "lng": 35.0263703,
      "source": "osm"
    },
    {
      "id": "m431865790",
      "nom": "Hamaza Bin Abd Al Motaleb Mosque",
      "type": "Mosquée",
      "adresse": "",
      "description": "Lieu de prière (OpenStreetMap).",
      "mapsUrl": "https://maps.google.com/?q=31.5869396,35.1475342",
      "lat": 31.5869396,
      "lng": 35.1475342,
      "source": "osm"
    },
    {
      "id": "m431957616",
      "nom": "مسجد الريحية",
      "type": "Mosquée",
      "adresse": "",
      "description": "Lieu de prière (OpenStreetMap).",
      "mapsUrl": "https://maps.google.com/?q=31.4671535,35.0774027",
      "lat": 31.4671535,
      "lng": 35.0774027,
      "source": "osm"
    },
    {
      "id": "m430405914",
      "nom": "مسجد",
      "type": "Mosquée",
      "adresse": "دورا",
      "description": "Lieu de prière (OpenStreetMap).",
      "mapsUrl": "https://maps.google.com/?q=31.5026598,35.0278954",
      "lat": 31.5026598,
      "lng": 35.0278954,
      "source": "osm"
    },
    {
      "id": "m431906381",
      "nom": "مسجد زيد بن ثابت",
      "type": "Mosquée",
      "adresse": "",
      "description": "Lieu de prière (OpenStreetMap).",
      "mapsUrl": "https://maps.google.com/?q=31.4756303,35.0535856",
      "lat": 31.4756303,
      "lng": 35.0535856,
      "source": "osm"
    },
    {
      "id": "m432204283",
      "nom": "Al Montaser Belah",
      "type": "Mosquée",
      "adresse": "",
      "description": "Lieu de prière (OpenStreetMap).",
      "mapsUrl": "https://maps.google.com/?q=31.5850309,35.1533105",
      "lat": 31.5850309,
      "lng": 35.1533105,
      "source": "osm"
    },
    {
      "id": "m432109599",
      "nom": "Al Fateh Al Mubeen Mosque",
      "type": "Mosquée",
      "adresse": "",
      "description": "Lieu de prière (OpenStreetMap).",
      "mapsUrl": "https://maps.google.com/?q=31.4647627,35.1206248",
      "lat": 31.4647627,
      "lng": 35.1206248,
      "source": "osm"
    },
    {
      "id": "m5048319126",
      "nom": "مسجد المرملة",
      "type": "Mosquée",
      "adresse": "Al Marmaleh Street",
      "description": "Lieu de prière (OpenStreetMap).",
      "mapsUrl": "https://maps.google.com/?q=31.4614988,35.105761",
      "lat": 31.4614988,
      "lng": 35.105761,
      "source": "osm"
    },
    {
      "id": "m431997644",
      "nom": "Al-Sahab Mosque",
      "type": "Mosquée",
      "adresse": "",
      "description": "Lieu de prière (OpenStreetMap).",
      "mapsUrl": "https://maps.google.com/?q=31.4595567,35.1001289",
      "lat": 31.4595567,
      "lng": 35.1001289,
      "source": "osm"
    },
    {
      "id": "m1274354500",
      "nom": "Al-Sadeq Al-Ameen Mosque",
      "type": "Mosquée",
      "adresse": "",
      "description": "Lieu de prière (OpenStreetMap).",
      "mapsUrl": "https://maps.google.com/?q=31.4587885,35.1176598",
      "lat": 31.4587885,
      "lng": 35.1176598,
      "source": "osm"
    },
    {
      "id": "m432090441",
      "nom": "Alkholafa' Alrashideen Mosque",
      "type": "Mosquée",
      "adresse": "",
      "description": "Lieu de prière (OpenStreetMap).",
      "mapsUrl": "https://maps.google.com/?q=31.458524,35.1230055",
      "lat": 31.458524,
      "lng": 35.1230055,
      "source": "osm"
    },
    {
      "id": "m431932702",
      "nom": "Hamza Mosque",
      "type": "Mosquée",
      "adresse": "",
      "description": "Lieu de prière (OpenStreetMap).",
      "mapsUrl": "https://maps.google.com/?q=31.4548648,35.0887494",
      "lat": 31.4548648,
      "lng": 35.0887494,
      "source": "osm"
    },
    {
      "id": "m1274346663",
      "nom": "Amar Ben Yaser Mosque",
      "type": "Mosquée",
      "adresse": "",
      "description": "Lieu de prière (OpenStreetMap).",
      "mapsUrl": "https://maps.google.com/?q=31.4537624,35.1009613",
      "lat": 31.4537624,
      "lng": 35.1009613,
      "source": "osm"
    },
    {
      "id": "m431882815",
      "nom": "Al-Ruba'ian Mosque",
      "type": "Mosquée",
      "adresse": "",
      "description": "Lieu de prière (OpenStreetMap).",
      "mapsUrl": "https://maps.google.com/?q=31.4532084,35.1046068",
      "lat": 31.4532084,
      "lng": 35.1046068,
      "source": "osm"
    },
    {
      "id": "m432251426",
      "nom": "Al-Saliheen Mosque",
      "type": "Mosquée",
      "adresse": "",
      "description": "Lieu de prière (OpenStreetMap).",
      "mapsUrl": "https://maps.google.com/?q=31.4539271,35.1207266",
      "lat": 31.4539271,
      "lng": 35.1207266,
      "source": "osm"
    },
    {
      "id": "m431951314",
      "nom": "Al Da'wa Mosque",
      "type": "Mosquée",
      "adresse": "",
      "description": "Lieu de prière (OpenStreetMap).",
      "mapsUrl": "https://maps.google.com/?q=31.4520758,35.110175",
      "lat": 31.4520758,
      "lng": 35.110175,
      "source": "osm"
    },
    {
      "id": "m432197622",
      "nom": "Al-Rodwan Mosque",
      "type": "Mosquée",
      "adresse": "",
      "description": "Lieu de prière (OpenStreetMap).",
      "mapsUrl": "https://maps.google.com/?q=31.4514376,35.0903292",
      "lat": 31.4514376,
      "lng": 35.0903292,
      "source": "osm"
    },
    {
      "id": "m432178628",
      "nom": "مسجد علي بن أبي طالب",
      "type": "Mosquée",
      "adresse": "",
      "description": "Lieu de prière (OpenStreetMap).",
      "mapsUrl": "https://maps.google.com/?q=31.4503002,35.0949545",
      "lat": 31.4503002,
      "lng": 35.0949545,
      "source": "osm"
    },
    {
      "id": "m431819161",
      "nom": "مسجد المأمون",
      "type": "Mosquée",
      "adresse": "",
      "description": "Lieu de prière (OpenStreetMap).",
      "mapsUrl": "https://maps.google.com/?q=31.4486129,35.1050137",
      "lat": 31.4486129,
      "lng": 35.1050137,
      "source": "osm"
    },
    {
      "id": "m432256867",
      "nom": "Yatta Al-Kabeer Mosque",
      "type": "Mosquée",
      "adresse": "",
      "description": "Lieu de prière (OpenStreetMap).",
      "mapsUrl": "https://maps.google.com/?q=31.4487328,35.088539",
      "lat": 31.4487328,
      "lng": 35.088539,
      "source": "osm"
    },
    {
      "id": "m431898212",
      "nom": "مسجد الشهداء",
      "type": "Mosquée",
      "adresse": "",
      "description": "Lieu de prière (OpenStreetMap).",
      "mapsUrl": "https://maps.google.com/?q=31.4475272,35.0963296",
      "lat": 31.4475272,
      "lng": 35.0963296,
      "source": "osm"
    },
    {
      "id": "m6196026289",
      "nom": "المسجد العمري",
      "type": "Mosquée",
      "adresse": "",
      "description": "Lieu de prière (OpenStreetMap).",
      "mapsUrl": "https://maps.google.com/?q=31.4464931,35.0923364",
      "lat": 31.4464931,
      "lng": 35.0923364,
      "source": "osm"
    },
    {
      "id": "m431789918",
      "nom": "مسجد عصيرة",
      "type": "Mosquée",
      "adresse": "",
      "description": "Lieu de prière (OpenStreetMap).",
      "mapsUrl": "https://maps.google.com/?q=31.6188999,35.1112553",
      "lat": 31.6188999,
      "lng": 35.1112553,
      "source": "osm"
    },
    {
      "id": "m431899725",
      "nom": "Al-Salam Mosque",
      "type": "Mosquée",
      "adresse": "",
      "description": "Lieu de prière (OpenStreetMap).",
      "mapsUrl": "https://maps.google.com/?q=31.4457173,35.0897327",
      "lat": 31.4457173,
      "lng": 35.0897327,
      "source": "osm"
    },
    {
      "id": "m431901003",
      "nom": "Al Omari Mosque",
      "type": "Mosquée",
      "adresse": "",
      "description": "Lieu de prière (OpenStreetMap).",
      "mapsUrl": "https://maps.google.com/?q=31.5967287,35.0299615",
      "lat": 31.5967287,
      "lng": 35.0299615,
      "source": "osm"
    },
    {
      "id": "m431880783",
      "nom": "مسجد بيت أمر القديم",
      "type": "Mosquée",
      "adresse": "بيت أمر",
      "description": "Lieu de prière (OpenStreetMap).",
      "mapsUrl": "https://maps.google.com/?q=31.6205317,35.1024296",
      "lat": 31.6205317,
      "lng": 35.1024296,
      "source": "osm"
    },
    {
      "id": "m431888151",
      "nom": "مسجد جعفر بن أبي طالب",
      "type": "Mosquée",
      "adresse": "يطا",
      "description": "Lieu de prière (OpenStreetMap).",
      "mapsUrl": "https://maps.google.com/?q=31.4466273,35.0734181",
      "lat": 31.4466273,
      "lng": 35.0734181,
      "source": "osm"
    },
    {
      "id": "m432124460",
      "nom": "المسجد الكبير",
      "type": "Mosquée",
      "adresse": "",
      "description": "Lieu de prière (OpenStreetMap).",
      "mapsUrl": "https://maps.google.com/?q=31.621575,35.1022855",
      "lat": 31.621575,
      "lng": 35.1022855,
      "source": "osm"
    },
    {
      "id": "m432176016",
      "nom": "Al Shaikh Husni Al Qasmi Mosque",
      "type": "Mosquée",
      "adresse": "",
      "description": "Lieu de prière (OpenStreetMap).",
      "mapsUrl": "https://maps.google.com/?q=31.5974924,35.02829",
      "lat": 31.5974924,
      "lng": 35.02829,
      "source": "osm"
    },
    {
      "id": "m432139047",
      "nom": "Moawya Ben Yazed Mosque",
      "type": "Mosquée",
      "adresse": "",
      "description": "Lieu de prière (OpenStreetMap).",
      "mapsUrl": "https://maps.google.com/?q=31.4411941,35.1074014",
      "lat": 31.4411941,
      "lng": 35.1074014,
      "source": "osm"
    },
    {
      "id": "m4305867492",
      "nom": "مسجد الصحابة",
      "type": "Mosquée",
      "adresse": "طريق بيت أمر-كرمة, بيت عمرة",
      "description": "Lieu de prière (OpenStreetMap).",
      "mapsUrl": "https://maps.google.com/?q=31.4501493,35.0509908",
      "lat": 31.4501493,
      "lng": 35.0509908,
      "source": "osm"
    },
    {
      "id": "m5229165721",
      "nom": "مسجد المصلى الشرق",
      "type": "Mosquée",
      "adresse": "المصلى الشرقي",
      "description": "Lieu de prière (OpenStreetMap).",
      "mapsUrl": "https://maps.google.com/?q=31.439121,35.088896",
      "lat": 31.439121,
      "lng": 35.088896,
      "source": "osm"
    },
    {
      "id": "m432171782",
      "nom": "مسجد ام المؤمنيين",
      "type": "Mosquée",
      "adresse": "",
      "description": "Lieu de prière (OpenStreetMap).",
      "mapsUrl": "https://maps.google.com/?q=31.6229483,35.1341678",
      "lat": 31.6229483,
      "lng": 35.1341678,
      "source": "osm"
    },
    {
      "id": "m432188974",
      "nom": "مسجد العروب الشرقي",
      "type": "Mosquée",
      "adresse": "",
      "description": "Lieu de prière (OpenStreetMap).",
      "mapsUrl": "https://maps.google.com/?q=31.6210732,35.1422813",
      "lat": 31.6210732,
      "lng": 35.1422813,
      "source": "osm"
    },
    {
      "id": "m431851519",
      "nom": "Abd Al Ra'ouf Mosque",
      "type": "Mosquée",
      "adresse": "",
      "description": "Lieu de prière (OpenStreetMap).",
      "mapsUrl": "https://maps.google.com/?q=31.6104567,35.0336491",
      "lat": 31.6104567,
      "lng": 35.0336491,
      "source": "osm"
    },
    {
      "id": "m432141624",
      "nom": "Al Sahabeh Mosque",
      "type": "Mosquée",
      "adresse": "",
      "description": "Lieu de prière (OpenStreetMap).",
      "mapsUrl": "https://maps.google.com/?q=31.6005498,35.0192602",
      "lat": 31.6005498,
      "lng": 35.0192602,
      "source": "osm"
    },
    {
      "id": "m432177013",
      "nom": "مسجد ابن تيمية",
      "type": "Mosquée",
      "adresse": "",
      "description": "Lieu de prière (OpenStreetMap).",
      "mapsUrl": "https://maps.google.com/?q=31.6228469,35.1407389",
      "lat": 31.6228469,
      "lng": 35.1407389,
      "source": "osm"
    },
    {
      "id": "m431804521",
      "nom": "مسجد عبد الله عزام",
      "type": "Mosquée",
      "adresse": "",
      "description": "Lieu de prière (OpenStreetMap).",
      "mapsUrl": "https://maps.google.com/?q=31.6249811,35.1351576",
      "lat": 31.6249811,
      "lng": 35.1351576,
      "source": "osm"
    },
    {
      "id": "m432093841",
      "nom": "Abdo Mosque",
      "type": "Mosquée",
      "adresse": "",
      "description": "Lieu de prière (OpenStreetMap).",
      "mapsUrl": "https://maps.google.com/?q=31.466348,35.0150004",
      "lat": 31.466348,
      "lng": 35.0150004,
      "source": "osm"
    },
    {
      "id": "m432223145",
      "nom": "Mosque",
      "type": "Mosquée",
      "adresse": "",
      "description": "Lieu de prière (OpenStreetMap).",
      "mapsUrl": "https://maps.google.com/?q=31.5987749,35.0139605",
      "lat": 31.5987749,
      "lng": 35.0139605,
      "source": "osm"
    }
  ],
  "activites": [
    {
      "id": "a4877131021",
      "nom": "كاريزما للانتاج والتسويق وتنظيم الفعاليات",
      "categorie": "artwork",
      "description": "",
      "prix": "",
      "duree": "",
      "mapsUrl": "https://maps.google.com/?q=31.5318225,35.097914",
      "lat": 31.5318225,
      "lng": 35.097914,
      "source": "osm"
    },
    {
      "id": "a4509649489",
      "nom": "دوار المنارة",
      "categorie": "attraction",
      "description": "",
      "prix": "",
      "duree": "",
      "mapsUrl": "https://maps.google.com/?q=31.5296338,35.0973514",
      "lat": 31.5296338,
      "lng": 35.0973514,
      "source": "osm"
    },
    {
      "id": "a6551225086",
      "nom": "المقاطعة الخليل",
      "categorie": "castle",
      "description": "",
      "prix": "",
      "duree": "",
      "mapsUrl": "https://maps.google.com/?q=31.5373168,35.0950286",
      "lat": 31.5373168,
      "lng": 35.0950286,
      "source": "osm"
    },
    {
      "id": "a431846570",
      "nom": "Al Noor Garden",
      "categorie": "garden",
      "description": "",
      "prix": "",
      "duree": "",
      "mapsUrl": "https://maps.google.com/?q=31.5276756,35.1061534",
      "lat": 31.5276756,
      "lng": 35.1061534,
      "source": "osm"
    },
    {
      "id": "a5756473121",
      "nom": "دوار نمره",
      "categorie": "attraction",
      "description": "",
      "prix": "",
      "duree": "",
      "mapsUrl": "https://maps.google.com/?q=31.5389066,35.1042729",
      "lat": 31.5389066,
      "lng": 35.1042729,
      "source": "osm"
    },
    {
      "id": "a432199561",
      "nom": "בית הדסה",
      "categorie": "museum",
      "description": "",
      "prix": "",
      "duree": "",
      "mapsUrl": "https://maps.google.com/?q=31.5261103,35.1044882",
      "lat": 31.5261103,
      "lng": 35.1044882,
      "source": "osm"
    },
    {
      "id": "a1258388380",
      "nom": "تل الرميدة",
      "categorie": "archaeological site",
      "description": "",
      "prix": "",
      "duree": "",
      "mapsUrl": "https://maps.google.com/?q=31.5251263,35.1020631",
      "lat": 31.5251263,
      "lng": 35.1020631,
      "source": "osm"
    },
    {
      "id": "a1258388551",
      "nom": "מצפה חברון",
      "categorie": "viewpoint",
      "description": "",
      "prix": "",
      "duree": "",
      "mapsUrl": "https://maps.google.com/?q=31.5250691,35.1022205",
      "lat": 31.5250691,
      "lng": 35.1022205,
      "source": "osm"
    },
    {
      "id": "a6385586345",
      "nom": "مصنع الخزف",
      "categorie": "attraction",
      "description": "",
      "prix": "",
      "duree": "",
      "mapsUrl": "https://maps.google.com/?q=31.5268572,35.1065312",
      "lat": 31.5268572,
      "lng": 35.1065312,
      "source": "osm"
    },
    {
      "id": "a1977782809",
      "nom": "The Giant's Walls",
      "categorie": "archaeological site",
      "description": "",
      "prix": "",
      "duree": "",
      "mapsUrl": "https://maps.google.com/?q=31.5244376,35.1015078",
      "lat": 31.5244376,
      "lng": 35.1015078,
      "source": "osm"
    },
    {
      "id": "a1408929908",
      "nom": "تل الخليل",
      "categorie": "archaeological site",
      "description": "",
      "prix": "",
      "duree": "",
      "mapsUrl": "https://maps.google.com/?q=31.5243239,35.1014449",
      "lat": 31.5243239,
      "lng": 35.1014449,
      "source": "osm"
    },
    {
      "id": "a6385565557",
      "nom": "معصرة عبد النبي",
      "categorie": "archaeological site",
      "description": "",
      "prix": "",
      "duree": "",
      "mapsUrl": "https://maps.google.com/?q=31.5263333,35.1066861",
      "lat": 31.5263333,
      "lng": 35.1066861,
      "source": "osm"
    },
    {
      "id": "a4581957781",
      "nom": "גן שהם",
      "categorie": "picnic site",
      "description": "",
      "prix": "",
      "duree": "",
      "mapsUrl": "https://maps.google.com/?q=31.5252751,35.1051664",
      "lat": 31.5252751,
      "lng": 35.1051664,
      "source": "osm"
    },
    {
      "id": "a3026654829",
      "nom": "Al Shibli Shrine",
      "categorie": "archaeological site",
      "description": "",
      "prix": "",
      "duree": "",
      "mapsUrl": "https://maps.google.com/?q=31.5259455,35.106474",
      "lat": 31.5259455,
      "lng": 35.106474,
      "source": "osm"
    },
    {
      "id": "a4244175654",
      "nom": "بئر ابراهيم",
      "categorie": "attraction",
      "description": "",
      "prix": "",
      "duree": "",
      "mapsUrl": "https://maps.google.com/?q=31.5243042,35.1040426",
      "lat": 31.5243042,
      "lng": 35.1040426,
      "source": "osm"
    },
    {
      "id": "a681855938",
      "nom": "زاوية الشبلي",
      "categorie": "archaeological site",
      "description": "",
      "prix": "",
      "duree": "",
      "mapsUrl": "https://maps.google.com/?q=31.5256944,35.1068753",
      "lat": 31.5256944,
      "lng": 35.1068753,
      "source": "osm"
    },
    {
      "id": "a3026654831",
      "nom": "معصرة النتشة",
      "categorie": "archaeological site",
      "description": "",
      "prix": "",
      "duree": "",
      "mapsUrl": "https://maps.google.com/?q=31.5258037,35.1074236",
      "lat": 31.5258037,
      "lng": 35.1074236,
      "source": "osm"
    },
    {
      "id": "a6385569732",
      "nom": "حي السواكنة",
      "categorie": "archaeological site",
      "description": "",
      "prix": "",
      "duree": "",
      "mapsUrl": "https://maps.google.com/?q=31.5251169,35.1071468",
      "lat": 31.5251169,
      "lng": 35.1071468,
      "source": "osm"
    },
    {
      "id": "a6387932445",
      "nom": "مسجد القزازين الجديد",
      "categorie": "archaeological site",
      "description": "",
      "prix": "",
      "duree": "",
      "mapsUrl": "https://maps.google.com/?q=31.524731,35.106652",
      "lat": 31.524731,
      "lng": 35.106652,
      "source": "osm"
    },
    {
      "id": "a681849465",
      "nom": "مسجد القزازين",
      "categorie": "archaeological site",
      "description": "",
      "prix": "",
      "duree": "",
      "mapsUrl": "https://maps.google.com/?q=31.5244181,35.1063944",
      "lat": 31.5244181,
      "lng": 35.1063944,
      "source": "osm"
    },
    {
      "id": "a6385500882",
      "nom": "بركة القزازين",
      "categorie": "archaeological site",
      "description": "",
      "prix": "",
      "duree": "",
      "mapsUrl": "https://maps.google.com/?q=31.5243546,35.1063582",
      "lat": 31.5243546,
      "lng": 35.1063582,
      "source": "osm"
    },
    {
      "id": "a6387817704",
      "nom": "حي العقابة",
      "categorie": "archaeological site",
      "description": "",
      "prix": "",
      "duree": "",
      "mapsUrl": "https://maps.google.com/?q=31.5258955,35.1085637",
      "lat": 31.5258955,
      "lng": 35.1085637,
      "source": "osm"
    },
    {
      "id": "a6387933448",
      "nom": "سوق اللحامين",
      "categorie": "archaeological site",
      "description": "",
      "prix": "",
      "duree": "",
      "mapsUrl": "https://maps.google.com/?q=31.5245241,35.106812",
      "lat": 31.5245241,
      "lng": 35.106812,
      "source": "osm"
    },
    {
      "id": "a6387926431",
      "nom": "خان شاهين",
      "categorie": "archaeological site",
      "description": "",
      "prix": "",
      "duree": "",
      "mapsUrl": "https://maps.google.com/?q=31.5239897,35.1059172",
      "lat": 31.5239897,
      "lng": 35.1059172,
      "source": "osm"
    },
    {
      "id": "a6387930116",
      "nom": "حمام داري",
      "categorie": "archaeological site",
      "description": "",
      "prix": "",
      "duree": "",
      "mapsUrl": "https://maps.google.com/?q=31.5239261,35.1060451",
      "lat": 31.5239261,
      "lng": 35.1060451,
      "source": "osm"
    },
    {
      "id": "a6387924655",
      "nom": "معصرة القنيبي",
      "categorie": "archaeological site",
      "description": "",
      "prix": "",
      "duree": "",
      "mapsUrl": "https://maps.google.com/?q=31.5243774,35.1072487",
      "lat": 31.5243774,
      "lng": 35.1072487,
      "source": "osm"
    },
    {
      "id": "a6387921711",
      "nom": "خان الوكالة",
      "categorie": "archaeological site",
      "description": "",
      "prix": "",
      "duree": "",
      "mapsUrl": "https://maps.google.com/?q=31.5243737,35.1073188",
      "lat": 31.5243737,
      "lng": 35.1073188,
      "source": "osm"
    },
    {
      "id": "a3950305737",
      "nom": "حديقة السلام",
      "categorie": "park",
      "description": "",
      "prix": "",
      "duree": "",
      "mapsUrl": "https://maps.google.com/?q=31.531606,35.0871425",
      "lat": 31.531606,
      "lng": 35.0871425,
      "source": "osm"
    },
    {
      "id": "a3530405085",
      "nom": "Othman Bin Afan Mosque",
      "categorie": "archaeological site",
      "description": "",
      "prix": "",
      "duree": "",
      "mapsUrl": "https://maps.google.com/?q=31.5247925,35.1086636",
      "lat": 31.5247925,
      "lng": 35.1086636,
      "source": "osm"
    },
    {
      "id": "a6387802905",
      "nom": "سوق الاسكافية",
      "categorie": "archaeological site",
      "description": "",
      "prix": "",
      "duree": "",
      "mapsUrl": "https://maps.google.com/?q=31.5249149,35.1089235",
      "lat": 31.5249149,
      "lng": 35.1089235,
      "source": "osm"
    },
    {
      "id": "a6387788029",
      "nom": "قصردويك",
      "categorie": "archaeological site",
      "description": "",
      "prix": "",
      "duree": "",
      "mapsUrl": "https://maps.google.com/?q=31.5252103,35.1092724",
      "lat": 31.5252103,
      "lng": 35.1092724,
      "source": "osm"
    },
    {
      "id": "a9721626417",
      "nom": "منزل انس قفيشه",
      "categorie": "viewpoint",
      "description": "",
      "prix": "",
      "duree": "",
      "mapsUrl": "https://maps.google.com/?q=31.5218073,35.1021414",
      "lat": 31.5218073,
      "lng": 35.1021414,
      "source": "osm"
    },
    {
      "id": "a6387823654",
      "nom": "مصنع الزجاج",
      "categorie": "archaeological site",
      "description": "",
      "prix": "",
      "duree": "",
      "mapsUrl": "https://maps.google.com/?q=31.524866,35.1089381",
      "lat": 31.524866,
      "lng": 35.1089381,
      "source": "osm"
    },
    {
      "id": "a432233428",
      "nom": "The takiyya of Prophet Ibrahim",
      "categorie": "archaeological site",
      "description": "",
      "prix": "",
      "duree": "",
      "mapsUrl": "https://maps.google.com/?q=31.5249426,35.1098901",
      "lat": 31.5249426,
      "lng": 35.1098901,
      "source": "osm"
    },
    {
      "id": "a681860482",
      "nom": "تكية (شوربة ابراهيم)",
      "categorie": "attraction",
      "description": "",
      "prix": "",
      "duree": "",
      "mapsUrl": "https://maps.google.com/?q=31.5249054,35.1098668",
      "lat": 31.5249054,
      "lng": 35.1098668,
      "source": "osm"
    },
    {
      "id": "a6387917029",
      "nom": "حمام الخليل",
      "categorie": "archaeological site",
      "description": "",
      "prix": "",
      "duree": "",
      "mapsUrl": "https://maps.google.com/?q=31.5237341,35.1085648",
      "lat": 31.5237341,
      "lng": 35.1085648,
      "source": "osm"
    },
    {
      "id": "a6387892751",
      "nom": "سوق اللبن",
      "categorie": "archaeological site",
      "description": "",
      "prix": "",
      "duree": "",
      "mapsUrl": "https://maps.google.com/?q=31.5241577,35.109222",
      "lat": 31.5241577,
      "lng": 35.109222,
      "source": "osm"
    },
    {
      "id": "a6387898989",
      "nom": "سوق العطارين",
      "categorie": "archaeological site",
      "description": "",
      "prix": "",
      "duree": "",
      "mapsUrl": "https://maps.google.com/?q=31.5246076,35.1098073",
      "lat": 31.5246076,
      "lng": 35.1098073,
      "source": "osm"
    },
    {
      "id": "a6387896295",
      "nom": "حي المحتسبية",
      "categorie": "archaeological site",
      "description": "",
      "prix": "",
      "duree": "",
      "mapsUrl": "https://maps.google.com/?q=31.5243238,35.1096574",
      "lat": 31.5243238,
      "lng": 35.1096574,
      "source": "osm"
    },
    {
      "id": "a6387882870",
      "nom": "حي بني دار",
      "categorie": "archaeological site",
      "description": "",
      "prix": "",
      "duree": "",
      "mapsUrl": "https://maps.google.com/?q=31.5240268,35.1094765",
      "lat": 31.5240268,
      "lng": 35.1094765,
      "source": "osm"
    },
    {
      "id": "a593207623",
      "nom": "البلدة القديمة في الخليل",
      "categorie": "archaeological site",
      "description": "",
      "prix": "",
      "duree": "",
      "mapsUrl": "https://maps.google.com/?q=31.5237031,35.1091793",
      "lat": 31.5237031,
      "lng": 35.1091793,
      "source": "osm"
    },
    {
      "id": "a6387911296",
      "nom": "حمام البركة",
      "categorie": "attraction",
      "description": "",
      "prix": "",
      "duree": "",
      "mapsUrl": "https://maps.google.com/?q=31.5234288,35.1088285",
      "lat": 31.5234288,
      "lng": 35.1088285,
      "source": "osm"
    },
    {
      "id": "a110072247",
      "nom": "Al-Sultan Pool",
      "categorie": "archaeological site",
      "description": "",
      "prix": "",
      "duree": "",
      "mapsUrl": "https://maps.google.com/?q=31.5231085,35.1086837",
      "lat": 31.5231085,
      "lng": 35.1086837,
      "source": "osm"
    },
    {
      "id": "a1302827171",
      "nom": "מערת המכפלה",
      "categorie": "attraction",
      "description": "",
      "prix": "",
      "duree": "",
      "mapsUrl": "https://maps.google.com/?q=31.5247797,35.1107939",
      "lat": 31.5247797,
      "lng": 35.1107939,
      "source": "osm"
    },
    {
      "id": "a5756473122",
      "nom": "صالة الضيافه",
      "categorie": "attraction",
      "description": "",
      "prix": "",
      "duree": "",
      "mapsUrl": "https://maps.google.com/?q=31.5449975,35.0993552",
      "lat": 31.5449975,
      "lng": 35.0993552,
      "source": "osm"
    },
    {
      "id": "a5195370222",
      "nom": "حارة حسونة",
      "categorie": "attraction",
      "description": "",
      "prix": "",
      "duree": "",
      "mapsUrl": "https://maps.google.com/?q=31.5455878,35.0973619",
      "lat": 31.5455878,
      "lng": 35.0973619,
      "source": "osm"
    },
    {
      "id": "a5783001760",
      "nom": "دوار الشعراوي",
      "categorie": "viewpoint",
      "description": "",
      "prix": "",
      "duree": "",
      "mapsUrl": "https://maps.google.com/?q=31.5292595,35.0848025",
      "lat": 31.5292595,
      "lng": 35.0848025,
      "source": "osm"
    },
    {
      "id": "a5440861421",
      "nom": "ZARA",
      "categorie": "castle",
      "description": "",
      "prix": "",
      "duree": "",
      "mapsUrl": "https://maps.google.com/?q=31.5199987,35.1046995",
      "lat": 31.5199987,
      "lng": 35.1046995,
      "source": "osm"
    },
    {
      "id": "a4842632722",
      "nom": "ااىل",
      "categorie": "attraction",
      "description": "",
      "prix": "",
      "duree": "",
      "mapsUrl": "https://maps.google.com/?q=31.537068,35.083594",
      "lat": 31.537068,
      "lng": 35.083594,
      "source": "osm"
    },
    {
      "id": "a4103735790",
      "nom": "مفرف",
      "categorie": "attraction",
      "description": "",
      "prix": "",
      "duree": "",
      "mapsUrl": "https://maps.google.com/?q=31.5481786,35.1020806",
      "lat": 31.5481786,
      "lng": 35.1020806,
      "source": "osm"
    },
    {
      "id": "a432048048",
      "nom": "Al Zahra' Garden",
      "categorie": "garden",
      "description": "",
      "prix": "",
      "duree": "",
      "mapsUrl": "https://maps.google.com/?q=31.5196011,35.1106338",
      "lat": 31.5196011,
      "lng": 35.1106338,
      "source": "osm"
    },
    {
      "id": "a1260254267",
      "nom": "מוזיאון עתיקות ארץ יהודה",
      "categorie": "museum",
      "description": "",
      "prix": "",
      "duree": "",
      "mapsUrl": "https://maps.google.com/?q=31.5289974,35.1189061",
      "lat": 31.5289974,
      "lng": 35.1189061,
      "source": "osm"
    },
    {
      "id": "a5744437921",
      "nom": "بيت صفوان الجعبري",
      "categorie": "castle",
      "description": "",
      "prix": "",
      "duree": "",
      "mapsUrl": "https://maps.google.com/?q=31.5483997,35.1080164",
      "lat": 31.5483997,
      "lng": 35.1080164,
      "source": "osm"
    },
    {
      "id": "a8530285614",
      "nom": "Khirbet en-Nasara",
      "categorie": "ruins",
      "description": "",
      "prix": "",
      "duree": "",
      "mapsUrl": "https://maps.google.com/?q=31.5493557,35.0935923",
      "lat": 31.5493557,
      "lng": 35.0935923,
      "source": "osm"
    },
    {
      "id": "a4886524521",
      "nom": "قلعة زلوم",
      "categorie": "castle",
      "description": "",
      "prix": "",
      "duree": "",
      "mapsUrl": "https://maps.google.com/?q=31.549204,35.1075781",
      "lat": 31.549204,
      "lng": 35.1075781,
      "source": "osm"
    },
    {
      "id": "a5693095221",
      "nom": "ورشة عزام صلاح للحداده",
      "categorie": "artwork",
      "description": "",
      "prix": "",
      "duree": "",
      "mapsUrl": "https://maps.google.com/?q=31.5497073,35.1067015",
      "lat": 31.5497073,
      "lng": 35.1067015,
      "source": "osm"
    },
    {
      "id": "a5252624222",
      "nom": "عمارة سنقرط",
      "categorie": "attraction",
      "description": "",
      "prix": "",
      "duree": "",
      "mapsUrl": "https://maps.google.com/?q=31.5488677,35.1096154",
      "lat": 31.5488677,
      "lng": 35.1096154,
      "source": "osm"
    },
    {
      "id": "a5973773089",
      "nom": "مسجد المنشر",
      "categorie": "attraction",
      "description": "",
      "prix": "",
      "duree": "",
      "mapsUrl": "https://maps.google.com/?q=31.5241788,35.0806268",
      "lat": 31.5241788,
      "lng": 35.0806268,
      "source": "osm"
    },
    {
      "id": "a6123480385",
      "nom": "أميرة روفان",
      "categorie": "castle",
      "description": "",
      "prix": "",
      "duree": "",
      "mapsUrl": "https://maps.google.com/?q=31.5482463,35.0877491",
      "lat": 31.5482463,
      "lng": 35.0877491,
      "source": "osm"
    },
    {
      "id": "a432229188",
      "nom": "Tamimi Ceramic",
      "categorie": "artwork",
      "description": "",
      "prix": "",
      "duree": "",
      "mapsUrl": "https://maps.google.com/?q=31.5514491,35.0977992",
      "lat": 31.5514491,
      "lng": 35.0977992,
      "source": "osm"
    },
    {
      "id": "a4228606392",
      "nom": "مفرق العاروض",
      "categorie": "artwork",
      "description": "",
      "prix": "",
      "duree": "",
      "mapsUrl": "https://maps.google.com/?q=31.5469034,35.1160795",
      "lat": 31.5469034,
      "lng": 35.1160795,
      "source": "osm"
    },
    {
      "id": "a6631405985",
      "nom": "مسجد أهل الخير",
      "categorie": "museum",
      "description": "",
      "prix": "",
      "duree": "",
      "mapsUrl": "https://maps.google.com/?q=31.5506707,35.0848379",
      "lat": 31.5506707,
      "lng": 35.0848379,
      "source": "osm"
    },
    {
      "id": "a5783276754",
      "nom": "فن النقش",
      "categorie": "artwork",
      "description": "",
      "prix": "",
      "duree": "",
      "mapsUrl": "https://maps.google.com/?q=31.5516314,35.1132571",
      "lat": 31.5516314,
      "lng": 35.1132571,
      "source": "osm"
    },
    {
      "id": "a5495355023",
      "nom": "ديوان ال الشريف ابناء بركات",
      "categorie": "attraction",
      "description": "",
      "prix": "",
      "duree": "",
      "mapsUrl": "https://maps.google.com/?q=31.5549894,35.1013146",
      "lat": 31.5549894,
      "lng": 35.1013146,
      "source": "osm"
    },
    {
      "id": "a5403462123",
      "nom": "مخزن بوظة شتراوس",
      "categorie": "artwork",
      "description": "",
      "prix": "",
      "duree": "",
      "mapsUrl": "https://maps.google.com/?q=31.5302597,35.0732862",
      "lat": 31.5302597,
      "lng": 35.0732862,
      "source": "osm"
    },
    {
      "id": "a5495353721",
      "nom": "شركة الشريف للتجارة والاستثمار",
      "categorie": "attraction",
      "description": "",
      "prix": "",
      "duree": "",
      "mapsUrl": "https://maps.google.com/?q=31.5553581,35.1008364",
      "lat": 31.5553581,
      "lng": 35.1008364,
      "source": "osm"
    },
    {
      "id": "a4849284522",
      "nom": "Alonei mambre",
      "categorie": "attraction",
      "description": "",
      "prix": "",
      "duree": "",
      "mapsUrl": "https://maps.google.com/?q=31.5541139,35.1117511",
      "lat": 31.5541139,
      "lng": 35.1117511,
      "source": "osm"
    },
    {
      "id": "a8707104517",
      "nom": "مخرطة دنديس",
      "categorie": "artwork",
      "description": "",
      "prix": "",
      "duree": "",
      "mapsUrl": "https://maps.google.com/?q=31.5232621,35.0730663",
      "lat": 31.5232621,
      "lng": 35.0730663,
      "source": "osm"
    },
    {
      "id": "a5529109623",
      "nom": "موقع حرم الرامة الأثري",
      "categorie": "viewpoint",
      "description": "",
      "prix": "",
      "duree": "",
      "mapsUrl": "https://maps.google.com/?q=31.5569543,35.1047647",
      "lat": 31.5569543,
      "lng": 35.1047647,
      "source": "osm"
    },
    {
      "id": "a6041985487",
      "nom": "صالة روجينا",
      "categorie": "monument",
      "description": "",
      "prix": "",
      "duree": "",
      "mapsUrl": "https://maps.google.com/?q=31.5076405,35.0887402",
      "lat": 31.5076405,
      "lng": 35.0887402,
      "source": "osm"
    },
    {
      "id": "a9162480017",
      "nom": "מצפה רוח אחרת",
      "categorie": "viewpoint",
      "description": "",
      "prix": "",
      "duree": "",
      "mapsUrl": "https://maps.google.com/?q=31.5233956,35.1294073",
      "lat": 31.5233956,
      "lng": 35.1294073,
      "source": "osm"
    },
    {
      "id": "a5217409023",
      "nom": "دنديس للاثاث المعدني",
      "categorie": "attraction",
      "description": "",
      "prix": "",
      "duree": "",
      "mapsUrl": "https://maps.google.com/?q=31.5271419,35.0660804",
      "lat": 31.5271419,
      "lng": 35.0660804,
      "source": "osm"
    },
    {
      "id": "a10992562605",
      "nom": "دورا الناجي",
      "categorie": "attraction",
      "description": "",
      "prix": "",
      "duree": "",
      "mapsUrl": "https://maps.google.com/?q=31.507348,35.0785555",
      "lat": 31.507348,
      "lng": 35.0785555,
      "source": "osm"
    },
    {
      "id": "a6229349885",
      "nom": "مصنع صلاح",
      "categorie": "artwork",
      "description": "",
      "prix": "",
      "duree": "",
      "mapsUrl": "https://maps.google.com/?q=31.5677144,35.1081692",
      "lat": 31.5677144,
      "lng": 35.1081692,
      "source": "osm"
    },
    {
      "id": "a5664345022",
      "nom": "مشغل فرندز للطباعة والارمات",
      "categorie": "artwork",
      "description": "",
      "prix": "",
      "duree": "",
      "mapsUrl": "https://maps.google.com/?q=31.5701422,35.0993079",
      "lat": 31.5701422,
      "lng": 35.0993079,
      "source": "osm"
    },
    {
      "id": "a8541889160",
      "nom": "Khirbet el Udeise",
      "categorie": "archaeological site",
      "description": "",
      "prix": "",
      "duree": "",
      "mapsUrl": "https://maps.google.com/?q=31.5502035,35.1389763",
      "lat": 31.5502035,
      "lng": 35.1389763,
      "source": "osm"
    },
    {
      "id": "a3949016208",
      "nom": "منتزه لوزا Loza Park",
      "categorie": "park",
      "description": "",
      "prix": "",
      "duree": "",
      "mapsUrl": "https://maps.google.com/?q=31.5251384,35.050259",
      "lat": 31.5251384,
      "lng": 35.050259,
      "source": "osm"
    },
    {
      "id": "a432132050",
      "nom": "ميدان الشهداء (الجرن)",
      "categorie": "monument",
      "description": "",
      "prix": "",
      "duree": "",
      "mapsUrl": "https://maps.google.com/?q=31.5383304,35.0485201",
      "lat": 31.5383304,
      "lng": 35.0485201,
      "source": "osm"
    },
    {
      "id": "a432139378",
      "nom": "Tyba",
      "categorie": "picnic site",
      "description": "",
      "prix": "",
      "duree": "",
      "mapsUrl": "https://maps.google.com/?q=31.5241499,35.0486614",
      "lat": 31.5241499,
      "lng": 35.0486614,
      "source": "osm"
    },
    {
      "id": "a4273044391",
      "nom": "Halhoul center",
      "categorie": "attraction",
      "description": "",
      "prix": "",
      "duree": "",
      "mapsUrl": "https://maps.google.com/?q=31.579181,35.098981",
      "lat": 31.579181,
      "lng": 35.098981,
      "source": "osm"
    },
    {
      "id": "a9600875117",
      "nom": "מצפה דרך האבות",
      "categorie": "viewpoint",
      "description": "",
      "prix": "",
      "duree": "",
      "mapsUrl": "https://maps.google.com/?q=31.4912361,35.0738472",
      "lat": 31.4912361,
      "lng": 35.0738472,
      "source": "osm"
    },
    {
      "id": "a9162477264",
      "nom": "מצפה פני המזרח",
      "categorie": "picnic site",
      "description": "",
      "prix": "",
      "duree": "",
      "mapsUrl": "https://maps.google.com/?q=31.4847694,35.0836167",
      "lat": 31.4847694,
      "lng": 35.0836167,
      "source": "osm"
    },
    {
      "id": "a8541849569",
      "nom": "Khirbet Ras at-Tawil",
      "categorie": "archaeological site",
      "description": "",
      "prix": "",
      "duree": "",
      "mapsUrl": "https://maps.google.com/?q=31.5670995,35.1425471",
      "lat": 31.5670995,
      "lng": 35.1425471,
      "source": "osm"
    },
    {
      "id": "a8757857817",
      "nom": "מצפור יוסי",
      "categorie": "viewpoint",
      "description": "",
      "prix": "",
      "duree": "",
      "mapsUrl": "https://maps.google.com/?q=31.4859218,35.0741936",
      "lat": 31.4859218,
      "lng": 35.0741936,
      "source": "osm"
    },
    {
      "id": "a4119732395",
      "nom": "إبراهيم",
      "categorie": "viewpoint",
      "description": "",
      "prix": "",
      "duree": "",
      "mapsUrl": "https://maps.google.com/?q=31.507806,35.0466583",
      "lat": 31.507806,
      "lng": 35.0466583,
      "source": "osm"
    },
    {
      "id": "a431855220",
      "nom": "Halhole park",
      "categorie": "picnic site",
      "description": "",
      "prix": "",
      "duree": "",
      "mapsUrl": "https://maps.google.com/?q=31.587148,35.0873867",
      "lat": 31.587148,
      "lng": 35.0873867,
      "source": "osm"
    },
    {
      "id": "a6548317687",
      "nom": "مسجد الصحابه",
      "categorie": "museum",
      "description": "",
      "prix": "",
      "duree": "",
      "mapsUrl": "https://maps.google.com/?q=31.5125107,35.1613738",
      "lat": 31.5125107,
      "lng": 35.1613738,
      "source": "osm"
    },
    {
      "id": "a8539472601",
      "nom": "Khirbet Tubeiqa",
      "categorie": "ruins",
      "description": "",
      "prix": "",
      "duree": "",
      "mapsUrl": "https://maps.google.com/?q=31.5893937,35.0941479",
      "lat": 31.5893937,
      "lng": 35.0941479,
      "source": "osm"
    },
    {
      "id": "a13411414018",
      "nom": "מצפה חלחול",
      "categorie": "viewpoint",
      "description": "",
      "prix": "",
      "duree": "",
      "mapsUrl": "https://maps.google.com/?q=31.5890947,35.11992",
      "lat": 31.5890947,
      "lng": 35.11992,
      "source": "osm"
    },
    {
      "id": "a2942448886",
      "nom": "נבי יקין",
      "categorie": "ruins",
      "description": "",
      "prix": "",
      "duree": "",
      "mapsUrl": "https://maps.google.com/?q=31.4987186,35.1580016",
      "lat": 31.4987186,
      "lng": 35.1580016,
      "source": "osm"
    },
    {
      "id": "a432083008",
      "nom": "مسبح ومنتزه الكرمل",
      "categorie": "theme park",
      "description": "",
      "prix": "",
      "duree": "",
      "mapsUrl": "https://maps.google.com/?q=31.5780279,35.0466074",
      "lat": 31.5780279,
      "lng": 35.0466074,
      "source": "osm"
    },
    {
      "id": "a8735815517",
      "nom": "תל זיף",
      "categorie": "archaeological site",
      "description": "",
      "prix": "",
      "duree": "",
      "mapsUrl": "https://maps.google.com/?q=31.475188,35.134391",
      "lat": 31.475188,
      "lng": 35.134391,
      "source": "osm"
    },
    {
      "id": "a8735805117",
      "nom": "בונקר ירדני",
      "categorie": "ruins",
      "description": "",
      "prix": "",
      "duree": "",
      "mapsUrl": "https://maps.google.com/?q=31.475011,35.134575",
      "lat": 31.475011,
      "lng": 35.134575,
      "source": "osm"
    },
    {
      "id": "a13098754901",
      "nom": "מצפה סלמן",
      "categorie": "viewpoint",
      "description": "",
      "prix": "",
      "duree": "",
      "mapsUrl": "https://maps.google.com/?q=31.5587722,35.0299444",
      "lat": 31.5587722,
      "lng": 35.0299444,
      "source": "osm"
    },
    {
      "id": "a11964899969",
      "nom": "מצפה עמיחי",
      "categorie": "viewpoint",
      "description": "",
      "prix": "",
      "duree": "",
      "mapsUrl": "https://maps.google.com/?q=31.4948917,35.1626194",
      "lat": 31.4948917,
      "lng": 35.1626194,
      "source": "osm"
    },
    {
      "id": "a7227436585",
      "nom": "الجنوب الفنية",
      "categorie": "castle",
      "description": "",
      "prix": "",
      "duree": "",
      "mapsUrl": "https://maps.google.com/?q=31.5050547,35.0300637",
      "lat": 31.5050547,
      "lng": 35.0300637,
      "source": "osm"
    },
    {
      "id": "a1283214301",
      "nom": "פארק הגתות",
      "categorie": "picnic site",
      "description": "",
      "prix": "",
      "duree": "",
      "mapsUrl": "https://maps.google.com/?q=31.5650336,35.032479",
      "lat": 31.5650336,
      "lng": 35.032479,
      "source": "osm"
    },
    {
      "id": "a11905523470",
      "nom": "מצפה יער אל קוף",
      "categorie": "viewpoint",
      "description": "",
      "prix": "",
      "duree": "",
      "mapsUrl": "https://maps.google.com/?q=31.5652835,35.0325969",
      "lat": 31.5652835,
      "lng": 35.0325969,
      "source": "osm"
    },
    {
      "id": "a8497683421",
      "nom": "محلات طه لمواد الناء",
      "categorie": "castle",
      "description": "",
      "prix": "",
      "duree": "",
      "mapsUrl": "https://maps.google.com/?q=31.5903521,35.1372615",
      "lat": 31.5903521,
      "lng": 35.1372615,
      "source": "osm"
    },