{
 "nom": "Houston",
 "pays": "États-Unis",
 "slug": "houston",
 "image": "https://images.unsplash.com/photo-1530089711124-9ca31fb9e863?w=1400&q=85",
 "image_hero": "https://images.unsplash.com/photo-1530089711124-9ca31fb9e863?w=1400&q=85",
 "description": "Houston, métropole spatiale du Texas, abrite une vaste communauté musulmane et plus de 90 mosquées. Cuisine halal du monde entier, NASA et diversité dans la ville la plus multiculturelle des USA.",
 "descriptionLongue": "Quatrième ville des États-Unis et l'une des plus diverses du pays, Houston accueille une importante communauté musulmane d'origine sud-asiatique, arabe et africaine, servie par des dizaines de mosquées et une offre halal pléthorique. Le quartier de Hillcroft (Mahatma Gandhi District) regorge de restaurants pakistanais et indiens. Entre le Space Center de la NASA, les musées et une scène culinaire mondiale, Houston est une étape texane majeure.",
 "halalScore": 7.8,
 "score_halal": 3.9,
 "mosquees": 90,
 "population": "2,3 millions",
 "langue": "Anglais",
 "monnaie": "Dollar US (USD)",
 "fuseau": "UTC-6",
 "meilleureEpoque": "Mars-Mai, Oct-Nov",
 "prixMoyenNuit": "140€",
 "continent": "Amérique du Nord",
 "codeISO": "US",
 "pays_slug": "etats-unis",
 "region": "Texas",
 "meta_title": "Voyage Halal à Houston — Guide Complet 2026",
 "meta_description": "Restaurants halal signalés, mosquées et guide pratique pour Houston — Halal Trust Score 7.8/10.",
 "metaDescription": "Restaurants halal signalés, mosquées et guide pratique pour Houston — Halal Trust Score 7.8/10.",
 "coordonnees": {
  "lat": 29.7604,
  "lng": -95.3698
 },
 "image_alt": "Vue de Houston, États-Unis",
 "statistiques": {
  "mosquees": 8,
  "restaurants_halal": 17,
  "habitants_musulmans_pct": 8,
  "hotels": 84
 },
 "infos_pratiques": {
  "langue": "Anglais",
  "monnaie": "Dollar US (USD)",
  "meilleure_periode": "Mars-Mai, Oct-Nov",
  "appel_priere": "5 fois par jour",
  "nourriture_halal": "Largement disponible",
  "alcool": "Disponible",
  "securite": "Précautions habituelles"
 },
 "infoPratique": {
  "visa": "ESTA obligatoire pour les Français",
  "vaccins": "Aucun obligatoire",
  "transport": "Voiture indispensable, METRORail, VTC",
  "priseElectrique": "Type A/B — 120V",
  "decalageHoraire": "-7h par rapport à Paris"
 },
 "restaurants": [
  {
   "nom": "Abu Omar Halal",
   "lat": 29.7600821,
   "lng": -95.3622068,
   "type": "greek",
   "halalConfidence": "high",
   "mapsUrl": "https://maps.google.com/?q=29.7600821,-95.3622068",
   "source": "osm"
  },
  {
   "nom": "Abdallah's Lebaese Cafe",
   "lat": 29.7742711,
   "lng": -95.3879101,
   "type": "lebanese",
   "halalConfidence": "likely",
   "mapsUrl": "https://maps.google.com/?q=29.7742711,-95.3879101",
   "source": "osm"
  },
  {
   "nom": "The Monk's Kitchen",
   "lat": 29.771621,
   "lng": -95.3967694,
   "type": "chinese, indian",
   "halalConfidence": "likely",
   "mapsUrl": "https://maps.google.com/?q=29.771621,-95.3967694",
   "source": "osm"
  },
  {
   "nom": "Mary'z",
   "lat": 29.7707276,
   "lng": -95.4064408,
   "type": "mediterranean, lebanese",
   "halalConfidence": "likely",
   "mapsUrl": "https://maps.google.com/?q=29.7707276,-95.4064408",
   "source": "osm"
  },
  {
   "nom": "Miri's Kitchen Persian",
   "lat": 29.7609974,
   "lng": -95.4202809,
   "type": "persian",
   "halalConfidence": "likely",
   "mapsUrl": "https://maps.google.com/?q=29.7609974,-95.4202809",
   "source": "osm"
  },
  {
   "nom": "Pondicheri",
   "lat": 29.7415173,
   "lng": -95.4194861,
   "type": "indian",
   "halalConfidence": "likely",
   "mapsUrl": "https://maps.google.com/?q=29.7415173,-95.4194861",
   "source": "osm"
  },
  {
   "nom": "Shawarma Stop",
   "lat": 29.7142353,
   "lng": -95.3814921,
   "type": "arab",
   "halalConfidence": "likely",
   "mapsUrl": "https://maps.google.com/?q=29.7142353,-95.3814921",
   "source": "osm"
  },
  {
   "nom": "Moody Towers Dining Commons",
   "lat": 29.7175235,
   "lng": -95.3423427,
   "type": "pizza, italian, burger, regional, chinese, sandwich, mexican, indian, chicken, american, seafood",
   "halalConfidence": "likely",
   "mapsUrl": "https://maps.google.com/?q=29.7175235,-95.3423427",
   "source": "osm"
  },
  {
   "nom": "Zoa Moroccan Kitchen",
   "lat": 29.7337487,
   "lng": -95.4266476,
   "type": "moroccan",
   "halalConfidence": "likely",
   "mapsUrl": "https://maps.google.com/?q=29.7337487,-95.4266476",
   "source": "osm"
  },
  {
   "nom": "The Halal Guys",
   "lat": 29.7098205,
   "lng": -95.4019776,
   "type": "chicken, falafel, gyros",
   "halalConfidence": "high",
   "mapsUrl": "https://maps.google.com/?q=29.7098205,-95.4019776",
   "source": "osm"
  },
  {
   "nom": "Shiva Indian Restaurant",
   "lat": 29.7265671,
   "lng": -95.4282694,
   "type": "indian",
   "halalConfidence": "likely",
   "mapsUrl": "https://maps.google.com/?q=29.7265671,-95.4282694",
   "source": "osm"
  },
  {
   "nom": "Marcos Spice",
   "lat": 29.8040443,
   "lng": -95.422895,
   "type": "indian, mexican",
   "halalConfidence": "high",
   "mapsUrl": "https://maps.google.com/?q=29.8040443,-95.422895",
   "source": "osm"
  },
  {
   "nom": "Gyro King",
   "lat": 29.6981148,
   "lng": -95.3876292,
   "type": "kebab",
   "halalConfidence": "likely",
   "mapsUrl": "https://maps.google.com/?q=29.6981148,-95.3876292",
   "source": "osm"
  },
  {
   "nom": "Abu Omar",
   "lat": 29.6916027,
   "lng": -95.3900074,
   "type": "arab, kebab",
   "halalConfidence": "likely",
   "mapsUrl": "https://maps.google.com/?q=29.6916027,-95.3900074",
   "source": "osm"
  },
  {
   "nom": "Gyro Hut",
   "lat": 29.8137425,
   "lng": -95.4291273,
   "type": "Restaurant",
   "halalConfidence": "high",
   "mapsUrl": "https://maps.google.com/?q=29.8137425,-95.4291273",
   "source": "osm"
  },
  {
   "nom": "Govinda's Vegetarian Cuisine",
   "lat": 29.8178628,
   "lng": -95.4239037,
   "type": "indian",
   "halalConfidence": "likely",
   "mapsUrl": "https://maps.google.com/?q=29.8178628,-95.4239037",
   "source": "osm"
  },
  {
   "nom": "Narin's Bombay Brasserie",
   "lat": 29.7357431,
   "lng": -95.4582462,
   "type": "indian",
   "halalConfidence": "likely",
   "mapsUrl": "https://maps.google.com/?q=29.7357431,-95.4582462",
   "source": "osm"
  }
 ],
 "hotels": [
  {
   "nom": "C. Baldwin, Curio Collection by Hilton",
   "categorie": "Hôtel",
   "priceRange": "€€",
   "mapsUrl": "https://maps.google.com/?q=29.7580226,-95.3714322",
   "lat": 29.7580226,
   "lng": -95.3714322,
   "halalFriendly": false,
   "bookingUrl": "https://www.hilton.com/en/hotels/houcuqq-c-baldwin/",
   "source": "osm"
  },
  {
   "nom": "Hyatt Regency Houston",
   "categorie": "Hôtel",
   "priceRange": "€€",
   "mapsUrl": "https://maps.google.com/?q=29.7569247,-95.369307",
   "lat": 29.7569247,
   "lng": -95.369307,
   "halalFriendly": false,
   "bookingUrl": "https://www.hyatt.com/hyatt-regency/en-us/hourh-hyatt-regency-houston",
   "source": "osm"
  },
  {
   "nom": "The Lancaster Hotel",
   "categorie": "Hôtel",
   "priceRange": "€€",
   "mapsUrl": "https://maps.google.com/?q=29.7615575,-95.3647874",
   "lat": 29.7615575,
   "lng": -95.3647874,
   "halalFriendly": false,
   "bookingUrl": "https://maps.google.com/?q=29.7615575,-95.3647874",
   "source": "osm"
  },
  {
   "nom": "JW Marriott Houston Downtown",
   "categorie": "Hôtel",
   "priceRange": "€€",
   "mapsUrl": "https://maps.google.com/?q=29.7584168,-95.3641371",
   "lat": 29.7584168,
   "lng": -95.3641371,
   "halalFriendly": false,
   "bookingUrl": "https://maps.google.com/?q=29.7584168,-95.3641371",
   "source": "osm"
  },
  {
   "nom": "SpringHill Suites Houston Downtown/Convention Center",
   "categorie": "Hôtel",
   "priceRange": "€€",
   "mapsUrl": "https://maps.google.com/?q=29.7556922,-95.3669706",
   "lat": 29.7556922,
   "lng": -95.3669706,
   "halalFriendly": false,
   "bookingUrl": "https://www.marriott.com/houzd",
   "source": "osm"
  },
  {
   "nom": "Residence Inn Houston Downtown/Convention Center",
   "categorie": "Hôtel",
   "priceRange": "€€",
   "mapsUrl": "https://maps.google.com/?q=29.7555625,-95.3666344",
   "lat": 29.7555625,
   "lng": -95.3666344,
   "halalFriendly": false,
   "bookingUrl": "https://www.marriott.com/hourd",
   "source": "osm"
  },
  {
   "nom": "Courtyard Houston Downtown/Convention Center",
   "categorie": "Hôtel",
   "priceRange": "€€",
   "mapsUrl": "https://maps.google.com/?q=29.7554327,-95.3668959",
   "lat": 29.7554327,
   "lng": -95.3668959,
   "halalFriendly": false,
   "bookingUrl": "https://www.marriott.com/houdt",
   "source": "osm"
  },
  {
   "nom": "AC Hotel by Marriott Houston Downtown",
   "categorie": "Hôtel",
   "priceRange": "€€",
   "mapsUrl": "https://maps.google.com/?q=29.758454,-95.36332",
   "lat": 29.758454,
   "lng": -95.36332,
   "halalFriendly": false,
   "bookingUrl": "https://maps.google.com/?q=29.758454,-95.36332",
   "source": "osm"
  },
  {
   "nom": "Aloft Houston Downtown",
   "categorie": "Hôtel",
   "priceRange": "€€",
   "mapsUrl": "https://maps.google.com/?q=29.7575113,-95.3635668",
   "lat": 29.7575113,
   "lng": -95.3635668,
   "halalFriendly": false,
   "bookingUrl": "http://www.alofthoustondowntown.com",
   "source": "osm"
  },
  {
   "nom": "Club Quarters Hotel, Houston, Downtown",
   "categorie": "Hôtel",
   "priceRange": "€€",
   "mapsUrl": "https://maps.google.com/?q=29.7583799,-95.3627852",
   "lat": 29.7583799,
   "lng": -95.3627852,
   "halalFriendly": false,
   "bookingUrl": "https://maps.google.com/?q=29.7583799,-95.3627852",
   "source": "osm"
  },
  {
   "nom": "Moxy Houston Downtown",
   "categorie": "Hôtel",
   "priceRange": "€€",
   "mapsUrl": "https://maps.google.com/?q=29.7611344,-95.361804",
   "lat": 29.7611344,
   "lng": -95.361804,
   "halalFriendly": false,
   "bookingUrl": "https://www.marriott.com/en-us/hotels/houox-moxy-houston-downtown/overview/",
   "source": "osm"
  },
  {
   "nom": "Le Meridien Houston Downtown",
   "categorie": "Hôtel",
   "priceRange": "€€",
   "mapsUrl": "https://maps.google.com/?q=29.7569229,-95.3626518",
   "lat": 29.7569229,
   "lng": -95.3626518,
   "halalFriendly": false,
   "bookingUrl": "https://maps.google.com/?q=29.7569229,-95.3626518",
   "source": "osm"
  },
  {
   "nom": "Magnolia Hotel Houston, a Tribute Portfolio Hotel",
   "categorie": "Hôtel",
   "priceRange": "€€",
   "mapsUrl": "https://maps.google.com/?q=29.7590628,-95.3616162",
   "lat": 29.7590628,
   "lng": -95.3616162,
   "halalFriendly": false,
   "bookingUrl": "https://maps.google.com/?q=29.7590628,-95.3616162",
   "source": "osm"
  },
  {
   "nom": "Best Western Plus Downtown Inn & Suites",
   "categorie": "Hôtel",
   "priceRange": "€€",
   "mapsUrl": "https://maps.google.com/?q=29.757428,-95.3773934",
   "lat": 29.757428,
   "lng": -95.3773934,
   "halalFriendly": false,
   "bookingUrl": "https://www.bestwestern.com/en_US/book/houston/hotel-rooms/best-western-plus-downtown-inn-suites/propertyCode.44498.html",
   "source": "osm"
  },
  {
   "nom": "The Whitehall",
   "categorie": "Hôtel",
   "priceRange": "€€",
   "mapsUrl": "https://maps.google.com/?q=29.7537082,-95.3732266",
   "lat": 29.7537082,
   "lng": -95.3732266,
   "halalFriendly": false,
   "bookingUrl": "https://www.thewhitehallhouston.com/",
   "source": "osm"
  },
  {
   "nom": "Hyatt Place Houston / Downtown",
   "categorie": "Hôtel",
   "priceRange": "€€",
   "mapsUrl": "https://maps.google.com/?q=29.758879,-95.3613812",
   "lat": 29.758879,
   "lng": -95.3613812,
   "halalFriendly": false,
   "bookingUrl": "https://www.hyatt.com/en-us/hotel/texas/hyatt-place-houston-downtown/iahzh",
   "source": "osm"
  },
  {
   "nom": "Hotel ICON",
   "categorie": "Hôtel",
   "priceRange": "€€",
   "mapsUrl": "https://maps.google.com/?q=29.7625725,-95.3608993",
   "lat": 29.7625725,
   "lng": -95.3608993,
   "halalFriendly": false,
   "bookingUrl": "https://www.hotelicon.com/",
   "source": "osm"
  },
  {
   "nom": "Sam Houston Hotel",
   "categorie": "Hôtel",
   "priceRange": "€€",
   "mapsUrl": "https://maps.google.com/?q=29.7600458,-95.3602724",
   "lat": 29.7600458,
   "lng": -95.3602724,
   "halalFriendly": false,
   "bookingUrl": "https://maps.google.com/?q=29.7600458,-95.3602724",
   "source": "osm"
  },
  {
   "nom": "Holiday Inn Houston Downtown",
   "categorie": "Hôtel",
   "priceRange": "€€",
   "mapsUrl": "https://maps.google.com/?q=29.7520686,-95.3692252",
   "lat": 29.7520686,
   "lng": -95.3692252,
   "halalFriendly": false,
   "bookingUrl": "https://maps.google.com/?q=29.7520686,-95.3692252",
   "source": "osm"
  },
  {
   "nom": "Four Seasons Hotel Houston",
   "categorie": "Hôtel",
   "priceRange": "€€",
   "mapsUrl": "https://maps.google.com/?q=29.7540024,-95.3628352",
   "lat": 29.7540024,
   "lng": -95.3628352,
   "halalFriendly": false,
   "bookingUrl": "https://www.fourseasons.com/houston/",
   "source": "osm"
  },
  {
   "nom": "Cambria Hotel Houston Downtown Convention Center",
   "categorie": "Hôtel",
   "priceRange": "€€",
   "mapsUrl": "https://maps.google.com/?q=29.7577509,-95.3595499",
   "lat": 29.7577509,
   "lng": -95.3595499,
   "halalFriendly": false,
   "bookingUrl": "https://cambriahoustondowntown.com",
   "source": "osm"
  },
  {
   "nom": "Athens Hotel Suites",
   "categorie": "Hôtel",
   "priceRange": "€€",
   "mapsUrl": "https://maps.google.com/?q=29.7520701,-95.3646241",
   "lat": 29.7520701,
   "lng": -95.3646241,
   "halalFriendly": false,
   "bookingUrl": "https://maps.google.com/?q=29.7520701,-95.3646241",
   "source": "osm"
  },
  {
   "nom": "Embassy Suites by Hilton Houston Downtown",
   "categorie": "Hôtel",
   "priceRange": "€€",
   "mapsUrl": "https://maps.google.com/?q=29.7530035,-95.3613273",
   "lat": 29.7530035,
   "lng": -95.3613273,
   "halalFriendly": false,
   "bookingUrl": "https://embassysuites3.hilton.com/en/hotels/texas/embassy-suites-houston-downtown-HOUDNES/index.html",
   "source": "osm"
  },
  {
   "nom": "Hampton Inn",
   "categorie": "Hôtel",
   "priceRange": "€€",
   "mapsUrl": "https://maps.google.com/?q=29.7558649,-95.358557",
   "lat": 29.7558649,
   "lng": -95.358557,
   "halalFriendly": false,
   "bookingUrl": "https://www.hilton.com/en/hotels/houdwhx-hampton-houston-downtown/",
   "source": "osm"
  },
  {
   "nom": "The Westin Houston Downtown",
   "categorie": "Hôtel",
   "priceRange": "€€",
   "mapsUrl": "https://maps.google.com/?q=29.7567284,-95.3578623",
   "lat": 29.7567284,
   "lng": -95.3578623,
   "halalFriendly": false,
   "bookingUrl": "https://www.starwoodhotels.com/westin/property/overview/index.html?propertyID=3799",
   "source": "osm"
  },
  {
   "nom": "Hilton Americas-Houston",
   "categorie": "Hôtel",
   "priceRange": "€€",
   "mapsUrl": "https://maps.google.com/?q=29.751531,-95.3606424",
   "lat": 29.751531,
   "lng": -95.3606424,
   "halalFriendly": false,
   "bookingUrl": "https://www3.hilton.com/en/hotels/texas/hilton-americas-houston-HOUCVHH/index.html",
   "source": "osm"
  },
  {
   "nom": "Marriott Marquis Houston",
   "categorie": "Hôtel",
   "priceRange": "€€",
   "mapsUrl": "https://maps.google.com/?q=29.7544548,-95.357828",
   "lat": 29.7544548,
   "lng": -95.357828,
   "halalFriendly": false,
   "bookingUrl": "https://maps.google.com/?q=29.7544548,-95.357828",
   "source": "osm"
  },
  {
   "nom": "Oakwood at Archstone Midtown",
   "categorie": "Hôtel",
   "priceRange": "€€",
   "mapsUrl": "https://maps.google.com/?q=29.7504485,-95.3805656",
   "lat": 29.7504485,
   "lng": -95.3805656,
   "halalFriendly": false,
   "bookingUrl": "https://maps.google.com/?q=29.7504485,-95.3805656",
   "source": "osm"
  },
  {
   "nom": "Holiday Inn Express",
   "categorie": "Hôtel",
   "priceRange": "€€",
   "mapsUrl": "https://maps.google.com/?q=29.7484269,-95.3609308",
   "lat": 29.7484269,
   "lng": -95.3609308,
   "halalFriendly": false,
   "bookingUrl": "https://www.ihg.com/holidayinnexpress/hotels/us/en/houston/houls/hoteldetail",
   "source": "osm"
  },
  {
   "nom": "San Jacinto Apartments",
   "categorie": "Appartement",
   "priceRange": "€€",
   "mapsUrl": "https://maps.google.com/?q=29.7458253,-95.3715794",
   "lat": 29.7458253,
   "lng": -95.3715794,
   "halalFriendly": false,
   "bookingUrl": "https://maps.google.com/?q=29.7458253,-95.3715794",
   "source": "osm"
  },
  {
   "nom": "Downtowner Inns",
   "categorie": "Hôtel",
   "priceRange": "€€",
   "mapsUrl": "https://maps.google.com/?q=29.7414259,-95.3663122",
   "lat": 29.7414259,
   "lng": -95.3663122,
   "halalFriendly": false,
   "bookingUrl": "https://maps.google.com/?q=29.7414259,-95.3663122",
   "source": "osm"
  },
  {
   "nom": "Courtyard by Marriott Houston Heights/I-10",
   "categorie": "Hôtel",
   "priceRange": "€€",
   "mapsUrl": "https://maps.google.com/?q=29.7775162,-95.3924924",
   "lat": 29.7775162,
   "lng": -95.3924924,
   "halalFriendly": false,
   "bookingUrl": "https://www.marriott.com/hotels/travel/houcw-courtyard-houston-heights-i-10/",
   "source": "osm"
  },
  {
   "nom": "La Colombe d'Or",
   "categorie": "Hôtel",
   "priceRange": "€€",
   "mapsUrl": "https://maps.google.com/?q=29.7416488,-95.3916907",
   "lat": 29.7416488,
   "lng": -95.3916907,
   "halalFriendly": false,
   "bookingUrl": "https://www.lacolombedor.com/",
   "source": "osm"
  },
  {
   "nom": "Cottage Garden",
   "categorie": "Maison d'hôtes",
   "priceRange": "€€",
   "mapsUrl": "https://maps.google.com/?q=29.7868915,-95.382654",
   "lat": 29.7868915,
   "lng": -95.382654,
   "halalFriendly": false,
   "bookingUrl": "https://maps.google.com/?q=29.7868915,-95.382654",
   "source": "osm"
  },
  {
   "nom": "Sleep Inn",
   "categorie": "Hôtel",
   "priceRange": "€€",
   "mapsUrl": "https://maps.google.com/?q=29.7944212,-95.3727286",
   "lat": 29.7944212,
   "lng": -95.3727286,
   "halalFriendly": false,
   "bookingUrl": "https://www.choicehotels.com/texas/webster/comfort-suites-hotels",
   "source": "osm"
  },
  {
   "nom": "Hotel Saint Augustine",
   "categorie": "Hôtel",
   "priceRange": "€€",
   "mapsUrl": "https://maps.google.com/?q=29.7356728,-95.3980574",
   "lat": 29.7356728,
   "lng": -95.3980574,
   "halalFriendly": false,
   "bookingUrl": "https://www.bunkhousehotels.com/hotel-saint-augustine",
   "source": "osm"
  },
  {
   "nom": "Sara's Inn",
   "categorie": "Hôtel",
   "priceRange": "€€",
   "mapsUrl": "https://maps.google.com/?q=29.7884349,-95.3981047",
   "lat": 29.7884349,
   "lng": -95.3981047,
   "halalFriendly": false,
   "bookingUrl": "https://saras.com/",
   "source": "osm"
  },
  {
   "nom": "Howard Johnson by Wyndham Houston Downtown",
   "categorie": "Hôtel",
   "priceRange": "€€",
   "mapsUrl": "https://maps.google.com/?q=29.7782313,-95.4076561",
   "lat": 29.7782313,
   "lng": -95.4076561,
   "halalFriendly": false,
   "bookingUrl": "https://maps.google.com/?q=29.7782313,-95.4076561",
   "source": "osm"
  },
  {
   "nom": "Extended Stay America",
   "categorie": "Hôtel",
   "priceRange": "€€",
   "mapsUrl": "https://maps.google.com/?q=29.7315615,-95.4146779",
   "lat": 29.7315615,
   "lng": -95.4146779,
   "halalFriendly": false,
   "bookingUrl": "https://maps.google.com/?q=29.7315615,-95.4146779",
   "source": "osm"
  },
  {
   "nom": "Crowne Plaza Houston River Oaks",
   "categorie": "Hôtel",
   "priceRange": "€€",
   "mapsUrl": "https://maps.google.com/?q=29.7314557,-95.4214343",
   "lat": 29.7314557,
   "lng": -95.4214343,
   "halalFriendly": false,
   "bookingUrl": "https://maps.google.com/?q=29.7314557,-95.4214343",
   "source": "osm"
  },
  {
   "nom": "Hampton Inn & Suites",
   "categorie": "Hôtel",
   "priceRange": "€€",
   "mapsUrl": "https://maps.google.com/?q=29.778309,-95.4281849",
   "lat": 29.778309,
   "lng": -95.4281849,
   "halalFriendly": false,
   "bookingUrl": "https://www.hilton.com/en/hotels/houkfhx-hampton-suites-houston-heights-i-10/",
   "source": "osm"
  },
  {
   "nom": "Courtyard Houston-West University",
   "categorie": "Hôtel",
   "priceRange": "€€",
   "mapsUrl": "https://maps.google.com/?q=29.7281109,-95.4243699",
   "lat": 29.7281109,
   "lng": -95.4243699,
   "halalFriendly": false,
   "bookingUrl": "https://www.marriott.com/houbs",
   "source": "osm"
  },
  {
   "nom": "Home2 Suites",
   "categorie": "Hôtel",
   "priceRange": "€€",
   "mapsUrl": "https://maps.google.com/?q=29.704687,-95.3855413",
   "lat": 29.704687,
   "lng": -95.3855413,
   "halalFriendly": false,
   "bookingUrl": "https://www.hilton.com/en/hotels/houahht-home2-suites-houston-medical-center/",
   "source": "osm"
  },
  {
   "nom": "Residence Inn",
   "categorie": "Hôtel",
   "priceRange": "€€",
   "mapsUrl": "https://maps.google.com/?q=29.7277404,-95.4243767",
   "lat": 29.7277404,
   "lng": -95.4243767,
   "halalFriendly": false,
   "bookingUrl": "https://www.marriott.com/houbf",
   "source": "osm"
  },
  {
   "nom": "The Westin Houston Medical Center",
   "categorie": "Hôtel",
   "priceRange": "€€",
   "mapsUrl": "https://maps.google.com/?q=29.7097021,-95.4015787",
   "lat": 29.7097021,
   "lng": -95.4015787,
   "halalFriendly": false,
   "bookingUrl": "https://www.marriott.com/en-us/hotels/houwa-the-westin-houston-medical-center/overview/",
   "source": "osm"
  },
  {
   "nom": "Jesse H. Jones Rotary House International",
   "categorie": "Hôtel",
   "priceRange": "€€",
   "mapsUrl": "https://maps.google.com/?q=29.7057509,-95.3959588",
   "lat": 29.7057509,
   "lng": -95.3959588,
   "halalFriendly": false,
   "bookingUrl": "https://maps.google.com/?q=29.7057509,-95.3959588",
   "source": "osm"
  },
  {
   "nom": "SureStay Plus by Best Western Houston Medical Center",
   "categorie": "Hôtel",
   "priceRange": "€€",
   "mapsUrl": "https://maps.google.com/?q=29.7082301,-95.4041792",
   "lat": 29.7082301,
   "lng": -95.4041792,
   "halalFriendly": false,
   "bookingUrl": "https://www.bestwestern.com/en_US/book/houston/hotel-rooms/surestay-plus-by-best-western-houston-medical-center/propertyCode.54031.html",
   "source": "osm"
  },
  {
   "nom": "InterContinental",
   "categorie": "Hôtel",
   "priceRange": "€€",
   "mapsUrl": "https://maps.google.com/?q=29.7076939,-95.4045111",
   "lat": 29.7076939,
   "lng": -95.4045111,
   "halalFriendly": false,
   "bookingUrl": "https://www.ihg.com/intercontinental/hotels/us/en/houston/houit/hoteldetail",
   "source": "osm"
  },
  {
   "nom": "Mainstay Suites Texas Medical Center/Reliant Park",
   "categorie": "Hôtel",
   "priceRange": "€€",
   "mapsUrl": "https://maps.google.com/?q=29.6998725,-95.3783007",
   "lat": 29.6998725,
   "lng": -95.3783007,
   "halalFriendly": false,
   "bookingUrl": "https://maps.google.com/?q=29.6998725,-95.3783007",
   "source": "osm"
  },
  {
   "nom": "DoubleTree by Hilton Houston Medical Center Hotel & Suites",
   "categorie": "Hôtel",
   "priceRange": "€€",
   "mapsUrl": "https://maps.google.com/?q=29.7073032,-95.404979",
   "lat": 29.7073032,
   "lng": -95.404979,
   "halalFriendly": false,
   "bookingUrl": "https://www.hilton.com/en/hotels/houmhdt-doubletree-houston-medical-center-hotel-and-suites/",
   "source": "osm"
  },
  {
   "nom": "DoubleTree",
   "categorie": "Hôtel",
   "priceRange": "€€",
   "mapsUrl": "https://maps.google.com/?q=29.7309535,-95.4326516",
   "lat": 29.7309535,
   "lng": -95.4326516,
   "halalFriendly": false,
   "bookingUrl": "https://doubletree3.hilton.com/en/hotels/texas/doubletree-by-hilton-hotel-houston-greenway-plaza-HOUGWDT/index.html",
   "source": "osm"
  },
  {
   "nom": "Extended Stay America - Houston - Braeswood Blvd.",
   "categorie": "Hôtel",
   "priceRange": "€€",
   "mapsUrl": "https://maps.google.com/?q=29.701961,-95.4004342",
   "lat": 29.701961,
   "lng": -95.4004342,
   "halalFriendly": false,
   "bookingUrl": "https://maps.google.com/?q=29.701961,-95.4004342",
   "source": "osm"
  },
  {
   "nom": "Big State Motel",
   "categorie": "Hôtel",
   "priceRange": "€€",
   "mapsUrl": "https://maps.google.com/?q=29.7099751,-95.3216106",
   "lat": 29.7099751,
   "lng": -95.3216106,
   "halalFriendly": false,
   "bookingUrl": "https://maps.google.com/?q=29.7099751,-95.3216106",
   "source": "osm"
  },
  {
   "nom": "Blossom Hotel Houston, Curio Collection by Hilton",
   "categorie": "Hôtel",
   "priceRange": "€€",
   "mapsUrl": "https://maps.google.com/?q=29.6994595,-95.3993868",
   "lat": 29.6994595,
   "lng": -95.3993868,
   "halalFriendly": false,
   "bookingUrl": "https://www.blossomhouston.com/",
   "source": "osm"
  },
  {
   "nom": "Sleep 'N Go Hotel Houston Medical Center",
   "categorie": "Hôtel",
   "priceRange": "€€",
   "mapsUrl": "https://maps.google.com/?q=29.6985775,-95.4003263",
   "lat": 29.6985775,
   "lng": -95.4003263,
   "halalFriendly": false,
   "bookingUrl": "https://maps.google.com/?q=29.6985775,-95.4003263",
   "source": "osm"
  },
  {
   "nom": "Dollar Inn",
   "categorie": "Hôtel",
   "priceRange": "€€",
   "mapsUrl": "https://maps.google.com/?q=29.6932222,-95.359528",
   "lat": 29.6932222,
   "lng": -95.359528,
   "halalFriendly": false,
   "bookingUrl": "https://maps.google.com/?q=29.6932222,-95.359528",
   "source": "osm"
  },
  {
   "nom": "Hyatt Place",
   "categorie": "Hôtel",
   "priceRange": "€€",
   "mapsUrl": "https://maps.google.com/?q=29.6965996,-95.4006974",
   "lat": 29.6965996,
   "lng": -95.4006974,
   "halalFriendly": false,
   "bookingUrl": "https://maps.google.com/?q=29.6965996,-95.4006974",
   "source": "osm"
  },
  {
   "nom": "Hampton Inn & Suites Houston Medical Center NRG Park",
   "categorie": "Hôtel",
   "priceRange": "€€",
   "mapsUrl": "https://maps.google.com/?q=29.6960595,-95.4028586",
   "lat": 29.6960595,
   "lng": -95.4028586,
   "halalFriendly": false,
   "bookingUrl": "https://www.hilton.com/en/hotels/houmdhx-hampton-suites-houston-medical-center-nrg-park/",
   "source": "osm"
  },
  {
   "nom": "Houston Grand Hotel - River Oaks",
   "categorie": "Hôtel",
   "priceRange": "€€",
   "mapsUrl": "https://maps.google.com/?q=29.7476453,-95.4504839",
   "lat": 29.7476453,
   "lng": -95.4504839,
   "halalFriendly": false,
   "bookingUrl": "https://www.marriott.com/en-us/hotels/houlx-houston-grand-hotel-river-oaks/overview/",
   "source": "osm"
  },
  {
   "nom": "Days Inn & Suites by Wyndham Downtown/University of Houston",
   "categorie": "Hôtel",
   "priceRange": "€€",
   "mapsUrl": "https://maps.google.com/?q=29.7108123,-95.3108069",
   "lat": 29.7108123,
   "lng": -95.3108069,
   "halalFriendly": false,
   "bookingUrl": "https://www.wyndhamhotels.com/days-inn/houston-texas/days-inn-university-of-houston/overview",
   "source": "osm"
  },
  {
   "nom": "Drury Inn & Suites Houston Near the Galleria",
   "categorie": "Hôtel",
   "priceRange": "€€",
   "mapsUrl": "https://maps.google.com/?q=29.7512363,-95.4545106",
   "lat": 29.7512363,
   "lng": -95.4545106,
   "halalFriendly": false,
   "bookingUrl": "https://www.druryhotels.com/locations/houston-tx/drury-inn-and-suites-houston-near-the-galleria",
   "source": "osm"
  },
  {
   "nom": "Courtyard Houston Medical Center",
   "categorie": "Hôtel",
   "priceRange": "€€",
   "mapsUrl": "https://maps.google.com/?q=29.6966625,-95.4136292",
   "lat": 29.6966625,
   "lng": -95.4136292,
   "halalFriendly": false,
   "bookingUrl": "https://www.marriott.com/houmd",
   "source": "osm"
  },
  {
   "nom": "La Quinta Inn & Suites Houston Galleria Area",
   "categorie": "Hôtel",
   "priceRange": "€€",
   "mapsUrl": "https://maps.google.com/?q=29.7504573,-95.4545798",
   "lat": 29.7504573,
   "lng": -95.4545798,
   "halalFriendly": false,
   "bookingUrl": "https://www.wyndhamhotels.com/laquinta/houston-texas/la-quinta-houston-galleria-area/overview",
   "source": "osm"
  },
  {
   "nom": "Hampton Inn Houston-Near The Galleria",
   "categorie": "Hôtel",
   "priceRange": "€€",
   "mapsUrl": "https://maps.google.com/?q=29.7485336,-95.4544159",
   "lat": 29.7485336,
   "lng": -95.4544159,
   "halalFriendly": false,
   "bookingUrl": "https://www.hilton.com/en/hotels/houpohx-hampton-houston-near-the-galleria/",
   "source": "osm"
  },
  {
   "nom": "The Reside",
   "categorie": "Appartement",
   "priceRange": "€€",
   "mapsUrl": "https://maps.google.com/?q=29.694788,-95.4114429",
   "lat": 29.694788,
   "lng": -95.4114429,
   "halalFriendly": false,
   "bookingUrl": "https://www.theresidehouston.com/",
   "source": "osm"
  },
  {
   "nom": "SpringHill Suites Houston Medical Center/NRG Park",
   "categorie": "Hôtel",
   "priceRange": "€€",
   "mapsUrl": "https://maps.google.com/?q=29.6929915,-95.4090244",
   "lat": 29.6929915,
   "lng": -95.4090244,
   "halalFriendly": false,
   "bookingUrl": "https://www.marriott.com/hourp",
   "source": "osm"
  },
  {
   "nom": "Houston Marriott West Loop by The Galleria",
   "categorie": "Hôtel",
   "priceRange": "€€",
   "mapsUrl": "https://maps.google.com/?q=29.7500444,-95.4569378",
   "lat": 29.7500444,
   "lng": -95.4569378,
   "halalFriendly": false,
   "bookingUrl": "https://maps.google.com/?q=29.7500444,-95.4569378",
   "source": "osm"
  },
  {
   "nom": "Extended Stay America - Houston - Med. Ctr. - NRG Park - Fannin",
   "categorie": "Hôtel",
   "priceRange": "€€",
   "mapsUrl": "https://maps.google.com/?q=29.6895248,-95.40253",
   "lat": 29.6895248,
   "lng": -95.40253,
   "halalFriendly": false,
   "bookingUrl": "https://maps.google.com/?q=29.6895248,-95.40253",
   "source": "osm"
  },
  {
   "nom": "Residence Inn Houston Medical Center/NRG",
   "categorie": "Hôtel",
   "priceRange": "€€",
   "mapsUrl": "https://maps.google.com/?q=29.6941457,-95.41354",
   "lat": 29.6941457,
   "lng": -95.41354,
   "halalFriendly": false,
   "bookingUrl": "https://www.marriott.com/hourw",
   "source": "osm"
  },
  {
   "nom": "Hotel Granduca Houston",
   "categorie": "Hôtel",
   "priceRange": "€€",
   "mapsUrl": "https://maps.google.com/?q=29.7576234,-95.4583519",
   "lat": 29.7576234,
   "lng": -95.4583519,
   "halalFriendly": false,
   "bookingUrl": "https://maps.google.com/?q=29.7576234,-95.4583519",
   "source": "osm"
  },
  {
   "nom": "Americas Best Value Inn",
   "categorie": "Hôtel",
   "priceRange": "€€",
   "mapsUrl": "https://maps.google.com/?q=29.8084221,-95.3002064",
   "lat": 29.8084221,
   "lng": -95.3002064,
   "halalFriendly": false,
   "bookingUrl": "https://maps.google.com/?q=29.8084221,-95.3002064",
   "source": "osm"
  },
  {
   "nom": "Holiday Inn Express Galleria Area",
   "categorie": "Hôtel",
   "priceRange": "€€",
   "mapsUrl": "https://maps.google.com/?q=29.7428416,-95.4563701",
   "lat": 29.7428416,
   "lng": -95.4563701,
   "halalFriendly": false,
   "bookingUrl": "https://maps.google.com/?q=29.7428416,-95.4563701",
   "source": "osm"
  },
  {
   "nom": "Staybridge Suites",
   "categorie": "Hôtel",
   "priceRange": "€€",
   "mapsUrl": "https://maps.google.com/?q=29.7428374,-95.456801",
   "lat": 29.7428374,
   "lng": -95.456801,
   "halalFriendly": false,
   "bookingUrl": "https://maps.google.com/?q=29.7428374,-95.456801",
   "source": "osm"
  },
  {
   "nom": "Extended Stay America - Houston - Galleria - Westheimer",
   "categorie": "Hôtel",
   "priceRange": "€€",
   "mapsUrl": "https://maps.google.com/?q=29.7405717,-95.4562732",
   "lat": 29.7405717,
   "lng": -95.4562732,
   "halalFriendly": false,
   "bookingUrl": "https://maps.google.com/?q=29.7405717,-95.4562732",
   "source": "osm"
  },
  {
   "nom": "Hotel Ylem",
   "categorie": "Hôtel",
   "priceRange": "€€",
   "mapsUrl": "https://maps.google.com/?q=29.6936731,-95.415763",
   "lat": 29.6936731,
   "lng": -95.415763,
   "halalFriendly": false,
   "bookingUrl": "https://www.hotelylem.com/",
   "source": "osm"
  },
  {
   "nom": "Omni Houston Hotel",
   "categorie": "Hôtel",
   "priceRange": "€€",
   "mapsUrl": "https://maps.google.com/?q=29.7612553,-95.4594137",
   "lat": 29.7612553,
   "lng": -95.4594137,
   "halalFriendly": false,
   "bookingUrl": "https://www.omnihotels.com/hotels/houston",
   "source": "osm"
  },
  {
   "nom": "Hotel Derek",
   "categorie": "Hôtel",
   "priceRange": "€€",
   "mapsUrl": "https://maps.google.com/?q=29.741526,-95.4569269",
   "lat": 29.741526,
   "lng": -95.4569269,
   "halalFriendly": false,
   "bookingUrl": "https://maps.google.com/?q=29.741526,-95.4569269",
   "source": "osm"
  },
  {
   "nom": "Extended Stay America - Houston - Med. Ctr. - NRG Park - Kirby",
   "categorie": "Hôtel",
   "priceRange": "€€",
   "mapsUrl": "https://maps.google.com/?q=29.6911611,-95.4117038",
   "lat": 29.6911611,
   "lng": -95.4117038,
   "halalFriendly": false,
   "bookingUrl": "https://maps.google.com/?q=29.6911611,-95.4117038",
   "source": "osm"
  },
  {
   "nom": "The Royal Sonesta Houston Galleria",
   "categorie": "Hôtel",
   "priceRange": "€€",
   "mapsUrl": "https://maps.google.com/?q=29.7440464,-95.4586561",
   "lat": 29.7440464,
   "lng": -95.4586561,
   "halalFriendly": false,
   "bookingUrl": "https://www.sonesta.com/royal-sonesta/tx/houston/royal-sonesta-houston-galleria",
   "source": "osm"
  },
  {
   "nom": "Holiday Inn Houston - NRG/Medical Center Area",
   "categorie": "Hôtel",
   "priceRange": "€€",
   "mapsUrl": "https://maps.google.com/?q=29.690292,-95.4114807",
   "lat": 29.690292,
   "lng": -95.4114807,
   "halalFriendly": false,
   "bookingUrl": "https://maps.google.com/?q=29.690292,-95.4114807",
   "source": "osm"
  },
  {
   "nom": "The Houstonian Hotel, Club & Spa",
   "categorie": "Hôtel",
   "priceRange": "€€",
   "mapsUrl": "https://maps.google.com/?q=29.7674935,-95.4608282",
   "lat": 29.7674935,
   "lng": -95.4608282,
   "halalFriendly": false,
   "bookingUrl": "https://www.houstonian.com/",
   "source": "osm"
  },
  {
   "nom": "The Chifley Houston, Tapestry Collection by Hilton",
   "categorie": "Hôtel",
   "priceRange": "€€",
   "mapsUrl": "https://maps.google.com/?q=29.7423026,-95.4588845",
   "lat": 29.7423026,
   "lng": -95.4588845,
   "halalFriendly": false,
   "bookingUrl": "https://www.hilton.com/en/hotels/iahchup-the-chifley-houston/",
   "source": "osm"
  },
  {
   "nom": "Hilton",
   "categorie": "Hôtel",
   "priceRange": "€€",
   "mapsUrl": "https://maps.google.com/?q=29.7459304,-95.4601279",
   "lat": 29.7459304,
   "lng": -95.4601279,
   "halalFriendly": false,
   "bookingUrl": "https://maps.google.com/?q=29.7459304,-95.4601279",
   "source": "osm"
  },
  {
   "nom": "Heritage Place Houston Brookhollow",
   "categorie": "Hôtel",
   "priceRange": "€€",
   "mapsUrl": "https://maps.google.com/?q=29.8093061,-95.4437889",
   "lat": 29.8093061,
   "lng": -95.4437889,
   "halalFriendly": false,
   "bookingUrl": "https://www.heritageplacehotel.com/",
   "source": "osm"
  }
 ],
 "activites": [
  {
   "nom": "The Battle of Midway",
   "lat": 29.7604958,
   "lng": -95.3699625,
   "coordonnees": {
    "lat": 29.7604958,
    "lng": -95.3699625
   },
   "categorie": "À voir",
   "mapsUrl": "https://maps.google.com/?q=29.7604958,-95.3699625",
   "source": "osm"
  },
  {
   "nom": "Sam Houston Park",
   "lat": 29.7596,
   "lng": -95.37077,
   "coordonnees": {
    "lat": 29.7596,
    "lng": -95.37077
   },
   "categorie": "Histoire",
   "mapsUrl": "https://maps.google.com/?q=29.7596,-95.37077",
   "source": "osm"
  },
  {
   "nom": "Wall Drawing 2002",
   "lat": 29.7615674,
   "lng": -95.3695554,
   "coordonnees": {
    "lat": 29.7615674,
    "lng": -95.3695554
   },
   "categorie": "À voir",
   "mapsUrl": "https://maps.google.com/?q=29.7615674,-95.3695554",
   "source": "osm"
  },
  {
   "nom": "Houston Public Library",
   "lat": 29.7592,
   "lng": -95.36892,
   "coordonnees": {
    "lat": 29.7592,
    "lng": -95.36892
   },
   "categorie": "Histoire",
   "mapsUrl": "https://maps.google.com/?q=29.7592,-95.36892",
   "source": "osm"
  },
  {
   "nom": "San Felipe Cottage",
   "lat": 29.7606,
   "lng": -95.37172,
   "coordonnees": {
    "lat": 29.7606,
    "lng": -95.37172
   },
   "categorie": "Histoire",
   "mapsUrl": "https://maps.google.com/?q=29.7606,-95.37172",
   "source": "osm"
  },
  {
   "nom": "Thomas William House",
   "lat": 29.76119,
   "lng": -95.36806,
   "coordonnees": {
    "lat": 29.76119,
    "lng": -95.36806
   },
   "categorie": "Histoire",
   "mapsUrl": "https://maps.google.com/?q=29.76119,-95.36806",
   "source": "osm"
  },
  {
   "nom": "Ancient Order of Pilgrims",
   "lat": 29.75965,
   "lng": -95.37177,
   "coordonnees": {
    "lat": 29.75965,
    "lng": -95.37177
   },
   "categorie": "Histoire",
   "mapsUrl": "https://maps.google.com/?q=29.75965,-95.37177",
   "source": "osm"
  },
  {
   "nom": "Sweeney Clock",
   "lat": 29.7620772,
   "lng": -95.368771,
   "coordonnees": {
    "lat": 29.7620772,
    "lng": -95.368771
   },
   "categorie": "À voir",
   "mapsUrl": "https://maps.google.com/?q=29.7620772,-95.368771",
   "source": "osm"
  },
  {
   "nom": "Guitar Solo",
   "lat": 29.7597932,
   "lng": -95.3672806,
   "coordonnees": {
    "lat": 29.7597932,
    "lng": -95.3672806
   },
   "categorie": "À voir",
   "mapsUrl": "https://maps.google.com/?q=29.7597932,-95.3672806",
   "source": "osm"
  },
  {
   "nom": "Auditorium Hotel",
   "lat": 29.76157,
   "lng": -95.365,
   "coordonnees": {
    "lat": 29.76157,
    "lng": -95.365
   },
   "categorie": "Histoire",
   "mapsUrl": "https://maps.google.com/?q=29.76157,-95.365",
   "source": "osm"
  },
  {
   "nom": "Antioch Missionary Baptist Church",
   "lat": 29.75641,
   "lng": -95.37196,
   "coordonnees": {
    "lat": 29.75641,
    "lng": -95.37196
   },
   "categorie": "Histoire",
   "mapsUrl": "https://maps.google.com/?q=29.75641,-95.37196",
   "source": "osm"
  },
  {
   "nom": "Personage and Birds",
   "lat": 29.760264,
   "lng": -95.3645299,
   "coordonnees": {
    "lat": 29.760264,
    "lng": -95.3645299
   },
   "categorie": "À voir",
   "mapsUrl": "https://maps.google.com/?q=29.760264,-95.3645299",
   "source": "osm"
  },
  {
   "nom": "Virtuoso",
   "lat": 29.7628545,
   "lng": -95.3651131,
   "coordonnees": {
    "lat": 29.7628545,
    "lng": -95.3651131
   },
   "categorie": "À voir",
   "mapsUrl": "https://maps.google.com/?q=29.7628545,-95.3651131",
   "source": "osm"
  },
  {
   "nom": "Gulf Building",
   "lat": 29.75931,
   "lng": -95.36419,
   "coordonnees": {
    "lat": 29.75931,
    "lng": -95.36419
   },
   "categorie": "Histoire",
   "mapsUrl": "https://maps.google.com/?q=29.75931,-95.36419",
   "source": "osm"
  },
  {
   "nom": "'Burp the Bayou' Red Button",
   "lat": 29.7641065,
   "lng": -95.3658135,
   "coordonnees": {
    "lat": 29.7641065,
    "lng": -95.3658135
   },
   "categorie": "À voir",
   "mapsUrl": "https://maps.google.com/?q=29.7641065,-95.3658135",
   "source": "osm"
  },
  {
   "nom": "Origins of Freedman's Town",
   "lat": 29.7579015,
   "lng": -95.3751098,
   "coordonnees": {
    "lat": 29.7579015,
    "lng": -95.3751098
   },
   "categorie": "Histoire",
   "mapsUrl": "https://maps.google.com/?q=29.7579015,-95.3751098",
   "source": "osm"
  },
  {
   "nom": "untitled (totems)",
   "lat": 29.7632711,
   "lng": -95.375254,
   "coordonnees": {
    "lat": 29.7632711,
    "lng": -95.375254
   },
   "categorie": "À voir",
   "mapsUrl": "https://maps.google.com/?q=29.7632711,-95.375254",
   "source": "osm"
  },
  {
   "nom": "Hogg Building",
   "lat": 29.76285,
   "lng": -95.36397,
   "coordonnees": {
    "lat": 29.76285,
    "lng": -95.36397
   },
   "categorie": "Histoire",
   "mapsUrl": "https://maps.google.com/?q=29.76285,-95.36397",
   "source": "osm"
  },
  {
   "nom": "George H. W. Bush",
   "lat": 29.7650091,
   "lng": -95.366009,
   "coordonnees": {
    "lat": 29.7650091,
    "lng": -95.366009
   },
   "categorie": "Histoire",
   "mapsUrl": "https://maps.google.com/?q=29.7650091,-95.366009",
   "source": "osm"
  },
  {
   "nom": "PAUSE sign",
   "lat": 29.7605964,
   "lng": -95.3766033,
   "coordonnees": {
    "lat": 29.7605964,
    "lng": -95.3766033
   },
   "categorie": "À voir",
   "mapsUrl": "https://maps.google.com/?q=29.7605964,-95.3766033",
   "source": "osm"
  },
  {
   "nom": "Site of the Organization of Lady Washington Chapter, NSDAR",
   "lat": 29.76033,
   "lng": -95.36291,
   "coordonnees": {
    "lat": 29.76033,
    "lng": -95.36291
   },
   "categorie": "Histoire",
   "mapsUrl": "https://maps.google.com/?q=29.76033,-95.36291",
   "source": "osm"
  },
  {
   "nom": "Down Periscope",
   "lat": 29.7622979,
   "lng": -95.3765987,
   "coordonnees": {
    "lat": 29.7622979,
    "lng": -95.3765987
   },
   "categorie": "À voir",
   "mapsUrl": "https://maps.google.com/?q=29.7622979,-95.3765987",
   "source": "osm"
  },
  {
   "nom": "St. Joseph's Catholic Church",
   "lat": 29.766,
   "lng": -95.37307,
   "coordonnees": {
    "lat": 29.766,
    "lng": -95.37307
   },
   "categorie": "Histoire",
   "mapsUrl": "https://maps.google.com/?q=29.766,-95.37307",
   "source": "osm"
  },
  {
   "nom": "Houston Infirmary",
   "lat": 29.76665,
   "lng": -95.36815,
   "coordonnees": {
    "lat": 29.76665,
    "lng": -95.36815
   },
   "categorie": "Histoire",
   "mapsUrl": "https://maps.google.com/?q=29.76665,-95.36815",
   "source": "osm"
  },
  {
   "nom": "First United Methodist Church of Houston",
   "lat": 29.75427,
   "lng": -95.36755,
   "coordonnees": {
    "lat": 29.75427,
    "lng": -95.36755
   },
   "categorie": "Histoire",
   "mapsUrl": "https://maps.google.com/?q=29.75427,-95.36755",
   "source": "osm"
  },
  {
   "nom": "Open Channel Flow",
   "lat": 29.762653,
   "lng": -95.3774826,
   "coordonnees": {
    "lat": 29.762653,
    "lng": -95.3774826
   },
   "categorie": "À voir",
   "mapsUrl": "https://maps.google.com/?q=29.762653,-95.3774826",
   "source": "osm"
  },
  {
   "nom": "Sabine Street",
   "lat": 29.76553,
   "lng": -95.37557,
   "coordonnees": {
    "lat": 29.76553,
    "lng": -95.37557
   },
   "categorie": "Histoire",
   "mapsUrl": "https://maps.google.com/?q=29.76553,-95.37557",
   "source": "osm"
  },
  {
   "nom": "Bethel Baptist Church",
   "lat": 29.75575,
   "lng": -95.37612,
   "coordonnees": {
    "lat": 29.75575,
    "lng": -95.37612
   },
   "categorie": "Histoire",
   "mapsUrl": "https://maps.google.com/?q=29.75575,-95.37612",
   "source": "osm"
  },
  {
   "nom": "Old Market Square",
   "lat": 29.76278,
   "lng": -95.36187,
   "coordonnees": {
    "lat": 29.76278,
    "lng": -95.36187
   },
   "categorie": "Histoire",
   "mapsUrl": "https://maps.google.com/?q=29.76278,-95.36187",
   "source": "osm"
  },
  {
   "nom": "Christ Church Cathedral",
   "lat": 29.75947,
   "lng": -95.36139,
   "coordonnees": {
    "lat": 29.75947,
    "lng": -95.36139
   },
   "categorie": "Histoire",
   "mapsUrl": "https://maps.google.com/?q=29.75947,-95.36139",
   "source": "osm"
  },
  {
   "nom": "Site of the First White House of the Republic of Texas",
   "lat": 29.76127,
   "lng": -95.36138,
   "coordonnees": {
    "lat": 29.76127,
    "lng": -95.36138
   },
   "categorie": "Histoire",
   "mapsUrl": "https://maps.google.com/?q=29.76127,-95.36138",
   "source": "osm"
  },
  {
   "nom": "Thomas William House, Jr.",
   "lat": 29.75737,
   "lng": -95.36173,
   "coordonnees": {
    "lat": 29.75737,
    "lng": -95.36173
   },
   "categorie": "Histoire",
   "mapsUrl": "https://maps.google.com/?q=29.75737,-95.36173",
   "source": "osm"
  },
  {
   "nom": "Magnolia Brewery Building",
   "lat": 29.76417,
   "lng": -95.36192,
   "coordonnees": {
    "lat": 29.76417,
    "lng": -95.36192
   },
   "categorie": "Histoire",
   "mapsUrl": "https://maps.google.com/?q=29.76417,-95.36192",
   "source": "osm"
  },
  {
   "nom": "Sweeney, Coombs & Fredericks Building",
   "lat": 29.76207,
   "lng": -95.36073,
   "coordonnees": {
    "lat": 29.76207,
    "lng": -95.36073
   },
   "categorie": "Histoire",
   "mapsUrl": "https://maps.google.com/?q=29.76207,-95.36073",
   "source": "osm"
  },
  {
   "nom": "Houston Cotton Exchange and Board of Trade",
   "lat": 29.7634,
   "lng": -95.36118,
   "coordonnees": {
    "lat": 29.7634,
    "lng": -95.36118
   },
   "categorie": "Histoire",
   "mapsUrl": "https://maps.google.com/?q=29.7634,-95.36118",
   "source": "osm"
  },
  {
   "nom": "1840 Houston City Cemetery",
   "lat": 29.76849,
   "lng": -95.36793,
   "coordonnees": {
    "lat": 29.76849,
    "lng": -95.36793
   },
   "categorie": "Histoire",
   "mapsUrl": "https://maps.google.com/?q=29.76849,-95.36793",
   "source": "osm"
  },
  {
   "nom": "Amos B. Edson",
   "lat": 29.75762,
   "lng": -95.37882,
   "coordonnees": {
    "lat": 29.75762,
    "lng": -95.37882
   },
   "categorie": "Histoire",
   "mapsUrl": "https://maps.google.com/?q=29.75762,-95.37882",
   "source": "osm"
  },
  {
   "nom": "Houston Bar Association",
   "lat": 29.76118,
   "lng": -95.36013,
   "coordonnees": {
    "lat": 29.76118,
    "lng": -95.36013
   },
   "categorie": "Histoire",
   "mapsUrl": "https://maps.google.com/?q=29.76118,-95.36013",
   "source": "osm"
  },
  {
   "nom": "Shady Grove",
   "lat": 29.7616823,
   "lng": -95.3799232,
   "coordonnees": {
    "lat": 29.7616823,
    "lng": -95.3799232
   },
   "categorie": "À voir",
   "mapsUrl": "https://maps.google.com/?q=29.7616823,-95.3799232",
   "source": "osm"
  },
  {
   "nom": "Site of Old Houston Academy",
   "lat": 29.75669,
   "lng": -95.36029,
   "coordonnees": {
    "lat": 29.75669,
    "lng": -95.36029
   },
   "categorie": "Histoire",
   "mapsUrl": "https://maps.google.com/?q=29.75669,-95.36029",
   "source": "osm"
  },
  {
   "nom": "Passage Inachevé",
   "lat": 29.7626581,
   "lng": -95.3800254,
   "coordonnees": {
    "lat": 29.7626581,
    "lng": -95.3800254
   },
   "categorie": "À voir",
   "mapsUrl": "https://maps.google.com/?q=29.7626581,-95.3800254",
   "source": "osm"
  },
  {
   "nom": "Mt. Carmel Missionary Baptist Church",
   "lat": 29.7551,
   "lng": -95.37864,
   "coordonnees": {
    "lat": 29.7551,
    "lng": -95.37864
   },
   "categorie": "Histoire",
   "mapsUrl": "https://maps.google.com/?q=29.7551,-95.37864",
   "source": "osm"
  },
  {
   "nom": "Harris County",
   "lat": 29.76143,
   "lng": -95.35912,
   "coordonnees": {
    "lat": 29.76143,
    "lng": -95.35912
   },
   "categorie": "Histoire",
   "mapsUrl": "https://maps.google.com/?q=29.76143,-95.35912",
   "source": "osm"
  },
  {
   "nom": "M. D. Anderson",
   "lat": 29.75897,
   "lng": -95.35916,
   "coordonnees": {
    "lat": 29.75897,
    "lng": -95.35916
   },
   "categorie": "Histoire",
   "mapsUrl": "https://maps.google.com/?q=29.75897,-95.35916",
   "source": "osm"
  },
  {
   "nom": "APRECI8",
   "lat": 29.7511937,
   "lng": -95.372959,
   "coordonnees": {
    "lat": 29.7511937,
    "lng": -95.372959
   },
   "categorie": "À voir",
   "mapsUrl": "https://maps.google.com/?q=29.7511937,-95.372959",
   "source": "osm"
  }
 ],
 "mosqueesPrincipales": [
  {
   "nom": "Masjid Khulafa’a Rashideen",
   "lat": 29.7205228,
   "lng": -95.497174,
   "coordonnees": {
    "lat": 29.7205228,
    "lng": -95.497174
   },
   "adresse": "Southwest Freeway Frontage Road, Houston",
   "mapsUrl": "https://maps.google.com/?q=29.7205228,-95.497174",
   "source": "osm"
  },
  {
   "nom": "Masjid Salah Ad-Deen",
   "lat": 29.722096,
   "lng": -95.4999141,
   "coordonnees": {
    "lat": 29.722096,
    "lng": -95.4999141
   },
   "adresse": "Hillcroft Avenue, Houston",
   "mapsUrl": "https://maps.google.com/?q=29.722096,-95.4999141",
   "source": "osm"
  },
  {
   "id": "osm-260789761",
   "nom": "Islamic Da'wah Center",
   "type": "mosquee",
   "adresse": "Travis Street, Houston",
   "lat": 29.762962,
   "lng": -95.3605815,
   "mapsUrl": "https://maps.google.com/?q=29.762962,-95.3605815",
   "source": "osm"
  },
  {
   "id": "osm-493297860",
   "nom": "Madrasah Islamiah Masjid Noor",
   "type": "mosquee",
   "adresse": "Bintliff Drive, Houston",
   "lat": 29.7071981,
   "lng": -95.5048381,
   "mapsUrl": "https://maps.google.com/?q=29.7071981,-95.5048381",
   "source": "osm"
  },
  {
   "id": "osm-520283786",
   "nom": "Islamic Society of Greater Houston",
   "type": "mosquee",
   "adresse": "Eastside Street, Houston",
   "lat": 29.7368871,
   "lng": -95.4250552,
   "mapsUrl": "https://maps.google.com/?q=29.7368871,-95.4250552",
   "source": "osm"
  },
  {
   "id": "osm-1411236118",
   "nom": "Kalkan Masjid Houston",
   "type": "mosquee",
   "adresse": "Lazy Hollow Drive, Houston",
   "lat": 29.7377657,
   "lng": -95.5174069,
   "mapsUrl": "https://maps.google.com/?q=29.7377657,-95.5174069",
   "source": "osm"
  },
  {
   "id": "osm-1414024242",
   "nom": "Masjid",
   "type": "mosquee",
   "lat": 29.6775566,
   "lng": -95.3973955,
   "mapsUrl": "https://maps.google.com/?q=29.6775566,-95.3973955",
   "source": "osm"
  },
  {
   "id": "osm-1447830521",
   "nom": "Ismaili Center Houston",
   "type": "mosquee",
   "adresse": "Allen Parkway Frontage Road, Houston",
   "lat": 29.7591137,
   "lng": -95.3917866,
   "mapsUrl": "https://maps.google.com/?q=29.7591137,-95.3917866",
   "source": "osm"
  }
 ],
 "tags": [
  "espace-nasa",
  "texas",
  "diversite",
  "hillcroft",
  "famille",
  "culture"
 ],
 "description_en": "Houston, in the United States, is a halal-friendly destination with a Halal Trust Score of 3.9/5. Muslim travelers will find 32 halal restaurants listed, 90 mosques, real-time prayer times and the Qibla direction — a complete guide to travel with peace of mind. Best time to visit: March-May, Oct-Nov.",
 "metaDescription_en": "Halal guide to Houston: 32 halal restaurants listed, 90 mosques, prayer times and tips for Muslim travelers. Halal Trust Score 3.9/5.",
 "nom_en": "Houston",
 "boucheries": [],
 "infos_pratiques_en": {
  "langue": "English",
  "monnaie": "Dollar US (USD)",
  "meilleure_periode": "March-May, Oct-Nov",
  "appel_priere": "5 times a day",
  "nourriture_halal": "Largement disponible",
  "alcool": "Available"
 },
 "dataPurgedAt": "2026-07-15",
 "osmEnrichedAt": "2026-07-15"
}