{
 "slug": "ispahan",
 "nom": "Ispahan",
 "pays": "Iran",
 "pays_slug": "iran",
 "continent": "Asie",
 "region": "Iran",
 "coordonnees": {
  "lat": 32.6539,
  "lng": 51.666
 },
 "codeISO": "",
 "score_halal": 4.7,
 "halalScore": 9.3,
 "description": "'Ispahan, moitié du monde' : joyau de l'architecture islamique persane avec sa place Naghch-e Djahan, ses mosquées aux dômes turquoise et ses ponts safavides.",
 "image": "https://upload.wikimedia.org/wikipedia/commons/thumb/f/f6/Naghshe_Jahan_Square_Isfahan_modified2.jpg/1920px-Naghshe_Jahan_Square_Isfahan_modified2.jpg",
 "image_hero": "https://upload.wikimedia.org/wikipedia/commons/thumb/f/f6/Naghshe_Jahan_Square_Isfahan_modified2.jpg/1920px-Naghshe_Jahan_Square_Isfahan_modified2.jpg",
 "metaDescription": "'Ispahan, moitié du monde' : joyau de l'architecture islamique persane avec sa place Naghch-e Djahan, ses mosquées aux dômes turquoise et ses ponts safavides.",
 "statistiques": {
  "restaurants_halal": 60,
  "mosquees": 1,
  "hotels": 30
 },
 "infoPratique": {
  "transport": "Accessible par avion / transports locaux.",
  "meilleureEpoque": "Printemps et automne."
 },
 "tags": [
  "halal"
 ],
 "restaurants": [
  {
   "nom": "رستوران شمعدونی",
   "type": "international",
   "priceRange": "€€",
   "mapsUrl": "https://maps.google.com/?q=32.6354509,51.6677526",
   "lat": 32.6354509,
   "lng": 51.6677526,
   "halalConfidence": "yes",
   "source": "osm"
  },
  {
   "nom": "بریان حاج محمود",
   "type": "Restaurant halal",
   "priceRange": "€€",
   "mapsUrl": "https://maps.google.com/?q=32.6679332,51.6839727",
   "lat": 32.6679332,
   "lng": 51.6839727,
   "halalConfidence": "yes",
   "source": "osm"
  },
  {
   "nom": "برگر تایم (فست فود)",
   "type": "burger, sandwich, pasta, juice, salad, hot dog, diner, fries",
   "priceRange": "€€",
   "mapsUrl": "https://maps.google.com/?q=32.6520125,51.6992794",
   "lat": 32.6520125,
   "lng": 51.6992794,
   "halalConfidence": "yes",
   "source": "osm"
  },
  {
   "nom": "خانه معلم شماره یک اصفهان",
   "type": "pizza, burger, sandwich, chicken, kebab, fish, salad, dessert, pasta",
   "priceRange": "€€",
   "mapsUrl": "https://maps.google.com/?q=32.6226768,51.6426085",
   "lat": 32.6226768,
   "lng": 51.6426085,
   "halalConfidence": "yes",
   "source": "osm"
  },
  {
   "nom": "خانه معلم شماره دو اصفهان",
   "type": "pizza, burger, sandwich, chicken, kebab, fish, salad, dessert, pasta",
   "priceRange": "€€",
   "mapsUrl": "https://maps.google.com/?q=32.702196,51.6646256",
   "lat": 32.702196,
   "lng": 51.6646256,
   "halalConfidence": "yes",
   "source": "osm"
  },
  {
   "nom": "خانه معلم شماره دو اصفهان",
   "type": "pizza, burger, sandwich, chicken, kebab, fish, salad, dessert, pasta",
   "priceRange": "€€",
   "mapsUrl": "https://maps.google.com/?q=32.7022085,51.6646457",
   "lat": 32.7022085,
   "lng": 51.6646457,
   "halalConfidence": "yes",
   "source": "osm"
  },
  {
   "nom": "خانه معلم شماره سه اصفهان",
   "type": "pizza, burger, sandwich, chicken, kebab, fish, salad, dessert, pasta",
   "priceRange": "€€",
   "mapsUrl": "https://maps.google.com/?q=32.6803062,51.7247313",
   "lat": 32.6803062,
   "lng": 51.7247313,
   "halalConfidence": "yes",
   "source": "osm"
  },
  {
   "nom": "فست فود دولپی",
   "type": "pizza, sandwich, regional, burger, italian",
   "priceRange": "€€",
   "mapsUrl": "https://maps.google.com/?q=32.7071537,51.6399995",
   "lat": 32.7071537,
   "lng": 51.6399995,
   "halalConfidence": "yes",
   "source": "osm"
  },
  {
   "nom": "رستوران هتل سیزنز",
   "type": "Restaurant halal",
   "priceRange": "€€",
   "mapsUrl": "https://maps.google.com/?q=32.6835241,51.7393381",
   "lat": 32.6835241,
   "lng": 51.7393381,
   "halalConfidence": "yes",
   "source": "osm"
  },
  {
   "nom": "فست فود میلانو",
   "type": "pizza, sandwich, wings, chicken, burger, hot dog, turkish",
   "priceRange": "€€",
   "mapsUrl": "https://maps.google.com/?q=32.6505891,51.6680165",
   "lat": 32.6505891,
   "lng": 51.6680165,
   "halalConfidence": "likely",
   "source": "osm"
  },
  {
   "nom": "رستوران شهرزاد",
   "type": "kebab",
   "priceRange": "€€",
   "mapsUrl": "https://maps.google.com/?q=32.6487725,51.6674278",
   "lat": 32.6487725,
   "lng": 51.6674278,
   "halalConfidence": "likely",
   "source": "osm"
  },
  {
   "nom": "Bagh Homayoun",
   "type": "persian",
   "priceRange": "€€",
   "mapsUrl": "https://maps.google.com/?q=32.6546603,51.6755225",
   "lat": 32.6546603,
   "lng": 51.6755225,
   "halalConfidence": "likely",
   "source": "osm"
  },
  {
   "nom": "رستوران فیروز",
   "type": "persian",
   "priceRange": "€€",
   "mapsUrl": "https://maps.google.com/?q=32.6536124,51.6756988",
   "lat": 32.6536124,
   "lng": 51.6756988,
   "halalConfidence": "likely",
   "source": "osm"
  },
  {
   "nom": "کافه رستوران خانه مینیاتور اصفهان",
   "type": "pizza, coffee shop, italian, persian, kebab, cake",
   "priceRange": "€€",
   "mapsUrl": "https://maps.google.com/?q=32.6554238,51.6768487",
   "lat": 32.6554238,
   "lng": 51.6768487,
   "halalConfidence": "likely",
   "source": "osm"
  },
  {
   "nom": "کباب بریانی ترخون",
   "type": "persian",
   "priceRange": "€€",
   "mapsUrl": "https://maps.google.com/?q=32.6621919,51.6737462",
   "lat": 32.6621919,
   "lng": 51.6737462,
   "halalConfidence": "likely",
   "source": "osm"
  },
  {
   "nom": "رستوران نگارستان",
   "type": "persian",
   "priceRange": "€€",
   "mapsUrl": "https://maps.google.com/?q=32.6513115,51.6538218",
   "lat": 32.6513115,
   "lng": 51.6538218,
   "halalConfidence": "likely",
   "source": "osm"
  },
  {
   "nom": "رستوران کباب",
   "type": "kebab, chicken",
   "priceRange": "€€",
   "mapsUrl": "https://maps.google.com/?q=32.655577,51.6788772",
   "lat": 32.655577,
   "lng": 51.6788772,
   "halalConfidence": "likely",
   "source": "osm"
  },
  {
   "nom": "سفره خانه سنتی نقش جهان",
   "type": "kebab, persian",
   "priceRange": "€€",
   "mapsUrl": "https://maps.google.com/?q=32.6580174,51.6784519",
   "lat": 32.6580174,
   "lng": 51.6784519,
   "halalConfidence": "likely",
   "source": "osm"
  },
  {
   "nom": "رستوران سی و سه پل",
   "type": "persian",
   "priceRange": "€€",
   "mapsUrl": "https://maps.google.com/?q=32.6422801,51.6675293",
   "lat": 32.6422801,
   "lng": 51.6675293,
   "halalConfidence": "likely",
   "source": "osm"
  },
  {
   "nom": "بریانی شهرزاد",
   "type": "persian",
   "priceRange": "€€",
   "mapsUrl": "https://maps.google.com/?q=32.6417339,51.6673196",
   "lat": 32.6417339,
   "lng": 51.6673196,
   "halalConfidence": "likely",
   "source": "osm"
  },
  {
   "nom": "کباب بریانی عشایر شعبه ۴",
   "type": "persian",
   "priceRange": "€€",
   "mapsUrl": "https://maps.google.com/?q=32.6567714,51.6831323",
   "lat": 32.6567714,
   "lng": 51.6831323,
   "halalConfidence": "likely",
   "source": "osm"
  },
  {
   "nom": "Somira",
   "type": "persian",
   "priceRange": "€€",
   "mapsUrl": "https://maps.google.com/?q=32.6600307,51.683203",
   "lat": 32.6600307,
   "lng": 51.683203,
   "halalConfidence": "likely",
   "source": "osm"
  },
  {
   "nom": "کباب سنتی بناب",
   "type": "kebab",
   "priceRange": "€€",
   "mapsUrl": "https://maps.google.com/?q=32.6390382,51.6539411",
   "lat": 32.6390382,
   "lng": 51.6539411,
   "halalConfidence": "likely",
   "source": "osm"
  },
  {
   "nom": "کباب سنتی بناب آذربایجان",
   "type": "kebab, persian",
   "priceRange": "€€",
   "mapsUrl": "https://maps.google.com/?q=32.6385536,51.6540018",
   "lat": 32.6385536,
   "lng": 51.6540018,
   "halalConfidence": "likely",
   "source": "osm"
  },
  {
   "nom": "اسنک آرپا",
   "type": "persian",
   "priceRange": "€€",
   "mapsUrl": "https://maps.google.com/?q=32.6377779,51.6540744",
   "lat": 32.6377779,
   "lng": 51.6540744,
   "halalConfidence": "likely",
   "source": "osm"
  },
  {
   "nom": "آرابو",
   "type": "arabo",
   "priceRange": "€€",
   "mapsUrl": "https://maps.google.com/?q=32.6365401,51.6552294",
   "lat": 32.6365401,
   "lng": 51.6552294,
   "halalConfidence": "likely",
   "source": "osm"
  },
  {
   "nom": "رستوران شاندیز آمیتیس",
   "type": "persian",
   "priceRange": "€€",
   "mapsUrl": "https://maps.google.com/?q=32.6370852,51.6528834",
   "lat": 32.6370852,
   "lng": 51.6528834,
   "halalConfidence": "likely",
   "source": "osm"
  },
  {
   "nom": "مجموعه غذایی پارکلند",
   "type": "kebab, coffee shop, regional, pizza, seafood, breakfast, cake, pasta, fish, salad, juice, tea, fine dining, wings, persian, middle eastern, soup, fries, brunch",
   "priceRange": "€€",
   "mapsUrl": "https://maps.google.com/?q=32.6392696,51.6482409",
   "lat": 32.6392696,
   "lng": 51.6482409,
   "halalConfidence": "likely",
   "source": "osm"
  },
  {
   "nom": "جوجه کباب نقش جهان",
   "type": "kebab",
   "priceRange": "€€",
   "mapsUrl": "https://maps.google.com/?q=32.6429906,51.6442033",
   "lat": 32.6429906,
   "lng": 51.6442033,
   "halalConfidence": "likely",
   "source": "osm"
  },
  {
   "nom": "کباب خانه ساحل",
   "type": "kebab",
   "priceRange": "€€",
   "mapsUrl": "https://maps.google.com/?q=32.6437055,51.6436543",
   "lat": 32.6437055,
   "lng": 51.6436543,
   "halalConfidence": "likely",
   "source": "osm"
  },
  {
   "nom": "کله پزی خیام",
   "type": "persian",
   "priceRange": "€€",
   "mapsUrl": "https://maps.google.com/?q=32.6431555,51.6436779",
   "lat": 32.6431555,
   "lng": 51.6436779,
   "halalConfidence": "likely",
   "source": "osm"
  },
  {
   "nom": "غذای مارنان",
   "type": "kebab, persian",
   "priceRange": "€€",
   "mapsUrl": "https://maps.google.com/?q=32.6428521,51.643794",
   "lat": 32.6428521,
   "lng": 51.643794,
   "halalConfidence": "likely",
   "source": "osm"
  },
  {
   "nom": "جوجه کباب بوستان",
   "type": "kebab, persian",
   "priceRange": "€€",
   "mapsUrl": "https://maps.google.com/?q=32.6397298,51.6453251",
   "lat": 32.6397298,
   "lng": 51.6453251,
   "halalConfidence": "likely",
   "source": "osm"
  },
  {
   "nom": "رستوران فودسان",
   "type": "kebab, chicken, pizza",
   "priceRange": "€€",
   "mapsUrl": "https://maps.google.com/?q=32.6341662,51.6816339",
   "lat": 32.6341662,
   "lng": 51.6816339,
   "halalConfidence": "likely",
   "source": "osm"
  },
  {
   "nom": "فودسان خانه کباب",
   "type": "kebab, chicken, pizza",
   "priceRange": "€€",
   "mapsUrl": "https://maps.google.com/?q=32.634157,51.6816696",
   "lat": 32.634157,
   "lng": 51.6816696,
   "halalConfidence": "likely",
   "source": "osm"
  },
  {
   "nom": "خوانسالار",
   "type": "kebab, fish and chips",
   "priceRange": "€€",
   "mapsUrl": "https://maps.google.com/?q=32.6300466,51.6657037",
   "lat": 32.6300466,
   "lng": 51.6657037,
   "halalConfidence": "likely",
   "source": "osm"
  },
  {
   "nom": "خورش ماست سنتی تاج الملوک",
   "type": "persian",
   "priceRange": "€€",
   "mapsUrl": "https://maps.google.com/?q=32.6300945,51.6717682",
   "lat": 32.6300945,
   "lng": 51.6717682,
   "halalConfidence": "likely",
   "source": "osm"
  },
  {
   "nom": "غذای جنوب",
   "type": "persian, kebab, pasta",
   "priceRange": "€€",
   "mapsUrl": "https://maps.google.com/?q=32.6380978,51.6429942",
   "lat": 32.6380978,
   "lng": 51.6429942,
   "halalConfidence": "likely",
   "source": "osm"
  },
  {
   "nom": "جگرکده خاطره ها",
   "type": "kebab",
   "priceRange": "€€",
   "mapsUrl": "https://maps.google.com/?q=32.6271389,51.671805",
   "lat": 32.6271389,
   "lng": 51.671805,
   "halalConfidence": "likely",
   "source": "osm"
  },
  {
   "nom": "آشپزی زاینده رود",
   "type": "persian",
   "priceRange": "€€",
   "mapsUrl": "https://maps.google.com/?q=32.6353807,51.6401757",
   "lat": 32.6353807,
   "lng": 51.6401757,
   "halalConfidence": "likely",
   "source": "osm"
  },
  {
   "nom": "خورش ماست زیتون طلا",
   "type": "persian",
   "priceRange": "€€",
   "mapsUrl": "https://maps.google.com/?q=32.6271058,51.6528014",
   "lat": 32.6271058,
   "lng": 51.6528014,
   "halalConfidence": "likely",
   "source": "osm"
  },
  {
   "nom": "جوجه زغالی دانیال",
   "type": "kebab",
   "priceRange": "€€",
   "mapsUrl": "https://maps.google.com/?q=32.6784922,51.6843299",
   "lat": 32.6784922,
   "lng": 51.6843299,
   "halalConfidence": "likely",
   "source": "osm"
  },
  {
   "nom": "آشپزی عالی",
   "type": "persian",
   "priceRange": "€€",
   "mapsUrl": "https://maps.google.com/?q=32.6262106,51.6526468",
   "lat": 32.6262106,
   "lng": 51.6526468,
   "halalConfidence": "likely",
   "source": "osm"
  },
  {
   "nom": "آشپزی حیدری",
   "type": "persian",
   "priceRange": "€€",
   "mapsUrl": "https://maps.google.com/?q=32.6261584,51.6526457",
   "lat": 32.6261584,
   "lng": 51.6526457,
   "halalConfidence": "likely",
   "source": "osm"
  },
  {
   "nom": "فست فود فود استیشن",
   "type": "sandwich, persian, pizza, burger",
   "priceRange": "€€",
   "mapsUrl": "https://maps.google.com/?q=32.6259244,51.6526205",
   "lat": 32.6259244,
   "lng": 51.6526205,
   "halalConfidence": "likely",
   "source": "osm"
  },
  {
   "nom": "پیتزا همبرگر پاییزان",
   "type": "sandwich, persian, pizza",
   "priceRange": "€€",
   "mapsUrl": "https://maps.google.com/?q=32.6239888,51.6524416",
   "lat": 32.6239888,
   "lng": 51.6524416,
   "halalConfidence": "likely",
   "source": "osm"
  },
  {
   "nom": "کبابی جوادیان",
   "type": "local, persian",
   "priceRange": "€€",
   "mapsUrl": "https://maps.google.com/?q=32.671301,51.6994705",
   "lat": 32.671301,
   "lng": 51.6994705,
   "halalConfidence": "likely",
   "source": "osm"
  },
  {
   "nom": "جوجه سرای جوادیان",
   "type": "kebab",
   "priceRange": "€€",
   "mapsUrl": "https://maps.google.com/?q=32.6712773,51.6994912",
   "lat": 32.6712773,
   "lng": 51.6994912,
   "halalConfidence": "likely",
   "source": "osm"
  },
  {
   "nom": "کترینگ غذای خانگی ترمه بانو",
   "type": "persian",
   "priceRange": "€€",
   "mapsUrl": "https://maps.google.com/?q=32.6210662,51.6719598",
   "lat": 32.6210662,
   "lng": 51.6719598,
   "halalConfidence": "likely",
   "source": "osm"
  },
  {
   "nom": "بن اپتی",
   "type": "burger, pizza, regional, chicken, sandwich, kebab, seafood, coffee shop",
   "priceRange": "€€",
   "mapsUrl": "https://maps.google.com/?q=32.6220319,51.6537862",
   "lat": 32.6220319,
   "lng": 51.6537862,
   "halalConfidence": "likely",
   "source": "osm"
  },
  {
   "nom": "فست فود جلیلی",
   "type": "burger, sandwich, pizza, persian",
   "priceRange": "€€",
   "mapsUrl": "https://maps.google.com/?q=32.6292816,51.6387469",
   "lat": 32.6292816,
   "lng": 51.6387469,
   "halalConfidence": "likely",
   "source": "osm"
  },
  {
   "nom": "فلافل کلبه جنوب",
   "type": "sandwich, persian",
   "priceRange": "€€",
   "mapsUrl": "https://maps.google.com/?q=32.6229349,51.649811",
   "lat": 32.6229349,
   "lng": 51.649811,
   "halalConfidence": "likely",
   "source": "osm"
  },
  {
   "nom": "غذای حاج بهزاد",
   "type": "persian",
   "priceRange": "€€",
   "mapsUrl": "https://maps.google.com/?q=32.6295784,51.6328019",
   "lat": 32.6295784,
   "lng": 51.6328019,
   "halalConfidence": "likely",
   "source": "osm"
  },
  {
   "nom": "غذای کوفتالو",
   "type": "persian",
   "priceRange": "€€",
   "mapsUrl": "https://maps.google.com/?q=32.6296665,51.632493",
   "lat": 32.6296665,
   "lng": 51.632493,
   "halalConfidence": "likely",
   "source": "osm"
  },
  {
   "nom": "کباب جوجه و بریان خوشنام",
   "type": "persian, kebab",
   "priceRange": "€€",
   "mapsUrl": "https://maps.google.com/?q=32.6237323,51.6293805",
   "lat": 32.6237323,
   "lng": 51.6293805,
   "halalConfidence": "likely",
   "source": "osm"
  },
  {
   "nom": "آش سرای مادر",
   "type": "persian",
   "priceRange": "€€",
   "mapsUrl": "https://maps.google.com/?q=32.6227735,51.626226",
   "lat": 32.6227735,
   "lng": 51.626226,
   "halalConfidence": "likely",
   "source": "osm"
  },
  {
   "nom": "فلافل جی",
   "type": "burger, hot dog, persian, pizza, sandwich",
   "priceRange": "€€",
   "mapsUrl": "https://maps.google.com/?q=32.6225632,51.6262263",
   "lat": 32.6225632,
   "lng": 51.6262263,
   "halalConfidence": "likely",
   "source": "osm"
  },
  {
   "nom": "آش آبادان وکیلی",
   "type": "persian",
   "priceRange": "€€",
   "mapsUrl": "https://maps.google.com/?q=32.6223034,51.6262272",
   "lat": 32.6223034,
   "lng": 51.6262272,
   "halalConfidence": "likely",
   "source": "osm"
  },
  {
   "nom": "حلیم و آش حیدری",
   "type": "persian",
   "priceRange": "€€",
   "mapsUrl": "https://maps.google.com/?q=32.6222428,51.6258775",
   "lat": 32.6222428,
   "lng": 51.6258775,
   "halalConfidence": "likely",
   "source": "osm"
  },
  {
   "nom": "آش و حلیم دهکده",
   "type": "persian",
   "priceRange": "€€",
   "mapsUrl": "https://maps.google.com/?q=32.6215513,51.6262385",
   "lat": 32.6215513,
   "lng": 51.6262385,
   "halalConfidence": "likely",
   "source": "osm"
  }
 ],
 "hotels": [
  {
   "nom": "هتل شیخ بهایی",
   "categorie": "Hôtel",
   "priceRange": "€€",
   "mapsUrl": "https://maps.google.com/?q=32.6530322,51.6676876",
   "lat": 32.6530322,
   "lng": 51.6676876,
   "halalFriendly": false,
   "bookingUrl": "https://maps.google.com/?q=32.6530322,51.6676876",
   "source": "osm"
  },
  {
   "nom": "پارس",
   "categorie": "Hôtel",
   "priceRange": "€€",
   "mapsUrl": "https://maps.google.com/?q=32.6523066,51.6676162",
   "lat": 32.6523066,
   "lng": 51.6676162,
   "halalFriendly": false,
   "bookingUrl": "https://maps.google.com/?q=32.6523066,51.6676162",
   "source": "osm"
  },
  {
   "nom": "مهمانسرا",
   "categorie": "Maison d'hôtes",
   "priceRange": "€€",
   "mapsUrl": "https://maps.google.com/?q=32.6534492,51.6632759",
   "lat": 32.6534492,
   "lng": 51.6632759,
   "halalFriendly": false,
   "bookingUrl": "http://mehramoz.com/news/isfahan_hostel/",
   "source": "osm"
  },
  {
   "nom": "هتل ایران",
   "categorie": "Hôtel",
   "priceRange": "€€",
   "mapsUrl": "https://maps.google.com/?q=32.6550499,51.668454",
   "lat": 32.6550499,
   "lng": 51.668454,
   "halalFriendly": false,
   "bookingUrl": "http://www.iranhotel.biz",
   "source": "osm"
  },
  {
   "nom": "أغا ربيعي خونه",
   "categorie": "Auberge",
   "priceRange": "€€",
   "mapsUrl": "https://maps.google.com/?q=32.656349,51.6656984",
   "lat": 32.656349,
   "lng": 51.6656984,
   "halalFriendly": false,
   "bookingUrl": "https://maps.google.com/?q=32.656349,51.6656984",
   "source": "osm"
  },
  {
   "nom": "پانسیون مهر اصفهان",
   "categorie": "Auberge",
   "priceRange": "€€",
   "mapsUrl": "https://maps.google.com/?q=32.6540825,51.6625692",
   "lat": 32.6540825,
   "lng": 51.6625692,
   "halalFriendly": false,
   "bookingUrl": "http://mehramoz.com/news/isfahan_hostel/",
   "source": "osm"
  },
  {
   "nom": "اغا ربیعی خونه",
   "categorie": "Auberge",
   "priceRange": "€€",
   "mapsUrl": "https://maps.google.com/?q=32.6568974,51.6663803",
   "lat": 32.6568974,
   "lng": 51.6663803,
   "halalFriendly": false,
   "bookingUrl": "https://maps.google.com/?q=32.6568974,51.6663803",
   "source": "osm"
  },
  {
   "nom": "هتل پارت",
   "categorie": "Hôtel",
   "priceRange": "€€",
   "mapsUrl": "https://maps.google.com/?q=32.6507551,51.6660773",
   "lat": 32.6507551,
   "lng": 51.6660773,
   "halalFriendly": false,
   "bookingUrl": "https://maps.google.com/?q=32.6507551,51.6660773",
   "source": "osm"
  },
  {
   "nom": "هتل خاتون",
   "categorie": "Hôtel",
   "priceRange": "€€",
   "mapsUrl": "https://maps.google.com/?q=32.6507071,51.666604",
   "lat": 32.6507071,
   "lng": 51.666604,
   "halalFriendly": false,
   "bookingUrl": "https://maps.google.com/?q=32.6507071,51.666604",
   "source": "osm"
  },
  {
   "nom": "پارت",
   "categorie": "Hôtel",
   "priceRange": "€€",
   "mapsUrl": "https://maps.google.com/?q=32.6506355,51.6672997",
   "lat": 32.6506355,
   "lng": 51.6672997,
   "halalFriendly": false,
   "bookingUrl": "https://maps.google.com/?q=32.6506355,51.6672997",
   "source": "osm"
  },
  {
   "nom": "هتل پارس",
   "categorie": "Hôtel",
   "priceRange": "€€",
   "mapsUrl": "https://maps.google.com/?q=32.6504004,51.6679188",
   "lat": 32.6504004,
   "lng": 51.6679188,
   "halalFriendly": false,
   "bookingUrl": "https://maps.google.com/?q=32.6504004,51.6679188",
   "source": "osm"
  },
  {
   "nom": "هتل جمشید",
   "categorie": "Hôtel",
   "priceRange": "€€",
   "mapsUrl": "https://maps.google.com/?q=32.6571781,51.668833",
   "lat": 32.6571781,
   "lng": 51.668833,
   "halalFriendly": false,
   "bookingUrl": "https://maps.google.com/?q=32.6571781,51.668833",
   "source": "osm"
  },
  {
   "nom": "اقامتگاه بومگردی خلوت‌سرا",
   "categorie": "Maison d'hôtes",
   "priceRange": "€€",
   "mapsUrl": "https://maps.google.com/?q=32.6584719,51.666276",
   "lat": 32.6584719,
   "lng": 51.666276,
   "halalFriendly": false,
   "bookingUrl": "https://khalvathouse.com",
   "source": "osm"
  },
  {
   "nom": "هتل پارسیان عالی‌قاپو",
   "categorie": "Hôtel",
   "priceRange": "€€€€",
   "score": 4,
   "mapsUrl": "https://maps.google.com/?q=32.6492778,51.6676484",
   "lat": 32.6492778,
   "lng": 51.6676484,
   "halalFriendly": false,
   "bookingUrl": "https://aliqapuhotel.ir/",
   "source": "osm"
  },
  {
   "nom": "هتل سعدی",
   "categorie": "Hôtel",
   "priceRange": "€€",
   "mapsUrl": "https://maps.google.com/?q=32.6488387,51.6665342",
   "lat": 32.6488387,
   "lng": 51.6665342,
   "halalFriendly": false,
   "bookingUrl": "https://maps.google.com/?q=32.6488387,51.6665342",
   "source": "osm"
  },
  {
   "nom": "سفیر",
   "categorie": "Hôtel",
   "priceRange": "€€",
   "mapsUrl": "https://maps.google.com/?q=32.6507694,51.6707576",
   "lat": 32.6507694,
   "lng": 51.6707576,
   "halalFriendly": false,
   "bookingUrl": "https://maps.google.com/?q=32.6507694,51.6707576",
   "source": "osm"
  },
  {
   "nom": "عباس اباد",
   "categorie": "Hôtel",
   "priceRange": "€€",
   "mapsUrl": "https://maps.google.com/?q=32.6485949,51.6663165",
   "lat": 32.6485949,
   "lng": 51.6663165,
   "halalFriendly": false,
   "bookingUrl": "https://maps.google.com/?q=32.6485949,51.6663165",
   "source": "osm"
  },
  {
   "nom": "هتل سفیر",
   "categorie": "Hôtel",
   "priceRange": "€€",
   "mapsUrl": "https://maps.google.com/?q=32.6506601,51.6710525",
   "lat": 32.6506601,
   "lng": 51.6710525,
   "halalFriendly": false,
   "bookingUrl": "https://maps.google.com/?q=32.6506601,51.6710525",
   "source": "osm"
  },
  {
   "nom": "هتل توریست",
   "categorie": "Hôtel",
   "priceRange": "€€€",
   "score": 3,
   "mapsUrl": "https://maps.google.com/?q=32.6486144,51.667563",
   "lat": 32.6486144,
   "lng": 51.667563,
   "halalFriendly": false,
   "bookingUrl": "https://maps.google.com/?q=32.6486144,51.667563",
   "source": "osm"
  },
  {
   "nom": "هتل میهن",
   "categorie": "Hôtel",
   "priceRange": "€€",
   "mapsUrl": "https://maps.google.com/?q=32.658697,51.669225",
   "lat": 32.658697,
   "lng": 51.669225,
   "halalFriendly": false,
   "bookingUrl": "https://maps.google.com/?q=32.658697,51.669225",
   "source": "osm"
  },
  {
   "nom": "هتل بین‌المللی ویرا",
   "categorie": "Hôtel",
   "priceRange": "€€€€",
   "score": 5,
   "mapsUrl": "https://maps.google.com/?q=32.6505567,51.6713381",
   "lat": 32.6505567,
   "lng": 51.6713381,
   "halalFriendly": false,
   "bookingUrl": "https://virahotels.com/",
   "source": "osm"
  },
  {
   "nom": "هتل بین‌المللی ویرا",
   "categorie": "Hôtel",
   "priceRange": "€€€€",
   "score": 5,
   "mapsUrl": "https://maps.google.com/?q=32.6505761,51.6713734",
   "lat": 32.6505761,
   "lng": 51.6713734,
   "halalFriendly": false,
   "bookingUrl": "https://virahotels.com/",
   "source": "osm"
  },
  {
   "nom": "هتل طوس",
   "categorie": "Hôtel",
   "priceRange": "€€",
   "mapsUrl": "https://maps.google.com/?q=32.6483045,51.6677065",
   "lat": 32.6483045,
   "lng": 51.6677065,
   "halalFriendly": false,
   "bookingUrl": "https://maps.google.com/?q=32.6483045,51.6677065",
   "source": "osm"
  },
  {
   "nom": "هتل پیروزی",
   "categorie": "Hôtel",
   "priceRange": "€€",
   "mapsUrl": "https://maps.google.com/?q=32.6590894,51.6691753",
   "lat": 32.6590894,
   "lng": 51.6691753,
   "halalFriendly": false,
   "bookingUrl": "https://maps.google.com/?q=32.6590894,51.6691753",
   "source": "osm"
  },
  {
   "nom": "سفیر",
   "categorie": "Hôtel",
   "priceRange": "€€",
   "mapsUrl": "https://maps.google.com/?q=32.6505805,51.6719889",
   "lat": 32.6505805,
   "lng": 51.6719889,
   "halalFriendly": false,
   "bookingUrl": "https://maps.google.com/?q=32.6505805,51.6719889",
   "source": "osm"
  },
  {
   "nom": "هتل نقش جهان",
   "categorie": "Hôtel",
   "priceRange": "€€",
   "mapsUrl": "https://maps.google.com/?q=32.6593494,51.6691876",
   "lat": 32.6593494,
   "lng": 51.6691876,
   "halalFriendly": false,
   "bookingUrl": "https://maps.google.com/?q=32.6593494,51.6691876",
   "source": "osm"
  },
  {
   "nom": "ساختمان قرشی",
   "categorie": "Appartement",
   "priceRange": "€€",
   "mapsUrl": "https://maps.google.com/?q=32.6474097,51.6681453",
   "lat": 32.6474097,
   "lng": 51.6681453,
   "halalFriendly": false,
   "bookingUrl": "https://maps.google.com/?q=32.6474097,51.6681453",
   "source": "osm"
  },
  {
   "nom": "هزار و یک شب چهار باغ",
   "categorie": "Hôtel",
   "priceRange": "€€",
   "mapsUrl": "https://maps.google.com/?q=32.660467,51.6699055",
   "lat": 32.660467,
   "lng": 51.6699055,
   "halalFriendly": false,
   "bookingUrl": "https://maps.google.com/?q=32.660467,51.6699055",
   "source": "osm"
  },
  {
   "nom": "هتل ونوس",
   "categorie": "Hôtel",
   "priceRange": "€€",
   "mapsUrl": "https://maps.google.com/?q=32.6507715,51.6739769",
   "lat": 32.6507715,
   "lng": 51.6739769,
   "halalFriendly": false,
   "bookingUrl": "https://maps.google.com/?q=32.6507715,51.6739769",
   "source": "osm"
  },
  {
   "nom": "جمشيد",
   "categorie": "Hôtel",
   "priceRange": "€€",
   "mapsUrl": "https://maps.google.com/?q=32.6609136,51.6693913",
   "lat": 32.6609136,
   "lng": 51.6693913,
   "halalFriendly": false,
   "bookingUrl": "https://maps.google.com/?q=32.6609136,51.6693913",
   "source": "osm"
  }
 ],
 "mosqueesPrincipales": [
  {
   "id": "m1",
   "nom": "Grande Mosquée de Ispahan",
   "type": "Mosquée",
   "adresse": "Centre-ville, Ispahan",
   "description": "Mosquée principale de la ville.",
   "note": 5,
   "acces_non_musulmans": false,
   "mapsUrl": "https://maps.google.com/?q=Mosque%20Ispahan%20Ispahan"
  }
 ],
 "activites": [
  {
   "id": "a1",
   "nom": "Place Naghch-e Djahan (UNESCO)",
   "categorie": "Culture",
   "description": "Immense place royale bordée de mosquées et de bazars.",
   "prix": "Gratuit",
   "duree": "",
   "mapsUrl": "https://maps.google.com/?q=Place%20Naghch-e%20Djahan%20%28UNESCO%29%20Ispahan"
  },
  {
   "id": "a2",
   "nom": "Mosquée du Chah (Imam)",
   "categorie": "Spirituel",
   "description": "Mosquée safavide aux faïences bleues éblouissantes.",
   "prix": "Payant",
   "duree": "",
   "mapsUrl": "https://maps.google.com/?q=Mosqu%C3%A9e%20du%20Chah%20%28Imam%29%20Ispahan"
  },
  {
   "id": "a3",
   "nom": "Pont Si-o-se Pol",
   "categorie": "Histoire",
   "description": "Pont aux 33 arches enjambant le Zayandeh.",
   "prix": "Gratuit",
   "duree": "",
   "mapsUrl": "https://maps.google.com/?q=Pont%20Si-o-se%20Pol%20Ispahan"
  }
 ],
 "imageCredit": "Wikimedia Commons",
 "osmEnriched": true,
 "osmEnrichedAt": "2026-06-30"
}
