{
 "slug": "ispahan",
 "nom": "Ispahan",
 "pays": "Iran",
 "pays_slug": "iran",
 "continent": "Asie",
 "region": "Iran",
 "coordonnees": {
  "lat": 32.6539,
  "lng": 51.666
 },
 "codeISO": "",
 "score_halal": 4.7,
 "halalScore": 9.3,
 "description": "'Ispahan, moitié du monde' : joyau de l'architecture islamique persane avec sa place Naghch-e Djahan, ses mosquées aux dômes turquoise et ses ponts safavides.",
 "image": "https://upload.wikimedia.org/wikipedia/commons/thumb/f/f6/Naghshe_Jahan_Square_Isfahan_modified2.jpg/1920px-Naghshe_Jahan_Square_Isfahan_modified2.jpg",
 "image_hero": "https://upload.wikimedia.org/wikipedia/commons/thumb/f/f6/Naghshe_Jahan_Square_Isfahan_modified2.jpg/1920px-Naghshe_Jahan_Square_Isfahan_modified2.jpg",
 "metaDescription": "'Ispahan, moitié du monde' : joyau de l'architecture islamique persane avec sa place Naghch-e Djahan, ses mosquées aux dômes turquoise et ses ponts safavides.",
 "statistiques": {
  "restaurants_halal": 101,
  "mosquees": 39,
  "hotels": 119
 },
 "infoPratique": {
  "transport": "Accessible par avion / transports locaux.",
  "meilleureEpoque": "Printemps et automne."
 },
 "tags": [
  "halal"
 ],
 "restaurants": [
  {
   "nom": "رستوران شمعدونی",
   "type": "international",
   "priceRange": "€€",
   "mapsUrl": "https://maps.google.com/?q=32.6354509,51.6677526",
   "lat": 32.6354509,
   "lng": 51.6677526,
   "halalConfidence": "yes",
   "source": "osm"
  },
  {
   "nom": "بریان حاج محمود",
   "type": "Restaurant halal",
   "priceRange": "€€",
   "mapsUrl": "https://maps.google.com/?q=32.6679332,51.6839727",
   "lat": 32.6679332,
   "lng": 51.6839727,
   "halalConfidence": "yes",
   "source": "osm"
  },
  {
   "nom": "برگر تایم (فست فود)",
   "type": "burger, sandwich, pasta, juice, salad, hot dog, diner, fries",
   "priceRange": "€€",
   "mapsUrl": "https://maps.google.com/?q=32.6520125,51.6992794",
   "lat": 32.6520125,
   "lng": 51.6992794,
   "halalConfidence": "yes",
   "source": "osm"
  },
  {
   "nom": "خانه معلم شماره یک اصفهان",
   "type": "pizza, burger, sandwich, chicken, kebab, fish, salad, dessert, pasta",
   "priceRange": "€€",
   "mapsUrl": "https://maps.google.com/?q=32.6226768,51.6426085",
   "lat": 32.6226768,
   "lng": 51.6426085,
   "halalConfidence": "yes",
   "source": "osm"
  },
  {
   "nom": "خانه معلم شماره دو اصفهان",
   "type": "pizza, burger, sandwich, chicken, kebab, fish, salad, dessert, pasta",
   "priceRange": "€€",
   "mapsUrl": "https://maps.google.com/?q=32.702196,51.6646256",
   "lat": 32.702196,
   "lng": 51.6646256,
   "halalConfidence": "yes",
   "source": "osm"
  },
  {
   "nom": "خانه معلم شماره دو اصفهان",
   "type": "pizza, burger, sandwich, chicken, kebab, fish, salad, dessert, pasta",
   "priceRange": "€€",
   "mapsUrl": "https://maps.google.com/?q=32.7022085,51.6646457",
   "lat": 32.7022085,
   "lng": 51.6646457,
   "halalConfidence": "yes",
   "source": "osm"
  },
  {
   "nom": "خانه معلم شماره سه اصفهان",
   "type": "pizza, burger, sandwich, chicken, kebab, fish, salad, dessert, pasta",
   "priceRange": "€€",
   "mapsUrl": "https://maps.google.com/?q=32.6803062,51.7247313",
   "lat": 32.6803062,
   "lng": 51.7247313,
   "halalConfidence": "yes",
   "source": "osm"
  },
  {
   "nom": "فست فود دولپی",
   "type": "pizza, sandwich, regional, burger, italian",
   "priceRange": "€€",
   "mapsUrl": "https://maps.google.com/?q=32.7071537,51.6399995",
   "lat": 32.7071537,
   "lng": 51.6399995,
   "halalConfidence": "yes",
   "source": "osm"
  },
  {
   "nom": "رستوران هتل سیزنز",
   "type": "Restaurant halal",
   "priceRange": "€€",
   "mapsUrl": "https://maps.google.com/?q=32.6835241,51.7393381",
   "lat": 32.6835241,
   "lng": 51.7393381,
   "halalConfidence": "yes",
   "source": "osm"
  },
  {
   "nom": "فست فود میلانو",
   "type": "pizza, sandwich, wings, chicken, burger, hot dog, turkish",
   "priceRange": "€€",
   "mapsUrl": "https://maps.google.com/?q=32.6505891,51.6680165",
   "lat": 32.6505891,
   "lng": 51.6680165,
   "halalConfidence": "likely",
   "source": "osm"
  },
  {
   "nom": "رستوران شهرزاد",
   "type": "kebab",
   "priceRange": "€€",
   "mapsUrl": "https://maps.google.com/?q=32.6487725,51.6674278",
   "lat": 32.6487725,
   "lng": 51.6674278,
   "halalConfidence": "likely",
   "source": "osm"
  },
  {
   "nom": "Bagh Homayoun",
   "type": "persian",
   "priceRange": "€€",
   "mapsUrl": "https://maps.google.com/?q=32.6546603,51.6755225",
   "lat": 32.6546603,
   "lng": 51.6755225,
   "halalConfidence": "likely",
   "source": "osm"
  },
  {
   "nom": "رستوران فیروز",
   "type": "persian",
   "priceRange": "€€",
   "mapsUrl": "https://maps.google.com/?q=32.6536124,51.6756988",
   "lat": 32.6536124,
   "lng": 51.6756988,
   "halalConfidence": "likely",
   "source": "osm"
  },
  {
   "nom": "کافه رستوران خانه مینیاتور اصفهان",
   "type": "pizza, coffee shop, italian, persian, kebab, cake",
   "priceRange": "€€",
   "mapsUrl": "https://maps.google.com/?q=32.6554238,51.6768487",
   "lat": 32.6554238,
   "lng": 51.6768487,
   "halalConfidence": "likely",
   "source": "osm"
  },
  {
   "nom": "کباب بریانی ترخون",
   "type": "persian",
   "priceRange": "€€",
   "mapsUrl": "https://maps.google.com/?q=32.6621919,51.6737462",
   "lat": 32.6621919,
   "lng": 51.6737462,
   "halalConfidence": "likely",
   "source": "osm"
  },
  {
   "nom": "رستوران نگارستان",
   "type": "persian",
   "priceRange": "€€",
   "mapsUrl": "https://maps.google.com/?q=32.6513115,51.6538218",
   "lat": 32.6513115,
   "lng": 51.6538218,
   "halalConfidence": "likely",
   "source": "osm"
  },
  {
   "nom": "رستوران کباب",
   "type": "kebab, chicken",
   "priceRange": "€€",
   "mapsUrl": "https://maps.google.com/?q=32.655577,51.6788772",
   "lat": 32.655577,
   "lng": 51.6788772,
   "halalConfidence": "likely",
   "source": "osm"
  },
  {
   "nom": "سفره خانه سنتی نقش جهان",
   "type": "kebab, persian",
   "priceRange": "€€",
   "mapsUrl": "https://maps.google.com/?q=32.6580174,51.6784519",
   "lat": 32.6580174,
   "lng": 51.6784519,
   "halalConfidence": "likely",
   "source": "osm"
  },
  {
   "nom": "رستوران سی و سه پل",
   "type": "persian",
   "priceRange": "€€",
   "mapsUrl": "https://maps.google.com/?q=32.6422801,51.6675293",
   "lat": 32.6422801,
   "lng": 51.6675293,
   "halalConfidence": "likely",
   "source": "osm"
  },
  {
   "nom": "بریانی شهرزاد",
   "type": "persian",
   "priceRange": "€€",
   "mapsUrl": "https://maps.google.com/?q=32.6417339,51.6673196",
   "lat": 32.6417339,
   "lng": 51.6673196,
   "halalConfidence": "likely",
   "source": "osm"
  },
  {
   "nom": "کباب بریانی عشایر شعبه ۴",
   "type": "persian",
   "priceRange": "€€",
   "mapsUrl": "https://maps.google.com/?q=32.6567714,51.6831323",
   "lat": 32.6567714,
   "lng": 51.6831323,
   "halalConfidence": "likely",
   "source": "osm"
  },
  {
   "nom": "Somira",
   "type": "persian",
   "priceRange": "€€",
   "mapsUrl": "https://maps.google.com/?q=32.6600307,51.683203",
   "lat": 32.6600307,
   "lng": 51.683203,
   "halalConfidence": "likely",
   "source": "osm"
  },
  {
   "nom": "کباب سنتی بناب",
   "type": "kebab",
   "priceRange": "€€",
   "mapsUrl": "https://maps.google.com/?q=32.6390382,51.6539411",
   "lat": 32.6390382,
   "lng": 51.6539411,
   "halalConfidence": "likely",
   "source": "osm"
  },
  {
   "nom": "کباب سنتی بناب آذربایجان",
   "type": "kebab, persian",
   "priceRange": "€€",
   "mapsUrl": "https://maps.google.com/?q=32.6385536,51.6540018",
   "lat": 32.6385536,
   "lng": 51.6540018,
   "halalConfidence": "likely",
   "source": "osm"
  },
  {
   "nom": "اسنک آرپا",
   "type": "persian",
   "priceRange": "€€",
   "mapsUrl": "https://maps.google.com/?q=32.6377779,51.6540744",
   "lat": 32.6377779,
   "lng": 51.6540744,
   "halalConfidence": "likely",
   "source": "osm"
  },
  {
   "nom": "آرابو",
   "type": "arabo",
   "priceRange": "€€",
   "mapsUrl": "https://maps.google.com/?q=32.6365401,51.6552294",
   "lat": 32.6365401,
   "lng": 51.6552294,
   "halalConfidence": "likely",
   "source": "osm"
  },
  {
   "nom": "رستوران شاندیز آمیتیس",
   "type": "persian",
   "priceRange": "€€",
   "mapsUrl": "https://maps.google.com/?q=32.6370852,51.6528834",
   "lat": 32.6370852,
   "lng": 51.6528834,
   "halalConfidence": "likely",
   "source": "osm"
  },
  {
   "nom": "مجموعه غذایی پارکلند",
   "type": "kebab, coffee shop, regional, pizza, seafood, breakfast, cake, pasta, fish, salad, juice, tea, fine dining, wings, persian, middle eastern, soup, fries, brunch",
   "priceRange": "€€",
   "mapsUrl": "https://maps.google.com/?q=32.6392696,51.6482409",
   "lat": 32.6392696,
   "lng": 51.6482409,
   "halalConfidence": "likely",
   "source": "osm"
  },
  {
   "nom": "جوجه کباب نقش جهان",
   "type": "kebab",
   "priceRange": "€€",
   "mapsUrl": "https://maps.google.com/?q=32.6429906,51.6442033",
   "lat": 32.6429906,
   "lng": 51.6442033,
   "halalConfidence": "likely",
   "source": "osm"
  },
  {
   "nom": "کباب خانه ساحل",
   "type": "kebab",
   "priceRange": "€€",
   "mapsUrl": "https://maps.google.com/?q=32.6437055,51.6436543",
   "lat": 32.6437055,
   "lng": 51.6436543,
   "halalConfidence": "likely",
   "source": "osm"
  },
  {
   "nom": "کله پزی خیام",
   "type": "persian",
   "priceRange": "€€",
   "mapsUrl": "https://maps.google.com/?q=32.6431555,51.6436779",
   "lat": 32.6431555,
   "lng": 51.6436779,
   "halalConfidence": "likely",
   "source": "osm"
  },
  {
   "nom": "غذای مارنان",
   "type": "kebab, persian",
   "priceRange": "€€",
   "mapsUrl": "https://maps.google.com/?q=32.6428521,51.643794",
   "lat": 32.6428521,
   "lng": 51.643794,
   "halalConfidence": "likely",
   "source": "osm"
  },
  {
   "nom": "جوجه کباب بوستان",
   "type": "kebab, persian",
   "priceRange": "€€",
   "mapsUrl": "https://maps.google.com/?q=32.6397298,51.6453251",
   "lat": 32.6397298,
   "lng": 51.6453251,
   "halalConfidence": "likely",
   "source": "osm"
  },
  {
   "nom": "رستوران فودسان",
   "type": "kebab, chicken, pizza",
   "priceRange": "€€",
   "mapsUrl": "https://maps.google.com/?q=32.6341662,51.6816339",
   "lat": 32.6341662,
   "lng": 51.6816339,
   "halalConfidence": "likely",
   "source": "osm"
  },
  {
   "nom": "فودسان خانه کباب",
   "type": "kebab, chicken, pizza",
   "priceRange": "€€",
   "mapsUrl": "https://maps.google.com/?q=32.634157,51.6816696",
   "lat": 32.634157,
   "lng": 51.6816696,
   "halalConfidence": "likely",
   "source": "osm"
  },
  {
   "nom": "خوانسالار",
   "type": "kebab, fish and chips",
   "priceRange": "€€",
   "mapsUrl": "https://maps.google.com/?q=32.6300466,51.6657037",
   "lat": 32.6300466,
   "lng": 51.6657037,
   "halalConfidence": "likely",
   "source": "osm"
  },
  {
   "nom": "خورش ماست سنتی تاج الملوک",
   "type": "persian",
   "priceRange": "€€",
   "mapsUrl": "https://maps.google.com/?q=32.6300945,51.6717682",
   "lat": 32.6300945,
   "lng": 51.6717682,
   "halalConfidence": "likely",
   "source": "osm"
  },
  {
   "nom": "غذای جنوب",
   "type": "persian, kebab, pasta",
   "priceRange": "€€",
   "mapsUrl": "https://maps.google.com/?q=32.6380978,51.6429942",
   "lat": 32.6380978,
   "lng": 51.6429942,
   "halalConfidence": "likely",
   "source": "osm"
  },
  {
   "nom": "جگرکده خاطره ها",
   "type": "kebab",
   "priceRange": "€€",
   "mapsUrl": "https://maps.google.com/?q=32.6271389,51.671805",
   "lat": 32.6271389,
   "lng": 51.671805,
   "halalConfidence": "likely",
   "source": "osm"
  },
  {
   "nom": "آشپزی زاینده رود",
   "type": "persian",
   "priceRange": "€€",
   "mapsUrl": "https://maps.google.com/?q=32.6353807,51.6401757",
   "lat": 32.6353807,
   "lng": 51.6401757,
   "halalConfidence": "likely",
   "source": "osm"
  },
  {
   "nom": "خورش ماست زیتون طلا",
   "type": "persian",
   "priceRange": "€€",
   "mapsUrl": "https://maps.google.com/?q=32.6271058,51.6528014",
   "lat": 32.6271058,
   "lng": 51.6528014,
   "halalConfidence": "likely",
   "source": "osm"
  },
  {
   "nom": "جوجه زغالی دانیال",
   "type": "kebab",
   "priceRange": "€€",
   "mapsUrl": "https://maps.google.com/?q=32.6784922,51.6843299",
   "lat": 32.6784922,
   "lng": 51.6843299,
   "halalConfidence": "likely",
   "source": "osm"
  },
  {
   "nom": "آشپزی عالی",
   "type": "persian",
   "priceRange": "€€",
   "mapsUrl": "https://maps.google.com/?q=32.6262106,51.6526468",
   "lat": 32.6262106,
   "lng": 51.6526468,
   "halalConfidence": "likely",
   "source": "osm"
  },
  {
   "nom": "آشپزی حیدری",
   "type": "persian",
   "priceRange": "€€",
   "mapsUrl": "https://maps.google.com/?q=32.6261584,51.6526457",
   "lat": 32.6261584,
   "lng": 51.6526457,
   "halalConfidence": "likely",
   "source": "osm"
  },
  {
   "nom": "فست فود فود استیشن",
   "type": "sandwich, persian, pizza, burger",
   "priceRange": "€€",
   "mapsUrl": "https://maps.google.com/?q=32.6259244,51.6526205",
   "lat": 32.6259244,
   "lng": 51.6526205,
   "halalConfidence": "likely",
   "source": "osm"
  },
  {
   "nom": "پیتزا همبرگر پاییزان",
   "type": "sandwich, persian, pizza",
   "priceRange": "€€",
   "mapsUrl": "https://maps.google.com/?q=32.6239888,51.6524416",
   "lat": 32.6239888,
   "lng": 51.6524416,
   "halalConfidence": "likely",
   "source": "osm"
  },
  {
   "nom": "کبابی جوادیان",
   "type": "local, persian",
   "priceRange": "€€",
   "mapsUrl": "https://maps.google.com/?q=32.671301,51.6994705",
   "lat": 32.671301,
   "lng": 51.6994705,
   "halalConfidence": "likely",
   "source": "osm"
  },
  {
   "nom": "جوجه سرای جوادیان",
   "type": "kebab",
   "priceRange": "€€",
   "mapsUrl": "https://maps.google.com/?q=32.6712773,51.6994912",
   "lat": 32.6712773,
   "lng": 51.6994912,
   "halalConfidence": "likely",
   "source": "osm"
  },
  {
   "nom": "کترینگ غذای خانگی ترمه بانو",
   "type": "persian",
   "priceRange": "€€",
   "mapsUrl": "https://maps.google.com/?q=32.6210662,51.6719598",
   "lat": 32.6210662,
   "lng": 51.6719598,
   "halalConfidence": "likely",
   "source": "osm"
  },
  {
   "nom": "بن اپتی",
   "type": "burger, pizza, regional, chicken, sandwich, kebab, seafood, coffee shop",
   "priceRange": "€€",
   "mapsUrl": "https://maps.google.com/?q=32.6220319,51.6537862",
   "lat": 32.6220319,
   "lng": 51.6537862,
   "halalConfidence": "likely",
   "source": "osm"
  },
  {
   "nom": "فست فود جلیلی",
   "type": "burger, sandwich, pizza, persian",
   "priceRange": "€€",
   "mapsUrl": "https://maps.google.com/?q=32.6292816,51.6387469",
   "lat": 32.6292816,
   "lng": 51.6387469,
   "halalConfidence": "likely",
   "source": "osm"
  },
  {
   "nom": "فلافل کلبه جنوب",
   "type": "sandwich, persian",
   "priceRange": "€€",
   "mapsUrl": "https://maps.google.com/?q=32.6229349,51.649811",
   "lat": 32.6229349,
   "lng": 51.649811,
   "halalConfidence": "likely",
   "source": "osm"
  },
  {
   "nom": "غذای حاج بهزاد",
   "type": "persian",
   "priceRange": "€€",
   "mapsUrl": "https://maps.google.com/?q=32.6295784,51.6328019",
   "lat": 32.6295784,
   "lng": 51.6328019,
   "halalConfidence": "likely",
   "source": "osm"
  },
  {
   "nom": "غذای کوفتالو",
   "type": "persian",
   "priceRange": "€€",
   "mapsUrl": "https://maps.google.com/?q=32.6296665,51.632493",
   "lat": 32.6296665,
   "lng": 51.632493,
   "halalConfidence": "likely",
   "source": "osm"
  },
  {
   "nom": "کباب جوجه و بریان خوشنام",
   "type": "persian, kebab",
   "priceRange": "€€",
   "mapsUrl": "https://maps.google.com/?q=32.6237323,51.6293805",
   "lat": 32.6237323,
   "lng": 51.6293805,
   "halalConfidence": "likely",
   "source": "osm"
  },
  {
   "nom": "آش سرای مادر",
   "type": "persian",
   "priceRange": "€€",
   "mapsUrl": "https://maps.google.com/?q=32.6227735,51.626226",
   "lat": 32.6227735,
   "lng": 51.626226,
   "halalConfidence": "likely",
   "source": "osm"
  },
  {
   "nom": "فلافل جی",
   "type": "burger, hot dog, persian, pizza, sandwich",
   "priceRange": "€€",
   "mapsUrl": "https://maps.google.com/?q=32.6225632,51.6262263",
   "lat": 32.6225632,
   "lng": 51.6262263,
   "halalConfidence": "likely",
   "source": "osm"
  },
  {
   "nom": "آش آبادان وکیلی",
   "type": "persian",
   "priceRange": "€€",
   "mapsUrl": "https://maps.google.com/?q=32.6223034,51.6262272",
   "lat": 32.6223034,
   "lng": 51.6262272,
   "halalConfidence": "likely",
   "source": "osm"
  },
  {
   "nom": "حلیم و آش حیدری",
   "type": "persian",
   "priceRange": "€€",
   "mapsUrl": "https://maps.google.com/?q=32.6222428,51.6258775",
   "lat": 32.6222428,
   "lng": 51.6258775,
   "halalConfidence": "likely",
   "source": "osm"
  },
  {
   "nom": "آش و حلیم دهکده",
   "type": "persian",
   "priceRange": "€€",
   "mapsUrl": "https://maps.google.com/?q=32.6215513,51.6262385",
   "lat": 32.6215513,
   "lng": 51.6262385,
   "halalConfidence": "likely",
   "source": "osm"
  },
  {
   "nom": "فلافل آقای نخود",
   "type": "burger, hot dog, persian",
   "priceRange": "€€",
   "mapsUrl": "https://maps.google.com/?q=32.6217837,51.6258928",
   "lat": 32.6217837,
   "lng": 51.6258928,
   "halalConfidence": "likely",
   "source": "osm"
  },
  {
   "nom": "کباب و بریان عشایر",
   "type": "persian",
   "priceRange": "€€",
   "mapsUrl": "https://maps.google.com/?q=32.6236815,51.6209194",
   "lat": 32.6236815,
   "lng": 51.6209194,
   "halalConfidence": "likely",
   "source": "osm"
  },
  {
   "nom": "آش و حلیم خان بابا",
   "type": "persian",
   "priceRange": "€€",
   "mapsUrl": "https://maps.google.com/?q=32.6191086,51.6257804",
   "lat": 32.6191086,
   "lng": 51.6257804,
   "halalConfidence": "likely",
   "source": "osm"
  },
  {
   "nom": "کباب و بریان توژان",
   "type": "persian, kebab",
   "priceRange": "€€",
   "mapsUrl": "https://maps.google.com/?q=32.618994,51.6257751",
   "lat": 32.618994,
   "lng": 51.6257751,
   "halalConfidence": "likely",
   "source": "osm"
  },
  {
   "nom": "آشکده دورهمی",
   "type": "persian",
   "priceRange": "€€",
   "mapsUrl": "https://maps.google.com/?q=32.6335363,51.6099215",
   "lat": 32.6335363,
   "lng": 51.6099215,
   "halalConfidence": "likely",
   "source": "osm"
  },
  {
   "nom": "کباب ساطوری بناب آذربایجان",
   "type": "kebab, persian",
   "priceRange": "€€",
   "mapsUrl": "https://maps.google.com/?q=32.7093912,51.6765245",
   "lat": 32.7093912,
   "lng": 51.6765245,
   "halalConfidence": "likely",
   "source": "osm"
  },
  {
   "nom": "کباب سرای ساسانی",
   "type": "persian, kebab",
   "priceRange": "€€",
   "mapsUrl": "https://maps.google.com/?q=32.7100061,51.6766323",
   "lat": 32.7100061,
   "lng": 51.6766323,
   "halalConfidence": "likely",
   "source": "osm"
  },
  {
   "nom": "آش و حلیم روناک",
   "type": "persian",
   "priceRange": "€€",
   "mapsUrl": "https://maps.google.com/?q=32.6137818,51.6176455",
   "lat": 32.6137818,
   "lng": 51.6176455,
   "halalConfidence": "likely",
   "source": "osm"
  },
  {
   "nom": "کباب جوجه گلپایگانی",
   "type": "kebab, chicken",
   "priceRange": "€€",
   "mapsUrl": "https://maps.google.com/?q=32.607239,51.6242986",
   "lat": 32.607239,
   "lng": 51.6242986,
   "halalConfidence": "likely",
   "source": "osm"
  },
  {
   "nom": "کباب بریان فرهادی",
   "type": "kebab, persian",
   "priceRange": "€€",
   "mapsUrl": "https://maps.google.com/?q=32.711681,51.6766013",
   "lat": 32.711681,
   "lng": 51.6766013,
   "halalConfidence": "likely",
   "source": "osm"
  },
  {
   "nom": "کافه کباب پژمان",
   "type": "kebab",
   "priceRange": "€€",
   "mapsUrl": "https://maps.google.com/?q=32.6082571,51.6225723",
   "lat": 32.6082571,
   "lng": 51.6225723,
   "halalConfidence": "likely",
   "source": "osm"
  },
  {
   "nom": "اکبر جوجه شعبه ۲",
   "type": "kebab, persian, chicken",
   "priceRange": "€€",
   "mapsUrl": "https://maps.google.com/?q=32.7122192,51.6757727",
   "lat": 32.7122192,
   "lng": 51.6757727,
   "halalConfidence": "likely",
   "source": "osm"
  },
  {
   "nom": "کباب دلوان",
   "type": "kebab, persian",
   "priceRange": "€€",
   "mapsUrl": "https://maps.google.com/?q=32.7128574,51.6757339",
   "lat": 32.7128574,
   "lng": 51.6757339,
   "halalConfidence": "likely",
   "source": "osm"
  },
  {
   "nom": "فست فود هرمس",
   "type": "pizza, burger, cake, persian, sandwich, wings",
   "priceRange": "€€",
   "mapsUrl": "https://maps.google.com/?q=32.7132418,51.6810128",
   "lat": 32.7132418,
   "lng": 51.6810128,
   "halalConfidence": "likely",
   "source": "osm"
  },
  {
   "nom": "کبابی",
   "type": "kebab",
   "priceRange": "€€",
   "mapsUrl": "https://maps.google.com/?q=32.713693,51.680528",
   "lat": 32.713693,
   "lng": 51.680528,
   "halalConfidence": "likely",
   "source": "osm"
  },
  {
   "nom": "کبابی بریانی محمدی",
   "type": "persian, kebab",
   "priceRange": "€€",
   "mapsUrl": "https://maps.google.com/?q=32.7135862,51.6821859",
   "lat": 32.7135862,
   "lng": 51.6821859,
   "halalConfidence": "likely",
   "source": "osm"
  },
  {
   "nom": "مجموعه پذیرایی نگارستان",
   "type": "persian",
   "priceRange": "€€",
   "mapsUrl": "https://maps.google.com/?q=32.7145174,51.6538181",
   "lat": 32.7145174,
   "lng": 51.6538181,
   "halalConfidence": "likely",
   "source": "osm"
  },
  {
   "nom": "غذای آتش",
   "type": "persian",
   "priceRange": "€€",
   "mapsUrl": "https://maps.google.com/?q=32.7151565,51.6866697",
   "lat": 32.7151565,
   "lng": 51.6866697,
   "halalConfidence": "likely",
   "source": "osm"
  },
  {
   "nom": "کباب ذغالی باران",
   "type": "arab, kebab, persian, asian",
   "priceRange": "€€",
   "mapsUrl": "https://maps.google.com/?q=32.6564421,51.7527146",
   "lat": 32.6564421,
   "lng": 51.7527146,
   "halalConfidence": "likely",
   "source": "osm"
  },
  {
   "nom": "فلافل سید رضا",
   "type": "arab, diner, lebanese, persian, sandwich, sausage",
   "priceRange": "€€",
   "mapsUrl": "https://maps.google.com/?q=32.6589637,51.754659",
   "lat": 32.6589637,
   "lng": 51.754659,
   "halalConfidence": "likely",
   "source": "osm"
  },
  {
   "nom": "رستوران پریس",
   "type": "kebab, local, persian, fish, seafood, diner",
   "priceRange": "€€",
   "mapsUrl": "https://maps.google.com/?q=32.6060512,51.7343101",
   "lat": 32.6060512,
   "lng": 51.7343101,
   "halalConfidence": "likely",
   "source": "osm"
  },
  {
   "nom": "رستوران رحیمی",
   "type": "fish, grill, kebab, persian, seafood",
   "priceRange": "€€",
   "mapsUrl": "https://maps.google.com/?q=32.6559263,51.757343",
   "lat": 32.6559263,
   "lng": 51.757343,
   "halalConfidence": "likely",
   "source": "osm"
  },
  {
   "nom": "سی تارا",
   "type": "chicken, kebab, local, persian, seafood, fish, diner",
   "priceRange": "€€",
   "mapsUrl": "https://maps.google.com/?q=32.6006441,51.734652",
   "lat": 32.6006441,
   "lng": 51.734652,
   "halalConfidence": "likely",
   "source": "osm"
  },
  {
   "nom": "باغ رستوران شب نشین",
   "type": "persian",
   "priceRange": "€€",
   "mapsUrl": "https://maps.google.com/?q=32.6460939,51.564695",
   "lat": 32.6460939,
   "lng": 51.564695,
   "halalConfidence": "likely",
   "source": "osm"
  },
  {
   "nom": "فست فود دوستان",
   "type": "italian, grill, pizza, chicken, sausage, asian, persian",
   "priceRange": "€€",
   "mapsUrl": "https://maps.google.com/?q=32.6518108,51.76903",
   "lat": 32.6518108,
   "lng": 51.76903,
   "halalConfidence": "likely",
   "source": "osm"
  },
  {
   "nom": "جگرکی و کبابی محمد",
   "type": "kebab, persian",
   "priceRange": "€€",
   "mapsUrl": "https://maps.google.com/?q=32.6161733,51.5702146",
   "lat": 32.6161733,
   "lng": 51.5702146,
   "halalConfidence": "likely",
   "source": "osm"
  },
  {
   "nom": "کبابی درکه",
   "type": "kebab",
   "priceRange": "€€",
   "mapsUrl": "https://maps.google.com/?q=32.5581107,51.6803869",
   "lat": 32.5581107,
   "lng": 51.6803869,
   "halalConfidence": "likely",
   "source": "osm"
  },
  {
   "nom": "غذای خانگی سما",
   "type": "persian",
   "priceRange": "€€",
   "mapsUrl": "https://maps.google.com/?q=32.5509216,51.6833096",
   "lat": 32.5509216,
   "lng": 51.6833096,
   "halalConfidence": "likely",
   "source": "osm"
  },
  {
   "nom": "رستوران vip",
   "type": "persian",
   "priceRange": "€€",
   "mapsUrl": "https://maps.google.com/?q=32.5517272,51.6902278",
   "lat": 32.5517272,
   "lng": 51.6902278,
   "halalConfidence": "likely",
   "source": "osm"
  },
  {
   "nom": "بازی دراز",
   "type": "burger, fish, grill, hotdog, sandwich, turkish",
   "priceRange": "€€",
   "mapsUrl": "https://maps.google.com/?q=32.5480244,51.6760752",
   "lat": 32.5480244,
   "lng": 51.6760752,
   "halalConfidence": "likely",
   "source": "osm"
  },
  {
   "nom": "جگرسرا کردستان",
   "type": "kebab",
   "priceRange": "€€",
   "mapsUrl": "https://maps.google.com/?q=32.6087315,51.5501412",
   "lat": 32.6087315,
   "lng": 51.5501412,
   "halalConfidence": "likely",
   "source": "osm"
  },
  {
   "nom": "آب انار دونه",
   "lat": 32.653661,
   "lng": 51.6676546,
   "type": "persian",
   "halalConfidence": "likely",
   "mapsUrl": "https://maps.google.com/?q=32.653661,51.6676546",
   "source": "osm"
  },
  {
   "nom": "کافه آقای فنجان",
   "lat": 32.6551153,
   "lng": 51.6679287,
   "type": "breakfast, french, tea, cake, persian, coffee shop, american, pasta, diner, chicken, arab",
   "halalConfidence": "likely",
   "mapsUrl": "https://maps.google.com/?q=32.6551153,51.6679287",
   "source": "osm"
  },
  {
   "nom": "کافه مس و قالی",
   "lat": 32.6589346,
   "lng": 51.675379,
   "type": "breakfast, diner, tea, cake, persian, coffee shop",
   "halalConfidence": "likely",
   "mapsUrl": "https://maps.google.com/?q=32.6589346,51.675379",
   "source": "osm"
  },
  {
   "nom": "آب انار شاه دونه",
   "lat": 32.6407552,
   "lng": 51.6672012,
   "type": "burger, persian, deli",
   "halalConfidence": "likely",
   "mapsUrl": "https://maps.google.com/?q=32.6407552,51.6672012",
   "source": "osm"
  },
  {
   "nom": "کافه زمزم",
   "lat": 32.6637564,
   "lng": 51.6774094,
   "type": "persian",
   "halalConfidence": "likely",
   "mapsUrl": "https://maps.google.com/?q=32.6637564,51.6774094",
   "source": "osm"
  },
  {
   "nom": "کافه وان",
   "lat": 32.6363057,
   "lng": 51.6571019,
   "type": "coffee shop, ice cream, breakfast, persian, sandwich, turkish, arab, cake, french, international, italian, local",
   "halalConfidence": "likely",
   "mapsUrl": "https://maps.google.com/?q=32.6363057,51.6571019",
   "source": "osm"
  },
  {
   "nom": "رستوران هندی فودیز",
   "lat": 32.6349455,
   "lng": 51.6782866,
   "type": "indian",
   "halalConfidence": "likely",
   "mapsUrl": "https://maps.google.com/?q=32.6349455,51.6782866",
   "source": "osm"
  },
  {
   "nom": "فروشگاه قهوه بمباس",
   "lat": 32.6749996,
   "lng": 51.6483685,
   "type": "coffee shop, tea, juice, persian",
   "halalConfidence": "likely",
   "mapsUrl": "https://maps.google.com/?q=32.6749996,51.6483685",
   "source": "osm"
  },
  {
   "nom": "کافه گالری ویزور",
   "lat": 32.620122,
   "lng": 51.671225,
   "type": "persian",
   "halalConfidence": "likely",
   "mapsUrl": "https://maps.google.com/?q=32.620122,51.671225",
   "source": "osm"
  },
  {
   "nom": "کافی شاپ برمک",
   "lat": 32.6126202,
   "lng": 51.6770625,
   "type": "international, ice cream, cake, barbecue, persian, coffee shop, asian",
   "halalConfidence": "likely",
   "mapsUrl": "https://maps.google.com/?q=32.6126202,51.6770625",
   "source": "osm"
  }
 ],
 "hotels": [
  {
   "nom": "هتل شیخ بهایی",
   "categorie": "Hôtel",
   "priceRange": "€€",
   "mapsUrl": "https://maps.google.com/?q=32.6530322,51.6676876",
   "lat": 32.6530322,
   "lng": 51.6676876,
   "halalFriendly": false,
   "bookingUrl": "https://maps.google.com/?q=32.6530322,51.6676876",
   "source": "osm"
  },
  {
   "nom": "پارس",
   "categorie": "Hôtel",
   "priceRange": "€€",
   "mapsUrl": "https://maps.google.com/?q=32.6523066,51.6676162",
   "lat": 32.6523066,
   "lng": 51.6676162,
   "halalFriendly": false,
   "bookingUrl": "https://maps.google.com/?q=32.6523066,51.6676162",
   "source": "osm"
  },
  {
   "nom": "مهمانسرا",
   "categorie": "Maison d'hôtes",
   "priceRange": "€€",
   "mapsUrl": "https://maps.google.com/?q=32.6534492,51.6632759",
   "lat": 32.6534492,
   "lng": 51.6632759,
   "halalFriendly": false,
   "bookingUrl": "http://mehramoz.com/news/isfahan_hostel/",
   "source": "osm"
  },
  {
   "nom": "هتل ایران",
   "categorie": "Hôtel",
   "priceRange": "€€",
   "mapsUrl": "https://maps.google.com/?q=32.6550499,51.668454",
   "lat": 32.6550499,
   "lng": 51.668454,
   "halalFriendly": false,
   "bookingUrl": "http://www.iranhotel.biz",
   "source": "osm"
  },
  {
   "nom": "أغا ربيعي خونه",
   "categorie": "Auberge",
   "priceRange": "€€",
   "mapsUrl": "https://maps.google.com/?q=32.656349,51.6656984",
   "lat": 32.656349,
   "lng": 51.6656984,
   "halalFriendly": false,
   "bookingUrl": "https://maps.google.com/?q=32.656349,51.6656984",
   "source": "osm"
  },
  {
   "nom": "پانسیون مهر اصفهان",
   "categorie": "Auberge",
   "priceRange": "€€",
   "mapsUrl": "https://maps.google.com/?q=32.6540825,51.6625692",
   "lat": 32.6540825,
   "lng": 51.6625692,
   "halalFriendly": false,
   "bookingUrl": "http://mehramoz.com/news/isfahan_hostel/",
   "source": "osm"
  },
  {
   "nom": "اغا ربیعی خونه",
   "categorie": "Auberge",
   "priceRange": "€€",
   "mapsUrl": "https://maps.google.com/?q=32.6568974,51.6663803",
   "lat": 32.6568974,
   "lng": 51.6663803,
   "halalFriendly": false,
   "bookingUrl": "https://maps.google.com/?q=32.6568974,51.6663803",
   "source": "osm"
  },
  {
   "nom": "هتل پارت",
   "categorie": "Hôtel",
   "priceRange": "€€",
   "mapsUrl": "https://maps.google.com/?q=32.6507551,51.6660773",
   "lat": 32.6507551,
   "lng": 51.6660773,
   "halalFriendly": false,
   "bookingUrl": "https://maps.google.com/?q=32.6507551,51.6660773",
   "source": "osm"
  },
  {
   "nom": "هتل خاتون",
   "categorie": "Hôtel",
   "priceRange": "€€",
   "mapsUrl": "https://maps.google.com/?q=32.6507071,51.666604",
   "lat": 32.6507071,
   "lng": 51.666604,
   "halalFriendly": false,
   "bookingUrl": "https://maps.google.com/?q=32.6507071,51.666604",
   "source": "osm"
  },
  {
   "nom": "پارت",
   "categorie": "Hôtel",
   "priceRange": "€€",
   "mapsUrl": "https://maps.google.com/?q=32.6506355,51.6672997",
   "lat": 32.6506355,
   "lng": 51.6672997,
   "halalFriendly": false,
   "bookingUrl": "https://maps.google.com/?q=32.6506355,51.6672997",
   "source": "osm"
  },
  {
   "nom": "هتل پارس",
   "categorie": "Hôtel",
   "priceRange": "€€",
   "mapsUrl": "https://maps.google.com/?q=32.6504004,51.6679188",
   "lat": 32.6504004,
   "lng": 51.6679188,
   "halalFriendly": false,
   "bookingUrl": "https://maps.google.com/?q=32.6504004,51.6679188",
   "source": "osm"
  },
  {
   "nom": "هتل جمشید",
   "categorie": "Hôtel",
   "priceRange": "€€",
   "mapsUrl": "https://maps.google.com/?q=32.6571781,51.668833",
   "lat": 32.6571781,
   "lng": 51.668833,
   "halalFriendly": false,
   "bookingUrl": "https://maps.google.com/?q=32.6571781,51.668833",
   "source": "osm"
  },
  {
   "nom": "اقامتگاه بومگردی خلوت‌سرا",
   "categorie": "Maison d'hôtes",
   "priceRange": "€€",
   "mapsUrl": "https://maps.google.com/?q=32.6584719,51.666276",
   "lat": 32.6584719,
   "lng": 51.666276,
   "halalFriendly": false,
   "bookingUrl": "https://khalvathouse.com",
   "source": "osm"
  },
  {
   "nom": "هتل پارسیان عالی‌قاپو",
   "categorie": "Hôtel",
   "priceRange": "€€€€",
   "score": 4,
   "mapsUrl": "https://maps.google.com/?q=32.6492778,51.6676484",
   "lat": 32.6492778,
   "lng": 51.6676484,
   "halalFriendly": false,
   "bookingUrl": "https://aliqapuhotel.ir/",
   "source": "osm"
  },
  {
   "nom": "هتل سعدی",
   "categorie": "Hôtel",
   "priceRange": "€€",
   "mapsUrl": "https://maps.google.com/?q=32.6488387,51.6665342",
   "lat": 32.6488387,
   "lng": 51.6665342,
   "halalFriendly": false,
   "bookingUrl": "https://maps.google.com/?q=32.6488387,51.6665342",
   "source": "osm"
  },
  {
   "nom": "سفیر",
   "categorie": "Hôtel",
   "priceRange": "€€",
   "mapsUrl": "https://maps.google.com/?q=32.6507694,51.6707576",
   "lat": 32.6507694,
   "lng": 51.6707576,
   "halalFriendly": false,
   "bookingUrl": "https://maps.google.com/?q=32.6507694,51.6707576",
   "source": "osm"
  },
  {
   "nom": "عباس اباد",
   "categorie": "Hôtel",
   "priceRange": "€€",
   "mapsUrl": "https://maps.google.com/?q=32.6485949,51.6663165",
   "lat": 32.6485949,
   "lng": 51.6663165,
   "halalFriendly": false,
   "bookingUrl": "https://maps.google.com/?q=32.6485949,51.6663165",
   "source": "osm"
  },
  {
   "nom": "هتل سفیر",
   "categorie": "Hôtel",
   "priceRange": "€€",
   "mapsUrl": "https://maps.google.com/?q=32.6506601,51.6710525",
   "lat": 32.6506601,
   "lng": 51.6710525,
   "halalFriendly": false,
   "bookingUrl": "https://maps.google.com/?q=32.6506601,51.6710525",
   "source": "osm"
  },
  {
   "nom": "هتل توریست",
   "categorie": "Hôtel",
   "priceRange": "€€€",
   "score": 3,
   "mapsUrl": "https://maps.google.com/?q=32.6486144,51.667563",
   "lat": 32.6486144,
   "lng": 51.667563,
   "halalFriendly": false,
   "bookingUrl": "https://maps.google.com/?q=32.6486144,51.667563",
   "source": "osm"
  },
  {
   "nom": "هتل میهن",
   "categorie": "Hôtel",
   "priceRange": "€€",
   "mapsUrl": "https://maps.google.com/?q=32.658697,51.669225",
   "lat": 32.658697,
   "lng": 51.669225,
   "halalFriendly": false,
   "bookingUrl": "https://maps.google.com/?q=32.658697,51.669225",
   "source": "osm"
  },
  {
   "nom": "هتل بین‌المللی ویرا",
   "categorie": "Hôtel",
   "priceRange": "€€€€",
   "score": 5,
   "mapsUrl": "https://maps.google.com/?q=32.6505567,51.6713381",
   "lat": 32.6505567,
   "lng": 51.6713381,
   "halalFriendly": false,
   "bookingUrl": "https://virahotels.com/",
   "source": "osm"
  },
  {
   "nom": "هتل بین‌المللی ویرا",
   "categorie": "Hôtel",
   "priceRange": "€€€€",
   "score": 5,
   "mapsUrl": "https://maps.google.com/?q=32.6505761,51.6713734",
   "lat": 32.6505761,
   "lng": 51.6713734,
   "halalFriendly": false,
   "bookingUrl": "https://virahotels.com/",
   "source": "osm"
  },
  {
   "nom": "هتل طوس",
   "categorie": "Hôtel",
   "priceRange": "€€",
   "mapsUrl": "https://maps.google.com/?q=32.6483045,51.6677065",
   "lat": 32.6483045,
   "lng": 51.6677065,
   "halalFriendly": false,
   "bookingUrl": "https://maps.google.com/?q=32.6483045,51.6677065",
   "source": "osm"
  },
  {
   "nom": "هتل پیروزی",
   "categorie": "Hôtel",
   "priceRange": "€€",
   "mapsUrl": "https://maps.google.com/?q=32.6590894,51.6691753",
   "lat": 32.6590894,
   "lng": 51.6691753,
   "halalFriendly": false,
   "bookingUrl": "https://maps.google.com/?q=32.6590894,51.6691753",
   "source": "osm"
  },
  {
   "nom": "سفیر",
   "categorie": "Hôtel",
   "priceRange": "€€",
   "mapsUrl": "https://maps.google.com/?q=32.6505805,51.6719889",
   "lat": 32.6505805,
   "lng": 51.6719889,
   "halalFriendly": false,
   "bookingUrl": "https://maps.google.com/?q=32.6505805,51.6719889",
   "source": "osm"
  },
  {
   "nom": "هتل نقش جهان",
   "categorie": "Hôtel",
   "priceRange": "€€",
   "mapsUrl": "https://maps.google.com/?q=32.6593494,51.6691876",
   "lat": 32.6593494,
   "lng": 51.6691876,
   "halalFriendly": false,
   "bookingUrl": "https://maps.google.com/?q=32.6593494,51.6691876",
   "source": "osm"
  },
  {
   "nom": "ساختمان قرشی",
   "categorie": "Appartement",
   "priceRange": "€€",
   "mapsUrl": "https://maps.google.com/?q=32.6474097,51.6681453",
   "lat": 32.6474097,
   "lng": 51.6681453,
   "halalFriendly": false,
   "bookingUrl": "https://maps.google.com/?q=32.6474097,51.6681453",
   "source": "osm"
  },
  {
   "nom": "هزار و یک شب چهار باغ",
   "categorie": "Hôtel",
   "priceRange": "€€",
   "mapsUrl": "https://maps.google.com/?q=32.660467,51.6699055",
   "lat": 32.660467,
   "lng": 51.6699055,
   "halalFriendly": false,
   "bookingUrl": "https://maps.google.com/?q=32.660467,51.6699055",
   "source": "osm"
  },
  {
   "nom": "هتل ونوس",
   "categorie": "Hôtel",
   "priceRange": "€€",
   "mapsUrl": "https://maps.google.com/?q=32.6507715,51.6739769",
   "lat": 32.6507715,
   "lng": 51.6739769,
   "halalFriendly": false,
   "bookingUrl": "https://maps.google.com/?q=32.6507715,51.6739769",
   "source": "osm"
  },
  {
   "nom": "جمشيد",
   "categorie": "Hôtel",
   "priceRange": "€€",
   "mapsUrl": "https://maps.google.com/?q=32.6609136,51.6693913",
   "lat": 32.6609136,
   "lng": 51.6693913,
   "halalFriendly": false,
   "bookingUrl": "https://maps.google.com/?q=32.6609136,51.6693913",
   "source": "osm"
  },
  {
   "nom": "هتل طوبی",
   "categorie": "Hôtel",
   "priceRange": "€€",
   "mapsUrl": "https://maps.google.com/?q=32.6484181,51.6726643",
   "lat": 32.6484181,
   "lng": 51.6726643,
   "halalFriendly": false,
   "bookingUrl": "https://maps.google.com/?q=32.6484181,51.6726643",
   "source": "osm"
  },
  {
   "nom": "هتل پاسارگاد",
   "categorie": "Hôtel",
   "priceRange": "€€",
   "mapsUrl": "https://maps.google.com/?q=32.6523182,51.6756481",
   "lat": 32.6523182,
   "lng": 51.6756481,
   "halalFriendly": false,
   "bookingUrl": "https://maps.google.com/?q=32.6523182,51.6756481",
   "source": "osm"
  },
  {
   "nom": "هشت بهشت",
   "categorie": "Hôtel",
   "priceRange": "€€",
   "mapsUrl": "https://maps.google.com/?q=32.6522024,51.6758385",
   "lat": 32.6522024,
   "lng": 51.6758385,
   "halalFriendly": false,
   "bookingUrl": "http://www.hbahotel.com",
   "source": "osm"
  },
  {
   "nom": "هتل ربیع",
   "categorie": "Hôtel",
   "priceRange": "€€",
   "mapsUrl": "https://maps.google.com/?q=32.6557575,51.6758922",
   "lat": 32.6557575,
   "lng": 51.6758922,
   "halalFriendly": false,
   "bookingUrl": "https://maps.google.com/?q=32.6557575,51.6758922",
   "source": "osm"
  },
  {
   "nom": "اقامتگاه بومگردی چیلا",
   "categorie": "Auberge",
   "priceRange": "€€",
   "mapsUrl": "https://maps.google.com/?q=32.6548132,51.6761097",
   "lat": 32.6548132,
   "lng": 51.6761097,
   "halalFriendly": false,
   "bookingUrl": "https://isfahan-hostel.com/",
   "source": "osm"
  },
  {
   "nom": "پارتیکان",
   "categorie": "Hôtel",
   "priceRange": "€€",
   "mapsUrl": "https://maps.google.com/?q=32.6559755,51.6760343",
   "lat": 32.6559755,
   "lng": 51.6760343,
   "halalFriendly": false,
   "bookingUrl": "https://maps.google.com/?q=32.6559755,51.6760343",
   "source": "osm"
  },
  {
   "nom": "هتل کاربات",
   "categorie": "Hôtel",
   "priceRange": "€€",
   "mapsUrl": "https://maps.google.com/?q=32.651425,51.6760263",
   "lat": 32.651425,
   "lng": 51.6760263,
   "halalFriendly": false,
   "bookingUrl": "https://maps.google.com/?q=32.651425,51.6760263",
   "source": "osm"
  },
  {
   "nom": "هتل کاربات",
   "categorie": "Hôtel",
   "priceRange": "€€",
   "mapsUrl": "https://maps.google.com/?q=32.6514582,51.6761572",
   "lat": 32.6514582,
   "lng": 51.6761572,
   "halalFriendly": false,
   "bookingUrl": "https://maps.google.com/?q=32.6514582,51.6761572",
   "source": "osm"
  },
  {
   "nom": "هتل فیروزه",
   "categorie": "Hôtel",
   "priceRange": "€€",
   "mapsUrl": "https://maps.google.com/?q=32.6558941,51.6765216",
   "lat": 32.6558941,
   "lng": 51.6765216,
   "halalFriendly": false,
   "bookingUrl": "https://maps.google.com/?q=32.6558941,51.6765216",
   "source": "osm"
  },
  {
   "nom": "سرای درب کوشک",
   "categorie": "Hôtel",
   "priceRange": "€€",
   "mapsUrl": "https://maps.google.com/?q=32.6629475,51.6678536",
   "lat": 32.6629475,
   "lng": 51.6678536,
   "halalFriendly": false,
   "bookingUrl": "https://maps.google.com/?q=32.6629475,51.6678536",
   "source": "osm"
  },
  {
   "nom": "هتل کریاس",
   "categorie": "Hôtel",
   "priceRange": "€€€€",
   "score": 4,
   "mapsUrl": "https://maps.google.com/?q=32.653991,51.6771191",
   "lat": 32.653991,
   "lng": 51.6771191,
   "halalFriendly": false,
   "bookingUrl": "http://www.keryas-isfahan.com",
   "source": "osm"
  },
  {
   "nom": "هتل صفوی",
   "categorie": "Hôtel",
   "priceRange": "€€",
   "mapsUrl": "https://maps.google.com/?q=32.6502829,51.6773604",
   "lat": 32.6502829,
   "lng": 51.6773604,
   "halalFriendly": false,
   "bookingUrl": "https://maps.google.com/?q=32.6502829,51.6773604",
   "source": "osm"
  },
  {
   "nom": "هتل ضیایی",
   "categorie": "Hôtel",
   "priceRange": "€€",
   "mapsUrl": "https://maps.google.com/?q=32.6635436,51.6703168",
   "lat": 32.6635436,
   "lng": 51.6703168,
   "halalFriendly": false,
   "bookingUrl": "https://maps.google.com/?q=32.6635436,51.6703168",
   "source": "osm"
  },
  {
   "nom": "هستل امیرکبیر",
   "categorie": "Auberge",
   "priceRange": "€€",
   "mapsUrl": "https://maps.google.com/?q=32.6638965,51.6698774",
   "lat": 32.6638965,
   "lng": 51.6698774,
   "halalFriendly": false,
   "bookingUrl": "https://maps.google.com/?q=32.6638965,51.6698774",
   "source": "osm"
  },
  {
   "nom": "هتل پرشیا",
   "categorie": "Hôtel",
   "priceRange": "€€",
   "mapsUrl": "https://maps.google.com/?q=32.6641195,51.6697836",
   "lat": 32.6641195,
   "lng": 51.6697836,
   "halalFriendly": false,
   "bookingUrl": "https://maps.google.com/?q=32.6641195,51.6697836",
   "source": "osm"
  },
  {
   "nom": "Ziaei Hostel",
   "categorie": "Auberge",
   "priceRange": "€€",
   "mapsUrl": "https://maps.google.com/?q=32.6639662,51.6703381",
   "lat": 32.6639662,
   "lng": 51.6703381,
   "halalFriendly": false,
   "bookingUrl": "https://maps.google.com/?q=32.6639662,51.6703381",
   "source": "osm"
  },
  {
   "nom": "سكن",
   "categorie": "Appartement",
   "priceRange": "€€",
   "mapsUrl": "https://maps.google.com/?q=32.6645955,51.6679456",
   "lat": 32.6645955,
   "lng": 51.6679456,
   "halalFriendly": false,
   "bookingUrl": "https://maps.google.com/?q=32.6645955,51.6679456",
   "source": "osm"
  },
  {
   "nom": "سكن",
   "categorie": "Appartement",
   "priceRange": "€€",
   "mapsUrl": "https://maps.google.com/?q=32.6647998,51.667675",
   "lat": 32.6647998,
   "lng": 51.667675,
   "halalFriendly": false,
   "bookingUrl": "https://maps.google.com/?q=32.6647998,51.667675",
   "source": "osm"
  },
  {
   "nom": "هتل صوفی",
   "categorie": "Hôtel",
   "priceRange": "€€",
   "mapsUrl": "https://maps.google.com/?q=32.6642481,51.6704017",
   "lat": 32.6642481,
   "lng": 51.6704017,
   "halalFriendly": false,
   "bookingUrl": "https://maps.google.com/?q=32.6642481,51.6704017",
   "source": "osm"
  },
  {
   "nom": "مهمانپذیر جهان",
   "categorie": "Maison d'hôtes",
   "priceRange": "€€",
   "mapsUrl": "https://maps.google.com/?q=32.6518642,51.6529776",
   "lat": 32.6518642,
   "lng": 51.6529776,
   "halalFriendly": false,
   "bookingUrl": "https://maps.google.com/?q=32.6518642,51.6529776",
   "source": "osm"
  },
  {
   "nom": "هتل طوطیا",
   "categorie": "Hôtel",
   "priceRange": "€€",
   "mapsUrl": "https://maps.google.com/?q=32.6652485,51.6674773",
   "lat": 32.6652485,
   "lng": 51.6674773,
   "halalFriendly": false,
   "bookingUrl": "https://maps.google.com/?q=32.6652485,51.6674773",
   "source": "osm"
  },
  {
   "nom": "هتل آریا",
   "categorie": "Hôtel",
   "priceRange": "€€",
   "mapsUrl": "https://maps.google.com/?q=32.6515951,51.6794316",
   "lat": 32.6515951,
   "lng": 51.6794316,
   "halalFriendly": false,
   "bookingUrl": "https://maps.google.com/?q=32.6515951,51.6794316",
   "source": "osm"
  },
  {
   "nom": "مهمانپذیر الماس",
   "categorie": "Hôtel",
   "priceRange": "€€",
   "mapsUrl": "https://maps.google.com/?q=32.6653274,51.6684169",
   "lat": 32.6653274,
   "lng": 51.6684169,
   "halalFriendly": false,
   "bookingUrl": "https://maps.google.com/?q=32.6653274,51.6684169",
   "source": "osm"
  },
  {
   "nom": "هتل آزادی",
   "categorie": "Hôtel",
   "priceRange": "€€",
   "mapsUrl": "https://maps.google.com/?q=32.6652296,51.6691105",
   "lat": 32.6652296,
   "lng": 51.6691105,
   "halalFriendly": false,
   "bookingUrl": "https://maps.google.com/?q=32.6652296,51.6691105",
   "source": "osm"
  },
  {
   "nom": "شان",
   "categorie": "Maison d'hôtes",
   "priceRange": "€€",
   "mapsUrl": "https://maps.google.com/?q=32.6513647,51.6795048",
   "lat": 32.6513647,
   "lng": 51.6795048,
   "halalFriendly": false,
   "bookingUrl": "https://maps.google.com/?q=32.6513647,51.6795048",
   "source": "osm"
  },
  {
   "nom": "هتل زهره",
   "categorie": "Hôtel",
   "priceRange": "€€",
   "mapsUrl": "https://maps.google.com/?q=32.6458523,51.6760093",
   "lat": 32.6458523,
   "lng": 51.6760093,
   "halalFriendly": false,
   "bookingUrl": "https://maps.google.com/?q=32.6458523,51.6760093",
   "source": "osm"
  },
  {
   "nom": "هتل اورگید",
   "categorie": "Hôtel",
   "priceRange": "€€",
   "mapsUrl": "https://maps.google.com/?q=32.6651666,51.669549",
   "lat": 32.6651666,
   "lng": 51.669549,
   "halalFriendly": false,
   "bookingUrl": "https://maps.google.com/?q=32.6651666,51.669549",
   "source": "osm"
  },
  {
   "nom": "هتل پارسیان سوئیت",
   "categorie": "Hôtel",
   "priceRange": "€€€",
   "score": 3,
   "mapsUrl": "https://maps.google.com/?q=32.6422006,51.6675679",
   "lat": 32.6422006,
   "lng": 51.6675679,
   "halalFriendly": false,
   "bookingUrl": "https://maps.google.com/?q=32.6422006,51.6675679",
   "source": "osm"
  },
  {
   "nom": "هتل معراجی",
   "categorie": "Hôtel",
   "priceRange": "€€",
   "mapsUrl": "https://maps.google.com/?q=32.665606,51.6675731",
   "lat": 32.665606,
   "lng": 51.6675731,
   "halalFriendly": false,
   "bookingUrl": "https://maps.google.com/?q=32.665606,51.6675731",
   "source": "osm"
  },
  {
   "nom": "هتل پرشیا",
   "categorie": "Hôtel",
   "priceRange": "€€",
   "mapsUrl": "https://maps.google.com/?q=32.6650252,51.670796",
   "lat": 32.6650252,
   "lng": 51.670796,
   "halalFriendly": false,
   "bookingUrl": "https://maps.google.com/?q=32.6650252,51.670796",
   "source": "osm"
  },
  {
   "nom": "هتل پل",
   "categorie": "Hôtel",
   "priceRange": "€€",
   "mapsUrl": "https://maps.google.com/?q=32.6421719,51.6680376",
   "lat": 32.6421719,
   "lng": 51.6680376,
   "halalFriendly": false,
   "bookingUrl": "https://maps.google.com/?q=32.6421719,51.6680376",
   "source": "osm"
  },
  {
   "nom": "حقیقت مهمان پذیر",
   "categorie": "Hôtel",
   "priceRange": "€€",
   "mapsUrl": "https://maps.google.com/?q=32.6488745,51.6532137",
   "lat": 32.6488745,
   "lng": 51.6532137,
   "halalFriendly": false,
   "bookingUrl": "https://maps.google.com/?q=32.6488745,51.6532137",
   "source": "osm"
  },
  {
   "nom": "هتل پردیس",
   "categorie": "Hôtel",
   "priceRange": "€€",
   "mapsUrl": "https://maps.google.com/?q=32.665184,51.6706377",
   "lat": 32.665184,
   "lng": 51.6706377,
   "halalFriendly": false,
   "bookingUrl": "https://maps.google.com/?q=32.665184,51.6706377",
   "source": "osm"
  },
  {
   "nom": "هتل پارسیان کوثر",
   "categorie": "Hôtel",
   "priceRange": "€€€€",
   "score": 5,
   "mapsUrl": "https://maps.google.com/?q=32.6418016,51.6652968",
   "lat": 32.6418016,
   "lng": 51.6652968,
   "halalFriendly": false,
   "bookingUrl": "https://www.hotelkowsar.com/",
   "source": "osm"
  },
  {
   "nom": "عمارت ماهور",
   "categorie": "Hôtel",
   "priceRange": "€€",
   "mapsUrl": "https://maps.google.com/?q=32.6565069,51.6803133",
   "lat": 32.6565069,
   "lng": 51.6803133,
   "halalFriendly": false,
   "bookingUrl": "https://maps.google.com/?q=32.6565069,51.6803133",
   "source": "osm"
  },
  {
   "nom": "عمارت اقامتگاهی فرنگیس",
   "categorie": "Maison d'hôtes",
   "priceRange": "€€",
   "mapsUrl": "https://maps.google.com/?q=32.6569913,51.651654",
   "lat": 32.6569913,
   "lng": 51.651654,
   "halalFriendly": false,
   "bookingUrl": "http://www.nargolguesthouse.com",
   "source": "osm"
  },
  {
   "nom": "مهمانسرای سنتی اصفهان",
   "categorie": "Hôtel",
   "priceRange": "€€",
   "mapsUrl": "https://maps.google.com/?q=32.6633687,51.6757401",
   "lat": 32.6633687,
   "lng": 51.6757401,
   "halalFriendly": false,
   "bookingUrl": "https://maps.google.com/?q=32.6633687,51.6757401",
   "source": "osm"
  },
  {
   "nom": "saraye safir",
   "categorie": "Hôtel",
   "priceRange": "€€",
   "mapsUrl": "https://maps.google.com/?q=32.6651744,51.6589333",
   "lat": 32.6651744,
   "lng": 51.6589333,
   "halalFriendly": false,
   "bookingUrl": "https://maps.google.com/?q=32.6651744,51.6589333",
   "source": "osm"
  },
  {
   "nom": "هتل سنتی اصفهان",
   "categorie": "Hôtel",
   "priceRange": "€€",
   "mapsUrl": "https://maps.google.com/?q=32.6636945,51.6759135",
   "lat": 32.6636945,
   "lng": 51.6759135,
   "halalFriendly": false,
   "bookingUrl": "https://maps.google.com/?q=32.6636945,51.6759135",
   "source": "osm"
  },
  {
   "nom": "حکیم",
   "categorie": "Hôtel",
   "priceRange": "€€",
   "mapsUrl": "https://maps.google.com/?q=32.6649868,51.6738527",
   "lat": 32.6649868,
   "lng": 51.6738527,
   "halalFriendly": false,
   "bookingUrl": "https://maps.google.com/?q=32.6649868,51.6738527",
   "source": "osm"
  },
  {
   "nom": "سرای سفیر",
   "categorie": "Auberge",
   "priceRange": "€€",
   "mapsUrl": "https://maps.google.com/?q=32.664992,51.6579874",
   "lat": 32.664992,
   "lng": 51.6579874,
   "halalFriendly": false,
   "bookingUrl": "https://maps.google.com/?q=32.664992,51.6579874",
   "source": "osm"
  },
  {
   "nom": "هتل مروارید",
   "categorie": "Hôtel",
   "priceRange": "€€",
   "mapsUrl": "https://maps.google.com/?q=32.6651611,51.6739818",
   "lat": 32.6651611,
   "lng": 51.6739818,
   "halalFriendly": false,
   "bookingUrl": "https://maps.google.com/?q=32.6651611,51.6739818",
   "source": "osm"
  },
  {
   "nom": "هتل قصر منشی",
   "categorie": "Hôtel",
   "priceRange": "€€",
   "mapsUrl": "https://maps.google.com/?q=32.6521238,51.6814376",
   "lat": 32.6521238,
   "lng": 51.6814376,
   "halalFriendly": false,
   "bookingUrl": "https://maps.google.com/?q=32.6521238,51.6814376",
   "source": "osm"
  },
  {
   "nom": "هتل اسپادانا",
   "categorie": "Hôtel",
   "priceRange": "€€",
   "mapsUrl": "https://maps.google.com/?q=32.6411566,51.6697476",
   "lat": 32.6411566,
   "lng": 51.6697476,
   "halalFriendly": false,
   "bookingUrl": "https://maps.google.com/?q=32.6411566,51.6697476",
   "source": "osm"
  },
  {
   "nom": "هتل ملل",
   "categorie": "Hôtel",
   "priceRange": "€€",
   "mapsUrl": "https://maps.google.com/?q=32.6422989,51.6733468",
   "lat": 32.6422989,
   "lng": 51.6733468,
   "halalFriendly": false,
   "bookingUrl": "https://maps.google.com/?q=32.6422989,51.6733468",
   "source": "osm"
  },
  {
   "nom": "هتل سپاهان",
   "categorie": "Hôtel",
   "priceRange": "€€",
   "mapsUrl": "https://maps.google.com/?q=32.6515403,51.6814556",
   "lat": 32.6515403,
   "lng": 51.6814556,
   "halalFriendly": false,
   "bookingUrl": "https://maps.google.com/?q=32.6515403,51.6814556",
   "source": "osm"
  },
  {
   "nom": "هتل یاس اصفهان",
   "categorie": "Hôtel",
   "priceRange": "€€",
   "mapsUrl": "https://maps.google.com/?q=32.6648623,51.6747992",
   "lat": 32.6648623,
   "lng": 51.6747992,
   "halalFriendly": false,
   "bookingUrl": "https://maps.google.com/?q=32.6648623,51.6747992",
   "source": "osm"
  },
  {
   "nom": "هتل شهسواران",
   "categorie": "Hôtel",
   "priceRange": "€€",
   "mapsUrl": "https://maps.google.com/?q=32.6650666,51.674602",
   "lat": 32.6650666,
   "lng": 51.674602,
   "halalFriendly": false,
   "bookingUrl": "https://maps.google.com/?q=32.6650666,51.674602",
   "source": "osm"
  },
  {
   "nom": "اقامتگاه بومگردی راتا",
   "categorie": "Maison d'hôtes",
   "priceRange": "€€",
   "mapsUrl": "https://maps.google.com/?q=32.666427,51.6602625",
   "lat": 32.666427,
   "lng": 51.6602625,
   "halalFriendly": false,
   "bookingUrl": "https://maps.google.com/?q=32.666427,51.6602625",
   "source": "osm"
  },
  {
   "nom": "هتل پرسپولیس",
   "categorie": "Hôtel",
   "priceRange": "€€",
   "mapsUrl": "https://maps.google.com/?q=32.6655519,51.6579158",
   "lat": 32.6655519,
   "lng": 51.6579158,
   "halalFriendly": false,
   "bookingUrl": "https://maps.google.com/?q=32.6655519,51.6579158",
   "source": "osm"
  },
  {
   "nom": "هتل قصر اصفهان",
   "categorie": "Hôtel",
   "priceRange": "€€",
   "mapsUrl": "https://maps.google.com/?q=32.6670431,51.66979",
   "lat": 32.6670431,
   "lng": 51.66979,
   "halalFriendly": false,
   "bookingUrl": "https://maps.google.com/?q=32.6670431,51.66979",
   "source": "osm"
  },
  {
   "nom": "خانه تاریخی کیانپور",
   "categorie": "Hôtel",
   "priceRange": "€€",
   "mapsUrl": "https://maps.google.com/?q=32.6672077,51.6691579",
   "lat": 32.6672077,
   "lng": 51.6691579,
   "halalFriendly": false,
   "bookingUrl": "https://maps.google.com/?q=32.6672077,51.6691579",
   "source": "osm"
  },
  {
   "nom": "اقامتگاه بومگردی علی قلی آقا",
   "categorie": "Hôtel",
   "priceRange": "€€",
   "mapsUrl": "https://maps.google.com/?q=32.6675312,51.6682023",
   "lat": 32.6675312,
   "lng": 51.6682023,
   "halalFriendly": false,
   "bookingUrl": "https://maps.google.com/?q=32.6675312,51.6682023",
   "source": "osm"
  },
  {
   "nom": "Mah Bibi Hostel",
   "categorie": "Auberge",
   "priceRange": "€€",
   "mapsUrl": "https://maps.google.com/?q=32.6492471,51.6814135",
   "lat": 32.6492471,
   "lng": 51.6814135,
   "halalFriendly": false,
   "bookingUrl": "https://www.mahbibihostel.com/",
   "source": "osm"
  },
  {
   "nom": "خانه اجاره",
   "categorie": "Maison d'hôtes",
   "priceRange": "€€",
   "mapsUrl": "https://maps.google.com/?q=32.6653679,51.6568309",
   "lat": 32.6653679,
   "lng": 51.6568309,
   "halalFriendly": false,
   "bookingUrl": "https://maps.google.com/?q=32.6653679,51.6568309",
   "source": "osm"
  },
  {
   "nom": "هتل چهل ستون",
   "categorie": "Hôtel",
   "priceRange": "€€",
   "mapsUrl": "https://maps.google.com/?q=32.6659969,51.6579777",
   "lat": 32.6659969,
   "lng": 51.6579777,
   "halalFriendly": false,
   "bookingUrl": "https://maps.google.com/?q=32.6659969,51.6579777",
   "source": "osm"
  },
  {
   "nom": "هتل صبا",
   "categorie": "Hôtel",
   "priceRange": "€€",
   "mapsUrl": "https://maps.google.com/?q=32.6672169,51.6707965",
   "lat": 32.6672169,
   "lng": 51.6707965,
   "halalFriendly": false,
   "bookingUrl": "https://maps.google.com/?q=32.6672169,51.6707965",
   "source": "osm"
  },
  {
   "nom": "شمشیری",
   "categorie": "Hôtel",
   "priceRange": "€€",
   "mapsUrl": "https://maps.google.com/?q=32.6660426,51.6578597",
   "lat": 32.6660426,
   "lng": 51.6578597,
   "halalFriendly": false,
   "bookingUrl": "https://maps.google.com/?q=32.6660426,51.6578597",
   "source": "osm"
  },
  {
   "nom": "هتل آسمان",
   "categorie": "Hôtel",
   "priceRange": "€€",
   "mapsUrl": "https://maps.google.com/?q=32.6453093,51.6526058",
   "lat": 32.6453093,
   "lng": 51.6526058,
   "halalFriendly": false,
   "bookingUrl": "https://maps.google.com/?q=32.6453093,51.6526058",
   "source": "osm"
  },
  {
   "nom": "هتل بومگردی سروین",
   "categorie": "Maison d'hôtes",
   "priceRange": "€€",
   "mapsUrl": "https://maps.google.com/?q=32.6506207,51.6823896",
   "lat": 32.6506207,
   "lng": 51.6823896,
   "halalFriendly": false,
   "bookingUrl": "https://maps.google.com/?q=32.6506207,51.6823896",
   "source": "osm"
  },
  {
   "nom": "مهمانپذیر هریتیج اصفهان",
   "categorie": "Auberge",
   "priceRange": "€€",
   "mapsUrl": "https://maps.google.com/?q=32.6570744,51.6824573",
   "lat": 32.6570744,
   "lng": 51.6824573,
   "halalFriendly": false,
   "bookingUrl": "https://heritage-hostel.com/",
   "source": "osm"
  },
  {
   "nom": "مهمانسرای گلرخ",
   "categorie": "Hôtel",
   "priceRange": "€€",
   "mapsUrl": "https://maps.google.com/?q=32.6657987,51.6561022",
   "lat": 32.6657987,
   "lng": 51.6561022,
   "halalFriendly": false,
   "bookingUrl": "https://maps.google.com/?q=32.6657987,51.6561022",
   "source": "osm"
  },
  {
   "nom": "مهمانپذیر بید",
   "categorie": "Hôtel",
   "priceRange": "€€",
   "mapsUrl": "https://maps.google.com/?q=32.6685303,51.6668766",
   "lat": 32.6685303,
   "lng": 51.6668766,
   "halalFriendly": false,
   "bookingUrl": "https://maps.google.com/?q=32.6685303,51.6668766",
   "source": "osm"
  },
  {
   "nom": "هتل سنتی گل آرا",
   "categorie": "Hôtel",
   "priceRange": "€€",
   "mapsUrl": "https://maps.google.com/?q=32.663497,51.6792388",
   "lat": 32.663497,
   "lng": 51.6792388,
   "halalFriendly": false,
   "bookingUrl": "www.golarahotel.com",
   "source": "osm"
  },
  {
   "nom": "کاخ سرهنگ",
   "categorie": "Hôtel",
   "priceRange": "€€",
   "mapsUrl": "https://maps.google.com/?q=32.6684513,51.6694428",
   "lat": 32.6684513,
   "lng": 51.6694428,
   "halalFriendly": false,
   "bookingUrl": "https://maps.google.com/?q=32.6684513,51.6694428",
   "source": "osm"
  },
  {
   "nom": "هتل ویانا",
   "categorie": "Hôtel",
   "priceRange": "€€",
   "mapsUrl": "https://maps.google.com/?q=32.6630955,51.6521655",
   "lat": 32.6630955,
   "lng": 51.6521655,
   "halalFriendly": false,
   "bookingUrl": "http://www.viana-hotel.com",
   "source": "osm"
  },
  {
   "nom": "hotel aram",
   "categorie": "Hôtel",
   "priceRange": "€€",
   "mapsUrl": "https://maps.google.com/?q=32.6682939,51.6703922",
   "lat": 32.6682939,
   "lng": 51.6703922,
   "halalFriendly": false,
   "bookingUrl": "https://maps.google.com/?q=32.6682939,51.6703922",
   "source": "osm"
  },
  {
   "nom": "Isfahan",
   "categorie": "Hôtel",
   "priceRange": "€€",
   "mapsUrl": "https://maps.google.com/?q=32.6687574,51.6652343",
   "lat": 32.6687574,
   "lng": 51.6652343,
   "halalFriendly": false,
   "bookingUrl": "https://irantravelers.org/",
   "source": "osm"
  },
  {
   "nom": "هتل ستاره",
   "categorie": "Hôtel",
   "priceRange": "€€",
   "mapsUrl": "https://maps.google.com/?q=32.6598013,51.6822914",
   "lat": 32.6598013,
   "lng": 51.6822914,
   "halalFriendly": false,
   "bookingUrl": "https://www.setarehhotel.ir/",
   "source": "osm"
  },
  {
   "nom": "اقامتگاه بوم گردی آریو",
   "categorie": "Hôtel",
   "priceRange": "€€",
   "mapsUrl": "https://maps.google.com/?q=32.6574472,51.6486758",
   "lat": 32.6574472,
   "lng": 51.6486758,
   "halalFriendly": false,
   "bookingUrl": "https://maps.google.com/?q=32.6574472,51.6486758",
   "source": "osm"
  },
  {
   "nom": "Ghaeli Traditional Guest House",
   "categorie": "Maison d'hôtes",
   "priceRange": "€€",
   "mapsUrl": "https://maps.google.com/?q=32.666981,51.6749471",
   "lat": 32.666981,
   "lng": 51.6749471,
   "halalFriendly": false,
   "bookingUrl": "https://maps.google.com/?q=32.666981,51.6749471",
   "source": "osm"
  },
  {
   "nom": "هتل ستاره",
   "categorie": "Hôtel",
   "priceRange": "€€",
   "mapsUrl": "https://maps.google.com/?q=32.6598527,51.6824873",
   "lat": 32.6598527,
   "lng": 51.6824873,
   "halalFriendly": false,
   "bookingUrl": "https://maps.google.com/?q=32.6598527,51.6824873",
   "source": "osm"
  },
  {
   "nom": "هتل اصفهان",
   "categorie": "Hôtel",
   "priceRange": "€€",
   "mapsUrl": "https://maps.google.com/?q=32.6446623,51.6514072",
   "lat": 32.6446623,
   "lng": 51.6514072,
   "halalFriendly": false,
   "bookingUrl": "https://maps.google.com/?q=32.6446623,51.6514072",
   "source": "osm"
  },
  {
   "nom": "Isfahan Bazaar Traditional Hotel",
   "categorie": "Hôtel",
   "priceRange": "€€",
   "mapsUrl": "https://maps.google.com/?q=32.6655,51.6783143",
   "lat": 32.6655,
   "lng": 51.6783143,
   "halalFriendly": false,
   "bookingUrl": "https://irantravelers.org/",
   "source": "osm"
  },
  {
   "nom": "هتل اشکانی",
   "categorie": "Hôtel",
   "priceRange": "€€",
   "mapsUrl": "https://maps.google.com/?q=32.6641758,51.6801891",
   "lat": 32.6641758,
   "lng": 51.6801891,
   "halalFriendly": false,
   "bookingUrl": "https://maps.google.com/?q=32.6641758,51.6801891",
   "source": "osm"
  },
  {
   "nom": "خانه بخردی",
   "categorie": "Maison d'hôtes",
   "priceRange": "€€",
   "mapsUrl": "https://maps.google.com/?q=32.6680681,51.6749038",
   "lat": 32.6680681,
   "lng": 51.6749038,
   "halalFriendly": false,
   "bookingUrl": "https://maps.google.com/?q=32.6680681,51.6749038",
   "source": "osm"
  },
  {
   "nom": "سرای سنتی هاتف",
   "categorie": "Hôtel",
   "priceRange": "€€",
   "mapsUrl": "https://maps.google.com/?q=32.6615832,51.6834516",
   "lat": 32.6615832,
   "lng": 51.6834516,
   "halalFriendly": false,
   "bookingUrl": "http://www.hatefhouse.com/",
   "source": "osm"
  },
  {
   "nom": "هتل معتمدی",
   "categorie": "Hôtel",
   "priceRange": "€€",
   "mapsUrl": "https://maps.google.com/?q=32.6535354,51.6858512",
   "lat": 32.6535354,
   "lng": 51.6858512,
   "halalFriendly": false,
   "bookingUrl": "https://maps.google.com/?q=32.6535354,51.6858512",
   "source": "osm"
  },
  {
   "nom": "هتل ملک",
   "categorie": "Hôtel",
   "priceRange": "€€",
   "mapsUrl": "https://maps.google.com/?q=32.6531674,51.6861036",
   "lat": 32.6531674,
   "lng": 51.6861036,
   "halalFriendly": false,
   "bookingUrl": "https://maps.google.com/?q=32.6531674,51.6861036",
   "source": "osm"
  },
  {
   "nom": "هتل کارون",
   "categorie": "Hôtel",
   "priceRange": "€€",
   "mapsUrl": "https://maps.google.com/?q=32.6402084,51.6534183",
   "lat": 32.6402084,
   "lng": 51.6534183,
   "halalFriendly": false,
   "bookingUrl": "https://maps.google.com/?q=32.6402084,51.6534183",
   "source": "osm"
  },
  {
   "nom": "ساختمان شهید احمد",
   "categorie": "Auberge",
   "priceRange": "€€",
   "mapsUrl": "https://maps.google.com/?q=32.6713374,51.6670615",
   "lat": 32.6713374,
   "lng": 51.6670615,
   "halalFriendly": false,
   "bookingUrl": "https://maps.google.com/?q=32.6713374,51.6670615",
   "source": "osm"
  },
  {
   "nom": "هتل سنتی بیتوته",
   "categorie": "Hôtel",
   "priceRange": "€€",
   "mapsUrl": "https://maps.google.com/?q=32.6492197,51.6860953",
   "lat": 32.6492197,
   "lng": 51.6860953,
   "halalFriendly": false,
   "bookingUrl": "https://maps.google.com/?q=32.6492197,51.6860953",
   "source": "osm"
  },
  {
   "nom": "خانه دیبایی",
   "categorie": "Hôtel",
   "priceRange": "€€",
   "mapsUrl": "https://maps.google.com/?q=32.6649793,51.6824557",
   "lat": 32.6649793,
   "lng": 51.6824557,
   "halalFriendly": false,
   "bookingUrl": "http://www.dibaihouse.com",
   "source": "osm"
  },
  {
   "nom": "خانه دیبایی",
   "categorie": "Maison d'hôtes",
   "priceRange": "€€",
   "mapsUrl": "https://maps.google.com/?q=32.6650285,51.6824589",
   "lat": 32.6650285,
   "lng": 51.6824589,
   "halalFriendly": false,
   "bookingUrl": "http://www.dibaihouse.com",
   "source": "osm"
  },
  {
   "nom": "آپارتمان ۴۸",
   "categorie": "Appartement",
   "priceRange": "€€",
   "mapsUrl": "https://maps.google.com/?q=32.654777,51.6872302",
   "lat": 32.654777,
   "lng": 51.6872302,
   "halalFriendly": false,
   "bookingUrl": "https://maps.google.com/?q=32.654777,51.6872302",
   "source": "osm"
  },
  {
   "nom": "هتل آوین",
   "categorie": "Hôtel",
   "priceRange": "€€",
   "mapsUrl": "https://maps.google.com/?q=32.6618545,51.6850869",
   "lat": 32.6618545,
   "lng": 51.6850869,
   "halalFriendly": false,
   "bookingUrl": "https://maps.google.com/?q=32.6618545,51.6850869",
   "source": "osm"
  },
  {
   "nom": "Soltani Traditional Accommodation",
   "categorie": "Maison d'hôtes",
   "priceRange": "€€",
   "mapsUrl": "https://maps.google.com/?q=32.6640772,51.6840694",
   "lat": 32.6640772,
   "lng": 51.6840694,
   "halalFriendly": false,
   "bookingUrl": "https://maps.google.com/?q=32.6640772,51.6840694",
   "source": "osm"
  },
  {
   "nom": "هتل سران",
   "categorie": "Hôtel",
   "priceRange": "€€",
   "mapsUrl": "https://maps.google.com/?q=32.6714621,51.6730678",
   "lat": 32.6714621,
   "lng": 51.6730678,
   "halalFriendly": false,
   "bookingUrl": "https://maps.google.com/?q=32.6714621,51.6730678",
   "source": "osm"
  },
  {
   "nom": "خوابگاه وزیر",
   "categorie": "Auberge",
   "priceRange": "€€",
   "mapsUrl": "https://maps.google.com/?q=32.6688458,51.6792183",
   "lat": 32.6688458,
   "lng": 51.6792183,
   "halalFriendly": false,
   "bookingUrl": "https://maps.google.com/?q=32.6688458,51.6792183",
   "source": "osm"
  }
 ],
 "mosqueesPrincipales": [
  {
   "nom": "مسجد سلطانزاده انصاری",
   "lat": 32.6508535,
   "lng": 51.6674497,
   "coordonnees": {
    "lat": 32.6508535,
    "lng": 51.6674497
   },
   "mapsUrl": "https://maps.google.com/?q=32.6508535,51.6674497",
   "source": "osm"
  },
  {
   "nom": "مدرسه چهارباغ",
   "lat": 32.6514646,
   "lng": 51.6691045,
   "coordonnees": {
    "lat": 32.6514646,
    "lng": 51.6691045
   },
   "mapsUrl": "https://maps.google.com/?q=32.6514646,51.6691045",
   "source": "osm"
  },
  {
   "nom": "حسینیه زرگر باشی",
   "lat": 32.6561614,
   "lng": 51.6623478,
   "coordonnees": {
    "lat": 32.6561614,
    "lng": 51.6623478
   },
   "mapsUrl": "https://maps.google.com/?q=32.6561614,51.6623478",
   "source": "osm"
  },
  {
   "nom": "مسجد الهادی",
   "lat": 32.6483726,
   "lng": 51.6685992,
   "coordonnees": {
    "lat": 32.6483726,
    "lng": 51.6685992
   },
   "mapsUrl": "https://maps.google.com/?q=32.6483726,51.6685992",
   "source": "osm"
  },
  {
   "nom": "مسجد مریم بیگم",
   "lat": 32.6604915,
   "lng": 51.6684655,
   "coordonnees": {
    "lat": 32.6604915,
    "lng": 51.6684655
   },
   "mapsUrl": "https://maps.google.com/?q=32.6604915,51.6684655",
   "source": "osm"
  },
  {
   "nom": "مسجد شیخ بهائی",
   "lat": 32.6546785,
   "lng": 51.6577688,
   "coordonnees": {
    "lat": 32.6546785,
    "lng": 51.6577688
   },
   "mapsUrl": "https://maps.google.com/?q=32.6546785,51.6577688",
   "source": "osm"
  },
  {
   "nom": "مسجد آیت الله روضاتی",
   "lat": 32.657851,
   "lng": 51.6590387,
   "coordonnees": {
    "lat": 32.657851,
    "lng": 51.6590387
   },
   "mapsUrl": "https://maps.google.com/?q=32.657851,51.6590387",
   "source": "osm"
  },
  {
   "nom": "مسجد جعفر طیار",
   "lat": 32.6569424,
   "lng": 51.6582575,
   "coordonnees": {
    "lat": 32.6569424,
    "lng": 51.6582575
   },
   "mapsUrl": "https://maps.google.com/?q=32.6569424,51.6582575",
   "source": "osm"
  },
  {
   "nom": "مسجد درب کوشک",
   "lat": 32.6624865,
   "lng": 51.6664798,
   "coordonnees": {
    "lat": 32.6624865,
    "lng": 51.6664798
   },
   "mapsUrl": "https://maps.google.com/?q=32.6624865,51.6664798",
   "source": "osm"
  },
  {
   "nom": "مسجد سرخی",
   "lat": 32.6614984,
   "lng": 51.6710822,
   "coordonnees": {
    "lat": 32.6614984,
    "lng": 51.6710822
   },
   "mapsUrl": "https://maps.google.com/?q=32.6614984,51.6710822",
   "source": "osm"
  },
  {
   "nom": "مسجد ذکرالله",
   "lat": 32.6626576,
   "lng": 51.6688647,
   "coordonnees": {
    "lat": 32.6626576,
    "lng": 51.6688647
   },
   "mapsUrl": "https://maps.google.com/?q=32.6626576,51.6688647",
   "source": "osm"
  },
  {
   "nom": "مسجد الحبیب",
   "lat": 32.66041,
   "lng": 51.6584457,
   "coordonnees": {
    "lat": 32.66041,
    "lng": 51.6584457
   },
   "mapsUrl": "https://maps.google.com/?q=32.66041,51.6584457",
   "source": "osm"
  },
  {
   "nom": "مسجد خلد برین",
   "lat": 32.6631645,
   "lng": 51.6674198,
   "coordonnees": {
    "lat": 32.6631645,
    "lng": 51.6674198
   },
   "mapsUrl": "https://maps.google.com/?q=32.6631645,51.6674198",
   "source": "osm"
  },
  {
   "nom": "مسجد طالقانی",
   "lat": 32.6582514,
   "lng": 51.6549834,
   "coordonnees": {
    "lat": 32.6582514,
    "lng": 51.6549834
   },
   "mapsUrl": "https://maps.google.com/?q=32.6582514,51.6549834",
   "source": "osm"
  },
  {
   "nom": "مسجد حاج نظر علی",
   "lat": 32.6634579,
   "lng": 51.6706455,
   "coordonnees": {
    "lat": 32.6634579,
    "lng": 51.6706455
   },
   "mapsUrl": "https://maps.google.com/?q=32.6634579,51.6706455",
   "source": "osm"
  },
  {
   "nom": "مسجد شهید بهشتی",
   "lat": 32.6556881,
   "lng": 51.6528049,
   "coordonnees": {
    "lat": 32.6556881,
    "lng": 51.6528049
   },
   "mapsUrl": "https://maps.google.com/?q=32.6556881,51.6528049",
   "source": "osm"
  },
  {
   "nom": "مسجد توحید",
   "lat": 32.6461444,
   "lng": 51.675734,
   "coordonnees": {
    "lat": 32.6461444,
    "lng": 51.675734
   },
   "mapsUrl": "https://maps.google.com/?q=32.6461444,51.675734",
   "source": "osm"
  },
  {
   "nom": "مسجد المهدی",
   "lat": 32.6652033,
   "lng": 51.6668288,
   "coordonnees": {
    "lat": 32.6652033,
    "lng": 51.6668288
   },
   "mapsUrl": "https://maps.google.com/?q=32.6652033,51.6668288",
   "source": "osm"
  },
  {
   "nom": "مسجد شیش",
   "lat": 32.6642787,
   "lng": 51.6592607,
   "coordonnees": {
    "lat": 32.6642787,
    "lng": 51.6592607
   },
   "mapsUrl": "https://maps.google.com/?q=32.6642787,51.6592607",
   "source": "osm"
  },
  {
   "nom": "مسجد لنبان",
   "lat": 32.6511517,
   "lng": 51.6522138,
   "coordonnees": {
    "lat": 32.6511517,
    "lng": 51.6522138
   },
   "mapsUrl": "https://maps.google.com/?q=32.6511517,51.6522138",
   "source": "osm"
  },
  {
   "nom": "مسجد شیخ الاسلام",
   "lat": 32.6650424,
   "lng": 51.6720778,
   "coordonnees": {
    "lat": 32.6650424,
    "lng": 51.6720778
   },
   "mapsUrl": "https://maps.google.com/?q=32.6650424,51.6720778",
   "source": "osm"
  },
  {
   "nom": "مسجد حافظ",
   "lat": 32.6592738,
   "lng": 51.6794866,
   "coordonnees": {
    "lat": 32.6592738,
    "lng": 51.6794866
   },
   "mapsUrl": "https://maps.google.com/?q=32.6592738,51.6794866",
   "source": "osm"
  },
  {
   "nom": "مسجد ابوذر",
   "lat": 32.6666536,
   "lng": 51.6691436,
   "coordonnees": {
    "lat": 32.6666536,
    "lng": 51.6691436
   },
   "mapsUrl": "https://maps.google.com/?q=32.6666536,51.6691436",
   "source": "osm"
  },
  {
   "nom": "حسینیه قصر منشی",
   "lat": 32.6524901,
   "lng": 51.6828337,
   "coordonnees": {
    "lat": 32.6524901,
    "lng": 51.6828337
   },
   "mapsUrl": "https://maps.google.com/?q=32.6524901,51.6828337",
   "source": "osm"
  },
  {
   "nom": "مسجد جوزدان",
   "lat": 32.6632481,
   "lng": 51.6526684,
   "coordonnees": {
    "lat": 32.6632481,
    "lng": 51.6526684
   },
   "mapsUrl": "https://maps.google.com/?q=32.6632481,51.6526684",
   "source": "osm"
  },
  {
   "nom": "آل محمد",
   "lat": 32.6538104,
   "lng": 51.6835919,
   "coordonnees": {
    "lat": 32.6538104,
    "lng": 51.6835919
   },
   "mapsUrl": "https://maps.google.com/?q=32.6538104,51.6835919",
   "source": "osm"
  },
  {
   "nom": "مسجد آیت الله خادمی",
   "lat": 32.6685422,
   "lng": 51.6698027,
   "coordonnees": {
    "lat": 32.6685422,
    "lng": 51.6698027
   },
   "mapsUrl": "https://maps.google.com/?q=32.6685422,51.6698027",
   "source": "osm"
  },
  {
   "nom": "الهادی",
   "lat": 32.6548888,
   "lng": 51.6837864,
   "coordonnees": {
    "lat": 32.6548888,
    "lng": 51.6837864
   },
   "mapsUrl": "https://maps.google.com/?q=32.6548888,51.6837864",
   "source": "osm"
  },
  {
   "nom": "مسجد جوادالائمه",
   "lat": 32.6425558,
   "lng": 51.678102,
   "coordonnees": {
    "lat": 32.6425558,
    "lng": 51.678102
   },
   "mapsUrl": "https://maps.google.com/?q=32.6425558,51.678102",
   "source": "osm"
  },
  {
   "nom": "حسینیه امام صادق ع",
   "lat": 32.669137,
   "lng": 51.6667644,
   "coordonnees": {
    "lat": 32.669137,
    "lng": 51.6667644
   },
   "mapsUrl": "https://maps.google.com/?q=32.669137,51.6667644",
   "source": "osm"
  },
  {
   "nom": "مسجد حاج ابوالحسن",
   "lat": 32.6572823,
   "lng": 51.6840311,
   "coordonnees": {
    "lat": 32.6572823,
    "lng": 51.6840311
   },
   "mapsUrl": "https://maps.google.com/?q=32.6572823,51.6840311",
   "source": "osm"
  },
  {
   "nom": "مسجد امام جعفر صادق",
   "lat": 32.6469015,
   "lng": 51.6493639,
   "coordonnees": {
    "lat": 32.6469015,
    "lng": 51.6493639
   },
   "mapsUrl": "https://maps.google.com/?q=32.6469015,51.6493639",
   "source": "osm"
  },
  {
   "nom": "مسجد فرامرزی",
   "lat": 32.6658881,
   "lng": 51.6539494,
   "coordonnees": {
    "lat": 32.6658881,
    "lng": 51.6539494
   },
   "mapsUrl": "https://maps.google.com/?q=32.6658881,51.6539494",
   "source": "osm"
  },
  {
   "nom": "مسجد خواجو",
   "lat": 32.6460416,
   "lng": 51.6824046,
   "coordonnees": {
    "lat": 32.6460416,
    "lng": 51.6824046
   },
   "mapsUrl": "https://maps.google.com/?q=32.6460416,51.6824046",
   "source": "osm"
  },
  {
   "nom": "مسجد شیخ یوسف",
   "lat": 32.6512746,
   "lng": 51.684732,
   "coordonnees": {
    "lat": 32.6512746,
    "lng": 51.684732
   },
   "mapsUrl": "https://maps.google.com/?q=32.6512746,51.684732",
   "source": "osm"
  },
  {
   "nom": "سلمان",
   "lat": 32.6550948,
   "lng": 51.646787,
   "coordonnees": {
    "lat": 32.6550948,
    "lng": 51.646787
   },
   "mapsUrl": "https://maps.google.com/?q=32.6550948,51.646787",
   "source": "osm"
  },
  {
   "nom": "مسجد الزهرا",
   "lat": 32.656143,
   "lng": 51.6856313,
   "coordonnees": {
    "lat": 32.656143,
    "lng": 51.6856313
   },
   "mapsUrl": "https://maps.google.com/?q=32.656143,51.6856313",
   "source": "osm"
  },
  {
   "nom": "مسجد الیادران",
   "lat": 32.6582255,
   "lng": 51.646304,
   "coordonnees": {
    "lat": 32.6582255,
    "lng": 51.646304
   },
   "mapsUrl": "https://maps.google.com/?q=32.6582255,51.646304",
   "source": "osm"
  },
  {
   "nom": "مسجد خان",
   "lat": 32.6544882,
   "lng": 51.6865129,
   "coordonnees": {
    "lat": 32.6544882,
    "lng": 51.6865129
   },
   "mapsUrl": "https://maps.google.com/?q=32.6544882,51.6865129",
   "source": "osm"
  }
 ],
 "activites": [
  {
   "nom": "خانه عطاالملک دهش (موزه آموزش و پرورش)",
   "lat": 32.6530311,
   "lng": 51.6653108,
   "coordonnees": {
    "lat": 32.6530311,
    "lng": 51.6653108
   },
   "categorie": "Culture",
   "mapsUrl": "https://maps.google.com/?q=32.6530311,51.6653108",
   "source": "osm"
  },
  {
   "nom": "موزه موسیقی اصفهان",
   "lat": 32.6534926,
   "lng": 51.6691697,
   "coordonnees": {
    "lat": 32.6534926,
    "lng": 51.6691697
   },
   "categorie": "Culture",
   "mapsUrl": "https://maps.google.com/?q=32.6534926,51.6691697",
   "source": "osm"
  },
  {
   "nom": "بقایای کاخ جهان نما",
   "lat": 32.6571758,
   "lng": 51.6691736,
   "coordonnees": {
    "lat": 32.6571758,
    "lng": 51.6691736
   },
   "categorie": "À voir",
   "mapsUrl": "https://maps.google.com/?q=32.6571758,51.6691736",
   "source": "osm"
  },
  {
   "nom": "اثر هنری مرد زیر چتر",
   "lat": 32.6532561,
   "lng": 51.6722487,
   "coordonnees": {
    "lat": 32.6532561,
    "lng": 51.6722487
   },
   "categorie": "À voir",
   "mapsUrl": "https://maps.google.com/?q=32.6532561,51.6722487",
   "source": "osm"
  },
  {
   "nom": "شهر بازی سرپوشیده ارگ جهان نما",
   "lat": 32.6597338,
   "lng": 51.6686556,
   "coordonnees": {
    "lat": 32.6597338,
    "lng": 51.6686556
   },
   "categorie": "Famille",
   "mapsUrl": "https://maps.google.com/?q=32.6597338,51.6686556",
   "source": "osm"
  },
  {
   "nom": "استاد علی اکبر اصفهانی",
   "lat": 32.6534524,
   "lng": 51.6755243,
   "coordonnees": {
    "lat": 32.6534524,
    "lng": 51.6755243
   },
   "categorie": "Histoire",
   "mapsUrl": "https://maps.google.com/?q=32.6534524,51.6755243",
   "source": "osm"
  },
  {
   "nom": "عمارت تاریخی راه نجات",
   "lat": 32.6553972,
   "lng": 51.6755668,
   "coordonnees": {
    "lat": 32.6553972,
    "lng": 51.6755668
   },
   "categorie": "Histoire",
   "mapsUrl": "https://maps.google.com/?q=32.6553972,51.6755668",
   "source": "osm"
  },
  {
   "nom": "توریست",
   "lat": 32.6456708,
   "lng": 51.6680833,
   "coordonnees": {
    "lat": 32.6456708,
    "lng": 51.6680833
   },
   "categorie": "À voir",
   "mapsUrl": "https://maps.google.com/?q=32.6456708,51.6680833",
   "source": "osm"
  },
  {
   "nom": "توریست1",
   "lat": 32.6454537,
   "lng": 51.6666224,
   "coordonnees": {
    "lat": 32.6454537,
    "lng": 51.6666224
   },
   "categorie": "À voir",
   "mapsUrl": "https://maps.google.com/?q=32.6454537,51.6666224",
   "source": "osm"
  },
  {
   "nom": "توریست2",
   "lat": 32.644706,
   "lng": 51.6653143,
   "coordonnees": {
    "lat": 32.644706,
    "lng": 51.6653143
   },
   "categorie": "À voir",
   "mapsUrl": "https://maps.google.com/?q=32.644706,51.6653143",
   "source": "osm"
  },
  {
   "nom": "توریست4",
   "lat": 32.644907,
   "lng": 51.6692196,
   "coordonnees": {
    "lat": 32.644907,
    "lng": 51.6692196
   },
   "categorie": "À voir",
   "mapsUrl": "https://maps.google.com/?q=32.644907,51.6692196",
   "source": "osm"
  },
  {
   "nom": "توریست5",
   "lat": 32.6444809,
   "lng": 51.6641112,
   "coordonnees": {
    "lat": 32.6444809,
    "lng": 51.6641112
   },
   "categorie": "À voir",
   "mapsUrl": "https://maps.google.com/?q=32.6444809,51.6641112",
   "source": "osm"
  },
  {
   "nom": "درشکه سواری",
   "lat": 32.6582731,
   "lng": 51.6773669,
   "coordonnees": {
    "lat": 32.6582731,
    "lng": 51.6773669
   },
   "categorie": "À voir",
   "mapsUrl": "https://maps.google.com/?q=32.6582731,51.6773669",
   "source": "osm"
  },
  {
   "nom": "کافه قیصریه",
   "lat": 32.6600806,
   "lng": 51.6767155,
   "coordonnees": {
    "lat": 32.6600806,
    "lng": 51.6767155
   },
   "categorie": "Panorama",
   "mapsUrl": "https://maps.google.com/?q=32.6600806,51.6767155",
   "source": "osm"
  },
  {
   "nom": "عصار خانه",
   "lat": 32.6598329,
   "lng": 51.678144,
   "coordonnees": {
    "lat": 32.6598329,
    "lng": 51.678144
   },
   "categorie": "À voir",
   "mapsUrl": "https://maps.google.com/?q=32.6598329,51.678144",
   "source": "osm"
  },
  {
   "nom": "سردر بازار قیصریه",
   "lat": 32.6614664,
   "lng": 51.6767914,
   "coordonnees": {
    "lat": 32.6614664,
    "lng": 51.6767914
   },
   "categorie": "À voir",
   "mapsUrl": "https://maps.google.com/?q=32.6614664,51.6767914",
   "source": "osm"
  },
  {
   "nom": "عصارخانه شاهی",
   "lat": 32.6607337,
   "lng": 51.6777932,
   "coordonnees": {
    "lat": 32.6607337,
    "lng": 51.6777932
   },
   "categorie": "Culture",
   "mapsUrl": "https://maps.google.com/?q=32.6607337,51.6777932",
   "source": "osm"
  },
  {
   "nom": "Portal",
   "lat": 32.6637666,
   "lng": 51.674559,
   "coordonnees": {
    "lat": 32.6637666,
    "lng": 51.674559
   },
   "categorie": "Histoire",
   "mapsUrl": "https://maps.google.com/?q=32.6637666,51.674559",
   "source": "osm"
  },
  {
   "nom": "قصر شاه اصفهان",
   "lat": 32.6534277,
   "lng": 51.6809047,
   "coordonnees": {
    "lat": 32.6534277,
    "lng": 51.6809047
   },
   "categorie": "À voir",
   "mapsUrl": "https://maps.google.com/?q=32.6534277,51.6809047",
   "source": "osm"
  },
  {
   "nom": "موزه عصارخانه شاهی",
   "lat": 32.6621811,
   "lng": 51.6779564,
   "coordonnees": {
    "lat": 32.6621811,
    "lng": 51.6779564
   },
   "categorie": "Culture",
   "mapsUrl": "https://maps.google.com/?q=32.6621811,51.6779564",
   "source": "osm"
  },
  {
   "nom": "کافه گل گلفروشی",
   "lat": 32.6495928,
   "lng": 51.6815665,
   "coordonnees": {
    "lat": 32.6495928,
    "lng": 51.6815665
   },
   "categorie": "Nature",
   "mapsUrl": "https://maps.google.com/?q=32.6495928,51.6815665",
   "source": "osm"
  },
  {
   "nom": "بازار بزرگ",
   "lat": 32.6657984,
   "lng": 51.6744512,
   "coordonnees": {
    "lat": 32.6657984,
    "lng": 51.6744512
   },
   "categorie": "À voir",
   "mapsUrl": "https://maps.google.com/?q=32.6657984,51.6744512",
   "source": "osm"
  },
  {
   "nom": "موزه حمام علیقلی آقا",
   "lat": 32.6682272,
   "lng": 51.6675233,
   "coordonnees": {
    "lat": 32.6682272,
    "lng": 51.6675233
   },
   "categorie": "Culture",
   "mapsUrl": "https://maps.google.com/?q=32.6682272,51.6675233",
   "source": "osm"
  },
  {
   "nom": "زورخانه علیقلی آقا",
   "lat": 32.6691733,
   "lng": 51.6675809,
   "coordonnees": {
    "lat": 32.6691733,
    "lng": 51.6675809
   },
   "categorie": "À voir",
   "mapsUrl": "https://maps.google.com/?q=32.6691733,51.6675809",
   "source": "osm"
  },
  {
   "nom": "چهار باغ بالا",
   "lat": 32.6382246,
   "lng": 51.6666842,
   "coordonnees": {
    "lat": 32.6382246,
    "lng": 51.6666842
   },
   "categorie": "À voir",
   "mapsUrl": "https://maps.google.com/?q=32.6382246,51.6666842",
   "source": "osm"
  },
  {
   "nom": "خانه تاریخی مشیرالملک",
   "lat": 32.6632608,
   "lng": 51.6817265,
   "coordonnees": {
    "lat": 32.6632608,
    "lng": 51.6817265
   },
   "categorie": "Culture",
   "mapsUrl": "https://maps.google.com/?q=32.6632608,51.6817265",
   "source": "osm"
  },
  {
   "nom": "دفتر مرکزی سلام شاپ",
   "lat": 32.6533162,
   "lng": 51.6858938,
   "coordonnees": {
    "lat": 32.6533162,
    "lng": 51.6858938
   },
   "categorie": "À voir",
   "mapsUrl": "https://maps.google.com/?q=32.6533162,51.6858938",
   "source": "osm"
  },
  {
   "nom": "مسجد امام جوادالائمه",
   "lat": 32.6695542,
   "lng": 51.6588696,
   "coordonnees": {
    "lat": 32.6695542,
    "lng": 51.6588696
   },
   "categorie": "À voir",
   "mapsUrl": "https://maps.google.com/?q=32.6695542,51.6588696",
   "source": "osm"
  },
  {
   "nom": "پل چوبی",
   "lat": 32.6380056,
   "lng": 51.6774816,
   "coordonnees": {
    "lat": 32.6380056,
    "lng": 51.6774816
   },
   "categorie": "À voir",
   "mapsUrl": "https://maps.google.com/?q=32.6380056,51.6774816",
   "source": "osm"
  },
  {
   "nom": "میدان جلفا",
   "lat": 32.6363485,
   "lng": 51.6572366,
   "coordonnees": {
    "lat": 32.6363485,
    "lng": 51.6572366
   },
   "categorie": "Histoire",
   "mapsUrl": "https://maps.google.com/?q=32.6363485,51.6572366",
   "source": "osm"
  },
  {
   "nom": "میدان امام علی (سبزه میدان)",
   "lat": 32.6669438,
   "lng": 51.6840003,
   "coordonnees": {
    "lat": 32.6669438,
    "lng": 51.6840003
   },
   "categorie": "À voir",
   "mapsUrl": "https://maps.google.com/?q=32.6669438,51.6840003",
   "source": "osm"
  },
  {
   "nom": "مناره های دردشت",
   "lat": 32.6696393,
   "lng": 51.6820564,
   "coordonnees": {
    "lat": 32.6696393,
    "lng": 51.6820564
   },
   "categorie": "Histoire",
   "mapsUrl": "https://maps.google.com/?q=32.6696393,51.6820564",
   "source": "osm"
  },
  {
   "nom": "حمام دردشت",
   "lat": 32.6716507,
   "lng": 51.6802717,
   "coordonnees": {
    "lat": 32.6716507,
    "lng": 51.6802717
   },
   "categorie": "Histoire",
   "mapsUrl": "https://maps.google.com/?q=32.6716507,51.6802717",
   "source": "osm"
  },
  {
   "nom": "مقبره آرتور پوپ و فیلیس آکرمن",
   "lat": 32.638182,
   "lng": 51.6847783,
   "coordonnees": {
    "lat": 32.638182,
    "lng": 51.6847783
   },
   "categorie": "Histoire",
   "mapsUrl": "https://maps.google.com/?q=32.638182,51.6847783",
   "source": "osm"
  },
  {
   "nom": "پل خواجو",
   "lat": 32.636965,
   "lng": 51.6833063,
   "coordonnees": {
    "lat": 32.636965,
    "lng": 51.6833063
   },
   "categorie": "Histoire",
   "mapsUrl": "https://maps.google.com/?q=32.636965,51.6833063",
   "source": "osm"
  },
  {
   "nom": "پل مارنان",
   "lat": 32.6412368,
   "lng": 51.643379,
   "coordonnees": {
    "lat": 32.6412368,
    "lng": 51.643379
   },
   "categorie": "Histoire",
   "mapsUrl": "https://maps.google.com/?q=32.6412368,51.643379",
   "source": "osm"
  },
  {
   "nom": "مدرس ابن سینا",
   "lat": 32.674174,
   "lng": 51.6791327,
   "coordonnees": {
    "lat": 32.674174,
    "lng": 51.6791327
   },
   "categorie": "À voir",
   "mapsUrl": "https://maps.google.com/?q=32.674174,51.6791327",
   "source": "osm"
  },
  {
   "nom": "آرامگاه علامه مجلسی",
   "lat": 32.6704514,
   "lng": 51.6853299,
   "coordonnees": {
    "lat": 32.6704514,
    "lng": 51.6853299
   },
   "categorie": "Histoire",
   "mapsUrl": "https://maps.google.com/?q=32.6704514,51.6853299",
   "source": "osm"
  },
  {
   "nom": "مقبره خواجه نظام الملک (دارالبطیخ)",
   "lat": 32.6650926,
   "lng": 51.6913064,
   "coordonnees": {
    "lat": 32.6650926,
    "lng": 51.6913064
   },
   "categorie": "À voir",
   "mapsUrl": "https://maps.google.com/?q=32.6650926,51.6913064",
   "source": "osm"
  },
  {
   "nom": "زورخانه مولاعلی",
   "lat": 32.6699876,
   "lng": 51.6897325,
   "coordonnees": {
    "lat": 32.6699876,
    "lng": 51.6897325
   },
   "categorie": "À voir",
   "mapsUrl": "https://maps.google.com/?q=32.6699876,51.6897325",
   "source": "osm"
  },
  {
   "nom": "مقبره کمال",
   "lat": 32.6703874,
   "lng": 51.6908977,
   "coordonnees": {
    "lat": 32.6703874,
    "lng": 51.6908977
   },
   "categorie": "Histoire",
   "mapsUrl": "https://maps.google.com/?q=32.6703874,51.6908977",
   "source": "osm"
  },
  {
   "nom": "مناره دارالضیافه",
   "lat": 32.6689285,
   "lng": 51.6931667,
   "coordonnees": {
    "lat": 32.6689285,
    "lng": 51.6931667
   },
   "categorie": "Histoire",
   "mapsUrl": "https://maps.google.com/?q=32.6689285,51.6931667",
   "source": "osm"
  },
  {
   "nom": "لا اله الا الله",
   "lat": 32.6279311,
   "lng": 51.6775879,
   "coordonnees": {
    "lat": 32.6279311,
    "lng": 51.6775879
   },
   "categorie": "À voir",
   "mapsUrl": "https://maps.google.com/?q=32.6279311,51.6775879",
   "source": "osm"
  },
  {
   "nom": "خانه صفوی",
   "lat": 32.634594,
   "lng": 51.6415634,
   "coordonnees": {
    "lat": 32.634594,
    "lng": 51.6415634
   },
   "categorie": "Histoire",
   "mapsUrl": "https://maps.google.com/?q=32.634594,51.6415634",
   "source": "osm"
  },
  {
   "nom": "مناره ساربان",
   "lat": 32.6711152,
   "lng": 51.6934402,
   "coordonnees": {
    "lat": 32.6711152,
    "lng": 51.6934402
   },
   "categorie": "Histoire",
   "mapsUrl": "https://maps.google.com/?q=32.6711152,51.6934402",
   "source": "osm"
  },
  {
   "nom": "خانه سوکیاس",
   "lat": 32.6308756,
   "lng": 51.6445354,
   "coordonnees": {
    "lat": 32.6308756,
    "lng": 51.6445354
   },
   "categorie": "Histoire",
   "mapsUrl": "https://maps.google.com/?q=32.6308756,51.6445354",
   "source": "osm"
  },
  {
   "nom": "گالری الماس",
   "lat": 32.6590127,
   "lng": 51.7005786,
   "coordonnees": {
    "lat": 32.6590127,
    "lng": 51.7005786
   },
   "categorie": "Culture",
   "mapsUrl": "https://maps.google.com/?q=32.6590127,51.7005786",
   "source": "osm"
  },
  {
   "nom": "باغ گل اصفهان",
   "lat": 32.6394619,
   "lng": 51.6966781,
   "coordonnees": {
    "lat": 32.6394619,
    "lng": 51.6966781
   },
   "categorie": "À voir",
   "mapsUrl": "https://maps.google.com/?q=32.6394619,51.6966781",
   "source": "osm"
  },
  {
   "nom": "امامزاده شاهزید",
   "lat": 32.6514161,
   "lng": 51.701317,
   "coordonnees": {
    "lat": 32.6514161,
    "lng": 51.701317
   },
   "categorie": "Histoire",
   "mapsUrl": "https://maps.google.com/?q=32.6514161,51.701317",
   "source": "osm"
  },
  {
   "nom": "له",
   "lat": 32.6450222,
   "lng": 51.7001511,
   "coordonnees": {
    "lat": 32.6450222,
    "lng": 51.7001511
   },
   "categorie": "Histoire",
   "mapsUrl": "https://maps.google.com/?q=32.6450222,51.7001511",
   "source": "osm"
  },
  {
   "nom": "مناره چهل دختران",
   "lat": 32.6734391,
   "lng": 51.6944408,
   "coordonnees": {
    "lat": 32.6734391,
    "lng": 51.6944408
   },
   "categorie": "Histoire",
   "mapsUrl": "https://maps.google.com/?q=32.6734391,51.6944408",
   "source": "osm"
  },
  {
   "nom": "مقبره بابا رکن الذین",
   "lat": 32.624513,
   "lng": 51.6810601,
   "coordonnees": {
    "lat": 32.624513,
    "lng": 51.6810601
   },
   "categorie": "Histoire",
   "mapsUrl": "https://maps.google.com/?q=32.624513,51.6810601",
   "source": "osm"
  },
  {
   "nom": "گالری نقره روژان",
   "lat": 32.6857442,
   "lng": 51.6726297,
   "coordonnees": {
    "lat": 32.6857442,
    "lng": 51.6726297
   },
   "categorie": "Culture",
   "mapsUrl": "https://maps.google.com/?q=32.6857442,51.6726297",
   "source": "osm"
  },
  {
   "nom": "نماد معلم",
   "lat": 32.6229415,
   "lng": 51.6504659,
   "coordonnees": {
    "lat": 32.6229415,
    "lng": 51.6504659
   },
   "categorie": "À voir",
   "mapsUrl": "https://maps.google.com/?q=32.6229415,51.6504659",
   "source": "osm"
  },
  {
   "nom": "مزار شهید آیت الله اشرفی اصفهانی",
   "lat": 32.6252123,
   "lng": 51.689153,
   "coordonnees": {
    "lat": 32.6252123,
    "lng": 51.689153
   },
   "categorie": "Histoire",
   "mapsUrl": "https://maps.google.com/?q=32.6252123,51.689153",
   "source": "osm"
  },
  {
   "nom": "گالری نقاشی موحد دوز",
   "lat": 32.6436883,
   "lng": 51.7069542,
   "coordonnees": {
    "lat": 32.6436883,
    "lng": 51.7069542
   },
   "categorie": "Shopping",
   "mapsUrl": "https://maps.google.com/?q=32.6436883,51.7069542",
   "source": "osm"
  },
  {
   "nom": "تندیس پدر",
   "lat": 32.6368451,
   "lng": 51.7041337,
   "coordonnees": {
    "lat": 32.6368451,
    "lng": 51.7041337
   },
   "categorie": "À voir",
   "mapsUrl": "https://maps.google.com/?q=32.6368451,51.7041337",
   "source": "osm"
  }
 ],
 "imageCredit": "Wikimedia Commons",
 "osmEnriched": true,
 "osmEnrichedAt": "2026-06-30",
 "description_en": "Ispahan, in Iran, is a halal-friendly destination with a Halal Trust Score of 4.7/5. Muslim travelers will find 101 halal restaurants listed, 1 mosques, real-time prayer times and the Qibla direction — a complete guide to travel with peace of mind.",
 "metaDescription_en": "Halal guide to Ispahan: 101 halal restaurants listed, 1 mosques, prayer times and tips for Muslim travelers. Halal Trust Score 4.7/5.",
 "nom_en": "Ispahan",
 "boucheries": [
  {
   "nom": "فرآورده های گوشتی میکائیلیان",
   "lat": 32.65415,
   "lng": 51.660957,
   "type": "Boucherie halal",
   "mapsUrl": "https://maps.google.com/?q=32.65415,51.660957",
   "source": "osm"
  },
  {
   "nom": "بسته بندی و آماده سازی گوشت حنانه",
   "lat": 32.6373519,
   "lng": 51.6513035,
   "type": "Boucherie halal",
   "mapsUrl": "https://maps.google.com/?q=32.6373519,51.6513035",
   "source": "osm"
  },
  {
   "nom": "هایپر گوشت خان عمو",
   "lat": 32.6377034,
   "lng": 51.6482104,
   "type": "Boucherie halal",
   "mapsUrl": "https://maps.google.com/?q=32.6377034,51.6482104",
   "source": "osm"
  },
  {
   "nom": "مرغ و ماهی ستاره جنوب",
   "lat": 32.6302511,
   "lng": 51.6529436,
   "type": "Boucherie halal",
   "mapsUrl": "https://maps.google.com/?q=32.6302511,51.6529436",
   "source": "osm"
  },
  {
   "nom": "سوپر گوشت اسپادان",
   "lat": 32.6361712,
   "lng": 51.6422927,
   "type": "Boucherie halal",
   "mapsUrl": "https://maps.google.com/?q=32.6361712,51.6422927",
   "source": "osm"
  },
  {
   "nom": "گوشت امید",
   "lat": 32.634188,
   "lng": 51.6423469,
   "type": "Boucherie halal",
   "mapsUrl": "https://maps.google.com/?q=32.634188,51.6423469",
   "source": "osm"
  },
  {
   "nom": "مرغ و ماهی محمد",
   "lat": 32.6229017,
   "lng": 51.6509545,
   "type": "Boucherie halal",
   "mapsUrl": "https://maps.google.com/?q=32.6229017,51.6509545",
   "source": "osm"
  },
  {
   "nom": "قصابی مرشد",
   "lat": 32.6232286,
   "lng": 51.6409171,
   "type": "Boucherie halal",
   "mapsUrl": "https://maps.google.com/?q=32.6232286,51.6409171",
   "source": "osm"
  },
  {
   "nom": "گوشت فروشی خوشنام",
   "lat": 32.6244742,
   "lng": 51.6364664,
   "type": "Boucherie halal",
   "mapsUrl": "https://maps.google.com/?q=32.6244742,51.6364664",
   "source": "osm"
  },
  {
   "nom": "سوپر گوشت ممتاز",
   "lat": 32.6235089,
   "lng": 51.6272236,
   "type": "Boucherie halal",
   "mapsUrl": "https://maps.google.com/?q=32.6235089,51.6272236",
   "source": "osm"
  },
  {
   "nom": "مرغ و ماهی زاینده رود",
   "lat": 32.6243201,
   "lng": 51.625832,
   "type": "Boucherie halal",
   "mapsUrl": "https://maps.google.com/?q=32.6243201,51.625832",
   "source": "osm"
  },
  {
   "nom": "گوشت سفیدبره بختیاری",
   "lat": 32.6222717,
   "lng": 51.6262285,
   "type": "Boucherie halal",
   "mapsUrl": "https://maps.google.com/?q=32.6222717,51.6262285",
   "source": "osm"
  },
  {
   "nom": "مرغ و ماهی هفت دریا",
   "lat": 32.6237214,
   "lng": 51.6188457,
   "type": "Boucherie halal",
   "mapsUrl": "https://maps.google.com/?q=32.6237214,51.6188457",
   "source": "osm"
  },
  {
   "nom": "مرغ و ماهی صدف",
   "lat": 32.6178212,
   "lng": 51.6209253,
   "type": "Boucherie halal",
   "mapsUrl": "https://maps.google.com/?q=32.6178212,51.6209253",
   "source": "osm"
  },
  {
   "nom": "مرغ و ماهی محمد",
   "lat": 32.6152727,
   "lng": 51.6210582,
   "type": "Boucherie halal",
   "mapsUrl": "https://maps.google.com/?q=32.6152727,51.6210582",
   "source": "osm"
  },
  {
   "nom": "سوپرگوشت زراعتی",
   "lat": 32.7092396,
   "lng": 51.6765252,
   "type": "Boucherie halal",
   "mapsUrl": "https://maps.google.com/?q=32.7092396,51.6765252",
   "source": "osm"
  },
  {
   "nom": "سوپرگوشت خیام",
   "lat": 32.6133116,
   "lng": 51.616601,
   "type": "Boucherie halal",
   "mapsUrl": "https://maps.google.com/?q=32.6133116,51.616601",
   "source": "osm"
  },
  {
   "nom": "مرغ و ماهی امین",
   "lat": 32.6085818,
   "lng": 51.6225655,
   "type": "Boucherie halal",
   "mapsUrl": "https://maps.google.com/?q=32.6085818,51.6225655",
   "source": "osm"
  },
  {
   "nom": "سوپرگوشت خیام",
   "lat": 32.6116807,
   "lng": 51.616066,
   "type": "Boucherie halal",
   "mapsUrl": "https://maps.google.com/?q=32.6116807,51.616066",
   "source": "osm"
  }
 ],
 "dataPurgedAt": "2026-07-15"
}