{
  "slug": "kaohsiung",
  "nom": "Kaohsiung",
  "pays": "Taïwan",
  "pays_slug": "taiwan",
  "continent": "Asie",
  "region": "Taïwan",
  "coordonnees": {
    "lat": 22.6273,
    "lng": 120.3014
  },
  "codeISO": "TW",
  "score_halal": 3.2,
  "halalScore": 6.4,
  "description": "Kaohsiung, Taïwan. Repérez les restaurants halal et les mosquées via l'application.",
  "metaDescription": "Kaohsiung, Taïwan. Repérez les restaurants halal et les mosquées via l'application.",
  "image": "https://upload.wikimedia.org/wikipedia/commons/1/1d/Kaohsiung_Skyline_2020_%28cropped%29.jpg",
  "image_hero": "https://upload.wikimedia.org/wikipedia/commons/1/1d/Kaohsiung_Skyline_2020_%28cropped%29.jpg",
  "imageCredit": "Wikimedia Commons",
  "scoreIndicatif": true,
  "statistiques": {
    "restaurants_halal": 5,
    "mosquees": 5,
    "hotels": 120
  },
  "infoPratique": {
    "transport": "Accessible par avion et transports locaux.",
    "meilleureEpoque": "Selon la saison.",
    "conseilHalal": "Repérez restaurants halal et mosquées via l'application."
  },
  "tags": [
    "halal",
    "asie"
  ],
  "restaurants": [
    {
      "nom": "Lahore",
      "type": "pakistani",
      "priceRange": "€€",
      "mapsUrl": "https://maps.google.com/?q=22.6227811,120.3169943",
      "lat": 22.6227811,
      "lng": 120.3169943,
      "halalConfidence": "yes",
      "source": "osm"
    },
    {
      "nom": "老爺燒肉",
      "type": "kebab",
      "priceRange": "€€",
      "mapsUrl": "https://maps.google.com/?q=22.6347655,120.3010105",
      "lat": 22.6347655,
      "lng": 120.3010105,
      "halalConfidence": "likely",
      "source": "osm"
    },
    {
      "nom": "迷霧和牛燒肉",
      "type": "kebab",
      "priceRange": "€€",
      "mapsUrl": "https://maps.google.com/?q=22.6612818,120.3068081",
      "lat": 22.6612818,
      "lng": 120.3068081,
      "halalConfidence": "likely",
      "source": "osm"
    },
    {
      "nom": "碳佐麻里美術館店",
      "type": "kebab",
      "priceRange": "€€",
      "mapsUrl": "https://maps.google.com/?q=22.6622709,120.2906731",
      "lat": 22.6622709,
      "lng": 120.2906731,
      "halalConfidence": "likely",
      "source": "osm"
    },
    {
      "nom": "醞燒肉丼飯屋",
      "type": "barbecue, beef bowl, japanese, grill, kebab",
      "priceRange": "€€",
      "mapsUrl": "https://maps.google.com/?q=22.6055831,120.3332957",
      "lat": 22.6055831,
      "lng": 120.3332957,
      "halalConfidence": "likely",
      "source": "osm"
    }
  ],
  "hotels": [
    {
      "nom": "比歐緻居",
      "categorie": "Hôtel",
      "priceRange": "€€",
      "mapsUrl": "https://maps.google.com/?q=22.6264115,120.3019992",
      "lat": 22.6264115,
      "lng": 120.3019992,
      "halalFriendly": false,
      "bookingUrl": "https://maps.google.com/?q=22.6264115,120.3019992",
      "source": "osm"
    },
    {
      "nom": "大益大飯店",
      "categorie": "Hôtel",
      "priceRange": "€€",
      "mapsUrl": "https://maps.google.com/?q=22.6287819,120.3011043",
      "lat": 22.6287819,
      "lng": 120.3011043,
      "halalFriendly": false,
      "bookingUrl": "https://maps.google.com/?q=22.6287819,120.3011043",
      "source": "osm"
    },
    {
      "nom": "大通大飯店",
      "categorie": "Hôtel",
      "priceRange": "€€",
      "mapsUrl": "https://maps.google.com/?q=22.6284729,120.3002106",
      "lat": 22.6284729,
      "lng": 120.3002106,
      "halalFriendly": false,
      "bookingUrl": "https://maps.google.com/?q=22.6284729,120.3002106",
      "source": "osm"
    },
    {
      "nom": "高雄中央公園英迪格酒店",
      "categorie": "Hôtel",
      "priceRange": "€€",
      "mapsUrl": "https://maps.google.com/?q=22.6244179,120.3014593",
      "lat": 22.6244179,
      "lng": 120.3014593,
      "halalFriendly": false,
      "bookingUrl": "https://maps.google.com/?q=22.6244179,120.3014593",
      "source": "osm"
    },
    {
      "nom": "Papa Whale 高雄美麗島館",
      "categorie": "Hôtel",
      "priceRange": "€€",
      "mapsUrl": "https://maps.google.com/?q=22.6277217,120.3045553",
      "lat": 22.6277217,
      "lng": 120.3045553,
      "halalFriendly": false,
      "bookingUrl": "https://maps.google.com/?q=22.6277217,120.3045553",
      "source": "osm"
    },
    {
      "nom": "HotelDua",
      "categorie": "Hôtel",
      "priceRange": "€€",
      "mapsUrl": "https://maps.google.com/?q=22.630566,120.3042478",
      "lat": 22.630566,
      "lng": 120.3042478,
      "halalFriendly": false,
      "bookingUrl": "https://maps.google.com/?q=22.630566,120.3042478",
      "source": "osm"
    },
    {
      "nom": "Trip GG Hostel",
      "categorie": "Auberge",
      "priceRange": "€€",
      "mapsUrl": "https://maps.google.com/?q=22.6314968,120.3010754",
      "lat": 22.6314968,
      "lng": 120.3010754,
      "halalFriendly": false,
      "bookingUrl": "https://maps.google.com/?q=22.6314968,120.3010754",
      "source": "osm"
    },
    {
      "nom": "旅聚居青年旅舍",
      "categorie": "Auberge",
      "priceRange": "€€",
      "mapsUrl": "https://maps.google.com/?q=22.6316921,120.3011211",
      "lat": 22.6316921,
      "lng": 120.3011211,
      "halalFriendly": false,
      "bookingUrl": "http://www.tripgg.com.tw/",
      "source": "osm"
    },
    {
      "nom": "承攜行旅",
      "categorie": "Hôtel",
      "priceRange": "€€",
      "mapsUrl": "https://maps.google.com/?q=22.6246809,120.3053014",
      "lat": 22.6246809,
      "lng": 120.3053014,
      "halalFriendly": false,
      "bookingUrl": "https://maps.google.com/?q=22.6246809,120.3053014",
      "source": "osm"
    },
    {
      "nom": "Uno青年旅舍",
      "categorie": "Auberge",
      "priceRange": "€€",
      "mapsUrl": "https://maps.google.com/?q=22.622436,120.3016126",
      "lat": 22.622436,
      "lng": 120.3016126,
      "halalFriendly": false,
      "bookingUrl": "http://www.bpiks.com/",
      "source": "osm"
    },
    {
      "nom": "戀之宿主題套房",
      "categorie": "Auberge",
      "priceRange": "€€",
      "mapsUrl": "https://maps.google.com/?q=22.6222228,120.3010013",
      "lat": 22.6222228,
      "lng": 120.3010013,
      "halalFriendly": false,
      "bookingUrl": "https://maps.google.com/?q=22.6222228,120.3010013",
      "source": "osm"
    },
    {
      "nom": "塔木德酒店",
      "categorie": "Hôtel",
      "priceRange": "€€",
      "mapsUrl": "https://maps.google.com/?q=22.6269743,120.2956574",
      "lat": 22.6269743,
      "lng": 120.2956574,
      "halalFriendly": false,
      "bookingUrl": "https://maps.google.com/?q=22.6269743,120.2956574",
      "source": "osm"
    },
    {
      "nom": "七桃公寓",
      "categorie": "Auberge",
      "priceRange": "€€",
      "mapsUrl": "https://maps.google.com/?q=22.6314199,120.3051848",
      "lat": 22.6314199,
      "lng": 120.3051848,
      "halalFriendly": false,
      "bookingUrl": "https://maps.google.com/?q=22.6314199,120.3051848",
      "source": "osm"
    },
    {
      "nom": "貝殼窩港都青年旅舍",
      "categorie": "Auberge",
      "priceRange": "€€",
      "mapsUrl": "https://maps.google.com/?q=22.6216629,120.30215",
      "lat": 22.6216629,
      "lng": 120.30215,
      "halalFriendly": false,
      "bookingUrl": "https://maps.google.com/?q=22.6216629,120.30215",
      "source": "osm"
    },
    {
      "nom": "隨緣小寓",
      "categorie": "Auberge",
      "priceRange": "€€",
      "mapsUrl": "https://maps.google.com/?q=22.6320575,120.3053326",
      "lat": 22.6320575,
      "lng": 120.3053326,
      "halalFriendly": false,
      "bookingUrl": "https://maps.google.com/?q=22.6320575,120.3053326",
      "source": "osm"
    },
    {
      "nom": "鸭家青年旅馆",
      "categorie": "Auberge",
      "priceRange": "€€",
      "mapsUrl": "https://maps.google.com/?q=22.6331258,120.3031779",
      "lat": 22.6331258,
      "lng": 120.3031779,
      "halalFriendly": false,
      "bookingUrl": "https://maps.google.com/?q=22.6331258,120.3031779",
      "source": "osm"
    },
    {
      "nom": "雲端精緻旅館",
      "categorie": "Hôtel",
      "priceRange": "€€",
      "mapsUrl": "https://maps.google.com/?q=22.6332584,120.3001245",
      "lat": 22.6332584,
      "lng": 120.3001245,
      "halalFriendly": false,
      "bookingUrl": "http://www.cloudhotel.com.tw/",
      "source": "osm"
    },
    {
      "nom": "Blue Ocean Hotel",
      "categorie": "Hôtel",
      "priceRange": "€€",
      "mapsUrl": "https://maps.google.com/?q=22.6333745,120.3011535",
      "lat": 22.6333745,
      "lng": 120.3011535,
      "halalFriendly": false,
      "bookingUrl": "https://maps.google.com/?q=22.6333745,120.3011535",
      "source": "osm"
    },
    {
      "nom": "美麗道商旅",
      "categorie": "Hôtel",
      "priceRange": "€€",
      "mapsUrl": "https://maps.google.com/?q=22.6307243,120.3068622",
      "lat": 22.6307243,
      "lng": 120.3068622,
      "halalFriendly": false,
      "bookingUrl": "https://maps.google.com/?q=22.6307243,120.3068622",
      "source": "osm"
    },
    {
      "nom": "九福大飯店",
      "categorie": "Hôtel",
      "priceRange": "€€",
      "mapsUrl": "https://maps.google.com/?q=22.6333285,120.3002756",
      "lat": 22.6333285,
      "lng": 120.3002756,
      "halalFriendly": false,
      "bookingUrl": "https://maps.google.com/?q=22.6333285,120.3002756",
      "source": "osm"
    },
    {
      "nom": "天成逸旅-舶寓高雄",
      "categorie": "Hôtel",
      "priceRange": "€€",
      "mapsUrl": "https://maps.google.com/?q=22.6222799,120.2975651",
      "lat": 22.6222799,
      "lng": 120.2975651,
      "halalFriendly": false,
      "bookingUrl": "https://www.cosmos-oasis-voyage.com.tw/",
      "source": "osm"
    },
    {
      "nom": "樹屋旅店",
      "categorie": "Auberge",
      "priceRange": "€€€",
      "score": 3,
      "mapsUrl": "https://maps.google.com/?q=22.6312522,120.295924",
      "lat": 22.6312522,
      "lng": 120.295924,
      "halalFriendly": false,
      "bookingUrl": "https://maps.google.com/?q=22.6312522,120.295924",
      "source": "osm"
    },
    {
      "nom": "薇肯客棧",
      "categorie": "Hôtel",
      "priceRange": "€€",
      "mapsUrl": "https://maps.google.com/?q=22.6337977,120.2998242",
      "lat": 22.6337977,
      "lng": 120.2998242,
      "halalFriendly": false,
      "bookingUrl": "https://maps.google.com/?q=22.6337977,120.2998242",
      "source": "osm"
    },
    {
      "nom": "秝芯旅店",
      "categorie": "Hôtel",
      "priceRange": "€€",
      "mapsUrl": "https://maps.google.com/?q=22.6317973,120.2958871",
      "lat": 22.6317973,
      "lng": 120.2958871,
      "halalFriendly": false,
      "bookingUrl": "https://www.legendhotel.com.tw/",
      "source": "osm"
    },
    {
      "nom": "R10環保文旅",
      "categorie": "Hôtel",
      "priceRange": "€€",
      "mapsUrl": "https://maps.google.com/?q=22.6341291,120.3025182",
      "lat": 22.6341291,
      "lng": 120.3025182,
      "halalFriendly": false,
      "bookingUrl": "https://maps.google.com/?q=22.6341291,120.3025182",
      "source": "osm"
    },
    {
      "nom": "君龍商旅",
      "categorie": "Hôtel",
      "priceRange": "€€",
      "mapsUrl": "https://maps.google.com/?q=22.6215476,120.2970475",
      "lat": 22.6215476,
      "lng": 120.2970475,
      "halalFriendly": false,
      "bookingUrl": "https://maps.google.com/?q=22.6215476,120.2970475",
      "source": "osm"
    },
    {
      "nom": "尊龍大飯店",
      "categorie": "Hôtel",
      "priceRange": "€€",
      "mapsUrl": "https://maps.google.com/?q=22.6343559,120.3014063",
      "lat": 22.6343559,
      "lng": 120.3014063,
      "halalFriendly": false,
      "bookingUrl": "https://maps.google.com/?q=22.6343559,120.3014063",
      "source": "osm"
    },
    {
      "nom": "鳥巢商旅七賢館",
      "categorie": "Hôtel",
      "priceRange": "€€",
      "mapsUrl": "https://maps.google.com/?q=22.6330633,120.2966272",
      "lat": 22.6330633,
      "lng": 120.2966272,
      "halalFriendly": false,
      "bookingUrl": "https://maps.google.com/?q=22.6330633,120.2966272",
      "source": "osm"
    },
    {
      "nom": "昭來商務旅館",
      "categorie": "Hôtel",
      "priceRange": "€€",
      "mapsUrl": "https://maps.google.com/?q=22.6199918,120.3025874",
      "lat": 22.6199918,
      "lng": 120.3025874,
      "halalFriendly": false,
      "bookingUrl": "https://maps.google.com/?q=22.6199918,120.3025874",
      "source": "osm"
    },
    {
      "nom": "禮來大飯店",
      "categorie": "Hôtel",
      "priceRange": "€€",
      "mapsUrl": "https://maps.google.com/?q=22.6306235,120.2941914",
      "lat": 22.6306235,
      "lng": 120.2941914,
      "halalFriendly": false,
      "bookingUrl": "https://www.lilyhotel.com.tw/",
      "source": "osm"
    },
    {
      "nom": "康橋商旅漢神館",
      "categorie": "Hôtel",
      "priceRange": "€€",
      "mapsUrl": "https://maps.google.com/?q=22.6198957,120.2997124",
      "lat": 22.6198957,
      "lng": 120.2997124,
      "halalFriendly": false,
      "bookingUrl": "https://www.easytravel.com.tw/ehotel/traffic.aspx?n=7005",
      "source": "osm"
    },
    {
      "nom": "Pathways Hostel 旅圖青年旅館",
      "categorie": "Hôtel",
      "priceRange": "€€",
      "mapsUrl": "https://maps.google.com/?q=22.6197021,120.3019292",
      "lat": 22.6197021,
      "lng": 120.3019292,
      "halalFriendly": false,
      "bookingUrl": "https://www.facebook.com/pathwayshostel/",
      "source": "osm"
    },
    {
      "nom": "簡單生活商旅",
      "categorie": "Hôtel",
      "priceRange": "€€",
      "mapsUrl": "https://maps.google.com/?q=22.6321797,120.294549",
      "lat": 22.6321797,
      "lng": 120.294549,
      "halalFriendly": false,
      "bookingUrl": "https://maps.google.com/?q=22.6321797,120.294549",
      "source": "osm"
    },
    {
      "nom": "佳適旅舍 站前館",
      "categorie": "Hôtel",
      "priceRange": "€€",
      "mapsUrl": "https://maps.google.com/?q=22.6352992,120.3018801",
      "lat": 22.6352992,
      "lng": 120.3018801,
      "halalFriendly": false,
      "bookingUrl": "https://maps.google.com/?q=22.6352992,120.3018801",
      "source": "osm"
    },
    {
      "nom": "宜都大飯店",
      "categorie": "Hôtel",
      "priceRange": "€€",
      "mapsUrl": "https://maps.google.com/?q=22.6352238,120.2996858",
      "lat": 22.6352238,
      "lng": 120.2996858,
      "halalFriendly": false,
      "bookingUrl": "https://maps.google.com/?q=22.6352238,120.2996858",
      "source": "osm"
    },
    {
      "nom": "康橋商旅",
      "categorie": "Hôtel",
      "priceRange": "€€",
      "mapsUrl": "https://maps.google.com/?q=22.6355003,120.3006825",
      "lat": 22.6355003,
      "lng": 120.3006825,
      "halalFriendly": false,
      "bookingUrl": "https://maps.google.com/?q=22.6355003,120.3006825",
      "source": "osm"
    },
    {
      "nom": "康瀚行旅",
      "categorie": "Hôtel",
      "priceRange": "€€",
      "mapsUrl": "https://maps.google.com/?q=22.6325164,120.2943934",
      "lat": 22.6325164,
      "lng": 120.2943934,
      "halalFriendly": false,
      "bookingUrl": "https://maps.google.com/?q=22.6325164,120.2943934",
      "source": "osm"
    },
    {
      "nom": "蒂亞飯店愛河館",
      "categorie": "Hôtel",
      "priceRange": "€€",
      "mapsUrl": "https://maps.google.com/?q=22.6322481,120.2937635",
      "lat": 22.6322481,
      "lng": 120.2937635,
      "halalFriendly": false,
      "bookingUrl": "https://maps.google.com/?q=22.6322481,120.2937635",
      "source": "osm"
    },
    {
      "nom": "正旅館 高雄",
      "categorie": "Hôtel",
      "priceRange": "€€",
      "mapsUrl": "https://maps.google.com/?q=22.6327343,120.2938161",
      "lat": 22.6327343,
      "lng": 120.2938161,
      "halalFriendly": false,
      "bookingUrl": "https://www.facebook.com/justinnkaohsiung/",
      "source": "osm"
    },
    {
      "nom": "康橋商旅",
      "categorie": "Hôtel",
      "priceRange": "€€",
      "mapsUrl": "https://maps.google.com/?q=22.6361495,120.3019734",
      "lat": 22.6361495,
      "lng": 120.3019734,
      "halalFriendly": false,
      "bookingUrl": "https://www.kindness-hotel.com.tw/location-kaohsiung-bade",
      "source": "osm"
    },
    {
      "nom": "喜達絲飯店",
      "categorie": "Hôtel",
      "priceRange": "€€",
      "mapsUrl": "https://maps.google.com/?q=22.6202573,120.2955551",
      "lat": 22.6202573,
      "lng": 120.2955551,
      "halalFriendly": false,
      "bookingUrl": "http://www.starhaushotel.com/",
      "source": "osm"
    },
    {
      "nom": "高雄福華大飯店",
      "categorie": "Hôtel",
      "priceRange": "€€€€",
      "score": 5,
      "mapsUrl": "https://maps.google.com/?q=22.633693,120.3081073",
      "lat": 22.633693,
      "lng": 120.3081073,
      "halalFriendly": false,
      "bookingUrl": "https://www.howard-hotels.com.tw/kaohsiung/home",
      "source": "osm"
    },
    {
      "nom": "漢來大飯店",
      "categorie": "Hôtel",
      "priceRange": "€€",
      "mapsUrl": "https://maps.google.com/?q=22.6195179,120.2966363",
      "lat": 22.6195179,
      "lng": 120.2966363,
      "halalFriendly": false,
      "bookingUrl": "https://maps.google.com/?q=22.6195179,120.2966363",
      "source": "osm"
    },
    {
      "nom": "JOHO HOTEL",
      "categorie": "Hôtel",
      "priceRange": "€€",
      "mapsUrl": "https://maps.google.com/?q=22.6362233,120.3026902",
      "lat": 22.6362233,
      "lng": 120.3026902,
      "halalFriendly": false,
      "bookingUrl": "https://johohotel.com/",
      "source": "osm"
    },
    {
      "nom": "m hotel都會商旅",
      "categorie": "Hôtel",
      "priceRange": "€€",
      "mapsUrl": "https://maps.google.com/?q=22.6320968,120.2930108",
      "lat": 22.6320968,
      "lng": 120.2930108,
      "halalFriendly": false,
      "bookingUrl": "https://maps.google.com/?q=22.6320968,120.2930108",
      "source": "osm"
    },
    {
      "nom": "衿后禾居",
      "categorie": "Hôtel",
      "priceRange": "€€",
      "mapsUrl": "https://maps.google.com/?q=22.6352451,120.3065872",
      "lat": 22.6352451,
      "lng": 120.3065872,
      "halalFriendly": false,
      "bookingUrl": "https://www.goodhotel.com.tw/",
      "source": "osm"
    },
    {
      "nom": "單人房住宿空間",
      "categorie": "Hôtel",
      "priceRange": "€€",
      "mapsUrl": "https://maps.google.com/?q=22.6361084,120.3046547",
      "lat": 22.6361084,
      "lng": 120.3046547,
      "halalFriendly": false,
      "bookingUrl": "https://www.singleinn.com.tw/",
      "source": "osm"
    },
    {
      "nom": "華園飯店",
      "categorie": "Hôtel",
      "priceRange": "€€",
      "mapsUrl": "https://maps.google.com/?q=22.6289656,120.2909353",
      "lat": 22.6289656,
      "lng": 120.2909353,
      "halalFriendly": false,
      "bookingUrl": "https://maps.google.com/?q=22.6289656,120.2909353",
      "source": "osm"
    },
    {
      "nom": "上陞商務大飯店",
      "categorie": "Hôtel",
      "priceRange": "€€",
      "mapsUrl": "https://maps.google.com/?q=22.6371049,120.3035423",
      "lat": 22.6371049,
      "lng": 120.3035423,
      "halalFriendly": false,
      "bookingUrl": "https://www.facebook.com/sunshinehotel.kh/",
      "source": "osm"
    },
    {
      "nom": "康橋商旅",
      "categorie": "Hôtel",
      "priceRange": "€€",
      "mapsUrl": "https://maps.google.com/?q=22.6375144,120.3029321",
      "lat": 22.6375144,
      "lng": 120.3029321,
      "halalFriendly": false,
      "bookingUrl": "https://maps.google.com/?q=22.6375144,120.3029321",
      "source": "osm"
    },
    {
      "nom": "御宿商旅",
      "categorie": "Hôtel",
      "priceRange": "€€",
      "mapsUrl": "https://maps.google.com/?q=22.6374901,120.3032802",
      "lat": 22.6374901,
      "lng": 120.3032802,
      "halalFriendly": false,
      "bookingUrl": "https://maps.google.com/?q=22.6374901,120.3032802",
      "source": "osm"
    },
    {
      "nom": "高雄國軍英雄館",
      "categorie": "Hôtel",
      "priceRange": "€€",
      "mapsUrl": "https://maps.google.com/?q=22.6203547,120.292948",
      "lat": 22.6203547,
      "lng": 120.292948,
      "halalFriendly": false,
      "bookingUrl": "https://maps.google.com/?q=22.6203547,120.292948",
      "source": "osm"
    },
    {
      "nom": "華宏飯店",
      "categorie": "Hôtel",
      "priceRange": "€€",
      "mapsUrl": "https://maps.google.com/?q=22.6374574,120.304672",
      "lat": 22.6374574,
      "lng": 120.304672,
      "halalFriendly": false,
      "bookingUrl": "https://maps.google.com/?q=22.6374574,120.304672",
      "source": "osm"
    },
    {
      "nom": "御宿行旅",
      "categorie": "Hôtel",
      "priceRange": "€€",
      "mapsUrl": "https://maps.google.com/?q=22.6379909,120.3002539",
      "lat": 22.6379909,
      "lng": 120.3002539,
      "halalFriendly": false,
      "bookingUrl": "https://www.royal-group.com.tw/",
      "source": "osm"
    },
    {
      "nom": "麗景酒店",
      "categorie": "Hôtel",
      "priceRange": "€€",
      "mapsUrl": "https://maps.google.com/?q=22.627447,120.3131586",
      "lat": 22.627447,
      "lng": 120.3131586,
      "halalFriendly": false,
      "bookingUrl": "http://lb.theleeshotel.com/",
      "source": "osm"
    },
    {
      "nom": "鈞怡大飯店",
      "categorie": "Hôtel",
      "priceRange": "€€",
      "mapsUrl": "https://maps.google.com/?q=22.6218313,120.29098",
      "lat": 22.6218313,
      "lng": 120.29098,
      "halalFriendly": false,
      "bookingUrl": "https://maps.google.com/?q=22.6218313,120.29098",
      "source": "osm"
    },
    {
      "nom": "麗尊酒店",
      "categorie": "Hôtel",
      "priceRange": "€€",
      "mapsUrl": "https://maps.google.com/?q=22.6270794,120.3137857",
      "lat": 22.6270794,
      "lng": 120.3137857,
      "halalFriendly": false,
      "bookingUrl": "http://www.theleeshotel.com/",
      "source": "osm"
    },
    {
      "nom": "康橋商旅(光榮碼頭館)",
      "categorie": "Hôtel",
      "priceRange": "€€",
      "mapsUrl": "https://maps.google.com/?q=22.6174178,120.2950862",
      "lat": 22.6174178,
      "lng": 120.2950862,
      "halalFriendly": false,
      "bookingUrl": "https://www.kindness-hotel.com.tw/hotels/kaohsiung/guang-rong-pier",
      "source": "osm"
    },
    {
      "nom": "背包41青年旅館",
      "categorie": "Auberge",
      "priceRange": "€€",
      "mapsUrl": "https://maps.google.com/?q=22.6161248,120.3043434",
      "lat": 22.6161248,
      "lng": 120.3043434,
      "halalFriendly": false,
      "bookingUrl": "https://maps.google.com/?q=22.6161248,120.3043434",
      "source": "osm"
    },
    {
      "nom": "兆舍行旅",
      "categorie": "Hôtel",
      "priceRange": "€€",
      "mapsUrl": "https://maps.google.com/?q=22.6312154,120.2894381",
      "lat": 22.6312154,
      "lng": 120.2894381,
      "halalFriendly": false,
      "bookingUrl": "https://maps.google.com/?q=22.6312154,120.2894381",
      "source": "osm"
    },
    {
      "nom": "Leesing Hotel",
      "categorie": "Hôtel",
      "priceRange": "€€",
      "mapsUrl": "https://maps.google.com/?q=22.6308911,120.2891866",
      "lat": 22.6308911,
      "lng": 120.2891866,
      "halalFriendly": false,
      "bookingUrl": "https://maps.google.com/?q=22.6308911,120.2891866",
      "source": "osm"
    },
    {
      "nom": "寒軒國際大飯店",
      "categorie": "Hôtel",
      "priceRange": "€€",
      "mapsUrl": "https://maps.google.com/?q=22.6189665,120.3110301",
      "lat": 22.6189665,
      "lng": 120.3110301,
      "halalFriendly": false,
      "bookingUrl": "http://www.han-hsien.com.tw/hhih/",
      "source": "osm"
    },
    {
      "nom": "ROYAL HOTEL",
      "categorie": "Hôtel",
      "priceRange": "€€",
      "mapsUrl": "https://maps.google.com/?q=22.6151787,120.303243",
      "lat": 22.6151787,
      "lng": 120.303243,
      "halalFriendly": false,
      "bookingUrl": "https://maps.google.com/?q=22.6151787,120.303243",
      "source": "osm"
    },
    {
      "nom": "陽光大飯店 Hotel Sunshine",
      "categorie": "Hôtel",
      "priceRange": "€€",
      "mapsUrl": "https://maps.google.com/?q=22.6142944,120.3013529",
      "lat": 22.6142944,
      "lng": 120.3013529,
      "halalFriendly": false,
      "bookingUrl": "https://maps.google.com/?q=22.6142944,120.3013529",
      "source": "osm"
    },
    {
      "nom": "碧港良居商旅",
      "categorie": "Hôtel",
      "priceRange": "€€",
      "mapsUrl": "https://maps.google.com/?q=22.6402779,120.3038163",
      "lat": 22.6402779,
      "lng": 120.3038163,
      "halalFriendly": false,
      "bookingUrl": "https://maps.google.com/?q=22.6402779,120.3038163",
      "source": "osm"
    },
    {
      "nom": "CU",
      "categorie": "Hôtel",
      "priceRange": "€€",
      "mapsUrl": "https://maps.google.com/?q=22.640589,120.3015313",
      "lat": 22.640589,
      "lng": 120.3015313,
      "halalFriendly": false,
      "bookingUrl": "https://www.cuhotel.com.tw/Kaohsiung",
      "source": "osm"
    },
    {
      "nom": "旅悅 國際青年旅館",
      "categorie": "Maison d'hôtes",
      "priceRange": "€€",
      "mapsUrl": "https://maps.google.com/?q=22.6146324,120.3070822",
      "lat": 22.6146324,
      "lng": 120.3070822,
      "halalFriendly": false,
      "bookingUrl": "https://maps.google.com/?q=22.6146324,120.3070822",
      "source": "osm"
    },
    {
      "nom": "海景",
      "categorie": "Appartement",
      "priceRange": "€€",
      "mapsUrl": "https://maps.google.com/?q=22.6284512,120.2865695",
      "lat": 22.6284512,
      "lng": 120.2865695,
      "halalFriendly": false,
      "bookingUrl": "https://maps.google.com/?q=22.6284512,120.2865695",
      "source": "osm"
    },
    {
      "nom": "康橋商旅",
      "categorie": "Hôtel",
      "priceRange": "€€",
      "mapsUrl": "https://maps.google.com/?q=22.6408759,120.3043172",
      "lat": 22.6408759,
      "lng": 120.3043172,
      "halalFriendly": false,
      "bookingUrl": "https://maps.google.com/?q=22.6408759,120.3043172",
      "source": "osm"
    },
    {
      "nom": "國際星辰旅館",
      "categorie": "Hôtel",
      "priceRange": "€€",
      "mapsUrl": "https://maps.google.com/?q=22.635938,120.2893398",
      "lat": 22.635938,
      "lng": 120.2893398,
      "halalFriendly": false,
      "bookingUrl": "http://www.ncznhotel.com.tw",
      "source": "osm"
    },
    {
      "nom": "高雄福容大飯店",
      "categorie": "Hôtel",
      "priceRange": "€€",
      "mapsUrl": "https://maps.google.com/?q=22.6213033,120.287554",
      "lat": 22.6213033,
      "lng": 120.287554,
      "halalFriendly": false,
      "bookingUrl": "https://maps.google.com/?q=22.6213033,120.287554",
      "source": "osm"
    },
    {
      "nom": "天安大飯店",
      "categorie": "Hôtel",
      "priceRange": "€€",
      "mapsUrl": "https://maps.google.com/?q=22.6415003,120.3024085",
      "lat": 22.6415003,
      "lng": 120.3024085,
      "halalFriendly": false,
      "bookingUrl": "https://maps.google.com/?q=22.6415003,120.3024085",
      "source": "osm"
    },
    {
      "nom": "現代商務旅館",
      "categorie": "Hôtel",
      "priceRange": "€€",
      "mapsUrl": "https://maps.google.com/?q=22.64146,120.3031587",
      "lat": 22.64146,
      "lng": 120.3031587,
      "halalFriendly": false,
      "bookingUrl": "https://maps.google.com/?q=22.64146,120.3031587",
      "source": "osm"
    },
    {
      "nom": "和逸飯店",
      "categorie": "Hôtel",
      "priceRange": "€€",
      "mapsUrl": "https://maps.google.com/?q=22.613408,120.3051156",
      "lat": 22.613408,
      "lng": 120.3051156,
      "halalFriendly": false,
      "bookingUrl": "https://maps.google.com/?q=22.613408,120.3051156",
      "source": "osm"
    },
    {
      "nom": "F Hotel 愛河館",
      "categorie": "Hôtel",
      "priceRange": "€€",
      "mapsUrl": "https://maps.google.com/?q=22.6233317,120.2863409",
      "lat": 22.6233317,
      "lng": 120.2863409,
      "halalFriendly": false,
      "bookingUrl": "https://maps.google.com/?q=22.6233317,120.2863409",
      "source": "osm"
    },
    {
      "nom": "家和商旅",
      "categorie": "Hôtel",
      "priceRange": "€€€",
      "score": 3,
      "mapsUrl": "https://maps.google.com/?q=22.6416325,120.2983606",
      "lat": 22.6416325,
      "lng": 120.2983606,
      "halalFriendly": false,
      "bookingUrl": "https://maps.google.com/?q=22.6416325,120.2983606",
      "source": "osm"
    },
    {
      "nom": "秝芯旅店駁二館",
      "categorie": "Hôtel",
      "priceRange": "€€",
      "mapsUrl": "https://maps.google.com/?q=22.6218932,120.2866322",
      "lat": 22.6218932,
      "lng": 120.2866322,
      "halalFriendly": false,
      "bookingUrl": "https://p2.legendhotel.com.tw/",
      "source": "osm"
    },
    {
      "nom": "家和商旅",
      "categorie": "Hôtel",
      "priceRange": "€€€",
      "score": 3,
      "mapsUrl": "https://maps.google.com/?q=22.6417448,120.2984861",
      "lat": 22.6417448,
      "lng": 120.2984861,
      "halalFriendly": false,
      "bookingUrl": "https://maps.google.com/?q=22.6417448,120.2984861",
      "source": "osm"
    },
    {
      "nom": "偶爾鏘",
      "categorie": "Auberge",
      "priceRange": "€€",
      "mapsUrl": "https://maps.google.com/?q=22.6420134,120.3007451",
      "lat": 22.6420134,
      "lng": 120.3007451,
      "halalFriendly": false,
      "bookingUrl": "http://Facebook.com/orkiang",
      "source": "osm"
    },
    {
      "nom": "翰品酒店",
      "categorie": "Hôtel",
      "priceRange": "€€",
      "mapsUrl": "https://maps.google.com/?q=22.6247538,120.285633",
      "lat": 22.6247538,
      "lng": 120.285633,
      "halalFriendly": false,
      "bookingUrl": "https://maps.google.com/?q=22.6247538,120.285633",
      "source": "osm"
    },
    {
      "nom": "旅居文旅",
      "categorie": "Hôtel",
      "priceRange": "€€",
      "mapsUrl": "https://maps.google.com/?q=22.6125125,120.3017834",
      "lat": 22.6125125,
      "lng": 120.3017834,
      "halalFriendly": false,
      "bookingUrl": "https://maps.google.com/?q=22.6125125,120.3017834",
      "source": "osm"
    },
    {
      "nom": "戀戀高雄",
      "categorie": "Hôtel",
      "priceRange": "€€",
      "mapsUrl": "https://maps.google.com/?q=22.6124964,120.3018145",
      "lat": 22.6124964,
      "lng": 120.3018145,
      "halalFriendly": false,
      "bookingUrl": "https://maps.google.com/?q=22.6124964,120.3018145",
      "source": "osm"
    },
    {
      "nom": "Rivero Hotel",
      "categorie": "Hôtel",
      "priceRange": "€€",
      "mapsUrl": "https://maps.google.com/?q=22.6293888,120.285494",
      "lat": 22.6293888,
      "lng": 120.285494,
      "halalFriendly": false,
      "bookingUrl": "https://maps.google.com/?q=22.6293888,120.285494",
      "source": "osm"
    },
    {
      "nom": "好地方大飯店",
      "categorie": "Hôtel",
      "priceRange": "€€",
      "mapsUrl": "https://maps.google.com/?q=22.6124614,120.301749",
      "lat": 22.6124614,
      "lng": 120.301749,
      "halalFriendly": false,
      "bookingUrl": "https://maps.google.com/?q=22.6124614,120.301749",
      "source": "osm"
    },
    {
      "nom": "默砌旅店",
      "categorie": "Hôtel",
      "priceRange": "€€",
      "mapsUrl": "https://maps.google.com/?q=22.6124231,120.3018116",
      "lat": 22.6124231,
      "lng": 120.3018116,
      "halalFriendly": false,
      "bookingUrl": "https://maps.google.com/?q=22.6124231,120.3018116",
      "source": "osm"
    },
    {
      "nom": "棚棚屋小空間住藝術室內帳篷民宿",
      "categorie": "Auberge",
      "priceRange": "€€",
      "mapsUrl": "https://maps.google.com/?q=22.6135046,120.2951585",
      "lat": 22.6135046,
      "lng": 120.2951585,
      "halalFriendly": false,
      "bookingUrl": "https://maps.google.com/?q=22.6135046,120.2951585",
      "source": "osm"
    },
    {
      "nom": "鮪魚家族飯店鹽埕館",
      "categorie": "Hôtel",
      "priceRange": "€€",
      "mapsUrl": "https://maps.google.com/?q=22.6245198,120.2853722",
      "lat": 22.6245198,
      "lng": 120.2853722,
      "halalFriendly": false,
      "bookingUrl": "https://maps.google.com/?q=22.6245198,120.2853722",
      "source": "osm"
    },
    {
      "nom": "黑曜青年旅舍",
      "categorie": "Auberge",
      "priceRange": "€€",
      "mapsUrl": "https://maps.google.com/?q=22.6122018,120.3021802",
      "lat": 22.6122018,
      "lng": 120.3021802,
      "halalFriendly": false,
      "bookingUrl": "https://maps.google.com/?q=22.6122018,120.3021802",
      "source": "osm"
    },
    {
      "nom": "松柏大飯店",
      "categorie": "Hôtel",
      "priceRange": "€€",
      "mapsUrl": "https://maps.google.com/?q=22.6316952,120.3171876",
      "lat": 22.6316952,
      "lng": 120.3171876,
      "halalFriendly": false,
      "bookingUrl": "https://maps.google.com/?q=22.6316952,120.3171876",
      "source": "osm"
    },
    {
      "nom": "金谷商務旅館",
      "categorie": "Hôtel",
      "priceRange": "€€",
      "mapsUrl": "https://maps.google.com/?q=22.6120318,120.3033354",
      "lat": 22.6120318,
      "lng": 120.3033354,
      "halalFriendly": false,
      "bookingUrl": "https://maps.google.com/?q=22.6120318,120.3033354",
      "source": "osm"
    },
    {
      "nom": "Check Inn Express",
      "categorie": "Hôtel",
      "priceRange": "€€",
      "mapsUrl": "https://maps.google.com/?q=22.6314081,120.2850746",
      "lat": 22.6314081,
      "lng": 120.2850746,
      "halalFriendly": false,
      "bookingUrl": "https://maps.google.com/?q=22.6314081,120.2850746",
      "source": "osm"
    },
    {
      "nom": "MARS睦工場",
      "categorie": "Hôtel",
      "priceRange": "€€",
      "mapsUrl": "https://maps.google.com/?q=22.6240184,120.2841722",
      "lat": 22.6240184,
      "lng": 120.2841722,
      "halalFriendly": false,
      "bookingUrl": "https://maps.google.com/?q=22.6240184,120.2841722",
      "source": "osm"
    },
    {
      "nom": "237重機主題旅店.咖啡",
      "categorie": "Hôtel",
      "priceRange": "€€",
      "mapsUrl": "https://maps.google.com/?q=22.629709,120.283847",
      "lat": 22.629709,
      "lng": 120.283847,
      "halalFriendly": false,
      "bookingUrl": "https://maps.google.com/?q=22.629709,120.283847",
      "source": "osm"
    },
    {
      "nom": "城市商旅駁二館",
      "categorie": "Hôtel",
      "priceRange": "€€€€",
      "score": 4,
      "mapsUrl": "https://maps.google.com/?q=22.6201113,120.2852819",
      "lat": 22.6201113,
      "lng": 120.2852819,
      "halalFriendly": false,
      "bookingUrl": "https://www.citysuiteshotels.com/zh-tw/%E9%AB%98%E9%9B%84%E9%A7%81%E4%BA%8C%E9%A4%A8",
      "source": "osm"
    },
    {
      "nom": "晶英國際行館",
      "categorie": "Hôtel",
      "priceRange": "€€",
      "mapsUrl": "https://maps.google.com/?q=22.610542,120.3054073",
      "lat": 22.610542,
      "lng": 120.3054073,
      "halalFriendly": false,
      "bookingUrl": "https://maps.google.com/?q=22.610542,120.3054073",
      "source": "osm"
    },
    {
      "nom": "管家青年旅館",
      "categorie": "Auberge",
      "priceRange": "€€",
      "mapsUrl": "https://maps.google.com/?q=22.6227762,120.2833975",
      "lat": 22.6227762,
      "lng": 120.2833975,
      "halalFriendly": false,
      "bookingUrl": "https://pipe-hostel.business.site/",
      "source": "osm"
    },
    {
      "nom": "河堤漫旅自立館",
      "categorie": "Hôtel",
      "priceRange": "€€",
      "mapsUrl": "https://maps.google.com/?q=22.6439478,120.296144",
      "lat": 22.6439478,
      "lng": 120.296144,
      "halalFriendly": false,
      "bookingUrl": "https://maps.google.com/?q=22.6439478,120.296144",
      "source": "osm"
    },
    {
      "nom": "海霸王城市商旅",
      "categorie": "Hôtel",
      "priceRange": "€€",
      "mapsUrl": "https://maps.google.com/?q=22.6192043,120.2845157",
      "lat": 22.6192043,
      "lng": 120.2845157,
      "halalFriendly": false,
      "bookingUrl": "https://maps.google.com/?q=22.6192043,120.2845157",
      "source": "osm"
    },
    {
      "nom": "高雄日航酒店",
      "categorie": "Hôtel",
      "priceRange": "€€",
      "mapsUrl": "https://maps.google.com/?q=22.6099245,120.3054963",
      "lat": 22.6099245,
      "lng": 120.3054963,
      "halalFriendly": false,
      "bookingUrl": "https://www.nikkokaohsiung.com/",
      "source": "osm"
    },
    {
      "nom": "承億酒店",
      "categorie": "Hôtel",
      "priceRange": "€€",
      "mapsUrl": "https://maps.google.com/?q=22.6093508,120.3021927",
      "lat": 22.6093508,
      "lng": 120.3021927,
      "halalFriendly": false,
      "bookingUrl": "https://www.taiurbanresort.com.tw/",
      "source": "osm"
    },
    {
      "nom": "文賓大飯店",
      "categorie": "Hôtel",
      "priceRange": "€€",
      "mapsUrl": "https://maps.google.com/?q=22.6211292,120.2827184",
      "lat": 22.6211292,
      "lng": 120.2827184,
      "halalFriendly": false,
      "bookingUrl": "https://maps.google.com/?q=22.6211292,120.2827184",
      "source": "osm"
    },
    {
      "nom": "漢王洲際飯店",
      "categorie": "Hôtel",
      "priceRange": "€€",
      "mapsUrl": "https://maps.google.com/?q=22.6248139,120.2817249",
      "lat": 22.6248139,
      "lng": 120.2817249,
      "halalFriendly": false,
      "bookingUrl": "https://maps.google.com/?q=22.6248139,120.2817249",
      "source": "osm"
    },
    {
      "nom": "東鉅商務旅館",
      "categorie": "Hôtel",
      "priceRange": "€€",
      "mapsUrl": "https://maps.google.com/?q=22.6461071,120.2977985",
      "lat": 22.6461071,
      "lng": 120.2977985,
      "halalFriendly": false,
      "bookingUrl": "https://maps.google.com/?q=22.6461071,120.2977985",
      "source": "osm"
    },
    {
      "nom": "帕鉑候工所",
      "categorie": "Hôtel",
      "priceRange": "€€",
      "mapsUrl": "https://maps.google.com/?q=22.6204281,120.2806241",
      "lat": 22.6204281,
      "lng": 120.2806241,
      "halalFriendly": false,
      "bookingUrl": "https://www.papoa-harbor-hotel.com/",
      "source": "osm"
    },
    {
      "nom": "勞工教育生活中心獅甲會館",
      "categorie": "Auberge",
      "priceRange": "€€",
      "mapsUrl": "https://maps.google.com/?q=22.6078628,120.3097512",
      "lat": 22.6078628,
      "lng": 120.3097512,
      "halalFriendly": false,
      "bookingUrl": "https://maps.google.com/?q=22.6078628,120.3097512",
      "source": "osm"
    },
    {
      "nom": "城市商旅德立莊博愛館",
      "categorie": "Hôtel",
      "priceRange": "€€",
      "mapsUrl": "https://maps.google.com/?q=22.6504032,120.303839",
      "lat": 22.6504032,
      "lng": 120.303839,
      "halalFriendly": false,
      "bookingUrl": "https://www.midtownrichardson.com/",
      "source": "osm"
    },
    {
      "nom": "棧貳沐居",
      "categorie": "Auberge",
      "priceRange": "€€",
      "mapsUrl": "https://maps.google.com/?q=22.6191856,120.2765742",
      "lat": 22.6191856,
      "lng": 120.2765742,
      "halalFriendly": false,
      "bookingUrl": "https://www.kw2.com.tw/post/kw2hostel",
      "source": "osm"
    },
    {
      "nom": "Sapu House",
      "categorie": "Hôtel",
      "priceRange": "€€",
      "mapsUrl": "https://maps.google.com/?q=22.6229355,120.2748065",
      "lat": 22.6229355,
      "lng": 120.2748065,
      "halalFriendly": false,
      "bookingUrl": "https://maps.google.com/?q=22.6229355,120.2748065",
      "source": "osm"
    },
    {
      "nom": "捷絲旅",
      "categorie": "Hôtel",
      "priceRange": "€€",
      "mapsUrl": "https://maps.google.com/?q=22.6285759,120.3319259",
      "lat": 22.6285759,
      "lng": 120.3319259,
      "halalFriendly": false,
      "bookingUrl": "https://maps.google.com/?q=22.6285759,120.3319259",
      "source": "osm"
    },
    {
      "nom": "高雄萬豪酒店",
      "categorie": "Hôtel",
      "priceRange": "€€",
      "mapsUrl": "https://maps.google.com/?q=22.6554574,120.3064322",
      "lat": 22.6554574,
      "lng": 120.3064322,
      "halalFriendly": false,
      "bookingUrl": "https://www.khhmarriott.com/",
      "source": "osm"
    },
    {
      "nom": "康橋商旅衛武營三多館",
      "categorie": "Hôtel",
      "priceRange": "€€€",
      "score": 3,
      "mapsUrl": "https://maps.google.com/?q=22.6235509,120.3327084",
      "lat": 22.6235509,
      "lng": 120.3327084,
      "halalFriendly": false,
      "bookingUrl": "https://maps.google.com/?q=22.6235509,120.3327084",
      "source": "osm"
    },
    {
      "nom": "力麗哲園商旅",
      "categorie": "Hôtel",
      "priceRange": "€€",
      "mapsUrl": "https://maps.google.com/?q=22.6553562,120.2925832",
      "lat": 22.6553562,
      "lng": 120.2925832,
      "halalFriendly": false,
      "bookingUrl": "https://maps.google.com/?q=22.6553562,120.2925832",
      "source": "osm"
    },
    {
      "nom": "高雄西子灣快樂角背包客棧",
      "categorie": "Auberge",
      "priceRange": "€€",
      "mapsUrl": "https://maps.google.com/?q=22.6243576,120.2694098",
      "lat": 22.6243576,
      "lng": 120.2694098,
      "halalFriendly": false,
      "bookingUrl": "https://maps.google.com/?q=22.6243576,120.2694098",
      "source": "osm"
    },
    {
      "nom": "學生宿舍",
      "categorie": "Auberge",
      "priceRange": "€€",
      "mapsUrl": "https://maps.google.com/?q=22.6434913,120.3288074",
      "lat": 22.6434913,
      "lng": 120.3288074,
      "halalFriendly": false,
      "bookingUrl": "https://maps.google.com/?q=22.6434913,120.3288074",
      "source": "osm"
    },
    {
      "nom": "碧港良居",
      "categorie": "Hôtel",
      "priceRange": "€€",
      "mapsUrl": "https://maps.google.com/?q=22.6181134,120.2686369",
      "lat": 22.6181134,
      "lng": 120.2686369,
      "halalFriendly": false,
      "bookingUrl": "https://maps.google.com/?q=22.6181134,120.2686369",
      "source": "osm"
    },
    {
      "nom": "高雄富野渡假酒店",
      "categorie": "Hôtel",
      "priceRange": "€€",
      "mapsUrl": "https://maps.google.com/?q=22.5980936,120.3204035",
      "lat": 22.5980936,
      "lng": 120.3204035,
      "halalFriendly": false,
      "bookingUrl": "https://maps.google.com/?q=22.5980936,120.3204035",
      "source": "osm"
    },
    {
      "nom": "旗津道沙灘酒店",
      "categorie": "Hôtel",
      "priceRange": "€€",
      "mapsUrl": "https://maps.google.com/?q=22.6103501,120.2682328",
      "lat": 22.6103501,
      "lng": 120.2682328,
      "halalFriendly": false,
      "bookingUrl": "https://www.inyounghotel.com.tw/",
      "source": "osm"
    },
    {
      "nom": "H2O 水京棧",
      "categorie": "Hôtel",
      "priceRange": "€€€€",
      "score": 5,
      "mapsUrl": "https://maps.google.com/?q=22.6627236,120.3020516",
      "lat": 22.6627236,
      "lng": 120.3020516,
      "halalFriendly": false,
      "bookingUrl": "https://www.h2ohotel.com.tw/zh-tw",
      "source": "osm"
    },
    {
      "nom": "帕可麗酒店",
      "categorie": "Hôtel",
      "priceRange": "€€",
      "mapsUrl": "https://maps.google.com/?q=22.6647057,120.3022861",
      "lat": 22.6647057,
      "lng": 120.3022861,
      "halalFriendly": false,
      "bookingUrl": "https://maps.google.com/?q=22.6647057,120.3022861",
      "source": "osm"
    }
  ],
  "mosqueesPrincipales": [
    {
      "id": "m214093306",
      "nom": "高雄清真寺",
      "type": "Mosquée",
      "adresse": "",
      "description": "Lieu de prière (OpenStreetMap).",
      "mapsUrl": "https://maps.google.com/?q=22.6280813,120.3418906",
      "lat": 22.6280813,
      "lng": 120.3418906,
      "source": "osm"
    },
    {
      "id": "m7877840625",
      "nom": "柴山山神土地公廟",
      "type": "Mosquée",
      "adresse": "",
      "description": "Lieu de prière (OpenStreetMap).",
      "mapsUrl": "https://maps.google.com/?q=22.6567051,120.2709125",
      "lat": 22.6567051,
      "lng": 120.2709125,
      "source": "osm"
    },
    {
      "id": "m616242077",
      "nom": "鎮福廟古蹟",
      "type": "Mosquée",
      "adresse": "",
      "description": "Lieu de prière (OpenStreetMap).",
      "mapsUrl": "https://maps.google.com/?q=22.6806093,120.2898747",
      "lat": 22.6806093,
      "lng": 120.2898747,
      "source": "osm"
    },
    {
      "id": "m328509846",
      "nom": "基督教鳳山長老教會",
      "type": "Mosquée",
      "adresse": "中正路, 高雄市",
      "description": "Lieu de prière (OpenStreetMap).",
      "mapsUrl": "https://maps.google.com/?q=22.6283452,120.3611978",
      "lat": 22.6283452,
      "lng": 120.3611978,
      "source": "osm"
    },
    {
      "id": "m4576880589",
      "nom": "春秋御閣",
      "type": "Mosquée",
      "adresse": "",
      "description": "Lieu de prière (OpenStreetMap).",
      "mapsUrl": "https://maps.google.com/?q=22.6822549,120.2928289",
      "lat": 22.6822549,
      "lng": 120.2928289,
      "source": "osm"
    }
  ],
  "activites": [
    {
      "id": "a4382429996",
      "nom": "美麗島雜誌社原址",
      "categorie": "ruins",
      "description": "",
      "prix": "",
      "duree": "",
      "mapsUrl": "https://maps.google.com/?q=22.629294,120.3014243",
      "lat": 22.629294,
      "lng": 120.3014243,
      "source": "osm"
    },
    {
      "id": "a6380097885",
      "nom": "南華觀光夜市",
      "categorie": "attraction",
      "description": "",
      "prix": "",
      "duree": "",
      "mapsUrl": "https://maps.google.com/?q=22.6290657,120.3027243",
      "lat": 22.6290657,
      "lng": 120.3027243,
      "source": "osm"
    },
    {
      "id": "a5584013921",
      "nom": "Middle Island",
      "categorie": "attraction",
      "description": "",
      "prix": "",
      "duree": "",
      "mapsUrl": "https://maps.google.com/?q=22.6252867,120.2993114",
      "lat": 22.6252867,
      "lng": 120.2993114,
      "source": "osm"
    },
    {
      "id": "a12198719289",
      "nom": "中央公園草地",
      "categorie": "park",
      "description": "",
      "prix": "",
      "duree": "",
      "mapsUrl": "https://maps.google.com/?q=22.6244392,120.3007052",
      "lat": 22.6244392,
      "lng": 120.3007052,
      "source": "osm"
    },
    {
      "id": "a323772775",
      "nom": "高雄文學圖書館",
      "categorie": "museum",
      "description": "",
      "prix": "",
      "duree": "",
      "mapsUrl": "https://maps.google.com/?q=22.6255598,120.2980017",
      "lat": 22.6255598,
      "lng": 120.2980017,
      "source": "osm"
    },
    {
      "id": "a214524877",
      "nom": "祈禱",
      "categorie": "artwork",
      "description": "",
      "prix": "",
      "duree": "",
      "mapsUrl": "https://maps.google.com/?q=22.6310798,120.3015286",
      "lat": 22.6310798,
      "lng": 120.3015286,
      "source": "osm"
    },
    {
      "id": "a214524879",
      "nom": "祈禱",
      "categorie": "artwork",
      "description": "",
      "prix": "",
      "duree": "",
      "mapsUrl": "https://maps.google.com/?q=22.6310801,120.3022358",
      "lat": 22.6310801,
      "lng": 120.3022358,
      "source": "osm"
    },
    {
      "id": "a617203448",
      "nom": "水石",
      "categorie": "artwork",
      "description": "",
      "prix": "",
      "duree": "",
      "mapsUrl": "https://maps.google.com/?q=22.6256128,120.2976286",
      "lat": 22.6256128,
      "lng": 120.2976286,
      "source": "osm"
    },
    {
      "id": "a617203453",
      "nom": "戶外景觀臺",
      "categorie": "viewpoint",
      "description": "",
      "prix": "",
      "duree": "",
      "mapsUrl": "https://maps.google.com/?q=22.6242257,120.2988534",
      "lat": 22.6242257,
      "lng": 120.2988534,
      "source": "osm"
    },
    {
      "id": "a6380097985",
      "nom": "南華觀光購物街",
      "categorie": "attraction",
      "description": "",
      "prix": "",
      "duree": "",
      "mapsUrl": "https://maps.google.com/?q=22.6312092,120.3029119",
      "lat": 22.6312092,
      "lng": 120.3029119,
      "source": "osm"
    },
    {
      "id": "a2723012947",
      "nom": "光之穹頂",
      "categorie": "attraction",
      "description": "",
      "prix": "",
      "duree": "",
      "mapsUrl": "https://maps.google.com/?q=22.6314912,120.3019472",
      "lat": 22.6314912,
      "lng": 120.3019472,
      "source": "osm"
    },
    {
      "id": "a214524878",
      "nom": "祈禱",
      "categorie": "artwork",
      "description": "",
      "prix": "",
      "duree": "",
      "mapsUrl": "https://maps.google.com/?q=22.6316379,120.3015562",
      "lat": 22.6316379,
      "lng": 120.3015562,
      "source": "osm"
    },
    {
      "id": "a214524876",
      "nom": "祈禱",
      "categorie": "artwork",
      "description": "",
      "prix": "",
      "duree": "",
      "mapsUrl": "https://maps.google.com/?q=22.6317201,120.3022771",
      "lat": 22.6317201,
      "lng": 120.3022771,
      "source": "osm"
    },
    {
      "id": "a3305519336",
      "nom": "城市光廊",
      "categorie": "attraction",
      "description": "",
      "prix": "",
      "duree": "",
      "mapsUrl": "https://maps.google.com/?q=22.6230173,120.2989546",
      "lat": 22.6230173,
      "lng": 120.2989546,
      "source": "osm"
    },
    {
      "id": "a93584687",
      "nom": "六合夜市",
      "categorie": "attraction",
      "description": "",
      "prix": "",
      "duree": "",
      "mapsUrl": "https://maps.google.com/?q=22.632427,120.3000415",
      "lat": 22.632427,
      "lng": 120.3000415,
      "source": "osm"
    },
    {
      "id": "a1022736826",
      "nom": "逍遙園",
      "categorie": "attraction",
      "description": "",
      "prix": "",
      "duree": "",
      "mapsUrl": "https://maps.google.com/?q=22.6318189,120.3091108",
      "lat": 22.6318189,
      "lng": 120.3091108,
      "source": "osm"
    },
    {
      "id": "a3157939567",
      "nom": "逍遙園",
      "categorie": "ruins",
      "description": "",
      "prix": "",
      "duree": "",
      "mapsUrl": "https://maps.google.com/?q=22.631996,120.3091694",
      "lat": 22.631996,
      "lng": 120.3091694,
      "source": "osm"
    },
    {
      "id": "a232845500",
      "nom": "勞工博物館",
      "categorie": "museum",
      "description": "",
      "prix": "",
      "duree": "",
      "mapsUrl": "https://maps.google.com/?q=22.6270361,120.2898895",
      "lat": 22.6270361,
      "lng": 120.2898895,
      "source": "osm"
    },
    {
      "id": "a4577052891",
      "nom": "金龍",
      "categorie": "attraction",
      "description": "",
      "prix": "",
      "duree": "",
      "mapsUrl": "https://maps.google.com/?q=22.6235766,120.2903026",
      "lat": 22.6235766,
      "lng": 120.2903026,
      "source": "osm"
    },
    {
      "id": "a11849697218",
      "nom": "郵政博物館高雄館",
      "categorie": "museum",
      "description": "",
      "prix": "",
      "duree": "",
      "mapsUrl": "https://maps.google.com/?q=22.6384368,120.3011456",
      "lat": 22.6384368,
      "lng": 120.3011456,
      "source": "osm"
    },
    {
      "id": "a11861684966",
      "nom": "View of Colonel Sanders the Redeemer",
      "categorie": "attraction",
      "description": "",
      "prix": "",
      "duree": "",
      "mapsUrl": "https://maps.google.com/?q=22.639349,120.3015799",
      "lat": 22.639349,
      "lng": 120.3015799,
      "source": "osm"
    },
    {
      "id": "a4577008491",
      "nom": "Love River Promenade",
      "categorie": "attraction",
      "description": "",
      "prix": "",
      "duree": "",
      "mapsUrl": "https://maps.google.com/?q=22.6247667,120.2886099",
      "lat": 22.6247667,
      "lng": 120.2886099,
      "source": "osm"
    },
    {
      "id": "a7472641661",
      "nom": "快樂的出帆",
      "categorie": "artwork",
      "description": "",
      "prix": "",
      "duree": "",
      "mapsUrl": "https://maps.google.com/?q=22.6242884,120.2887148",
      "lat": 22.6242884,
      "lng": 120.2887148,
      "source": "osm"
    },
    {
      "id": "a4577075189",
      "nom": "中正橋碼頭",
      "categorie": "attraction",
      "description": "",
      "prix": "",
      "duree": "",
      "mapsUrl": "https://maps.google.com/?q=22.625743,120.2882898",
      "lat": 22.625743,
      "lng": 120.2882898,
      "source": "osm"
    },
    {
      "id": "a7472641657",
      "nom": "愛情見證",
      "categorie": "artwork",
      "description": "",
      "prix": "",
      "duree": "",
      "mapsUrl": "https://maps.google.com/?q=22.6252416,120.288257",
      "lat": 22.6252416,
      "lng": 120.288257,
      "source": "osm"
    },
    {
      "id": "a2131736663",
      "nom": "光榮碼頭",
      "categorie": "attraction",
      "description": "",
      "prix": "",
      "duree": "",
      "mapsUrl": "https://maps.google.com/?q=22.6185072,120.2919031",
      "lat": 22.6185072,
      "lng": 120.2919031,
      "source": "osm"
    },
    {
      "id": "a12475095717",
      "nom": "高雄綠之丘",
      "categorie": "attraction",
      "description": "",
      "prix": "",
      "duree": "",
      "mapsUrl": "https://maps.google.com/?q=22.6396689,120.3027608",
      "lat": 22.6396689,
      "lng": 120.3027608,
      "source": "osm"
    },
    {
      "id": "a11633557238",
      "nom": "I",
      "categorie": "artwork",
      "description": "",
      "prix": "",
      "duree": "",
      "mapsUrl": "https://maps.google.com/?q=22.6174161,120.2927692",
      "lat": 22.6174161,
      "lng": 120.2927692,
      "source": "osm"
    },
    {
      "id": "a923781586",
      "nom": "興中觀光夜市",
      "categorie": "attraction",
      "description": "",
      "prix": "",
      "duree": "",
      "mapsUrl": "https://maps.google.com/?q=22.6155334,120.3065787",
      "lat": 22.6155334,
      "lng": 120.3065787,
      "source": "osm"
    },
    {
      "id": "a4382429995",
      "nom": "高雄二二八和平紀念碑",
      "categorie": "memorial",
      "description": "",
      "prix": "",
      "duree": "",
      "mapsUrl": "https://maps.google.com/?q=22.6256177,120.2874658",
      "lat": 22.6256177,
      "lng": 120.2874658,
      "source": "osm"
    },
    {
      "id": "a203122000",
      "nom": "高雄歷史博物館",
      "categorie": "museum",
      "description": "",
      "prix": "",
      "duree": "",
      "mapsUrl": "https://maps.google.com/?q=22.6269793,120.2867315",
      "lat": 22.6269793,
      "lng": 120.2867315,
      "source": "osm"
    },
    {
      "id": "a215082658",
      "nom": "三塊厝車站",
      "categorie": "monument",
      "description": "",
      "prix": "",
      "duree": "",
      "mapsUrl": "https://maps.google.com/?q=22.6388664,120.2937371",
      "lat": 22.6388664,
      "lng": 120.2937371,
      "source": "osm"
    },
    {
      "id": "a7463149421",
      "nom": "克朗德美術館",
      "categorie": "gallery",
      "description": "",
      "prix": "",
      "duree": "",
      "mapsUrl": "https://maps.google.com/?q=22.622473,120.2875771",
      "lat": 22.622473,
      "lng": 120.2875771,
      "source": "osm"
    },
    {
      "id": "a2131734811",
      "nom": "真愛碼頭",
      "categorie": "attraction",
      "description": "",
      "prix": "",
      "duree": "",
      "mapsUrl": "https://maps.google.com/?q=22.6177033,120.2885447",
      "lat": 22.6177033,
      "lng": 120.2885447,
      "source": "osm"
    },
    {
      "id": "a5603142921",
      "nom": "觀景台",
      "categorie": "attraction",
      "description": "",
      "prix": "",
      "duree": "",
      "mapsUrl": "https://maps.google.com/?q=22.6117584,120.3000949",
      "lat": 22.6117584,
      "lng": 120.3000949,
      "source": "osm"
    },
    {
      "id": "a610831306",
      "nom": "椅子樂譜",
      "categorie": "artwork",
      "description": "",
      "prix": "",
      "duree": "",
      "mapsUrl": "https://maps.google.com/?q=22.6180152,120.2863655",
      "lat": 22.6180152,
      "lng": 120.2863655,
      "source": "osm"
    },
    {
      "id": "a4382430003",
      "nom": "孔子",
      "categorie": "artwork",
      "description": "",
      "prix": "",
      "duree": "",
      "mapsUrl": "https://maps.google.com/?q=22.6249879,120.3204257",
      "lat": 22.6249879,
      "lng": 120.3204257,
      "source": "osm"
    },
    {
      "id": "a12312256401",
      "nom": "巧克力廣場",
      "categorie": "artwork",
      "description": "",
      "prix": "",
      "duree": "",
      "mapsUrl": "https://maps.google.com/?q=22.6239561,120.3208898",
      "lat": 22.6239561,
      "lng": 120.3208898,
      "source": "osm"
    },
    {
      "id": "a1895710512",
      "nom": "蔣介石銅像",
      "categorie": "artwork",
      "description": "",
      "prix": "",
      "duree": "",
      "mapsUrl": "https://maps.google.com/?q=22.6271363,120.3216864",
      "lat": 22.6271363,
      "lng": 120.3216864,
      "source": "osm"
    },
    {
      "id": "a13838021830",
      "nom": "躍身未來",
      "categorie": "artwork",
      "description": "",
      "prix": "",
      "duree": "",
      "mapsUrl": "https://maps.google.com/?q=22.6085116,120.2993873",
      "lat": 22.6085116,
      "lng": 120.2993873,
      "source": "osm"
    },
    {
      "id": "a755347283",
      "nom": "駁二塔",
      "categorie": "viewpoint",
      "description": "",
      "prix": "",
      "duree": "",
      "mapsUrl": "https://maps.google.com/?q=22.6186831,120.2830886",
      "lat": 22.6186831,
      "lng": 120.2830886,
      "source": "osm"
    },
    {
      "id": "a6468437136",
      "nom": "Art Center",
      "categorie": "gallery",
      "description": "",
      "prix": "",
      "duree": "",
      "mapsUrl": "https://maps.google.com/?q=22.6190358,120.2824122",
      "lat": 22.6190358,
      "lng": 120.2824122,
      "source": "osm"
    },
    {
      "id": "a10921886798",
      "nom": "大港迴聲",
      "categorie": "attraction",
      "description": "",
      "prix": "",
      "duree": "",
      "mapsUrl": "https://maps.google.com/?q=22.6167895,120.2837632",
      "lat": 22.6167895,
      "lng": 120.2837632,
      "source": "osm"
    },
    {
      "id": "a2701308572",
      "nom": "貨櫃",
      "categorie": "artwork",
      "description": "",
      "prix": "",
      "duree": "",
      "mapsUrl": "https://maps.google.com/?q=22.6194322,120.2815159",
      "lat": 22.6194322,
      "lng": 120.2815159,
      "source": "osm"
    },
    {
      "id": "a7012046644",
      "nom": "火車壁畫",
      "categorie": "artwork",
      "description": "",
      "prix": "",
      "duree": "",
      "mapsUrl": "https://maps.google.com/?q=22.6202475,120.2809758",
      "lat": 22.6202475,
      "lng": 120.2809758,
      "source": "osm"
    },
    {
      "id": "a2083042865",
      "nom": "駁二碼頭",
      "categorie": "attraction",
      "description": "",
      "prix": "",
      "duree": "",
      "mapsUrl": "https://maps.google.com/?q=22.6193592,120.2813301",
      "lat": 22.6193592,
      "lng": 120.2813301,
      "source": "osm"
    },
    {
      "id": "a8442640592",
      "nom": "羅文藻神父塑像",
      "categorie": "artwork",
      "description": "",
      "prix": "",
      "duree": "",
      "mapsUrl": "https://maps.google.com/?q=22.6338589,120.3222425",
      "lat": 22.6338589,
      "lng": 120.3222425,
      "source": "osm"
    },
    {
      "id": "a1153233820",
      "nom": "高雄港牌樓",
      "categorie": "attraction",
      "description": "",
      "prix": "",
      "duree": "",
      "mapsUrl": "https://maps.google.com/?q=22.6217262,120.2796985",
      "lat": 22.6217262,
      "lng": 120.2796985,
      "source": "osm"
    },
    {
      "id": "a1159447844",
      "nom": "金馬賓館當代美術館",
      "categorie": "museum",
      "description": "",
      "prix": "",
      "duree": "",
      "mapsUrl": "https://maps.google.com/?q=22.6277642,120.27886",
      "lat": 22.6277642,
      "lng": 120.27886,
      "source": "osm"
    },
    {
      "id": "a209177819",
      "nom": "磚窯",
      "categorie": "ruins",
      "description": "",
      "prix": "",
      "duree": "",
      "mapsUrl": "https://maps.google.com/?q=22.6423784,120.2857389",
      "lat": 22.6423784,
      "lng": 120.2857389,
      "source": "osm"
    },
    {
      "id": "a4836997268",
      "nom": "高醫校史暨南臺灣醫療史料館",
      "categorie": "museum",
      "description": "",
      "prix": "",
      "duree": "",
      "mapsUrl": "https://maps.google.com/?q=22.6463678,120.3109975",
      "lat": 22.6463678,
      "lng": 120.3109975,
      "source": "osm"
    },
    {
      "id": "a115844672",
      "nom": "中都唐榮磚窯廠",
      "categorie": "ruins",
      "description": "",
      "prix": "",
      "duree": "",
      "mapsUrl": "https://maps.google.com/?q=22.6419495,120.2848092",
      "lat": 22.6419495,
      "lng": 120.2848092,
      "source": "osm"
    },
    {
      "id": "a3790980256",
      "nom": "高雄捷運紅線工殤紀念碑",
      "categorie": "memorial",
      "description": "",
      "prix": "",
      "duree": "",
      "mapsUrl": "https://maps.google.com/?q=22.606901,120.3077748",
      "lat": 22.606901,
      "lng": 120.3077748,
      "source": "osm"
    },
    {
      "id": "a381966076",
      "nom": "高雄捷運紅線工殤紀念碑",
      "categorie": "memorial",
      "description": "",
      "prix": "",
      "duree": "",
      "mapsUrl": "https://maps.google.com/?q=22.6070213,120.3082458",
      "lat": 22.6070213,
      "lng": 120.3082458,
      "source": "osm"
    },
    {
      "id": "a11755578769",
      "nom": "Pier-2 Night Market",
      "categorie": "attraction",
      "description": "",
      "prix": "",
      "duree": "",
      "mapsUrl": "https://maps.google.com/?q=22.6229497,120.2788629",
      "lat": 22.6229497,
      "lng": 120.2788629,
      "source": "osm"
    },
    {
      "id": "a12068213848",
      "nom": "工人與漁婦",
      "categorie": "artwork",
      "description": "",
      "prix": "",
      "duree": "",
      "mapsUrl": "https://maps.google.com/?q=22.6207411,120.2794361",
      "lat": 22.6207411,
      "lng": 120.2794361,
      "source": "osm"
    },
    {
      "id": "a3935470671",
      "nom": "青年雙手碑",
      "categorie": "memorial",
      "description": "",
      "prix": "",
      "duree": "",
      "mapsUrl": "https://maps.google.com/?q=22.6066493,120.309406",
      "lat": 22.6066493,
      "lng": 120.309406,
      "source": "osm"
    },
    {
      "id": "a205750125",
      "nom": "國立科學工藝博物館 南館",
      "categorie": "museum",
      "description": "",
      "prix": "",
      "duree": "",
      "mapsUrl": "https://maps.google.com/?q=22.6385551,120.3218699",
      "lat": 22.6385551,
      "lng": 120.3218699,
      "source": "osm"
    },
    {
      "id": "a1248239051",
      "nom": "哈瑪星台灣鐵道館",
      "categorie": "museum",
      "description": "",
      "prix": "",
      "duree": "",
      "mapsUrl": "https://maps.google.com/?q=22.6208491,120.2784254",
      "lat": 22.6208491,
      "lng": 120.2784254,
      "source": "osm"
    },
    {
      "id": "a4837125423",
      "nom": "Pier-2 Art Center",
      "categorie": "artwork",
      "description": "",
      "prix": "",
      "duree": "",
      "mapsUrl": "https://maps.google.com/?q=22.6208627,120.2783832",
      "lat": 22.6208627,
      "lng": 120.2783832,
      "source": "osm"
    },
    {
      "id": "a205060863",
      "nom": "高雄港港史館",
      "categorie": "museum",
      "description": "",
      "prix": "",
      "duree": "",
      "mapsUrl": "https://maps.google.com/?q=22.6182524,120.2793818",
      "lat": 22.6182524,
      "lng": 120.2793818,
      "source": "osm"
    },
    {
      "id": "a902978160",
      "nom": "高雄港北號誌樓",
      "categorie": "museum",
      "description": "",
      "prix": "",
      "duree": "",
      "mapsUrl": "https://maps.google.com/?q=22.6246669,120.2772518",
      "lat": 22.6246669,
      "lng": 120.2772518,
      "source": "osm"
    },
    {
      "id": "a6738531685",
      "nom": "高雄市二二八和平紀念碑",
      "categorie": "memorial",
      "description": "",
      "prix": "",
      "duree": "",
      "mapsUrl": "https://maps.google.com/?q=22.6358224,120.2788311",
      "lat": 22.6358224,
      "lng": 120.2788311,
      "source": "osm"
    },
    {
      "id": "a5613690724",
      "nom": "維格餅家高雄黃金菠蘿城堡",
      "categorie": "attraction",
      "description": "",
      "prix": "",
      "duree": "",
      "mapsUrl": "https://maps.google.com/?q=22.6488186,120.2926803",
      "lat": 22.6488186,
      "lng": 120.2926803,
      "source": "osm"
    },
    {
      "id": "a9803400821",
      "nom": "休憩平台",
      "categorie": "viewpoint",
      "description": "",
      "prix": "",
      "duree": "",
      "mapsUrl": "https://maps.google.com/?q=22.6362975,120.2784114",
      "lat": 22.6362975,
      "lng": 120.2784114,
      "source": "osm"
    },
    {
      "id": "a12265667401",
      "nom": "南壽山登山口",
      "categorie": "attraction",
      "description": "",
      "prix": "",
      "duree": "",
      "mapsUrl": "https://maps.google.com/?q=22.6349723,120.2776029",
      "lat": 22.6349723,
      "lng": 120.2776029,
      "source": "osm"
    },
    {
      "id": "a7012054123",
      "nom": "繫泊浮筒",
      "categorie": "artwork",
      "description": "",
      "prix": "",
      "duree": "",
      "mapsUrl": "https://maps.google.com/?q=22.6185132,120.2780425",
      "lat": 22.6185132,
      "lng": 120.2780425,
      "source": "osm"
    },
    {
      "id": "a12273399101",
      "nom": "南壽山登山口",
      "categorie": "attraction",
      "description": "",
      "prix": "",
      "duree": "",
      "mapsUrl": "https://maps.google.com/?q=22.6350305,120.2775704",
      "lat": 22.6350305,
      "lng": 120.2775704,
      "source": "osm"
    },
    {
      "id": "a12297106901",
      "nom": "南壽山登山口",
      "categorie": "attraction",
      "description": "",
      "prix": "",
      "duree": "",
      "mapsUrl": "https://maps.google.com/?q=22.6350639,120.2775538",
      "lat": 22.6350639,
      "lng": 120.2775538,
      "source": "osm"
    },
    {
      "id": "a3848592364",
      "nom": "蔣介石水泥塑像",
      "categorie": "memorial",
      "description": "",
      "prix": "",
      "duree": "",
      "mapsUrl": "https://maps.google.com/?q=22.6047073,120.3079768",
      "lat": 22.6047073,
      "lng": 120.3079768,
      "source": "osm"
    },
    {
      "id": "a12297383002",
      "nom": "南壽山登山口",
      "categorie": "attraction",
      "description": "",
      "prix": "",
      "duree": "",
      "mapsUrl": "https://maps.google.com/?q=22.6351659,120.2775095",
      "lat": 22.6351659,
      "lng": 120.2775095,
      "source": "osm"
    },
    {
      "id": "a3848592365",
      "nom": "孫中山水泥塑像",
      "categorie": "memorial",
      "description": "",
      "prix": "",
      "duree": "",
      "mapsUrl": "https://maps.google.com/?q=22.6046268,120.3078293",
      "lat": 22.6046268,
      "lng": 120.3078293,
      "source": "osm"
    },
    {
      "id": "a598557936",
      "nom": "渾天儀",
      "categorie": "attraction",
      "description": "",
      "prix": "",
      "duree": "",
      "mapsUrl": "https://maps.google.com/?q=22.6404649,120.3224485",
      "lat": 22.6404649,
      "lng": 120.3224485,
      "source": "osm"
    },
    {
      "id": "a8057987302",
      "nom": "輕軌鼓山站",
      "categorie": "attraction",
      "description": "",
      "prix": "",
      "duree": "",
      "mapsUrl": "https://maps.google.com/?q=22.6420358,120.2810929",
      "lat": 22.6420358,
      "lng": 120.2810929,
      "source": "osm"
    },
    {
      "id": "a11602260770",
      "nom": "DR2910",
      "categorie": "attraction",
      "description": "",
      "prix": "",
      "duree": "",
      "mapsUrl": "https://maps.google.com/?q=22.6213741,120.2760028",
      "lat": 22.6213741,
      "lng": 120.2760028,
      "source": "osm"
    },
    {
      "id": "a8386759305",
      "nom": "R134",
      "categorie": "attraction",
      "description": "",
      "prix": "",
      "duree": "",
      "mapsUrl": "https://maps.google.com/?q=22.6211439,120.2759842",
      "lat": 22.6211439,
      "lng": 120.2759842,
      "source": "osm"
    },
    {
      "id": "a205750112",
      "nom": "國立科學工藝博物館",
      "categorie": "museum",
      "description": "",
      "prix": "",
      "duree": "",
      "mapsUrl": "https://maps.google.com/?q=22.6416174,120.3226826",
      "lat": 22.6416174,
      "lng": 120.3226826,
      "source": "osm"
    },
    {
      "id": "a203342621",
      "nom": "舊打狗驛故事館",
      "categorie": "museum",
      "description": "",
      "prix": "",
      "duree": "",
      "mapsUrl": "https://maps.google.com/?q=22.6217317,120.2755612",
      "lat": 22.6217317,
      "lng": 120.2755612,
      "source": "osm"
    },
    {
      "id": "a5109596337",
      "nom": "臺灣白鼻心",
      "categorie": "attraction",
      "description": "",
      "prix": "",
      "duree": "",
      "mapsUrl": "https://maps.google.com/?q=22.6351511,120.2761664",
      "lat": 22.6351511,
      "lng": 120.2761664,
      "source": "osm"
    },
    {
      "id": "a11999132934",
      "nom": "Crab-eating Macaque",
      "categorie": "attraction",
      "description": "",
      "prix": "",
      "duree": "",
      "mapsUrl": "https://maps.google.com/?q=22.6355558,120.2762552",
      "lat": 22.6355558,
      "lng": 120.2762552,
      "source": "osm"
    },
    {
      "id": "a5803759635",
      "nom": "歐洲雪貂",
      "categorie": "attraction",
      "description": "",
      "prix": "",
      "duree": "",
      "mapsUrl": "https://maps.google.com/?q=22.6350222,120.276032",
      "lat": 22.6350222,
      "lng": 120.276032,
      "source": "osm"
    },
    {
      "id": "a11999132933",
      "nom": "Green Monkey",
      "categorie": "attraction",
      "description": "",
      "prix": "",
      "duree": "",
      "mapsUrl": "https://maps.google.com/?q=22.6355715,120.2762004",
      "lat": 22.6355715,
      "lng": 120.2762004,
      "source": "osm"
    },
    {
      "id": "a5109596335",
      "nom": "綠蜥蜴",
      "categorie": "attraction",
      "description": "",
      "prix": "",
      "duree": "",
      "mapsUrl": "https://maps.google.com/?q=22.6349256,120.2759344",
      "lat": 22.6349256,
      "lng": 120.2759344,
      "source": "osm"
    },
    {
      "id": "a5109596336",
      "nom": "斑龜",
      "categorie": "attraction",
      "description": "",
      "prix": "",
      "duree": "",
      "mapsUrl": "https://maps.google.com/?q=22.6348845,120.2758809",
      "lat": 22.6348845,
      "lng": 120.2758809,
      "source": "osm"
    },
    {
      "id": "a5803759955",
      "nom": "胭脂猴",
      "categorie": "attraction",
      "description": "",
      "prix": "",
      "duree": "",
      "mapsUrl": "https://maps.google.com/?q=22.6356506,120.2761145",
      "lat": 22.6356506,
      "lng": 120.2761145,
      "source": "osm"
    },
    {
      "id": "a613366771",
      "nom": "標本博物館",
      "categorie": "museum",
      "description": "",
      "prix": "",
      "duree": "",
      "mapsUrl": "https://maps.google.com/?q=22.6345045,120.2756677",
      "lat": 22.6345045,
      "lng": 120.2756677,
      "source": "osm"
    },
    {
      "id": "a5109596334",
      "nom": "歐洲貂",
      "categorie": "attraction",
      "description": "",
      "prix": "",
      "duree": "",
      "mapsUrl": "https://maps.google.com/?q=22.6348323,120.2757696",
      "lat": 22.6348323,
      "lng": 120.2757696,
      "source": "osm"
    },
    {
      "id": "a5109596339",
      "nom": "印度大犀鳥",
      "categorie": "attraction",
      "description": "",
      "prix": "",
      "duree": "",
      "mapsUrl": "https://maps.google.com/?q=22.6357058,120.2760477",
      "lat": 22.6357058,
      "lng": 120.2760477,
      "source": "osm"
    },
    {
      "id": "a5109596333",
      "nom": "二趾樹懶",
      "categorie": "attraction",
      "description": "",
      "prix": "",
      "duree": "",
      "mapsUrl": "https://maps.google.com/?q=22.6347998,120.275656",
      "lat": 22.6347998,
      "lng": 120.275656,
      "source": "osm"
    },
    {
      "id": "a5109596338",
      "nom": "北非髯羊",
      "categorie": "attraction",
      "description": "",
      "prix": "",
      "duree": "",
      "mapsUrl": "https://maps.google.com/?q=22.6353535,120.2758494",
      "lat": 22.6353535,
      "lng": 120.2758494,
      "source": "osm"
    },
    {
      "id": "a5803759956",
      "nom": "紅腹錦雞",
      "categorie": "attraction",
      "description": "",
      "prix": "",
      "duree": "",
      "mapsUrl": "https://maps.google.com/?q=22.6357558,120.2759989",
      "lat": 22.6357558,
      "lng": 120.2759989,
      "source": "osm"
    },
    {
      "id": "a618142469",
      "nom": "戰爭與和平紀念館",
      "categorie": "museum",
      "description": "",
      "prix": "",
      "duree": "",
      "mapsUrl": "https://maps.google.com/?q=22.6265561,120.2743963",
      "lat": 22.6265561,
      "lng": 120.2743963,
      "source": "osm"
    },
    {
      "id": "a5109596340",
      "nom": "北美浣熊",
      "categorie": "attraction",
      "description": "",
      "prix": "",
      "duree": "",
      "mapsUrl": "https://maps.google.com/?q=22.6357952,120.2759461",
      "lat": 22.6357952,
      "lng": 120.2759461,
      "source": "osm"
    },
    {
      "id": "a5109596329",
      "nom": "沼林袋鼠",
      "categorie": "attraction",
      "description": "",
      "prix": "",
      "duree": "",
      "mapsUrl": "https://maps.google.com/?q=22.6347587,120.2755275",
      "lat": 22.6347587,
      "lng": 120.2755275,
      "source": "osm"
    },
    {
      "id": "a5109596332",
      "nom": "河馬",
      "categorie": "attraction",
      "description": "",
      "prix": "",
      "duree": "",
      "mapsUrl": "https://maps.google.com/?q=22.635042,120.2756189",
      "lat": 22.635042,
      "lng": 120.2756189,
      "source": "osm"
    },
    {
      "id": "a5803759957",
      "nom": "冠豪豬",
      "categorie": "attraction",
      "description": "",
      "prix": "",
      "duree": "",
      "mapsUrl": "https://maps.google.com/?q=22.6356065,120.2758064",
      "lat": 22.6356065,
      "lng": 120.2758064,
      "source": "osm"
    },
    {
      "id": "a2792797025",
      "nom": "壽山LOVE情人觀景台",
      "categorie": "artwork",
      "description": "",
      "prix": "",
      "duree": "",
      "mapsUrl": "https://maps.google.com/?q=22.6254404,120.274216",
      "lat": 22.6254404,
      "lng": 120.274216,
      "source": "osm"
    },
    {
      "id": "a5803759958",
      "nom": "象龜",
      "categorie": "attraction",
      "description": "",
      "prix": "",
      "duree": "",
      "mapsUrl": "https://maps.google.com/?q=22.6357231,120.2756585",
      "lat": 22.6357231,
      "lng": 120.2756585,
      "source": "osm"
    }
  ],
  "villeNonMusulmane": true,
  "osmEnriched": true,
  "osmEnrichedAt": "2026-06-30"
}