{
 "slug": "kenitra",
 "nom": "Kénitra",
 "pays": "Maroc",
 "pays_slug": "maroc",
 "continent": "Afrique",
 "region": "Centre du Maroc",
 "coordonnees": {
  "lat": 34.261,
  "lng": -6.5802
 },
 "codeISO": "MA",
 "score_halal": 4.5,
 "halalScore": 8.9,
 "description": "Port atlantique sur l'oued Sebou, ville universitaire bordée par la forêt de la Maâmora et des zones humides riches en oiseaux.",
 "image": "https://upload.wikimedia.org/wikipedia/commons/a/a9/Kenitra_main_pic.jpg",
 "image_hero": "https://upload.wikimedia.org/wikipedia/commons/a/a9/Kenitra_main_pic.jpg",
 "metaDescription": "Port atlantique sur l'oued Sebou, ville universitaire bordée par la forêt de la Maâmora et des zones humides riches en oiseaux.",
 "monnaie": "MAD (Dirham marocain)",
 "langue": "Arabe, Tamazight, Français",
 "statistiques": {
  "restaurants_halal": 8,
  "mosquees": 60,
  "hotels": 26
 },
 "infoPratique": {
  "monnaie": "MAD (Dirham marocain)",
  "langue": "Arabe, Tamazight, Français",
  "transport": "Accessible en bus (CTM/Supratours), grand taxi ou voiture.",
  "meilleureEpoque": "Printemps et automne (climat doux)."
 },
 "tags": [
  "halal",
  "Maroc"
 ],
 "restaurants": [
  {
   "nom": "Chhiwate Ryad Naji",
   "type": "moroccan",
   "priceRange": "€€",
   "mapsUrl": "https://maps.google.com/?q=34.260994,-6.5794266",
   "lat": 34.260994,
   "lng": -6.5794266,
   "halalConfidence": "likely",
   "source": "osm"
  },
  {
   "nom": "BB parck",
   "type": "arab, asian, french, spanish, international, italian",
   "priceRange": "€€",
   "mapsUrl": "https://maps.google.com/?q=34.2582403,-6.5802251",
   "lat": 34.2582403,
   "lng": -6.5802251,
   "halalConfidence": "likely",
   "source": "osm"
  },
  {
   "nom": "MUZNA",
   "type": "arab, moroccan, mediterranean",
   "priceRange": "€€",
   "mapsUrl": "https://maps.google.com/?q=34.2553153,-6.5821548",
   "lat": 34.2553153,
   "lng": -6.5821548,
   "halalConfidence": "likely",
   "source": "osm"
  },
  {
   "nom": "El Bayt Achami",
   "type": "syrian",
   "priceRange": "€€",
   "mapsUrl": "https://maps.google.com/?q=34.2590659,-6.5879016",
   "lat": 34.2590659,
   "lng": -6.5879016,
   "halalConfidence": "likely",
   "source": "osm"
  },
  {
   "nom": "Snack INNO",
   "type": "deli, crepe, french, moroccan",
   "priceRange": "€€",
   "mapsUrl": "https://maps.google.com/?q=34.253632,-6.5808724",
   "lat": 34.253632,
   "lng": -6.5808724,
   "halalConfidence": "likely",
   "source": "osm"
  },
  {
   "nom": "مطعم بدر الشام",
   "type": "arab, grill, kebab, lebanese, turkish",
   "priceRange": "€€",
   "mapsUrl": "https://maps.google.com/?q=34.25191,-6.6019303",
   "lat": 34.25191,
   "lng": -6.6019303,
   "halalConfidence": "likely",
   "source": "osm"
  },
  {
   "nom": "مشواة الغرب - الساكنية",
   "type": "arab",
   "priceRange": "€€",
   "mapsUrl": "https://maps.google.com/?q=34.2477909,-6.5541748",
   "lat": 34.2477909,
   "lng": -6.5541748,
   "halalConfidence": "likely",
   "source": "osm"
  },
  {
   "nom": "LEVEL CAFE",
   "lat": 34.2592854,
   "lng": -6.5890588,
   "type": "pizza, coffee shop, burger, sandwich, chicken, ice cream, international, italian, moroccan, breakfast, salad, italian pizza, diner, soba, crepe, cake, tea, regional, french, fish and chips, american, seafood, steak house, mexican",
   "halalConfidence": "high",
   "mapsUrl": "https://maps.google.com/?q=34.2592854,-6.5890588",
   "source": "osm"
  }
 ],
 "hotels": [
  {
   "nom": "Hôtel Mamora Kénitra",
   "categorie": "Hôtel",
   "priceRange": "€€€",
   "score": 3,
   "mapsUrl": "https://maps.google.com/?q=34.2615685,-6.5813737",
   "lat": 34.2615685,
   "lng": -6.5813737,
   "halalFriendly": false,
   "bookingUrl": "http://www.mamorakenitra.com/",
   "source": "osm"
  },
  {
   "nom": "Hôtel Ambassy",
   "categorie": "Hôtel",
   "priceRange": "€",
   "score": 1,
   "mapsUrl": "https://maps.google.com/?q=34.2597605,-6.5813189",
   "lat": 34.2597605,
   "lng": -6.5813189,
   "halalFriendly": false,
   "bookingUrl": "https://maps.google.com/?q=34.2597605,-6.5813189",
   "source": "osm"
  },
  {
   "nom": "Hotel Jacaranda",
   "categorie": "Hôtel",
   "priceRange": "€€",
   "mapsUrl": "https://maps.google.com/?q=34.2625778,-6.5816891",
   "lat": 34.2625778,
   "lng": -6.5816891,
   "halalFriendly": false,
   "bookingUrl": "https://maps.google.com/?q=34.2625778,-6.5816891",
   "source": "osm"
  },
  {
   "nom": "City Hotel",
   "categorie": "Hôtel",
   "priceRange": "€€",
   "mapsUrl": "https://maps.google.com/?q=34.2624019,-6.5845749",
   "lat": 34.2624019,
   "lng": -6.5845749,
   "halalFriendly": false,
   "bookingUrl": "https://maps.google.com/?q=34.2624019,-6.5845749",
   "source": "osm"
  },
  {
   "nom": "Hotel L'europe",
   "categorie": "Hôtel",
   "priceRange": "€€",
   "mapsUrl": "https://maps.google.com/?q=34.2596629,-6.5847689",
   "lat": 34.2596629,
   "lng": -6.5847689,
   "halalFriendly": false,
   "bookingUrl": "https://maps.google.com/?q=34.2596629,-6.5847689",
   "source": "osm"
  },
  {
   "nom": "Hotel d'Europe",
   "categorie": "Hôtel",
   "priceRange": "€€",
   "mapsUrl": "https://maps.google.com/?q=34.2612646,-6.5852335",
   "lat": 34.2612646,
   "lng": -6.5852335,
   "halalFriendly": false,
   "bookingUrl": "https://maps.google.com/?q=34.2612646,-6.5852335",
   "source": "osm"
  },
  {
   "nom": "Eden Boutique Hotel",
   "categorie": "Hôtel",
   "priceRange": "€€",
   "mapsUrl": "https://maps.google.com/?q=34.2584906,-6.5846274",
   "lat": 34.2584906,
   "lng": -6.5846274,
   "halalFriendly": false,
   "bookingUrl": "https://maps.google.com/?q=34.2584906,-6.5846274",
   "source": "osm"
  },
  {
   "nom": "Razane Hotel",
   "categorie": "Hôtel",
   "priceRange": "€€",
   "mapsUrl": "https://maps.google.com/?q=34.2632927,-6.5734474",
   "lat": 34.2632927,
   "lng": -6.5734474,
   "halalFriendly": false,
   "bookingUrl": "https://maps.google.com/?q=34.2632927,-6.5734474",
   "source": "osm"
  },
  {
   "nom": "Town Hotel",
   "categorie": "Hôtel",
   "priceRange": "€€",
   "mapsUrl": "https://maps.google.com/?q=34.2574361,-6.586886",
   "lat": 34.2574361,
   "lng": -6.586886,
   "halalFriendly": false,
   "bookingUrl": "townhotel.ma",
   "source": "osm"
  },
  {
   "nom": "Vitality Terminus",
   "categorie": "Hôtel",
   "priceRange": "€€",
   "mapsUrl": "https://maps.google.com/?q=34.2543068,-6.5812831",
   "lat": 34.2543068,
   "lng": -6.5812831,
   "halalFriendly": false,
   "bookingUrl": "https://maps.google.com/?q=34.2543068,-6.5812831",
   "source": "osm"
  },
  {
   "nom": "عمارة شالة",
   "categorie": "Appartement",
   "priceRange": "€€",
   "mapsUrl": "https://maps.google.com/?q=34.2642437,-6.5888864",
   "lat": 34.2642437,
   "lng": -6.5888864,
   "halalFriendly": false,
   "bookingUrl": "https://maps.google.com/?q=34.2642437,-6.5888864",
   "source": "osm"
  },
  {
   "nom": "Urban Hotel & Spa",
   "categorie": "Hôtel",
   "priceRange": "€€",
   "mapsUrl": "https://maps.google.com/?q=34.2516108,-6.5846443",
   "lat": 34.2516108,
   "lng": -6.5846443,
   "halalFriendly": false,
   "bookingUrl": "https://maps.google.com/?q=34.2516108,-6.5846443",
   "source": "osm"
  },
  {
   "nom": "QRA CN8SG",
   "categorie": "Maison d'hôtes",
   "priceRange": "€€",
   "mapsUrl": "https://maps.google.com/?q=34.2653432,-6.5913998",
   "lat": 34.2653432,
   "lng": -6.5913998,
   "halalFriendly": false,
   "bookingUrl": "https://maps.google.com/?q=34.2653432,-6.5913998",
   "source": "osm"
  },
  {
   "nom": "أيت بيفلوسن",
   "categorie": "Maison d'hôtes",
   "priceRange": "€€",
   "mapsUrl": "https://maps.google.com/?q=34.254678,-6.5901549",
   "lat": 34.254678,
   "lng": -6.5901549,
   "halalFriendly": false,
   "bookingUrl": "https://maps.google.com/?q=34.254678,-6.5901549",
   "source": "osm"
  },
  {
   "nom": "Fatima Kenitra",
   "categorie": "Appartement",
   "priceRange": "€€",
   "mapsUrl": "https://maps.google.com/?q=34.2554734,-6.5922993",
   "lat": 34.2554734,
   "lng": -6.5922993,
   "halalFriendly": false,
   "bookingUrl": "https://maps.google.com/?q=34.2554734,-6.5922993",
   "source": "osm"
  },
  {
   "nom": "Le Royal Plaza",
   "categorie": "Hôtel",
   "priceRange": "€€",
   "mapsUrl": "https://maps.google.com/?q=34.2503729,-6.5714437",
   "lat": 34.2503729,
   "lng": -6.5714437,
   "halalFriendly": false,
   "bookingUrl": "https://www.ahrcollections.com/",
   "source": "osm"
  },
  {
   "nom": "Appart Hotel Marina",
   "categorie": "Hôtel",
   "priceRange": "€€",
   "mapsUrl": "https://maps.google.com/?q=34.2685068,-6.5935888",
   "lat": 34.2685068,
   "lng": -6.5935888,
   "halalFriendly": false,
   "bookingUrl": "https://maps.google.com/?q=34.2685068,-6.5935888",
   "source": "osm"
  },
  {
   "nom": "Les Allées du Parc",
   "categorie": "Appartement",
   "priceRange": "€€",
   "mapsUrl": "https://maps.google.com/?q=34.2509857,-6.5624992",
   "lat": 34.2509857,
   "lng": -6.5624992,
   "halalFriendly": false,
   "bookingUrl": "https://maps.google.com/?q=34.2509857,-6.5624992",
   "source": "osm"
  },
  {
   "nom": "الجمعية الخيرية",
   "categorie": "Appartement",
   "priceRange": "€€",
   "mapsUrl": "https://maps.google.com/?q=34.2576203,-6.5580095",
   "lat": 34.2576203,
   "lng": -6.5580095,
   "halalFriendly": false,
   "bookingUrl": "https://maps.google.com/?q=34.2576203,-6.5580095",
   "source": "osm"
  },
  {
   "nom": "Relax Hôtel Kenitra",
   "categorie": "Hôtel",
   "priceRange": "€€",
   "mapsUrl": "https://maps.google.com/?q=34.2391348,-6.5713571",
   "lat": 34.2391348,
   "lng": -6.5713571,
   "halalFriendly": false,
   "bookingUrl": "https://maps.google.com/?q=34.2391348,-6.5713571",
   "source": "osm"
  },
  {
   "nom": "دارنا",
   "categorie": "Maison d'hôtes",
   "priceRange": "€€",
   "mapsUrl": "https://maps.google.com/?q=34.2419751,-6.614411",
   "lat": 34.2419751,
   "lng": -6.614411,
   "halalFriendly": false,
   "bookingUrl": "https://ayoub65.blogspot.com/",
   "source": "osm"
  },
  {
   "nom": "Hôtel Assam",
   "categorie": "Hôtel",
   "priceRange": "€€",
   "mapsUrl": "https://maps.google.com/?q=34.2811375,-6.5374736",
   "lat": 34.2811375,
   "lng": -6.5374736,
   "halalFriendly": false,
   "bookingUrl": "https://maps.google.com/?q=34.2811375,-6.5374736",
   "source": "osm"
  },
  {
   "nom": "Fondation Hassan II - MRE, Kenitra",
   "categorie": "Hôtel",
   "priceRange": "€€",
   "mapsUrl": "https://maps.google.com/?q=34.2900915,-6.5079595",
   "lat": 34.2900915,
   "lng": -6.5079595,
   "halalFriendly": false,
   "bookingUrl": "https://maps.google.com/?q=34.2900915,-6.5079595",
   "source": "osm"
  },
  {
   "nom": "Palais lalla laaroussa",
   "categorie": "Hôtel",
   "priceRange": "€€",
   "mapsUrl": "https://maps.google.com/?q=34.293075,-6.4973128",
   "lat": 34.293075,
   "lng": -6.4973128,
   "halalFriendly": false,
   "bookingUrl": "https://maps.google.com/?q=34.293075,-6.4973128",
   "source": "osm"
  },
  {
   "nom": "Complexe Marmara مركب مرمرة",
   "categorie": "Hôtel",
   "priceRange": "€€",
   "mapsUrl": "https://maps.google.com/?q=34.293234,-6.497101",
   "lat": 34.293234,
   "lng": -6.497101,
   "halalFriendly": false,
   "bookingUrl": "https://maps.google.com/?q=34.293234,-6.497101",
   "source": "osm"
  },
  {
   "nom": "Kenz Mehdia Appart Hotel",
   "categorie": "Hôtel",
   "priceRange": "€€",
   "mapsUrl": "https://maps.google.com/?q=34.25816,-6.6770693",
   "lat": 34.25816,
   "lng": -6.6770693,
   "halalFriendly": false,
   "bookingUrl": "https://maps.google.com/?q=34.25816,-6.6770693",
   "source": "osm"
  }
 ],
 "mosqueesPrincipales": [
  {
   "nom": "Mosqueé Saida Aicha",
   "lat": 34.2603894,
   "lng": -6.58032,
   "coordonnees": {
    "lat": 34.2603894,
    "lng": -6.58032
   },
   "mapsUrl": "https://maps.google.com/?q=34.2603894,-6.58032",
   "source": "osm"
  },
  {
   "nom": "Masjid",
   "lat": 34.2557048,
   "lng": -6.581837,
   "coordonnees": {
    "lat": 34.2557048,
    "lng": -6.581837
   },
   "mapsUrl": "https://maps.google.com/?q=34.2557048,-6.581837",
   "source": "osm"
  },
  {
   "nom": "Salle De Prière - Gare routière",
   "lat": 34.2647774,
   "lng": -6.5732323,
   "coordonnees": {
    "lat": 34.2647774,
    "lng": -6.5732323
   },
   "mapsUrl": "https://maps.google.com/?q=34.2647774,-6.5732323",
   "source": "osm"
  },
  {
   "nom": "Masjid al-Firdaous",
   "lat": 34.2661048,
   "lng": -6.5917059,
   "coordonnees": {
    "lat": 34.2661048,
    "lng": -6.5917059
   },
   "mapsUrl": "https://maps.google.com/?q=34.2661048,-6.5917059",
   "source": "osm"
  },
  {
   "nom": "Masjid Hana",
   "lat": 34.2646664,
   "lng": -6.5674676,
   "coordonnees": {
    "lat": 34.2646664,
    "lng": -6.5674676
   },
   "mapsUrl": "https://maps.google.com/?q=34.2646664,-6.5674676",
   "source": "osm"
  },
  {
   "nom": "Masjid al-Buraq",
   "lat": 34.260654,
   "lng": -6.5972765,
   "coordonnees": {
    "lat": 34.260654,
    "lng": -6.5972765
   },
   "mapsUrl": "https://maps.google.com/?q=34.260654,-6.5972765",
   "source": "osm"
  },
  {
   "nom": "Masjid Ibn Achir مسجد ابن عاشر",
   "lat": 34.2637594,
   "lng": -6.560463,
   "coordonnees": {
    "lat": 34.2637594,
    "lng": -6.560463
   },
   "mapsUrl": "https://maps.google.com/?q=34.2637594,-6.560463",
   "source": "osm"
  },
  {
   "nom": "Salle de prière",
   "lat": 34.2327774,
   "lng": -6.5404447,
   "coordonnees": {
    "lat": 34.2327774,
    "lng": -6.5404447
   },
   "mapsUrl": "https://maps.google.com/?q=34.2327774,-6.5404447",
   "source": "osm"
  },
  {
   "id": "osm-259615115",
   "nom": "Masjid Oqba Ibno nafea",
   "type": "mosquee",
   "lat": 34.2532282,
   "lng": -6.6264703,
   "mapsUrl": "https://maps.google.com/?q=34.2532282,-6.6264703",
   "source": "osm"
  },
  {
   "id": "osm-451601829",
   "nom": "Mosquee Assalam",
   "type": "mosquee",
   "lat": 34.2548185,
   "lng": -6.6128744,
   "mapsUrl": "https://maps.google.com/?q=34.2548185,-6.6128744",
   "source": "osm"
  },
  {
   "id": "osm-451602005",
   "nom": "Mosqueé Mohamed VI",
   "type": "mosquee",
   "lat": 34.2500288,
   "lng": -6.608534,
   "mapsUrl": "https://maps.google.com/?q=34.2500288,-6.608534",
   "source": "osm"
  },
  {
   "id": "osm-451602006",
   "nom": "Mosqueé Badr مسجد بدر",
   "type": "mosquee",
   "lat": 34.2552302,
   "lng": -6.6031448,
   "mapsUrl": "https://maps.google.com/?q=34.2552302,-6.6031448",
   "source": "osm"
  },
  {
   "id": "osm-451603706",
   "nom": "Masjid M'chich",
   "type": "mosquee",
   "lat": 34.2487735,
   "lng": -6.5995287,
   "mapsUrl": "https://maps.google.com/?q=34.2487735,-6.5995287",
   "source": "osm"
  },
  {
   "id": "osm-451603707",
   "nom": "Masjid Palestine",
   "type": "mosquee",
   "lat": 34.2427178,
   "lng": -6.6056137,
   "mapsUrl": "https://maps.google.com/?q=34.2427178,-6.6056137",
   "source": "osm"
  },
  {
   "id": "osm-451604163",
   "nom": "Masjid Al Taqwa",
   "type": "mosquee",
   "lat": 34.2641465,
   "lng": -6.6127111,
   "mapsUrl": "https://maps.google.com/?q=34.2641465,-6.6127111",
   "source": "osm"
  },
  {
   "id": "osm-451604164",
   "nom": "Masjid Arradoine",
   "type": "mosquee",
   "lat": 34.2690081,
   "lng": -6.6129936,
   "mapsUrl": "https://maps.google.com/?q=34.2690081,-6.6129936",
   "source": "osm"
  },
  {
   "id": "osm-451604725",
   "nom": "Masjid Hadada",
   "type": "mosquee",
   "lat": 34.2690699,
   "lng": -6.6197047,
   "mapsUrl": "https://maps.google.com/?q=34.2690699,-6.6197047",
   "source": "osm"
  },
  {
   "id": "osm-451604726",
   "nom": "Masjid Al Kawtar",
   "type": "mosquee",
   "lat": 34.2716792,
   "lng": -6.6088277,
   "mapsUrl": "https://maps.google.com/?q=34.2716792,-6.6088277",
   "source": "osm"
  },
  {
   "id": "osm-451604938",
   "nom": "Masjid Ibrahim Al Khaleel",
   "type": "mosquee",
   "lat": 34.2753546,
   "lng": -6.6083442,
   "mapsUrl": "https://maps.google.com/?q=34.2753546,-6.6083442",
   "source": "osm"
  },
  {
   "id": "osm-451606923",
   "nom": "Masjid Chaabi",
   "type": "mosquee",
   "lat": 34.2602228,
   "lng": -6.5898806,
   "mapsUrl": "https://maps.google.com/?q=34.2602228,-6.5898806",
   "source": "osm"
  },
  {
   "id": "osm-451615701",
   "nom": "Mosquée Lalla Khadija",
   "type": "mosquee",
   "lat": 34.2541204,
   "lng": -6.5845795,
   "mapsUrl": "https://maps.google.com/?q=34.2541204,-6.5845795",
   "source": "osm"
  },
  {
   "id": "osm-451616535",
   "nom": "Masjid Al Chakirin",
   "type": "mosquee",
   "lat": 34.2594892,
   "lng": -6.5828545,
   "mapsUrl": "https://maps.google.com/?q=34.2594892,-6.5828545",
   "source": "osm"
  },
  {
   "id": "osm-451617310",
   "nom": "Masjid Indonesia",
   "type": "mosquee",
   "lat": 34.260062,
   "lng": -6.5635884,
   "mapsUrl": "https://maps.google.com/?q=34.260062,-6.5635884",
   "source": "osm"
  },
  {
   "id": "osm-451617953",
   "nom": "Masjid Zubair Ibn Al AWAM",
   "type": "mosquee",
   "lat": 34.2632348,
   "lng": -6.5635094,
   "mapsUrl": "https://maps.google.com/?q=34.2632348,-6.5635094",
   "source": "osm"
  },
  {
   "id": "osm-451618524",
   "nom": "Mosquee du Port",
   "type": "mosquee",
   "lat": 34.2651913,
   "lng": -6.5797628,
   "mapsUrl": "https://maps.google.com/?q=34.2651913,-6.5797628",
   "source": "osm"
  },
  {
   "id": "osm-451643176",
   "nom": "Masjid AL QOUDS",
   "type": "mosquee",
   "lat": 34.2681981,
   "lng": -6.5594102,
   "mapsUrl": "https://maps.google.com/?q=34.2681981,-6.5594102",
   "source": "osm"
  },
  {
   "id": "osm-451643625",
   "nom": "Masjid Imam al-Bukhari مسجد الإمام البخاري",
   "type": "mosquee",
   "lat": 34.2727053,
   "lng": -6.5586531,
   "mapsUrl": "https://maps.google.com/?q=34.2727053,-6.5586531",
   "source": "osm"
  },
  {
   "id": "osm-451643994",
   "nom": "Masjid Arsat Qadi مسجد عرصة القاضي",
   "type": "mosquee",
   "lat": 34.2710312,
   "lng": -6.5627153,
   "mapsUrl": "https://maps.google.com/?q=34.2710312,-6.5627153",
   "source": "osm"
  },
  {
   "id": "osm-451646107",
   "nom": "Masjid AlFath",
   "type": "mosquee",
   "lat": 34.2531575,
   "lng": -6.5574125,
   "mapsUrl": "https://maps.google.com/?q=34.2531575,-6.5574125",
   "source": "osm"
  },
  {
   "id": "osm-451646250",
   "nom": "Mosquée Idriss 1er مسجد ادريس الأول",
   "type": "mosquee",
   "lat": 34.2605519,
   "lng": -6.5514686,
   "mapsUrl": "https://maps.google.com/?q=34.2605519,-6.5514686",
   "source": "osm"
  },
  {
   "id": "osm-451646624",
   "nom": "Masjid Al Nuaaman Ibn Baschir مسجد النعمان بن بشير",
   "type": "mosquee",
   "lat": 34.2462318,
   "lng": -6.5488357,
   "mapsUrl": "https://maps.google.com/?q=34.2462318,-6.5488357",
   "source": "osm"
  },
  {
   "id": "osm-451646745",
   "nom": "Masjid Taiba",
   "type": "mosquee",
   "lat": 34.2419859,
   "lng": -6.5480542,
   "mapsUrl": "https://maps.google.com/?q=34.2419859,-6.5480542",
   "source": "osm"
  },
  {
   "id": "osm-451647111",
   "nom": "Masjid Salah Eddine Al Ayoubi",
   "type": "mosquee",
   "lat": 34.2400766,
   "lng": -6.5553085,
   "mapsUrl": "https://maps.google.com/?q=34.2400766,-6.5553085",
   "source": "osm"
  },
  {
   "id": "osm-451647224",
   "nom": "Masjid Al Ghoufrane",
   "type": "mosquee",
   "lat": 34.2352179,
   "lng": -6.5481718,
   "mapsUrl": "https://maps.google.com/?q=34.2352179,-6.5481718",
   "source": "osm"
  },
  {
   "id": "osm-451647413",
   "nom": "Masjid Al Wahab",
   "type": "mosquee",
   "lat": 34.2313783,
   "lng": -6.5503203,
   "mapsUrl": "https://maps.google.com/?q=34.2313783,-6.5503203",
   "source": "osm"
  },
  {
   "id": "osm-451705493",
   "nom": "Masjid Al Houda",
   "type": "mosquee",
   "lat": 34.2572243,
   "lng": -6.6238322,
   "mapsUrl": "https://maps.google.com/?q=34.2572243,-6.6238322",
   "source": "osm"
  },
  {
   "id": "osm-451706581",
   "nom": "Masjid ar-Rahma",
   "type": "mosquee",
   "lat": 34.2566251,
   "lng": -6.6202215,
   "mapsUrl": "https://maps.google.com/?q=34.2566251,-6.6202215",
   "source": "osm"
  },
  {
   "id": "osm-451708969",
   "nom": "Masjid Ohod",
   "type": "mosquee",
   "lat": 34.2547545,
   "lng": -6.6196402,
   "mapsUrl": "https://maps.google.com/?q=34.2547545,-6.6196402",
   "source": "osm"
  },
  {
   "id": "osm-451709231",
   "nom": "Mosquée ad-Doha",
   "type": "mosquee",
   "lat": 34.2563911,
   "lng": -6.64843,
   "mapsUrl": "https://maps.google.com/?q=34.2563911,-6.64843",
   "source": "osm"
  },
  {
   "id": "osm-451709778",
   "nom": "Masjid Mehdia",
   "type": "mosquee",
   "lat": 34.2529281,
   "lng": -6.6763392,
   "mapsUrl": "https://maps.google.com/?q=34.2529281,-6.6763392",
   "source": "osm"
  },
  {
   "id": "osm-451710856",
   "nom": "Masjid al-Anwar",
   "type": "mosquee",
   "lat": 34.2619434,
   "lng": -6.6423832,
   "mapsUrl": "https://maps.google.com/?q=34.2619434,-6.6423832",
   "source": "osm"
  },
  {
   "id": "osm-451712115",
   "nom": "Masjid Hadiqat Bin al Jaman",
   "type": "mosquee",
   "lat": 34.2676218,
   "lng": -6.6059431,
   "mapsUrl": "https://maps.google.com/?q=34.2676218,-6.6059431",
   "source": "osm"
  },
  {
   "id": "osm-451712558",
   "nom": "Masjid Salama",
   "type": "mosquee",
   "lat": 34.2730923,
   "lng": -6.5961086,
   "mapsUrl": "https://maps.google.com/?q=34.2730923,-6.5961086",
   "source": "osm"
  },
  {
   "id": "osm-451715043",
   "nom": "Masjid Salam مسجد السلام",
   "type": "mosquee",
   "lat": 34.2648316,
   "lng": -6.5553567,
   "mapsUrl": "https://maps.google.com/?q=34.2648316,-6.5553567",
   "source": "osm"
  },
  {
   "id": "osm-451715565",
   "nom": "Masjid Al Massira",
   "type": "mosquee",
   "lat": 34.2493109,
   "lng": -6.5496656,
   "mapsUrl": "https://maps.google.com/?q=34.2493109,-6.5496656",
   "source": "osm"
  },
  {
   "id": "osm-451718394",
   "nom": "Masjid ad-Diyaa",
   "type": "mosquee",
   "lat": 34.2492687,
   "lng": -6.5449577,
   "mapsUrl": "https://maps.google.com/?q=34.2492687,-6.5449577",
   "source": "osm"
  },
  {
   "id": "osm-451721751",
   "nom": "Masjid Al Alama مسجد العلامة",
   "type": "mosquee",
   "lat": 34.2537369,
   "lng": -6.5547923,
   "mapsUrl": "https://maps.google.com/?q=34.2537369,-6.5547923",
   "source": "osm"
  },
  {
   "id": "osm-451722542",
   "nom": "Masjid Ibn Abbas",
   "type": "mosquee",
   "lat": 34.2465027,
   "lng": -6.5548689,
   "mapsUrl": "https://maps.google.com/?q=34.2465027,-6.5548689",
   "source": "osm"
  },
  {
   "id": "osm-451736641",
   "nom": "Masjid Imam Malik",
   "type": "mosquee",
   "lat": 34.2434863,
   "lng": -6.6113238,
   "mapsUrl": "https://maps.google.com/?q=34.2434863,-6.6113238",
   "source": "osm"
  },
  {
   "id": "osm-451736978",
   "nom": "Masjid Al Farouq",
   "type": "mosquee",
   "lat": 34.2392619,
   "lng": -6.6183172,
   "mapsUrl": "https://maps.google.com/?q=34.2392619,-6.6183172",
   "source": "osm"
  },
  {
   "id": "osm-451738147",
   "nom": "Mosquee Wahda",
   "type": "mosquee",
   "lat": 34.238728,
   "lng": -6.6096663,
   "mapsUrl": "https://maps.google.com/?q=34.238728,-6.6096663",
   "source": "osm"
  },
  {
   "id": "osm-452706281",
   "nom": "Masjid Anas Ibn Malik",
   "type": "mosquee",
   "lat": 34.2476369,
   "lng": -6.5393609,
   "mapsUrl": "https://maps.google.com/?q=34.2476369,-6.5393609",
   "source": "osm"
  },
  {
   "id": "osm-452708767",
   "nom": "Masjid Si Bousselham",
   "type": "mosquee",
   "lat": 34.25824,
   "lng": -6.5465701,
   "mapsUrl": "https://maps.google.com/?q=34.25824,-6.5465701",
   "source": "osm"
  },
  {
   "id": "osm-452710364",
   "nom": "Masjid Fouarat",
   "type": "mosquee",
   "lat": 34.2521662,
   "lng": -6.5217329,
   "mapsUrl": "https://maps.google.com/?q=34.2521662,-6.5217329",
   "source": "osm"
  },
  {
   "id": "osm-452710397",
   "nom": "Moschee",
   "type": "mosquee",
   "lat": 34.2555629,
   "lng": -6.5246468,
   "mapsUrl": "https://maps.google.com/?q=34.2555629,-6.5246468",
   "source": "osm"
  },
  {
   "id": "osm-452711475",
   "nom": "Masjid as-Sakinah",
   "type": "mosquee",
   "lat": 34.2527861,
   "lng": -6.5463549,
   "mapsUrl": "https://maps.google.com/?q=34.2527861,-6.5463549",
   "source": "osm"
  },
  {
   "id": "osm-452736408",
   "nom": "Masjid Al Imane مسجد الإيمان",
   "type": "mosquee",
   "lat": 34.2495661,
   "lng": -6.5413112,
   "mapsUrl": "https://maps.google.com/?q=34.2495661,-6.5413112",
   "source": "osm"
  },
  {
   "id": "osm-453076654",
   "nom": "Masjid Rayhan",
   "type": "mosquee",
   "lat": 34.2629291,
   "lng": -6.5663813,
   "mapsUrl": "https://maps.google.com/?q=34.2629291,-6.5663813",
   "source": "osm"
  },
  {
   "id": "osm-453375985",
   "nom": "Masjid Makarim Al Akhlaq",
   "type": "mosquee",
   "lat": 34.2591,
   "lng": -6.5693351,
   "mapsUrl": "https://maps.google.com/?q=34.2591,-6.5693351",
   "source": "osm"
  },
  {
   "id": "osm-454190313",
   "nom": "Masjid ZamZam",
   "type": "mosquee",
   "lat": 34.2539292,
   "lng": -6.5931518,
   "mapsUrl": "https://maps.google.com/?q=34.2539292,-6.5931518",
   "source": "osm"
  }
 ],
 "activites": [
  {
   "nom": "Ibn Tofail Sculpture",
   "lat": 34.24492,
   "lng": -6.5901365,
   "coordonnees": {
    "lat": 34.24492,
    "lng": -6.5901365
   },
   "categorie": "À voir",
   "mapsUrl": "https://maps.google.com/?q=34.24492,-6.5901365",
   "source": "osm"
  },
  {
   "nom": "حمام بيفولسن",
   "lat": 34.245091,
   "lng": -6.6133949,
   "coordonnees": {
    "lat": 34.245091,
    "lng": -6.6133949
   },
   "categorie": "À voir",
   "mapsUrl": "https://maps.google.com/?q=34.245091,-6.6133949",
   "source": "osm"
  },
  {
   "nom": "Bateau",
   "lat": 34.2701903,
   "lng": -6.6404576,
   "coordonnees": {
    "lat": 34.2701903,
    "lng": -6.6404576
   },
   "categorie": "À voir",
   "mapsUrl": "https://maps.google.com/?q=34.2701903,-6.6404576",
   "source": "osm"
  },
  {
   "nom": "Plage Chelihate",
   "lat": 34.2672096,
   "lng": -6.6727245,
   "coordonnees": {
    "lat": 34.2672096,
    "lng": -6.6727245
   },
   "categorie": "À voir",
   "mapsUrl": "https://maps.google.com/?q=34.2672096,-6.6727245",
   "source": "osm"
  },
  {
   "nom": "بحيرة سيدي بوغابة",
   "lat": 34.2409622,
   "lng": -6.671081,
   "coordonnees": {
    "lat": 34.2409622,
    "lng": -6.671081
   },
   "categorie": "Nature",
   "mapsUrl": "https://maps.google.com/?q=34.2409622,-6.671081",
   "source": "osm"
  }
 ],
 "imageCredit": "Wikimedia Commons",
 "osmEnriched": true,
 "osmEnrichedAt": "2026-07-15",
 "description_en": "Kenitra, in Morocco, is a halal-friendly destination with a Halal Trust Score of 4.5/5. Muslim travelers will find 8 halal restaurants listed, 1 mosques, real-time prayer times and the Qibla direction — a complete guide to travel with peace of mind.",
 "metaDescription_en": "Halal guide to Kenitra: 8 halal restaurants listed, 1 mosques, prayer times and tips for Muslim travelers. Halal Trust Score 4.5/5.",
 "nom_en": "Kenitra",
 "boucheries": [],
 "dataPurgedAt": "2026-07-15"
}