{
  "slug": "kenitra",
  "nom": "Kénitra",
  "pays": "Maroc",
  "pays_slug": "maroc",
  "continent": "Afrique",
  "region": "Centre du Maroc",
  "coordonnees": {
    "lat": 34.261,
    "lng": -6.5802
  },
  "codeISO": "MA",
  "score_halal": 4.5,
  "halalScore": 8.9,
  "description": "Port atlantique sur l'oued Sebou, ville universitaire bordée par la forêt de la Maâmora et des zones humides riches en oiseaux.",
  "image": "https://upload.wikimedia.org/wikipedia/commons/a/a9/Kenitra_main_pic.jpg",
  "image_hero": "https://upload.wikimedia.org/wikipedia/commons/a/a9/Kenitra_main_pic.jpg",
  "metaDescription": "Port atlantique sur l'oued Sebou, ville universitaire bordée par la forêt de la Maâmora et des zones humides riches en oiseaux.",
  "monnaie": "MAD (Dirham marocain)",
  "langue": "Arabe, Tamazight, Français",
  "statistiques": {
    "restaurants_halal": 7,
    "mosquees": 1,
    "hotels": 26
  },
  "infoPratique": {
    "monnaie": "MAD (Dirham marocain)",
    "langue": "Arabe, Tamazight, Français",
    "transport": "Accessible en bus (CTM/Supratours), grand taxi ou voiture.",
    "meilleureEpoque": "Printemps et automne (climat doux)."
  },
  "tags": [
    "halal",
    "Maroc"
  ],
  "restaurants": [
    {
      "nom": "Chhiwate Ryad Naji",
      "type": "moroccan",
      "priceRange": "€€",
      "mapsUrl": "https://maps.google.com/?q=34.260994,-6.5794266",
      "lat": 34.260994,
      "lng": -6.5794266,
      "halalConfidence": "likely",
      "source": "osm"
    },
    {
      "nom": "BB parck",
      "type": "arab, asian, french, spanish, international, italian",
      "priceRange": "€€",
      "mapsUrl": "https://maps.google.com/?q=34.2582403,-6.5802251",
      "lat": 34.2582403,
      "lng": -6.5802251,
      "halalConfidence": "likely",
      "source": "osm"
    },
    {
      "nom": "MUZNA",
      "type": "arab, moroccan, mediterranean",
      "priceRange": "€€",
      "mapsUrl": "https://maps.google.com/?q=34.2553153,-6.5821548",
      "lat": 34.2553153,
      "lng": -6.5821548,
      "halalConfidence": "likely",
      "source": "osm"
    },
    {
      "nom": "El Bayt Achami",
      "type": "syrian",
      "priceRange": "€€",
      "mapsUrl": "https://maps.google.com/?q=34.2590659,-6.5879016",
      "lat": 34.2590659,
      "lng": -6.5879016,
      "halalConfidence": "likely",
      "source": "osm"
    },
    {
      "nom": "Snack INNO",
      "type": "deli, crepe, french, moroccan",
      "priceRange": "€€",
      "mapsUrl": "https://maps.google.com/?q=34.253632,-6.5808724",
      "lat": 34.253632,
      "lng": -6.5808724,
      "halalConfidence": "likely",
      "source": "osm"
    },
    {
      "nom": "مطعم بدر الشام",
      "type": "arab, grill, kebab, lebanese, turkish",
      "priceRange": "€€",
      "mapsUrl": "https://maps.google.com/?q=34.25191,-6.6019303",
      "lat": 34.25191,
      "lng": -6.6019303,
      "halalConfidence": "likely",
      "source": "osm"
    },
    {
      "nom": "مشواة الغرب - الساكنية",
      "type": "arab",
      "priceRange": "€€",
      "mapsUrl": "https://maps.google.com/?q=34.2477909,-6.5541748",
      "lat": 34.2477909,
      "lng": -6.5541748,
      "halalConfidence": "likely",
      "source": "osm"
    },
    {
      "nom": "LEVEL CAFE",
      "lat": 34.2592854,
      "lng": -6.5890588,
      "type": "pizza, coffee shop, burger, sandwich, chicken, ice cream, international, italian, moroccan, breakfast, salad, italian pizza, diner, soba, crepe, cake, tea, regional, french, fish and chips, american, seafood, steak house, mexican",
      "halalConfidence": "high",
      "mapsUrl": "https://maps.google.com/?q=34.2592854,-6.5890588",
      "source": "osm"
    }
  ],
  "hotels": [
    {
      "nom": "Hôtel Mamora Kénitra",
      "categorie": "Hôtel",
      "priceRange": "€€€",
      "score": 3,
      "mapsUrl": "https://maps.google.com/?q=34.2615685,-6.5813737",
      "lat": 34.2615685,
      "lng": -6.5813737,
      "halalFriendly": false,
      "bookingUrl": "http://www.mamorakenitra.com/",
      "source": "osm"
    },
    {
      "nom": "Hôtel Ambassy",
      "categorie": "Hôtel",
      "priceRange": "€",
      "score": 1,
      "mapsUrl": "https://maps.google.com/?q=34.2597605,-6.5813189",
      "lat": 34.2597605,
      "lng": -6.5813189,
      "halalFriendly": false,
      "bookingUrl": "https://maps.google.com/?q=34.2597605,-6.5813189",
      "source": "osm"
    },
    {
      "nom": "Hotel Jacaranda",
      "categorie": "Hôtel",
      "priceRange": "€€",
      "mapsUrl": "https://maps.google.com/?q=34.2625778,-6.5816891",
      "lat": 34.2625778,
      "lng": -6.5816891,
      "halalFriendly": false,
      "bookingUrl": "https://maps.google.com/?q=34.2625778,-6.5816891",
      "source": "osm"
    },
    {
      "nom": "City Hotel",
      "categorie": "Hôtel",
      "priceRange": "€€",
      "mapsUrl": "https://maps.google.com/?q=34.2624019,-6.5845749",
      "lat": 34.2624019,
      "lng": -6.5845749,
      "halalFriendly": false,
      "bookingUrl": "https://maps.google.com/?q=34.2624019,-6.5845749",
      "source": "osm"
    },
    {
      "nom": "Hotel L'europe",
      "categorie": "Hôtel",
      "priceRange": "€€",
      "mapsUrl": "https://maps.google.com/?q=34.2596629,-6.5847689",
      "lat": 34.2596629,
      "lng": -6.5847689,
      "halalFriendly": false,
      "bookingUrl": "https://maps.google.com/?q=34.2596629,-6.5847689",
      "source": "osm"
    },
    {
      "nom": "Hotel d'Europe",
      "categorie": "Hôtel",
      "priceRange": "€€",
      "mapsUrl": "https://maps.google.com/?q=34.2612646,-6.5852335",
      "lat": 34.2612646,
      "lng": -6.5852335,
      "halalFriendly": false,
      "bookingUrl": "https://maps.google.com/?q=34.2612646,-6.5852335",
      "source": "osm"
    },
    {
      "nom": "Eden Boutique Hotel",
      "categorie": "Hôtel",
      "priceRange": "€€",
      "mapsUrl": "https://maps.google.com/?q=34.2584906,-6.5846274",
      "lat": 34.2584906,
      "lng": -6.5846274,
      "halalFriendly": false,
      "bookingUrl": "https://maps.google.com/?q=34.2584906,-6.5846274",
      "source": "osm"
    },
    {
      "nom": "Razane Hotel",
      "categorie": "Hôtel",
      "priceRange": "€€",
      "mapsUrl": "https://maps.google.com/?q=34.2632927,-6.5734474",
      "lat": 34.2632927,
      "lng": -6.5734474,
      "halalFriendly": false,
      "bookingUrl": "https://maps.google.com/?q=34.2632927,-6.5734474",
      "source": "osm"
    },
    {
      "nom": "Town Hotel",
      "categorie": "Hôtel",
      "priceRange": "€€",
      "mapsUrl": "https://maps.google.com/?q=34.2574361,-6.586886",
      "lat": 34.2574361,
      "lng": -6.586886,
      "halalFriendly": false,
      "bookingUrl": "townhotel.ma",
      "source": "osm"
    },
    {
      "nom": "Vitality Terminus",
      "categorie": "Hôtel",
      "priceRange": "€€",
      "mapsUrl": "https://maps.google.com/?q=34.2543068,-6.5812831",
      "lat": 34.2543068,
      "lng": -6.5812831,
      "halalFriendly": false,
      "bookingUrl": "https://maps.google.com/?q=34.2543068,-6.5812831",
      "source": "osm"
    },
    {
      "nom": "عمارة شالة",
      "categorie": "Appartement",
      "priceRange": "€€",
      "mapsUrl": "https://maps.google.com/?q=34.2642437,-6.5888864",
      "lat": 34.2642437,
      "lng": -6.5888864,
      "halalFriendly": false,
      "bookingUrl": "https://maps.google.com/?q=34.2642437,-6.5888864",
      "source": "osm"
    },
    {
      "nom": "Urban Hotel & Spa",
      "categorie": "Hôtel",
      "priceRange": "€€",
      "mapsUrl": "https://maps.google.com/?q=34.2516108,-6.5846443",
      "lat": 34.2516108,
      "lng": -6.5846443,
      "halalFriendly": false,
      "bookingUrl": "https://maps.google.com/?q=34.2516108,-6.5846443",
      "source": "osm"
    },
    {
      "nom": "QRA CN8SG",
      "categorie": "Maison d'hôtes",
      "priceRange": "€€",
      "mapsUrl": "https://maps.google.com/?q=34.2653432,-6.5913998",
      "lat": 34.2653432,
      "lng": -6.5913998,
      "halalFriendly": false,
      "bookingUrl": "https://maps.google.com/?q=34.2653432,-6.5913998",
      "source": "osm"
    },
    {
      "nom": "أيت بيفلوسن",
      "categorie": "Maison d'hôtes",
      "priceRange": "€€",
      "mapsUrl": "https://maps.google.com/?q=34.254678,-6.5901549",
      "lat": 34.254678,
      "lng": -6.5901549,
      "halalFriendly": false,
      "bookingUrl": "https://maps.google.com/?q=34.254678,-6.5901549",
      "source": "osm"
    },
    {
      "nom": "Fatima Kenitra",
      "categorie": "Appartement",
      "priceRange": "€€",
      "mapsUrl": "https://maps.google.com/?q=34.2554734,-6.5922993",
      "lat": 34.2554734,
      "lng": -6.5922993,
      "halalFriendly": false,
      "bookingUrl": "https://maps.google.com/?q=34.2554734,-6.5922993",
      "source": "osm"
    },
    {
      "nom": "Le Royal Plaza",
      "categorie": "Hôtel",
      "priceRange": "€€",
      "mapsUrl": "https://maps.google.com/?q=34.2503729,-6.5714437",
      "lat": 34.2503729,
      "lng": -6.5714437,
      "halalFriendly": false,
      "bookingUrl": "https://www.ahrcollections.com/",
      "source": "osm"
    },
    {
      "nom": "Appart Hotel Marina",
      "categorie": "Hôtel",
      "priceRange": "€€",
      "mapsUrl": "https://maps.google.com/?q=34.2685068,-6.5935888",
      "lat": 34.2685068,
      "lng": -6.5935888,
      "halalFriendly": false,
      "bookingUrl": "https://maps.google.com/?q=34.2685068,-6.5935888",
      "source": "osm"
    },
    {
      "nom": "Les Allées du Parc",
      "categorie": "Appartement",
      "priceRange": "€€",
      "mapsUrl": "https://maps.google.com/?q=34.2509857,-6.5624992",
      "lat": 34.2509857,
      "lng": -6.5624992,
      "halalFriendly": false,
      "bookingUrl": "https://maps.google.com/?q=34.2509857,-6.5624992",
      "source": "osm"
    },
    {
      "nom": "الجمعية الخيرية",
      "categorie": "Appartement",
      "priceRange": "€€",
      "mapsUrl": "https://maps.google.com/?q=34.2576203,-6.5580095",
      "lat": 34.2576203,
      "lng": -6.5580095,
      "halalFriendly": false,
      "bookingUrl": "https://maps.google.com/?q=34.2576203,-6.5580095",
      "source": "osm"
    },
    {
      "nom": "Relax Hôtel Kenitra",
      "categorie": "Hôtel",
      "priceRange": "€€",
      "mapsUrl": "https://maps.google.com/?q=34.2391348,-6.5713571",
      "lat": 34.2391348,
      "lng": -6.5713571,
      "halalFriendly": false,
      "bookingUrl": "https://maps.google.com/?q=34.2391348,-6.5713571",
      "source": "osm"
    },
    {
      "nom": "دارنا",
      "categorie": "Maison d'hôtes",
      "priceRange": "€€",
      "mapsUrl": "https://maps.google.com/?q=34.2419751,-6.614411",
      "lat": 34.2419751,
      "lng": -6.614411,
      "halalFriendly": false,
      "bookingUrl": "https://ayoub65.blogspot.com/",
      "source": "osm"
    },
    {
      "nom": "Hôtel Assam",
      "categorie": "Hôtel",
      "priceRange": "€€",
      "mapsUrl": "https://maps.google.com/?q=34.2811375,-6.5374736",
      "lat": 34.2811375,
      "lng": -6.5374736,
      "halalFriendly": false,
      "bookingUrl": "https://maps.google.com/?q=34.2811375,-6.5374736",
      "source": "osm"
    },
    {
      "nom": "Fondation Hassan II - MRE, Kenitra",
      "categorie": "Hôtel",
      "priceRange": "€€",
      "mapsUrl": "https://maps.google.com/?q=34.2900915,-6.5079595",
      "lat": 34.2900915,
      "lng": -6.5079595,
      "halalFriendly": false,
      "bookingUrl": "https://maps.google.com/?q=34.2900915,-6.5079595",
      "source": "osm"
    },
    {
      "nom": "Palais lalla laaroussa",
      "categorie": "Hôtel",
      "priceRange": "€€",
      "mapsUrl": "https://maps.google.com/?q=34.293075,-6.4973128",
      "lat": 34.293075,
      "lng": -6.4973128,
      "halalFriendly": false,
      "bookingUrl": "https://maps.google.com/?q=34.293075,-6.4973128",
      "source": "osm"
    },
    {
      "nom": "Complexe Marmara مركب مرمرة",
      "categorie": "Hôtel",
      "priceRange": "€€",
      "mapsUrl": "https://maps.google.com/?q=34.293234,-6.497101",
      "lat": 34.293234,
      "lng": -6.497101,
      "halalFriendly": false,
      "bookingUrl": "https://maps.google.com/?q=34.293234,-6.497101",
      "source": "osm"
    },
    {
      "nom": "Kenz Mehdia Appart Hotel",
      "categorie": "Hôtel",
      "priceRange": "€€",
      "mapsUrl": "https://maps.google.com/?q=34.25816,-6.6770693",
      "lat": 34.25816,
      "lng": -6.6770693,
      "halalFriendly": false,
      "bookingUrl": "https://maps.google.com/?q=34.25816,-6.6770693",
      "source": "osm"
    }
  ],
  "mosqueesPrincipales": [
    {
      "nom": "Mosqueé Saida Aicha",
      "lat": 34.2603894,
      "lng": -6.58032,
      "coordonnees": {
        "lat": 34.2603894,
        "lng": -6.58032
      },
      "mapsUrl": "https://maps.google.com/?q=34.2603894,-6.58032",
      "source": "osm"
    },
    {
      "nom": "Masjid",
      "lat": 34.2557048,
      "lng": -6.581837,
      "coordonnees": {
        "lat": 34.2557048,
        "lng": -6.581837
      },
      "mapsUrl": "https://maps.google.com/?q=34.2557048,-6.581837",
      "source": "osm"
    },
    {
      "nom": "Salle De Prière - Gare routière",
      "lat": 34.2647774,
      "lng": -6.5732323,
      "coordonnees": {
        "lat": 34.2647774,
        "lng": -6.5732323
      },
      "mapsUrl": "https://maps.google.com/?q=34.2647774,-6.5732323",
      "source": "osm"
    },
    {
      "nom": "Masjid al-Firdaous",
      "lat": 34.2661048,
      "lng": -6.5917059,
      "coordonnees": {
        "lat": 34.2661048,
        "lng": -6.5917059
      },
      "mapsUrl": "https://maps.google.com/?q=34.2661048,-6.5917059",
      "source": "osm"
    },
    {
      "nom": "Masjid Hana",
      "lat": 34.2646664,
      "lng": -6.5674676,
      "coordonnees": {
        "lat": 34.2646664,
        "lng": -6.5674676
      },
      "mapsUrl": "https://maps.google.com/?q=34.2646664,-6.5674676",
      "source": "osm"
    },
    {
      "nom": "Masjid al-Buraq",
      "lat": 34.260654,
      "lng": -6.5972765,
      "coordonnees": {
        "lat": 34.260654,
        "lng": -6.5972765
      },
      "mapsUrl": "https://maps.google.com/?q=34.260654,-6.5972765",
      "source": "osm"
    },
    {
      "nom": "Masjid Ibn Achir مسجد ابن عاشر",
      "lat": 34.2637594,
      "lng": -6.560463,
      "coordonnees": {
        "lat": 34.2637594,
        "lng": -6.560463
      },
      "mapsUrl": "https://maps.google.com/?q=34.2637594,-6.560463",
      "source": "osm"
    },
    {
      "nom": "Salle de prière",
      "lat": 34.2327774,
      "lng": -6.5404447,
      "coordonnees": {
        "lat": 34.2327774,
        "lng": -6.5404447
      },
      "mapsUrl": "https://maps.google.com/?q=34.2327774,-6.5404447",
      "source": "osm"
    }
  ],
  "activites": [
    {
      "id": "a1",
      "nom": "Forêt de la Maâmora",
      "categorie": "Nature",
      "description": "Plus grande forêt de chênes-lièges du Maroc, balades et air pur.",
      "prix": "Gratuit",
      "duree": "",
      "mapsUrl": "https://maps.google.com/?q=For%C3%AAt%20de%20la%20Ma%C3%A2mora%20K%C3%A9nitra%20Maroc",
      "lat": 34.0538157,
      "lng": -6.5965335,
      "geocoded": true
    },
    {
      "id": "a2",
      "nom": "Plage de Mehdia",
      "categorie": "Nature",
      "description": "Plage atlantique et kasbah à l'embouchure du Sebou.",
      "prix": "Gratuit",
      "duree": "",
      "mapsUrl": "https://maps.google.com/?q=Plage%20de%20Mehdia%20K%C3%A9nitra%20Maroc",
      "lat": 34.2546052,
      "lng": -6.6798064,
      "geocoded": true
    },
    {
      "id": "a3",
      "nom": "Réserve de Sidi Boughaba",
      "categorie": "Nature",
      "description": "Lagune protégée, paradis des oiseaux migrateurs.",
      "prix": "Gratuit",
      "duree": "",
      "mapsUrl": "https://maps.google.com/?q=R%C3%A9serve%20de%20Sidi%20Boughaba%20K%C3%A9nitra%20Maroc",
      "lat": 34.235857,
      "lng": -6.6780839,
      "geocoded": true
    }
  ],
  "imageCredit": "Wikimedia Commons",
  "osmEnriched": true,
  "osmEnrichedAt": "2026-06-30",
  "description_en": "Kenitra, in Morocco, is a halal-friendly destination with a Halal Trust Score of 4.5/5. Muslim travelers will find 7 halal restaurants, 1 mosques, real-time prayer times and the Qibla direction — a complete guide to travel with peace of mind.",
  "metaDescription_en": "Halal guide to Kenitra: 7+ halal restaurants, 1 mosques, prayer times and tips for Muslim travelers. Halal Trust Score 4.5/5.",
  "nom_en": "Kenitra",
  "boucheries": []
}