{
 "slug": "kigali",
 "nom": "Kigali",
 "pays": "Rwanda",
 "pays_slug": "rwanda",
 "continent": "Afrique",
 "region": "Rwanda",
 "coordonnees": {
  "lat": -1.9579,
  "lng": 30.1127
 },
 "codeISO": "RW",
 "score_halal": 3.2,
 "halalScore": 6.4,
 "description": "Kigali, Rwanda. Repérez les restaurants halal et les mosquées via l'application.",
 "metaDescription": "Kigali, Rwanda. Repérez les restaurants halal et les mosquées via l'application.",
 "image": "https://upload.wikimedia.org/wikipedia/commons/thumb/1/1f/My_city_kigali.jpg/1600px-My_city_kigali.jpg",
 "image_hero": "https://upload.wikimedia.org/wikipedia/commons/thumb/1/1f/My_city_kigali.jpg/1600px-My_city_kigali.jpg",
 "imageCredit": "Wikimedia Commons",
 "scoreIndicatif": true,
 "statistiques": {
  "restaurants_halal": 14,
  "mosquees": 6,
  "hotels": 114
 },
 "infoPratique": {
  "transport": "Accessible par avion et transports locaux.",
  "meilleureEpoque": "Selon la saison.",
  "conseilHalal": "Repérez restaurants halal et mosquées via l'application."
 },
 "tags": [
  "halal",
  "afrique"
 ],
 "restaurants": [
  {
   "nom": "Foul and Falafel",
   "type": "arab, lebanese, oriental",
   "priceRange": "€€",
   "mapsUrl": "https://maps.google.com/?q=-1.9662102,30.0598382",
   "lat": -1.9662102,
   "lng": 30.0598382,
   "halalConfidence": "likely",
   "source": "osm"
  },
  {
   "nom": "Tamu Tamu",
   "type": "african, arab",
   "priceRange": "€€",
   "mapsUrl": "https://maps.google.com/?q=-1.9642409,30.0595405",
   "lat": -1.9642409,
   "lng": 30.0595405,
   "halalConfidence": "likely",
   "source": "osm"
  },
  {
   "nom": "Habibi",
   "type": "chicken, arab, tea, kebab, curry, barbecue",
   "priceRange": "€€",
   "mapsUrl": "https://maps.google.com/?q=-1.9651606,30.0590678",
   "lat": -1.9651606,
   "lng": 30.0590678,
   "halalConfidence": "likely",
   "source": "osm"
  },
  {
   "nom": "Umut",
   "type": "turkish",
   "priceRange": "€€",
   "mapsUrl": "https://maps.google.com/?q=-1.9423055,30.0582911",
   "lat": -1.9423055,
   "lng": 30.0582911,
   "halalConfidence": "likely",
   "source": "osm"
  },
  {
   "nom": "Le Manoire 707",
   "type": "regional, chicken, kebab, barbecue",
   "priceRange": "€€",
   "mapsUrl": "https://maps.google.com/?q=-1.9212968,30.0631701",
   "lat": -1.9212968,
   "lng": 30.0631701,
   "halalConfidence": "likely",
   "source": "osm"
  },
  {
   "nom": "Khana Khazana Nyarutarama",
   "lat": -1.949534,
   "lng": 30.1029927,
   "type": "indian",
   "halalConfidence": "likely",
   "mapsUrl": "https://maps.google.com/?q=-1.949534,30.1029927",
   "source": "osm"
  },
  {
   "nom": "Indian Chef",
   "lat": -1.9526575,
   "lng": 30.096755,
   "type": "indian",
   "halalConfidence": "likely",
   "mapsUrl": "https://maps.google.com/?q=-1.9526575,30.096755",
   "source": "osm"
  },
  {
   "nom": "The Hut",
   "lat": -1.9577911,
   "lng": 30.0936349,
   "type": "indian",
   "halalConfidence": "likely",
   "mapsUrl": "https://maps.google.com/?q=-1.9577911,30.0936349",
   "source": "osm"
  },
  {
   "nom": "Kurry Kingdom",
   "lat": -1.9456456,
   "lng": 30.0891156,
   "type": "indian",
   "halalConfidence": "likely",
   "mapsUrl": "https://maps.google.com/?q=-1.9456456,30.0891156",
   "source": "osm"
  },
  {
   "nom": "Paradise Rwanda Restobar",
   "lat": -1.9358988,
   "lng": 30.0846998,
   "type": "indian",
   "halalConfidence": "likely",
   "mapsUrl": "https://maps.google.com/?q=-1.9358988,30.0846998",
   "source": "osm"
  },
  {
   "nom": "Khana Khazana",
   "lat": -1.9472923,
   "lng": 30.065953,
   "type": "indian",
   "halalConfidence": "likely",
   "mapsUrl": "https://maps.google.com/?q=-1.9472923,30.065953",
   "source": "osm"
  },
  {
   "nom": "Preet Fast Food (Indian Vegetarian Restaurant)",
   "lat": -1.9476841,
   "lng": 30.0592467,
   "type": "indian",
   "halalConfidence": "likely",
   "mapsUrl": "https://maps.google.com/?q=-1.9476841,30.0592467",
   "source": "osm"
  },
  {
   "nom": "Fat Mama's Kitchen",
   "lat": -1.9434745,
   "lng": 30.0595301,
   "type": "indian",
   "halalConfidence": "likely",
   "mapsUrl": "https://maps.google.com/?q=-1.9434745,30.0595301",
   "source": "osm"
  },
  {
   "nom": "Regency",
   "lat": -1.9302713,
   "lng": 30.0644162,
   "type": "indian",
   "halalConfidence": "likely",
   "mapsUrl": "https://maps.google.com/?q=-1.9302713,30.0644162",
   "source": "osm"
  }
 ],
 "hotels": [
  {
   "nom": "Zaria Court Kigali, Tapestry Collection by Hilton",
   "categorie": "Hôtel",
   "priceRange": "€€",
   "mapsUrl": "https://maps.google.com/?q=-1.957488,30.1120156",
   "lat": -1.957488,
   "lng": 30.1120156,
   "halalFriendly": false,
   "bookingUrl": "https://www.hilton.com/en/hotels/kglzcup-zaria-court-kigali/",
   "source": "osm"
  },
  {
   "nom": "Elite motel",
   "categorie": "Hôtel",
   "priceRange": "€€",
   "mapsUrl": "https://maps.google.com/?q=-1.9591408,30.1124122",
   "lat": -1.9591408,
   "lng": 30.1124122,
   "halalFriendly": false,
   "bookingUrl": "https://maps.google.com/?q=-1.9591408,30.1124122",
   "source": "osm"
  },
  {
   "nom": "Elite Hotel Rwanda",
   "categorie": "Hôtel",
   "priceRange": "€€",
   "mapsUrl": "https://maps.google.com/?q=-1.9594043,30.1126393",
   "lat": -1.9594043,
   "lng": 30.1126393,
   "halalFriendly": false,
   "bookingUrl": "https://maps.google.com/?q=-1.9594043,30.1126393",
   "source": "osm"
  },
  {
   "nom": "Land Start Hotel",
   "categorie": "Hôtel",
   "priceRange": "€€",
   "mapsUrl": "https://maps.google.com/?q=-1.9585287,30.1110243",
   "lat": -1.9585287,
   "lng": 30.1110243,
   "halalFriendly": false,
   "bookingUrl": "https://maps.google.com/?q=-1.9585287,30.1110243",
   "source": "osm"
  },
  {
   "nom": "Grand Legacy",
   "categorie": "Hôtel",
   "priceRange": "€€",
   "mapsUrl": "https://maps.google.com/?q=-1.9605189,30.1127064",
   "lat": -1.9605189,
   "lng": 30.1127064,
   "halalFriendly": false,
   "bookingUrl": "https://grandlegacy.rw",
   "source": "osm"
  },
  {
   "nom": "Sportsview Hotel",
   "categorie": "Hôtel",
   "priceRange": "€€",
   "mapsUrl": "https://maps.google.com/?q=-1.9544391,30.1124078",
   "lat": -1.9544391,
   "lng": 30.1124078,
   "halalFriendly": false,
   "bookingUrl": "https://maps.google.com/?q=-1.9544391,30.1124078",
   "source": "osm"
  },
  {
   "nom": "Five to Five Hotel",
   "categorie": "Hôtel",
   "priceRange": "€€€",
   "score": 3,
   "mapsUrl": "https://maps.google.com/?q=-1.9552509,30.1102989",
   "lat": -1.9552509,
   "lng": 30.1102989,
   "halalFriendly": false,
   "bookingUrl": "https://maps.google.com/?q=-1.9552509,30.1102989",
   "source": "osm"
  },
  {
   "nom": "Wailers Lodge",
   "categorie": "Hôtel",
   "priceRange": "€€",
   "mapsUrl": "https://maps.google.com/?q=-1.9618869,30.1124438",
   "lat": -1.9618869,
   "lng": 30.1124438,
   "halalFriendly": false,
   "bookingUrl": "https://maps.google.com/?q=-1.9618869,30.1124438",
   "source": "osm"
  },
  {
   "nom": "Lebanon Hotel",
   "categorie": "Hôtel",
   "priceRange": "€€",
   "mapsUrl": "https://maps.google.com/?q=-1.9539086,30.1109688",
   "lat": -1.9539086,
   "lng": 30.1109688,
   "halalFriendly": false,
   "bookingUrl": "https://maps.google.com/?q=-1.9539086,30.1109688",
   "source": "osm"
  },
  {
   "nom": "Civitas Hotel",
   "categorie": "Hôtel",
   "priceRange": "€€",
   "mapsUrl": "https://maps.google.com/?q=-1.96044,30.109147",
   "lat": -1.96044,
   "lng": 30.109147,
   "halalFriendly": false,
   "bookingUrl": "https://maps.google.com/?q=-1.96044,30.109147",
   "source": "osm"
  },
  {
   "nom": "Hôtel Chez Lando",
   "categorie": "Hôtel",
   "priceRange": "€€",
   "mapsUrl": "https://maps.google.com/?q=-1.959311,30.108313",
   "lat": -1.959311,
   "lng": 30.108313,
   "halalFriendly": false,
   "bookingUrl": "http://hotelchezlando.com",
   "source": "osm"
  },
  {
   "nom": "Wilsad lodge",
   "categorie": "Maison d'hôtes",
   "priceRange": "€€",
   "mapsUrl": "https://maps.google.com/?q=-1.9619625,30.1100841",
   "lat": -1.9619625,
   "lng": 30.1100841,
   "halalFriendly": false,
   "bookingUrl": "https://maps.google.com/?q=-1.9619625,30.1100841",
   "source": "osm"
  },
  {
   "nom": "Urban Suit Hotel",
   "categorie": "Hôtel",
   "priceRange": "€€",
   "mapsUrl": "https://maps.google.com/?q=-1.9605215,30.1084046",
   "lat": -1.9605215,
   "lng": 30.1084046,
   "halalFriendly": false,
   "bookingUrl": "https://maps.google.com/?q=-1.9605215,30.1084046",
   "source": "osm"
  },
  {
   "nom": "URBAN PARK",
   "categorie": "Hôtel",
   "priceRange": "€€",
   "mapsUrl": "https://maps.google.com/?q=-1.9605321,30.1077041",
   "lat": -1.9605321,
   "lng": 30.1077041,
   "halalFriendly": false,
   "bookingUrl": "https://maps.google.com/?q=-1.9605321,30.1077041",
   "source": "osm"
  },
  {
   "nom": "Faustin",
   "categorie": "Auberge",
   "priceRange": "€€",
   "mapsUrl": "https://maps.google.com/?q=-1.9628964,30.1083941",
   "lat": -1.9628964,
   "lng": 30.1083941,
   "halalFriendly": false,
   "bookingUrl": "https://maps.google.com/?q=-1.9628964,30.1083941",
   "source": "osm"
  },
  {
   "nom": "Gad Guest House",
   "categorie": "Maison d'hôtes",
   "priceRange": "€€",
   "mapsUrl": "https://maps.google.com/?q=-1.9608558,30.1055865",
   "lat": -1.9608558,
   "lng": 30.1055865,
   "halalFriendly": false,
   "bookingUrl": "https://maps.google.com/?q=-1.9608558,30.1055865",
   "source": "osm"
  },
  {
   "nom": "Kalih Villa",
   "categorie": "Hôtel",
   "priceRange": "€€",
   "mapsUrl": "https://maps.google.com/?q=-1.9602105,30.1050041",
   "lat": -1.9602105,
   "lng": 30.1050041,
   "halalFriendly": false,
   "bookingUrl": "https://maps.google.com/?q=-1.9602105,30.1050041",
   "source": "osm"
  },
  {
   "nom": "Hôtel Beauséjour",
   "categorie": "Hôtel",
   "priceRange": "€€",
   "mapsUrl": "https://maps.google.com/?q=-1.9581221,30.1046633",
   "lat": -1.9581221,
   "lng": 30.1046633,
   "halalFriendly": false,
   "bookingUrl": "https://maps.google.com/?q=-1.9581221,30.1046633",
   "source": "osm"
  },
  {
   "nom": "Happy Hour",
   "categorie": "Maison d'hôtes",
   "priceRange": "€€",
   "mapsUrl": "https://maps.google.com/?q=-1.9629285,30.1206089",
   "lat": -1.9629285,
   "lng": 30.1206089,
   "halalFriendly": false,
   "bookingUrl": "https://maps.google.com/?q=-1.9629285,30.1206089",
   "source": "osm"
  },
  {
   "nom": "Hilltop Hotel",
   "categorie": "Hôtel",
   "priceRange": "€€€€",
   "score": 4,
   "mapsUrl": "https://maps.google.com/?q=-1.9617429,30.1213611",
   "lat": -1.9617429,
   "lng": 30.1213611,
   "halalFriendly": false,
   "bookingUrl": "https://hilltophotelkigali.rw/",
   "source": "osm"
  },
  {
   "nom": "ALMA GUEST HOUSE",
   "categorie": "Maison d'hôtes",
   "priceRange": "€€",
   "mapsUrl": "https://maps.google.com/?q=-1.9612576,30.1224574",
   "lat": -1.9612576,
   "lng": 30.1224574,
   "halalFriendly": false,
   "bookingUrl": "https://maps.google.com/?q=-1.9612576,30.1224574",
   "source": "osm"
  },
  {
   "nom": "Hotel Hilltop & Country  Club",
   "categorie": "Hôtel",
   "priceRange": "€€",
   "mapsUrl": "https://maps.google.com/?q=-1.9621578,30.1221878",
   "lat": -1.9621578,
   "lng": 30.1221878,
   "halalFriendly": false,
   "bookingUrl": "www.kigalihotelhilltop.com",
   "source": "osm"
  },
  {
   "nom": "Tea House B&B",
   "categorie": "Maison d'hôtes",
   "priceRange": "€€",
   "mapsUrl": "https://maps.google.com/?q=-1.9566273,30.1237932",
   "lat": -1.9566273,
   "lng": 30.1237932,
   "halalFriendly": false,
   "bookingUrl": "https://www.bnbteahousekigali.com/",
   "source": "osm"
  },
  {
   "nom": "Ibiwi House",
   "categorie": "Hôtel",
   "priceRange": "€€",
   "mapsUrl": "https://maps.google.com/?q=-1.9681076,30.1191468",
   "lat": -1.9681076,
   "lng": 30.1191468,
   "halalFriendly": false,
   "bookingUrl": "https://maps.google.com/?q=-1.9681076,30.1191468",
   "source": "osm"
  },
  {
   "nom": "Great apartment hotel",
   "categorie": "Hôtel",
   "priceRange": "€€",
   "mapsUrl": "https://maps.google.com/?q=-1.9620278,30.1242802",
   "lat": -1.9620278,
   "lng": 30.1242802,
   "halalFriendly": false,
   "bookingUrl": "https://maps.google.com/?q=-1.9620278,30.1242802",
   "source": "osm"
  },
  {
   "nom": "Corina K",
   "categorie": "Maison d'hôtes",
   "priceRange": "€€",
   "mapsUrl": "https://maps.google.com/?q=-1.9688134,30.1056559",
   "lat": -1.9688134,
   "lng": 30.1056559,
   "halalFriendly": false,
   "bookingUrl": "https://corinakguesthouse.com/",
   "source": "osm"
  },
  {
   "nom": "Gorillas Golf",
   "categorie": "Hôtel",
   "priceRange": "€€",
   "mapsUrl": "https://maps.google.com/?q=-1.9459809,30.1048873",
   "lat": -1.9459809,
   "lng": 30.1048873,
   "halalFriendly": false,
   "bookingUrl": "https://maps.google.com/?q=-1.9459809,30.1048873",
   "source": "osm"
  },
  {
   "nom": "Hôtel Le Printemps",
   "categorie": "Hôtel",
   "priceRange": "€€",
   "mapsUrl": "https://maps.google.com/?q=-1.9490467,30.1248444",
   "lat": -1.9490467,
   "lng": 30.1248444,
   "halalFriendly": false,
   "bookingUrl": "https://maps.google.com/?q=-1.9490467,30.1248444",
   "source": "osm"
  },
  {
   "nom": "Amara n' Ubuki Boutique Hotel",
   "categorie": "Hôtel",
   "priceRange": "€€",
   "mapsUrl": "https://maps.google.com/?q=-1.9510943,30.0992724",
   "lat": -1.9510943,
   "lng": 30.0992724,
   "halalFriendly": false,
   "bookingUrl": "https://maps.google.com/?q=-1.9510943,30.0992724",
   "source": "osm"
  },
  {
   "nom": "Lemigo Hotel",
   "categorie": "Hôtel",
   "priceRange": "€€€€",
   "score": 4,
   "mapsUrl": "https://maps.google.com/?q=-1.955345,30.0976413",
   "lat": -1.955345,
   "lng": 30.0976413,
   "halalFriendly": false,
   "bookingUrl": "https://maps.google.com/?q=-1.955345,30.0976413",
   "source": "osm"
  },
  {
   "nom": "Park View Courts",
   "categorie": "Hôtel",
   "priceRange": "€€",
   "mapsUrl": "https://maps.google.com/?q=-1.9456615,30.1029731",
   "lat": -1.9456615,
   "lng": 30.1029731,
   "halalFriendly": false,
   "bookingUrl": "https://maps.google.com/?q=-1.9456615,30.1029731",
   "source": "osm"
  },
  {
   "nom": "Select Boutique Hotel",
   "categorie": "Hôtel",
   "priceRange": "€€",
   "mapsUrl": "https://maps.google.com/?q=-1.9508748,30.0984072",
   "lat": -1.9508748,
   "lng": 30.0984072,
   "halalFriendly": false,
   "bookingUrl": "https://maps.google.com/?q=-1.9508748,30.0984072",
   "source": "osm"
  },
  {
   "nom": "Classic hotel",
   "categorie": "Hôtel",
   "priceRange": "€€",
   "mapsUrl": "https://maps.google.com/?q=-1.9688067,30.1005035",
   "lat": -1.9688067,
   "lng": 30.1005035,
   "halalFriendly": false,
   "bookingUrl": "https://maps.google.com/?q=-1.9688067,30.1005035",
   "source": "osm"
  },
  {
   "nom": "Kigali Diplomat Hotel",
   "categorie": "Hôtel",
   "priceRange": "€€",
   "mapsUrl": "https://maps.google.com/?q=-1.9529765,30.0966048",
   "lat": -1.9529765,
   "lng": 30.0966048,
   "halalFriendly": false,
   "bookingUrl": "https://maps.google.com/?q=-1.9529765,30.0966048",
   "source": "osm"
  },
  {
   "nom": "Tugende",
   "categorie": "Maison d'hôtes",
   "priceRange": "€€",
   "mapsUrl": "https://maps.google.com/?q=-1.9560178,30.0958804",
   "lat": -1.9560178,
   "lng": 30.0958804,
   "halalFriendly": false,
   "bookingUrl": "https://maps.google.com/?q=-1.9560178,30.0958804",
   "source": "osm"
  },
  {
   "nom": "Rainbow Hotel",
   "categorie": "Hôtel",
   "priceRange": "€€",
   "mapsUrl": "https://maps.google.com/?q=-1.9736966,30.106565",
   "lat": -1.9736966,
   "lng": 30.106565,
   "halalFriendly": false,
   "bookingUrl": "https://maps.google.com/?q=-1.9736966,30.106565",
   "source": "osm"
  },
  {
   "nom": "Nature Kigali",
   "categorie": "Hôtel",
   "priceRange": "€€",
   "mapsUrl": "https://maps.google.com/?q=-1.9438449,30.1028163",
   "lat": -1.9438449,
   "lng": 30.1028163,
   "halalFriendly": false,
   "bookingUrl": "https://naturekigali.com",
   "source": "osm"
  },
  {
   "nom": "NSTC",
   "categorie": "Hôtel",
   "priceRange": "€€",
   "mapsUrl": "https://maps.google.com/?q=-1.944388,30.1018913",
   "lat": -1.944388,
   "lng": 30.1018913,
   "halalFriendly": false,
   "bookingUrl": "https://maps.google.com/?q=-1.944388,30.1018913",
   "source": "osm"
  },
  {
   "nom": "KABA Guesthouse",
   "categorie": "Maison d'hôtes",
   "priceRange": "€€",
   "mapsUrl": "https://maps.google.com/?q=-1.9760817,30.1158442",
   "lat": -1.9760817,
   "lng": 30.1158442,
   "halalFriendly": false,
   "bookingUrl": "https://www.airbnb.com/rooms/50793130",
   "source": "osm"
  },
  {
   "nom": "Colours Club and Spa",
   "categorie": "Hôtel",
   "priceRange": "€€",
   "mapsUrl": "https://maps.google.com/?q=-1.9433083,30.1247711",
   "lat": -1.9433083,
   "lng": 30.1247711,
   "halalFriendly": false,
   "bookingUrl": "https://maps.google.com/?q=-1.9433083,30.1247711",
   "source": "osm"
  },
  {
   "nom": "Holly Guest Inn",
   "categorie": "Maison d'hôtes",
   "priceRange": "€€",
   "mapsUrl": "https://maps.google.com/?q=-1.9679019,30.0963234",
   "lat": -1.9679019,
   "lng": 30.0963234,
   "halalFriendly": false,
   "bookingUrl": "https://maps.google.com/?q=-1.9679019,30.0963234",
   "source": "osm"
  },
  {
   "nom": "Le Paradis",
   "categorie": "Hôtel",
   "priceRange": "€€",
   "mapsUrl": "https://maps.google.com/?q=-1.9567772,30.1323443",
   "lat": -1.9567772,
   "lng": 30.1323443,
   "halalFriendly": false,
   "bookingUrl": "https://maps.google.com/?q=-1.9567772,30.1323443",
   "source": "osm"
  },
  {
   "nom": "Radisson Blu Hotel",
   "categorie": "Hôtel",
   "priceRange": "€€",
   "mapsUrl": "https://maps.google.com/?q=-1.9542643,30.0931089",
   "lat": -1.9542643,
   "lng": 30.0931089,
   "halalFriendly": false,
   "bookingUrl": "https://maps.google.com/?q=-1.9542643,30.0931089",
   "source": "osm"
  },
  {
   "nom": "Radisson Blu",
   "categorie": "Hôtel",
   "priceRange": "€€",
   "mapsUrl": "https://maps.google.com/?q=-1.9546703,30.0927555",
   "lat": -1.9546703,
   "lng": 30.0927555,
   "halalFriendly": false,
   "bookingUrl": "https://maps.google.com/?q=-1.9546703,30.0927555",
   "source": "osm"
  },
  {
   "nom": "Martin Aviator",
   "categorie": "Hôtel",
   "priceRange": "€€",
   "mapsUrl": "https://maps.google.com/?q=-1.9614416,30.1343141",
   "lat": -1.9614416,
   "lng": 30.1343141,
   "halalFriendly": false,
   "bookingUrl": "https://maps.google.com/?q=-1.9614416,30.1343141",
   "source": "osm"
  },
  {
   "nom": "Airport Inn Motel",
   "categorie": "Hôtel",
   "priceRange": "€€",
   "mapsUrl": "https://maps.google.com/?q=-1.9616447,30.1346777",
   "lat": -1.9616447,
   "lng": 30.1346777,
   "halalFriendly": false,
   "bookingUrl": "https://maps.google.com/?q=-1.9616447,30.1346777",
   "source": "osm"
  },
  {
   "nom": "Woodland Hotel",
   "categorie": "Hôtel",
   "priceRange": "€€",
   "mapsUrl": "https://maps.google.com/?q=-1.9425093,30.129742",
   "lat": -1.9425093,
   "lng": 30.129742,
   "halalFriendly": false,
   "bookingUrl": "https://maps.google.com/?q=-1.9425093,30.129742",
   "source": "osm"
  },
  {
   "nom": "Hôtel Woodland",
   "categorie": "Hôtel",
   "priceRange": "€€",
   "mapsUrl": "https://maps.google.com/?q=-1.9424722,30.1298225",
   "lat": -1.9424722,
   "lng": 30.1298225,
   "halalFriendly": false,
   "bookingUrl": "https://maps.google.com/?q=-1.9424722,30.1298225",
   "source": "osm"
  },
  {
   "nom": "Amasimbi Apartment",
   "categorie": "Appartement",
   "priceRange": "€€",
   "mapsUrl": "https://maps.google.com/?q=-1.95906,30.1360065",
   "lat": -1.95906,
   "lng": 30.1360065,
   "halalFriendly": false,
   "bookingUrl": "https://maps.google.com/?q=-1.95906,30.1360065",
   "source": "osm"
  },
  {
   "nom": "Keva Guest House",
   "categorie": "Maison d'hôtes",
   "priceRange": "€€",
   "mapsUrl": "https://maps.google.com/?q=-1.9605881,30.1359347",
   "lat": -1.9605881,
   "lng": 30.1359347,
   "halalFriendly": false,
   "bookingUrl": "https://maps.google.com/?q=-1.9605881,30.1359347",
   "source": "osm"
  },
  {
   "nom": "Keva gusthouse",
   "categorie": "Maison d'hôtes",
   "priceRange": "€€",
   "mapsUrl": "https://maps.google.com/?q=-1.9605889,30.1359401",
   "lat": -1.9605889,
   "lng": 30.1359401,
   "halalFriendly": false,
   "bookingUrl": "https://maps.google.com/?q=-1.9605889,30.1359401",
   "source": "osm"
  },
  {
   "nom": "Mövenpick Kigali",
   "categorie": "Hôtel",
   "priceRange": "€€",
   "mapsUrl": "https://maps.google.com/?q=-1.946264,30.0920643",
   "lat": -1.946264,
   "lng": 30.0920643,
   "halalFriendly": false,
   "bookingUrl": "https://all.accor.com/hotel/C0M5/index.en.shtml?goto=fiche_hotel&code_hotel=C0M5&merchantid=seo-maps-RW-C0M5&sourceid=aw-cen&utm_medium=seo%20maps&utm_source=google%20Maps&utm_campaign=seo%20maps",
   "source": "osm"
  },
  {
   "nom": "Freedom Hotel",
   "categorie": "Hôtel",
   "priceRange": "€€",
   "mapsUrl": "https://maps.google.com/?q=-1.9409319,30.1295217",
   "lat": -1.9409319,
   "lng": 30.1295217,
   "halalFriendly": false,
   "bookingUrl": "https://maps.google.com/?q=-1.9409319,30.1295217",
   "source": "osm"
  },
  {
   "nom": "ViaVia Kigali",
   "categorie": "Maison d'hôtes",
   "priceRange": "€€",
   "mapsUrl": "https://maps.google.com/?q=-1.9339123,30.1136641",
   "lat": -1.9339123,
   "lng": 30.1136641,
   "halalFriendly": false,
   "bookingUrl": "https://maps.google.com/?q=-1.9339123,30.1136641",
   "source": "osm"
  },
  {
   "nom": "Larubibi Private Apartments",
   "categorie": "Appartement",
   "priceRange": "€€",
   "mapsUrl": "https://maps.google.com/?q=-1.9370508,30.1004053",
   "lat": -1.9370508,
   "lng": 30.1004053,
   "halalFriendly": false,
   "bookingUrl": "https://maps.google.com/?q=-1.9370508,30.1004053",
   "source": "osm"
  },
  {
   "nom": "Centre d’Accueil Saint François d’Assise",
   "categorie": "Maison d'hôtes",
   "priceRange": "€€",
   "mapsUrl": "https://maps.google.com/?q=-1.9665925,30.0893404",
   "lat": -1.9665925,
   "lng": 30.0893404,
   "halalFriendly": false,
   "bookingUrl": "https://maps.google.com/?q=-1.9665925,30.0893404",
   "source": "osm"
  },
  {
   "nom": "Solace Ministries",
   "categorie": "Maison d'hôtes",
   "priceRange": "€€",
   "mapsUrl": "https://maps.google.com/?q=-1.9443811,30.0914499",
   "lat": -1.9443811,
   "lng": 30.0914499,
   "halalFriendly": false,
   "bookingUrl": "https://maps.google.com/?q=-1.9443811,30.0914499",
   "source": "osm"
  },
  {
   "nom": "Garr Hotel",
   "categorie": "Hôtel",
   "priceRange": "€€",
   "mapsUrl": "https://maps.google.com/?q=-1.9360584,30.1001244",
   "lat": -1.9360584,
   "lng": 30.1001244,
   "halalFriendly": false,
   "bookingUrl": "https://maps.google.com/?q=-1.9360584,30.1001244",
   "source": "osm"
  },
  {
   "nom": "Centre d'accueil Hosanna",
   "categorie": "Maison d'hôtes",
   "priceRange": "€€",
   "mapsUrl": "https://maps.google.com/?q=-1.9467051,30.0897475",
   "lat": -1.9467051,
   "lng": 30.0897475,
   "halalFriendly": false,
   "bookingUrl": "https://maps.google.com/?q=-1.9467051,30.0897475",
   "source": "osm"
  },
  {
   "nom": "Light & Spacious Haven",
   "categorie": "Maison d'hôtes",
   "priceRange": "€€",
   "mapsUrl": "https://maps.google.com/?q=-1.9460787,30.0890656",
   "lat": -1.9460787,
   "lng": 30.0890656,
   "halalFriendly": false,
   "bookingUrl": "https://maps.google.com/?q=-1.9460787,30.0890656",
   "source": "osm"
  },
  {
   "nom": "Itete Apartment",
   "categorie": "Appartement",
   "priceRange": "€€",
   "mapsUrl": "https://maps.google.com/?q=-1.9344207,30.1000523",
   "lat": -1.9344207,
   "lng": 30.1000523,
   "halalFriendly": false,
   "bookingUrl": "https://maps.google.com/?q=-1.9344207,30.1000523",
   "source": "osm"
  },
  {
   "nom": "Golf Eden",
   "categorie": "Maison d'hôtes",
   "priceRange": "€€",
   "mapsUrl": "https://maps.google.com/?q=-1.9414818,30.0916125",
   "lat": -1.9414818,
   "lng": 30.0916125,
   "halalFriendly": false,
   "bookingUrl": "https://maps.google.com/?q=-1.9414818,30.0916125",
   "source": "osm"
  },
  {
   "nom": "Residence PRIMA 2000",
   "categorie": "Hôtel",
   "priceRange": "€€",
   "mapsUrl": "https://maps.google.com/?q=-1.945107,30.0889258",
   "lat": -1.945107,
   "lng": 30.0889258,
   "halalFriendly": false,
   "bookingUrl": "https://maps.google.com/?q=-1.945107,30.0889258",
   "source": "osm"
  },
  {
   "nom": "Prima 2000",
   "categorie": "Hôtel",
   "priceRange": "€€",
   "mapsUrl": "https://maps.google.com/?q=-1.9450025,30.0889784",
   "lat": -1.9450025,
   "lng": 30.0889784,
   "halalFriendly": false,
   "bookingUrl": "https://maps.google.com/?q=-1.9450025,30.0889784",
   "source": "osm"
  },
  {
   "nom": "Quiet Haven Hotel",
   "categorie": "Hôtel",
   "priceRange": "€€",
   "mapsUrl": "https://maps.google.com/?q=-1.9345114,30.0990412",
   "lat": -1.9345114,
   "lng": 30.0990412,
   "halalFriendly": false,
   "bookingUrl": "https://maps.google.com/?q=-1.9345114,30.0990412",
   "source": "osm"
  },
  {
   "nom": "SGM Shan-Grilla Motel",
   "categorie": "Maison d'hôtes",
   "priceRange": "€€",
   "mapsUrl": "https://maps.google.com/?q=-1.9593295,30.1414237",
   "lat": -1.9593295,
   "lng": 30.1414237,
   "halalFriendly": false,
   "bookingUrl": "https://maps.google.com/?q=-1.9593295,30.1414237",
   "source": "osm"
  },
  {
   "nom": "Home Free Hotel",
   "categorie": "Hôtel",
   "priceRange": "€€",
   "mapsUrl": "https://maps.google.com/?q=-1.9521755,30.0842049",
   "lat": -1.9521755,
   "lng": 30.0842049,
   "halalFriendly": false,
   "bookingUrl": "https://maps.google.com/?q=-1.9521755,30.0842049",
   "source": "osm"
  },
  {
   "nom": "Hôtel Luxury",
   "categorie": "Hôtel",
   "priceRange": "€€",
   "mapsUrl": "https://maps.google.com/?q=-1.9359527,30.1322202",
   "lat": -1.9359527,
   "lng": 30.1322202,
   "halalFriendly": false,
   "bookingUrl": "https://maps.google.com/?q=-1.9359527,30.1322202",
   "source": "osm"
  },
  {
   "nom": "Luxury Hotel",
   "categorie": "Hôtel",
   "priceRange": "€€",
   "mapsUrl": "https://maps.google.com/?q=-1.9358765,30.1322417",
   "lat": -1.9358765,
   "lng": 30.1322417,
   "halalFriendly": false,
   "bookingUrl": "https://maps.google.com/?q=-1.9358765,30.1322417",
   "source": "osm"
  },
  {
   "nom": "Sunflower Homes Villa",
   "categorie": "Hôtel",
   "priceRange": "€€",
   "mapsUrl": "https://maps.google.com/?q=-1.9285719,30.1157159",
   "lat": -1.9285719,
   "lng": 30.1157159,
   "halalFriendly": false,
   "bookingUrl": "https://maps.google.com/?q=-1.9285719,30.1157159",
   "source": "osm"
  },
  {
   "nom": "Ibi Villa Retreat",
   "categorie": "Hôtel",
   "priceRange": "€€",
   "mapsUrl": "https://maps.google.com/?q=-1.9284307,30.1155394",
   "lat": -1.9284307,
   "lng": 30.1155394,
   "halalFriendly": false,
   "bookingUrl": "https://maps.google.com/?q=-1.9284307,30.1155394",
   "source": "osm"
  },
  {
   "nom": "Manor Hotel",
   "categorie": "Hôtel",
   "priceRange": "€€",
   "mapsUrl": "https://maps.google.com/?q=-1.9324207,30.0974777",
   "lat": -1.9324207,
   "lng": 30.0974777,
   "halalFriendly": false,
   "bookingUrl": "https://maps.google.com/?q=-1.9324207,30.0974777",
   "source": "osm"
  },
  {
   "nom": "Rose Garden Appartments",
   "categorie": "Appartement",
   "priceRange": "€€",
   "mapsUrl": "https://maps.google.com/?q=-1.9317712,30.0986071",
   "lat": -1.9317712,
   "lng": 30.0986071,
   "halalFriendly": false,
   "bookingUrl": "https://maps.google.com/?q=-1.9317712,30.0986071",
   "source": "osm"
  },
  {
   "nom": "Iwawe Hotel",
   "categorie": "Hôtel",
   "priceRange": "€€€",
   "score": 3,
   "mapsUrl": "https://maps.google.com/?q=-1.9431048,30.0868109",
   "lat": -1.9431048,
   "lng": 30.0868109,
   "halalFriendly": false,
   "bookingUrl": "https://www.iwawehotel.com/",
   "source": "osm"
  },
  {
   "nom": "Orange Courts Hotel",
   "categorie": "Hôtel",
   "priceRange": "€€",
   "mapsUrl": "https://maps.google.com/?q=-1.942667,30.086406",
   "lat": -1.942667,
   "lng": 30.086406,
   "halalFriendly": false,
   "bookingUrl": "https://maps.google.com/?q=-1.942667,30.086406",
   "source": "osm"
  },
  {
   "nom": "The Nest",
   "categorie": "Hôtel",
   "priceRange": "€€",
   "mapsUrl": "https://maps.google.com/?q=-1.9535058,30.0824005",
   "lat": -1.9535058,
   "lng": 30.0824005,
   "halalFriendly": false,
   "bookingUrl": "https://maps.google.com/?q=-1.9535058,30.0824005",
   "source": "osm"
  },
  {
   "nom": "Roko Construction Guest House",
   "categorie": "Maison d'hôtes",
   "priceRange": "€€",
   "mapsUrl": "https://maps.google.com/?q=-1.9717522,30.0853808",
   "lat": -1.9717522,
   "lng": 30.0853808,
   "halalFriendly": false,
   "bookingUrl": "https://maps.google.com/?q=-1.9717522,30.0853808",
   "source": "osm"
  },
  {
   "nom": "KARISIMBI Restaurant, Bar & Catering Services",
   "categorie": "Auberge",
   "priceRange": "€€",
   "mapsUrl": "https://maps.google.com/?q=-1.9427429,30.0860437",
   "lat": -1.9427429,
   "lng": 30.0860437,
   "halalFriendly": false,
   "bookingUrl": "https://maps.google.com/?q=-1.9427429,30.0860437",
   "source": "osm"
  },
  {
   "nom": "Home",
   "categorie": "Appartement",
   "priceRange": "€€",
   "mapsUrl": "https://maps.google.com/?q=-1.9794664,30.1348992",
   "lat": -1.9794664,
   "lng": 30.1348992,
   "halalFriendly": false,
   "bookingUrl": "https://maps.google.com/?q=-1.9794664,30.1348992",
   "source": "osm"
  },
  {
   "nom": "Zenith Hotel",
   "categorie": "Hôtel",
   "priceRange": "€€",
   "mapsUrl": "https://maps.google.com/?q=-1.9522858,30.0822347",
   "lat": -1.9522858,
   "lng": 30.0822347,
   "halalFriendly": false,
   "bookingUrl": "https://maps.google.com/?q=-1.9522858,30.0822347",
   "source": "osm"
  },
  {
   "nom": "Madiba guest house",
   "categorie": "Hôtel",
   "priceRange": "€€",
   "mapsUrl": "https://maps.google.com/?q=-1.9509077,30.0824912",
   "lat": -1.9509077,
   "lng": 30.0824912,
   "halalFriendly": false,
   "bookingUrl": "https://maps.google.com/?q=-1.9509077,30.0824912",
   "source": "osm"
  },
  {
   "nom": "Four Seasons Residence",
   "categorie": "Maison d'hôtes",
   "priceRange": "€€",
   "mapsUrl": "https://maps.google.com/?q=-1.9291814,30.0993914",
   "lat": -1.9291814,
   "lng": 30.0993914,
   "halalFriendly": false,
   "bookingUrl": "https://maps.google.com/?q=-1.9291814,30.0993914",
   "source": "osm"
  },
  {
   "nom": "Gorilla Home Stay",
   "categorie": "Maison d'hôtes",
   "priceRange": "€€",
   "mapsUrl": "https://maps.google.com/?q=-1.9549075,30.0810117",
   "lat": -1.9549075,
   "lng": 30.0810117,
   "halalFriendly": false,
   "bookingUrl": "https://maps.google.com/?q=-1.9549075,30.0810117",
   "source": "osm"
  },
  {
   "nom": "Kim Hotel",
   "categorie": "Hôtel",
   "priceRange": "€€",
   "mapsUrl": "https://maps.google.com/?q=-1.9548589,30.0804759",
   "lat": -1.9548589,
   "lng": 30.0804759,
   "halalFriendly": false,
   "bookingUrl": "https://maps.google.com/?q=-1.9548589,30.0804759",
   "source": "osm"
  },
  {
   "nom": "Mijo Hostel",
   "categorie": "Auberge",
   "priceRange": "€€",
   "mapsUrl": "https://maps.google.com/?q=-1.951695,30.0809181",
   "lat": -1.951695,
   "lng": 30.0809181,
   "halalFriendly": false,
   "bookingUrl": "https://maps.google.com/?q=-1.951695,30.0809181",
   "source": "osm"
  },
  {
   "nom": "King's Hospitality",
   "categorie": "Hôtel",
   "priceRange": "€€",
   "mapsUrl": "https://maps.google.com/?q=-1.9526785,30.0805076",
   "lat": -1.9526785,
   "lng": 30.0805076,
   "halalFriendly": false,
   "bookingUrl": "https://maps.google.com/?q=-1.9526785,30.0805076",
   "source": "osm"
  },
  {
   "nom": "Orient Park Hotel",
   "categorie": "Hôtel",
   "priceRange": "€€",
   "mapsUrl": "https://maps.google.com/?q=-1.9282956,30.0983466",
   "lat": -1.9282956,
   "lng": 30.0983466,
   "halalFriendly": false,
   "bookingUrl": "https://maps.google.com/?q=-1.9282956,30.0983466",
   "source": "osm"
  },
  {
   "nom": "SportView Hotel in Kicukiro",
   "categorie": "Hôtel",
   "priceRange": "€€",
   "mapsUrl": "https://maps.google.com/?q=-1.9896571,30.1007822",
   "lat": -1.9896571,
   "lng": 30.1007822,
   "halalFriendly": false,
   "bookingUrl": "https://maps.google.com/?q=-1.9896571,30.1007822",
   "source": "osm"
  },
  {
   "nom": "SportView",
   "categorie": "Hôtel",
   "priceRange": "€€",
   "mapsUrl": "https://maps.google.com/?q=-1.9900041,30.1012967",
   "lat": -1.9900041,
   "lng": 30.1012967,
   "halalFriendly": false,
   "bookingUrl": "https://maps.google.com/?q=-1.9900041,30.1012967",
   "source": "osm"
  },
  {
   "nom": "Hotel Villa Portofino Kigali",
   "categorie": "Hôtel",
   "priceRange": "€€",
   "mapsUrl": "https://maps.google.com/?q=-1.9266823,30.0974672",
   "lat": -1.9266823,
   "lng": 30.0974672,
   "halalFriendly": false,
   "bookingUrl": "https://maps.google.com/?q=-1.9266823,30.0974672",
   "source": "osm"
  },
  {
   "nom": "Golf Hills Residence",
   "categorie": "Hôtel",
   "priceRange": "€€",
   "mapsUrl": "https://maps.google.com/?q=-1.9266583,30.094745",
   "lat": -1.9266583,
   "lng": 30.094745,
   "halalFriendly": false,
   "bookingUrl": "https://maps.google.com/?q=-1.9266583,30.094745",
   "source": "osm"
  },
  {
   "nom": "Isano",
   "categorie": "Maison d'hôtes",
   "priceRange": "€€",
   "mapsUrl": "https://maps.google.com/?q=-1.9619224,30.075693",
   "lat": -1.9619224,
   "lng": 30.075693,
   "halalFriendly": false,
   "bookingUrl": "https://maps.google.com/?q=-1.9619224,30.075693",
   "source": "osm"
  },
  {
   "nom": "Country Inn Hotel",
   "categorie": "Hôtel",
   "priceRange": "€€",
   "mapsUrl": "https://maps.google.com/?q=-1.9242665,30.0961808",
   "lat": -1.9242665,
   "lng": 30.0961808,
   "halalFriendly": false,
   "bookingUrl": "https://maps.google.com/?q=-1.9242665,30.0961808",
   "source": "osm"
  },
  {
   "nom": "Rouge by Desir",
   "categorie": "Hôtel",
   "priceRange": "€€",
   "mapsUrl": "https://maps.google.com/?q=-1.9225666,30.0997867",
   "lat": -1.9225666,
   "lng": 30.0997867,
   "halalFriendly": false,
   "bookingUrl": "https://maps.google.com/?q=-1.9225666,30.0997867",
   "source": "osm"
  },
  {
   "nom": "Bella Villa Appartments",
   "categorie": "Auberge",
   "priceRange": "€€",
   "mapsUrl": "https://maps.google.com/?q=-1.939192,30.0786564",
   "lat": -1.939192,
   "lng": 30.0786564,
   "halalFriendly": false,
   "bookingUrl": "https://maps.google.com/?q=-1.939192,30.0786564",
   "source": "osm"
  },
  {
   "nom": "Town View Guest House",
   "categorie": "Maison d'hôtes",
   "priceRange": "€€",
   "mapsUrl": "https://maps.google.com/?q=-1.9399865,30.0775491",
   "lat": -1.9399865,
   "lng": 30.0775491,
   "halalFriendly": false,
   "bookingUrl": "https://maps.google.com/?q=-1.9399865,30.0775491",
   "source": "osm"
  },
  {
   "nom": "Highlands Apartments",
   "categorie": "Appartement",
   "priceRange": "€€",
   "mapsUrl": "https://maps.google.com/?q=-1.9241183,30.0921744",
   "lat": -1.9241183,
   "lng": 30.0921744,
   "halalFriendly": false,
   "bookingUrl": "https://maps.google.com/?q=-1.9241183,30.0921744",
   "source": "osm"
  },
  {
   "nom": "Great season hotel",
   "categorie": "Hôtel",
   "priceRange": "€€",
   "mapsUrl": "https://maps.google.com/?q=-1.9230629,30.0933781",
   "lat": -1.9230629,
   "lng": 30.0933781,
   "halalFriendly": false,
   "bookingUrl": "https://maps.google.com/?q=-1.9230629,30.0933781",
   "source": "osm"
  },
  {
   "nom": "Four Seasons Hotel",
   "categorie": "Hôtel",
   "priceRange": "€€",
   "mapsUrl": "https://maps.google.com/?q=-1.9230532,30.0933737",
   "lat": -1.9230532,
   "lng": 30.0933737,
   "halalFriendly": false,
   "bookingUrl": "https://maps.google.com/?q=-1.9230532,30.0933737",
   "source": "osm"
  },
  {
   "nom": "Inzozi Africa B&B",
   "categorie": "Hôtel",
   "priceRange": "€€",
   "mapsUrl": "https://maps.google.com/?q=-1.9403357,30.0767245",
   "lat": -1.9403357,
   "lng": 30.0767245,
   "halalFriendly": false,
   "bookingUrl": "https://inzoziafrica.com/",
   "source": "osm"
  },
  {
   "nom": "M Hotel",
   "categorie": "Hôtel",
   "priceRange": "€€",
   "mapsUrl": "https://maps.google.com/?q=-1.9498533,30.0728897",
   "lat": -1.9498533,
   "lng": 30.0728897,
   "halalFriendly": false,
   "bookingUrl": "https://maps.google.com/?q=-1.9498533,30.0728897",
   "source": "osm"
  },
  {
   "nom": "B. Maurice Guest House",
   "categorie": "Maison d'hôtes",
   "priceRange": "€€",
   "mapsUrl": "https://maps.google.com/?q=-1.9505543,30.0721936",
   "lat": -1.9505543,
   "lng": 30.0721936,
   "halalFriendly": false,
   "bookingUrl": "https://maps.google.com/?q=-1.9505543,30.0721936",
   "source": "osm"
  },
  {
   "nom": "Hôtel Onomo",
   "categorie": "Hôtel",
   "priceRange": "€€",
   "mapsUrl": "https://maps.google.com/?q=-1.9481497,30.0722455",
   "lat": -1.9481497,
   "lng": 30.0722455,
   "halalFriendly": false,
   "bookingUrl": "https://maps.google.com/?q=-1.9481497,30.0722455",
   "source": "osm"
  },
  {
   "nom": "Park Inn",
   "categorie": "Hôtel",
   "priceRange": "€€",
   "mapsUrl": "https://maps.google.com/?q=-1.9515252,30.0706958",
   "lat": -1.9515252,
   "lng": 30.0706958,
   "halalFriendly": false,
   "bookingUrl": "https://maps.google.com/?q=-1.9515252,30.0706958",
   "source": "osm"
  },
  {
   "nom": "Inside Africa Boutique Hotel",
   "categorie": "Hôtel",
   "priceRange": "€€",
   "mapsUrl": "https://maps.google.com/?q=-1.9498787,30.0706597",
   "lat": -1.9498787,
   "lng": 30.0706597,
   "halalFriendly": false,
   "bookingUrl": "https://maps.google.com/?q=-1.9498787,30.0706597",
   "source": "osm"
  },
  {
   "nom": "Luxor Apartments",
   "categorie": "Appartement",
   "priceRange": "€€",
   "mapsUrl": "https://maps.google.com/?q=-1.9189687,30.0945266",
   "lat": -1.9189687,
   "lng": 30.0945266,
   "halalFriendly": false,
   "bookingUrl": "https://maps.google.com/?q=-1.9189687,30.0945266",
   "source": "osm"
  },
  {
   "nom": "The Little Hill Boutique Hotel",
   "categorie": "Hôtel",
   "priceRange": "€€",
   "mapsUrl": "https://maps.google.com/?q=-1.9183015,30.0959869",
   "lat": -1.9183015,
   "lng": 30.0959869,
   "halalFriendly": false,
   "bookingUrl": "https://maps.google.com/?q=-1.9183015,30.0959869",
   "source": "osm"
  },
  {
   "nom": "Great hotel Kiyovu",
   "categorie": "Hôtel",
   "priceRange": "€€",
   "mapsUrl": "https://maps.google.com/?q=-1.9587918,30.069605",
   "lat": -1.9587918,
   "lng": 30.069605,
   "halalFriendly": false,
   "bookingUrl": "https://maps.google.com/?q=-1.9587918,30.069605",
   "source": "osm"
  },
  {
   "nom": "Hotel Gorillas",
   "categorie": "Hôtel",
   "priceRange": "€€",
   "mapsUrl": "https://maps.google.com/?q=-1.9506185,30.0698062",
   "lat": -1.9506185,
   "lng": 30.0698062,
   "halalFriendly": false,
   "bookingUrl": "https://maps.google.com/?q=-1.9506185,30.0698062",
   "source": "osm"
  },
  {
   "nom": "Nobleza Hotel",
   "categorie": "Hôtel",
   "priceRange": "€€",
   "mapsUrl": "https://maps.google.com/?q=-1.9986769,30.0958979",
   "lat": -1.9986769,
   "lng": 30.0958979,
   "halalFriendly": false,
   "bookingUrl": "https://maps.google.com/?q=-1.9986769,30.0958979",
   "source": "osm"
  },
  {
   "nom": "Stipp Hotel",
   "categorie": "Hôtel",
   "priceRange": "€€",
   "mapsUrl": "https://maps.google.com/?q=-1.9599921,30.0682894",
   "lat": -1.9599921,
   "lng": 30.0682894,
   "halalFriendly": false,
   "bookingUrl": "https://maps.google.com/?q=-1.9599921,30.0682894",
   "source": "osm"
  },
  {
   "nom": "Urban by CityBlue Kigali",
   "categorie": "Hôtel",
   "priceRange": "€€",
   "mapsUrl": "https://maps.google.com/?q=-1.9489466,30.0690638",
   "lat": -1.9489466,
   "lng": 30.0690638,
   "halalFriendly": false,
   "bookingUrl": "https://www.citybluehotels.com/urban-by-cityblue-kigali/",
   "source": "osm"
  },
  {
   "nom": "Bethany Investment Group EPR Hostel",
   "categorie": "Hôtel",
   "priceRange": "€€",
   "mapsUrl": "https://maps.google.com/?q=-1.9483905,30.0672526",
   "lat": -1.9483905,
   "lng": 30.0672526,
   "halalFriendly": false,
   "bookingUrl": "https://maps.google.com/?q=-1.9483905,30.0672526",
   "source": "osm"
  },
  {
   "nom": "Fleur Guest House",
   "categorie": "Maison d'hôtes",
   "priceRange": "€€",
   "mapsUrl": "https://maps.google.com/?q=-1.9443224,30.0680094",
   "lat": -1.9443224,
   "lng": 30.0680094,
   "halalFriendly": false,
   "bookingUrl": "https://maps.google.com/?q=-1.9443224,30.0680094",
   "source": "osm"
  }
 ],
 "mosqueesPrincipales": [
  {
   "id": "m10892016123",
   "nom": "Giporoso",
   "type": "Mosquée",
   "adresse": "",
   "description": "Lieu de prière (OpenStreetMap).",
   "mapsUrl": "https://maps.google.com/?q=-1.9615162,30.1214334",
   "lat": -1.9615162,
   "lng": 30.1214334,
   "source": "osm"
  },
  {
   "id": "m10921221412",
   "nom": "UMUSIGITI WA IMAN ALI(A.s)",
   "type": "Mosquée",
   "adresse": "",
   "description": "Lieu de prière (OpenStreetMap).",
   "mapsUrl": "https://maps.google.com/?q=-1.9611847,30.12483",
   "lat": -1.9611847,
   "lng": 30.12483,
   "source": "osm"
  },
  {
   "id": "m10945847981",
   "nom": "Mosque Sonatube",
   "type": "Mosquée",
   "adresse": "",
   "description": "Lieu de prière (OpenStreetMap).",
   "mapsUrl": "https://maps.google.com/?q=-1.9693893,30.0973951",
   "lat": -1.9693893,
   "lng": 30.0973951,
   "source": "osm"
  },
  {
   "id": "m187925148",
   "nom": "Kacyiru Mosque",
   "type": "Mosquée",
   "adresse": "",
   "description": "Lieu de prière (OpenStreetMap).",
   "mapsUrl": "https://maps.google.com/?q=-1.9347477,30.081029",
   "lat": -1.9347477,
   "lng": 30.081029,
   "source": "osm"
  },
  {
   "id": "m106460341",
   "nom": "Centre Culturel Islamique",
   "type": "Mosquée",
   "adresse": "",
   "description": "Lieu de prière (OpenStreetMap).",
   "mapsUrl": "https://maps.google.com/?q=-1.9794702,30.0464394",
   "lat": -1.9794702,
   "lng": 30.0464394,
   "source": "osm"
  },
  {
   "id": "m924662327",
   "nom": "Masaka Mosque",
   "type": "Mosquée",
   "adresse": "",
   "description": "Lieu de prière (OpenStreetMap).",
   "mapsUrl": "https://maps.google.com/?q=-1.9908925,30.1928715",
   "lat": -1.9908925,
   "lng": 30.1928715,
   "source": "osm"
  }
 ],
 "activites": [
  {
   "id": "a10822299049",
   "nom": "Garden",
   "categorie": "garden",
   "description": "",
   "prix": "",
   "duree": "",
   "mapsUrl": "https://maps.google.com/?q=-1.9634936,30.120881",
   "lat": -1.9634936,
   "lng": 30.120881,
   "source": "osm"
  },
  {
   "id": "a10856650338",
   "nom": "Sonatubes Roundabout",
   "categorie": "artwork",
   "description": "",
   "prix": "",
   "duree": "",
   "mapsUrl": "https://maps.google.com/?q=-1.9673369,30.1025213",
   "lat": -1.9673369,
   "lng": 30.1025213,
   "source": "osm"
  },
  {
   "id": "a6419557788",
   "nom": "Campaign Against Genocide Museum",
   "categorie": "museum",
   "description": "",
   "prix": "",
   "duree": "",
   "mapsUrl": "https://maps.google.com/?q=-1.9523151,30.0989854",
   "lat": -1.9523151,
   "lng": 30.0989854,
   "source": "osm"
  },
  {
   "id": "a10889796894",
   "nom": "Agasozi Indatwa",
   "categorie": "garden",
   "description": "",
   "prix": "",
   "duree": "",
   "mapsUrl": "https://maps.google.com/?q=-1.9632517,30.1272007",
   "lat": -1.9632517,
   "lng": 30.1272007,
   "source": "osm"
  },
  {
   "id": "a6419585885",
   "nom": "Campaign Against Genocide Memorial",
   "categorie": "memorial",
   "description": "",
   "prix": "",
   "duree": "",
   "mapsUrl": "https://maps.google.com/?q=-1.952637,30.0977785",
   "lat": -1.952637,
   "lng": 30.0977785,
   "source": "osm"
  },
  {
   "id": "a1228513704",
   "nom": "Anti-Corruption Monument",
   "categorie": "artwork",
   "description": "",
   "prix": "",
   "duree": "",
   "mapsUrl": "https://maps.google.com/?q=-1.9558082,30.0945238",
   "lat": -1.9558082,
   "lng": 30.0945238,
   "source": "osm"
  },
  {
   "id": "a10841526480",
   "nom": "home garden",
   "categorie": "garden",
   "description": "",
   "prix": "",
   "duree": "",
   "mapsUrl": "https://maps.google.com/?q=-1.9706526,30.1294956",
   "lat": -1.9706526,
   "lng": 30.1294956,
   "source": "osm"
  },
  {
   "id": "a10865464628",
   "nom": "Martin Aviator Garden",
   "categorie": "garden",
   "description": "",
   "prix": "",
   "duree": "",
   "mapsUrl": "https://maps.google.com/?q=-1.9613873,30.1342174",
   "lat": -1.9613873,
   "lng": 30.1342174,
   "source": "osm"
  },
  {
   "id": "a10867262781",
   "nom": "Near the airport",
   "categorie": "garden",
   "description": "",
   "prix": "",
   "duree": "",
   "mapsUrl": "https://maps.google.com/?q=-1.9615479,30.1353608",
   "lat": -1.9615479,
   "lng": 30.1353608,
   "source": "osm"
  },
  {
   "id": "a6431133187",
   "nom": "Ivuka arts studio",
   "categorie": "artwork",
   "description": "",
   "prix": "",
   "duree": "",
   "mapsUrl": "https://maps.google.com/?q=-1.9421698,30.0908089",
   "lat": -1.9421698,
   "lng": 30.0908089,
   "source": "osm"
  },
  {
   "id": "a6629596889",
   "nom": "Inemas arts gallery",
   "categorie": "attraction",
   "description": "",
   "prix": "",
   "duree": "",
   "mapsUrl": "https://maps.google.com/?q=-1.9416546,30.0908946",
   "lat": -1.9416546,
   "lng": 30.0908946,
   "source": "osm"
  },
  {
   "id": "a5886916685",
   "nom": "Kigali Golf Course",
   "categorie": "attraction",
   "description": "",
   "prix": "",
   "duree": "",
   "mapsUrl": "https://maps.google.com/?q=-1.9383,30.0933685",
   "lat": -1.9383,
   "lng": 30.0933685,
   "source": "osm"
  },
  {
   "id": "a4338448791",
   "nom": "Gikondo Expo Ground",
   "categorie": "attraction",
   "description": "",
   "prix": "",
   "duree": "",
   "mapsUrl": "https://maps.google.com/?q=-1.9768665,30.0868435",
   "lat": -1.9768665,
   "lng": 30.0868435,
   "source": "osm"
  },
  {
   "id": "a10931526438",
   "nom": "Genocide Memorial Nyanza Kicukiro",
   "categorie": "memorial",
   "description": "",
   "prix": "",
   "duree": "",
   "mapsUrl": "https://maps.google.com/?q=-2.0007598,30.0928802",
   "lat": -2.0007598,
   "lng": 30.0928802,
   "source": "osm"
  },
  {
   "id": "a1254224981",
   "nom": "ALU Logo",
   "categorie": "artwork",
   "description": "",
   "prix": "",
   "duree": "",
   "mapsUrl": "https://maps.google.com/?q=-1.9300556,30.151823",
   "lat": -1.9300556,
   "lng": 30.151823,
   "source": "osm"
  },
  {
   "id": "a436739974",
   "nom": "Nyanza Genocide Memorial",
   "categorie": "memorial",
   "description": "",
   "prix": "",
   "duree": "",
   "mapsUrl": "https://maps.google.com/?q=-2.0021175,30.0925926",
   "lat": -2.0021175,
   "lng": 30.0925926,
   "source": "osm"
  },
  {
   "id": "a262676390",
   "nom": "Belgian Soldiers' Memorial",
   "categorie": "memorial",
   "description": "",
   "prix": "",
   "duree": "",
   "mapsUrl": "https://maps.google.com/?q=-1.9579698,30.0629096",
   "lat": -1.9579698,
   "lng": 30.0629096,
   "source": "osm"
  },
  {
   "id": "a4440589892",
   "nom": "Nyamirambo Women's Centre",
   "categorie": "attraction",
   "description": "",
   "prix": "",
   "duree": "",
   "mapsUrl": "https://maps.google.com/?q=-1.9648832,30.0627642",
   "lat": -1.9648832,
   "lng": 30.0627642,
   "source": "osm"
  },
  {
   "id": "a5894237894",
   "nom": "Gorilla Statue",
   "categorie": "monument",
   "description": "",
   "prix": "",
   "duree": "",
   "mapsUrl": "https://maps.google.com/?q=-1.9483685,30.0609848",
   "lat": -1.9483685,
   "lng": 30.0609848,
   "source": "osm"
  },
  {
   "id": "a617191747",
   "nom": "Rebero Genocide Memorial",
   "categorie": "monument",
   "description": "",
   "prix": "",
   "duree": "",
   "mapsUrl": "https://maps.google.com/?q=-1.9943769,30.0723051",
   "lat": -1.9943769,
   "lng": 30.0723051,
   "source": "osm"
  },
  {
   "id": "a5206288226",
   "nom": "Motley Healthcare ltd",
   "categorie": "artwork",
   "description": "",
   "prix": "",
   "duree": "",
   "mapsUrl": "https://maps.google.com/?q=-1.939398,30.0590469",
   "lat": -1.939398,
   "lng": 30.0590469,
   "source": "osm"
  },
  {
   "id": "a212725136",
   "nom": "Kigali zoo for Moussa",
   "categorie": "zoo",
   "description": "",
   "prix": "",
   "duree": "",
   "mapsUrl": "https://maps.google.com/?q=-1.968381,30.0550631",
   "lat": -1.968381,
   "lng": 30.0550631,
   "source": "osm"
  },
  {
   "id": "a11233546337",
   "nom": "PAROISSE SAINT JEAN PAUL II",
   "categorie": "attraction",
   "description": "",
   "prix": "",
   "duree": "",
   "mapsUrl": "https://maps.google.com/?q=-1.9772583,30.1682991",
   "lat": -1.9772583,
   "lng": 30.1682991,
   "source": "osm"
  },
  {
   "id": "a25796157",
   "nom": "Kigali Genocide Memorial",
   "categorie": "museum",
   "description": "",
   "prix": "",
   "duree": "",
   "mapsUrl": "https://maps.google.com/?q=-1.9312656,30.0601667",
   "lat": -1.9312656,
   "lng": 30.0601667,
   "source": "osm"
  },
  {
   "id": "a2686157825",
   "nom": "Kandt House Museum of Natural History",
   "categorie": "museum",
   "description": "",
   "prix": "",
   "duree": "",
   "mapsUrl": "https://maps.google.com/?q=-1.94668,30.0535269",
   "lat": -1.94668,
   "lng": 30.0535269,
   "source": "osm"
  },
  {
   "id": "a262676419",
   "nom": "Rwanda Art Museum",
   "categorie": "museum",
   "description": "",
   "prix": "",
   "duree": "",
   "mapsUrl": "https://maps.google.com/?q=-1.9752851,30.1730225",
   "lat": -1.9752851,
   "lng": 30.1730225,
   "source": "osm"
  },
  {
   "id": "a13946202056",
   "nom": "Remnants of 9XR-NN",
   "categorie": "ruins",
   "description": "",
   "prix": "",
   "duree": "",
   "mapsUrl": "https://maps.google.com/?q=-1.9755589,30.173956",
   "lat": -1.9755589,
   "lng": 30.173956,
   "source": "osm"
  },
  {
   "id": "a262676444",
   "nom": "Crashed Plane",
   "categorie": "attraction",
   "description": "",
   "prix": "",
   "duree": "",
   "mapsUrl": "https://maps.google.com/?q=-1.9755106,30.1741678",
   "lat": -1.9755106,
   "lng": 30.1741678,
   "source": "osm"
  }
 ],
 "villeNonMusulmane": true,
 "osmEnriched": true,
 "osmEnrichedAt": "2026-06-30",
 "description_en": "Kigali may not be a Muslim-majority destination, but it welcomes Muslim travelers with real halal options. You'll find 5 halal restaurants and 6 mosques nearby, plus real-time prayer times and the Qibla direction — everything to explore Kigali, Rwanda, with peace of mind.",
 "metaDescription_en": "Halal guide to Kigali: 14 halal restaurants listed, 6 mosques, prayer times and tips for Muslim travelers. Halal Trust Score 3.2/5.",
 "nom_en": "Kigali",
 "boucheries": [],
 "dataPurgedAt": "2026-07-15"
}