{
 "nom": "Koweït City",
 "pays": "Koweït",
 "slug": "koweit-city",
 "image": "https://images.unsplash.com/photo-1772785551540-4a41585f8eae?w=1600&q=80",
 "image_hero": "https://images.unsplash.com/photo-1772785551540-4a41585f8eae?w=1600&q=80",
 "description": "Koweït City aligne sa skyline futuriste le long du Golfe. Ses tours emblématiques et son souk Mubarakiya en font une étape halal raffinée et authentique.",
 "descriptionLongue": "Petit émirat à l'histoire marchande, le Koweït a fait de sa capitale une vitrine d'architecture moderne face au Golfe. Les Kuwait Towers et la Grande Mosquée dominent une corniche soignée. Le souk Mubarakiya, cœur battant de la ville, perpétue la tradition commerçante et la cuisine koweïtienne — machboos, harees, dattes. Ville 100% halal à l'influence levantine et perse marquée.",
 "halalScore": 9.3,
 "score_halal": 4.7,
 "mosquees": 1500,
 "population": "3 millions",
 "langue": "Arabe",
 "monnaie": "Dinar koweïtien (KWD)",
 "fuseau": "UTC+3",
 "meilleureEpoque": "Novembre à Avril",
 "prixMoyenNuit": "110€",
 "continent": "Asie",
 "codeISO": "KW",
 "pays_slug": "koweit",
 "region": "Golfe",
 "meta_title": "Voyage Halal à Koweït City — Guide Complet 2026",
 "meta_description": "Restaurants halal signalés, mosquées et guide pratique pour Koweït City — Halal Trust Score 9.0/10.",
 "metaDescription": "Restaurants halal signalés, mosquées et guide pratique pour Koweït City — Halal Trust Score 9.0/10.",
 "coordonnees": {
  "lat": 29.3759,
  "lng": 47.9774
 },
 "image_alt": "Vue de Koweït City, Koweït",
 "statistiques": {
  "mosquees": 60,
  "restaurants_halal": 21,
  "habitants_musulmans_pct": 99,
  "hotels": 35
 },
 "infos_pratiques": {
  "langue": "Arabe",
  "monnaie": "Dinar koweïtien (KWD)",
  "meilleure_periode": "Novembre à Avril",
  "appel_priere": "5 fois par jour",
  "nourriture_halal": "Largement disponible",
  "alcool": "Interdit",
  "securite": "Précautions habituelles"
 },
 "infoPratique": {
  "visa": "e-Visa disponible pour de nombreuses nationalités",
  "vaccins": "Aucun obligatoire",
  "transport": "Taxis, location de voiture, peu de transports en commun",
  "priseElectrique": "Type G — 240V",
  "decalageHoraire": "+2h par rapport à Paris (hiver)"
 },
 "restaurants": [
  {
   "nom": "مطعم ميار",
   "lat": 29.377136,
   "lng": 47.976791,
   "type": "arab",
   "halalConfidence": "likely",
   "mapsUrl": "https://maps.google.com/?q=29.377136,47.976791",
   "source": "osm"
  },
  {
   "nom": "Shater Abbas",
   "lat": 29.3730313,
   "lng": 47.9749885,
   "type": "persian",
   "halalConfidence": "likely",
   "mapsUrl": "https://maps.google.com/?q=29.3730313,47.9749885",
   "source": "osm"
  },
  {
   "nom": "صوت الهند",
   "lat": 29.3808953,
   "lng": 47.982979,
   "type": "indian",
   "halalConfidence": "likely",
   "mapsUrl": "https://maps.google.com/?q=29.3808953,47.982979",
   "source": "osm"
  },
  {
   "nom": "مطعم يوم البحار",
   "lat": 29.3691266,
   "lng": 47.9614478,
   "type": "arab",
   "halalConfidence": "likely",
   "mapsUrl": "https://maps.google.com/?q=29.3691266,47.9614478",
   "source": "osm"
  },
  {
   "nom": "Ayyame",
   "lat": 29.3647782,
   "lng": 47.9898013,
   "type": "lebanese",
   "halalConfidence": "likely",
   "mapsUrl": "https://maps.google.com/?q=29.3647782,47.9898013",
   "source": "osm"
  },
  {
   "nom": "Matchbox Eatery - JACC",
   "lat": 29.3622605,
   "lng": 47.9591846,
   "type": "arab",
   "halalConfidence": "likely",
   "mapsUrl": "https://maps.google.com/?q=29.3622605,47.9591846",
   "source": "osm"
  },
  {
   "nom": "Assaha Lebanese Restaurant",
   "lat": 29.3746531,
   "lng": 48.0043577,
   "type": "lebanese, arab",
   "halalConfidence": "likely",
   "mapsUrl": "https://maps.google.com/?q=29.3746531,48.0043577",
   "source": "osm"
  },
  {
   "nom": "سفير جديد",
   "lat": 29.3699263,
   "lng": 48.0042555,
   "type": "persian",
   "halalConfidence": "likely",
   "mapsUrl": "https://maps.google.com/?q=29.3699263,48.0042555",
   "source": "osm"
  },
  {
   "nom": "مطعم ومشويات الدعية",
   "lat": 29.3624358,
   "lng": 48.0096575,
   "type": "arab, lebanese, mediterranean",
   "halalConfidence": "likely",
   "mapsUrl": "https://maps.google.com/?q=29.3624358,48.0096575",
   "source": "osm"
  },
  {
   "nom": "Indian Restaurant",
   "lat": 29.3398683,
   "lng": 48.0079342,
   "type": "indian",
   "halalConfidence": "likely",
   "mapsUrl": "https://maps.google.com/?q=29.3398683,48.0079342",
   "source": "osm"
  },
  {
   "nom": "دانكن دونتس",
   "lat": 29.3272169,
   "lng": 47.941485,
   "type": "donut, coffee shop",
   "halalConfidence": "high",
   "mapsUrl": "https://maps.google.com/?q=29.3272169,47.941485",
   "source": "osm"
  },
  {
   "nom": "مطعم المزايا",
   "lat": 29.336112,
   "lng": 48.0309783,
   "type": "indian",
   "halalConfidence": "likely",
   "mapsUrl": "https://maps.google.com/?q=29.336112,48.0309783",
   "source": "osm"
  },
  {
   "nom": "كناري",
   "lat": 29.3304004,
   "lng": 48.0283529,
   "type": "falafel, lebanese, syrian",
   "halalConfidence": "likely",
   "mapsUrl": "https://maps.google.com/?q=29.3304004,48.0283529",
   "source": "osm"
  },
  {
   "nom": "Tasty Corner Kuwait",
   "lat": 29.3281433,
   "lng": 48.0259433,
   "type": "South Indian",
   "halalConfidence": "likely",
   "mapsUrl": "https://maps.google.com/?q=29.3281433,48.0259433",
   "source": "osm"
  },
  {
   "nom": "Swaikhat Lumi صويخات لومي",
   "lat": 29.3189633,
   "lng": 48.017744,
   "type": "grill",
   "halalConfidence": "high",
   "mapsUrl": "https://maps.google.com/?q=29.3189633,48.017744",
   "source": "osm"
  },
  {
   "nom": "Amiti Noura The Avenues",
   "lat": 29.3041236,
   "lng": 47.9397477,
   "type": "arab",
   "halalConfidence": "likely",
   "mapsUrl": "https://maps.google.com/?q=29.3041236,47.9397477",
   "source": "osm"
  },
  {
   "nom": "زوارة - Zwara",
   "lat": 29.303613,
   "lng": 47.9385287,
   "type": "arab, regional",
   "halalConfidence": "high",
   "mapsUrl": "https://maps.google.com/?q=29.303613,47.9385287",
   "source": "osm"
  },
  {
   "nom": "Pares N Mami Kw",
   "lat": 29.3332232,
   "lng": 48.0562181,
   "type": "asian",
   "halalConfidence": "high",
   "mapsUrl": "https://maps.google.com/?q=29.3332232,48.0562181",
   "source": "osm"
  },
  {
   "nom": "فيكار التركي",
   "lat": 29.3365098,
   "lng": 48.0608294,
   "type": "turkish",
   "halalConfidence": "likely",
   "mapsUrl": "https://maps.google.com/?q=29.3365098,48.0608294",
   "source": "osm"
  },
  {
   "nom": "Teja Indian Resturent",
   "lat": 29.3328794,
   "lng": 48.0625803,
   "type": "indian",
   "halalConfidence": "likely",
   "mapsUrl": "https://maps.google.com/?q=29.3328794,48.0625803",
   "source": "osm"
  },
  {
   "nom": "بلقيس",
   "lat": 29.3247559,
   "lng": 48.058694,
   "type": "arab",
   "halalConfidence": "likely",
   "mapsUrl": "https://maps.google.com/?q=29.3247559,48.058694",
   "source": "osm"
  }
 ],
 "hotels": [
  {
   "nom": "Oasis Hotel",
   "categorie": "Hôtel",
   "priceRange": "€€",
   "mapsUrl": "https://maps.google.com/?q=29.3757708,47.9779067",
   "lat": 29.3757708,
   "lng": 47.9779067,
   "halalFriendly": false,
   "bookingUrl": "https://maps.google.com/?q=29.3757708,47.9779067",
   "source": "osm"
  },
  {
   "nom": "فندق بانوراما الكويت",
   "categorie": "Hôtel",
   "priceRange": "€€",
   "mapsUrl": "https://maps.google.com/?q=29.3699504,47.9785182",
   "lat": 29.3699504,
   "lng": 47.9785182,
   "halalFriendly": false,
   "bookingUrl": "https://maps.google.com/?q=29.3699504,47.9785182",
   "source": "osm"
  },
  {
   "nom": "Marriott Executive Apartments",
   "categorie": "Hôtel",
   "priceRange": "€€€€",
   "score": 5,
   "mapsUrl": "https://maps.google.com/?q=29.3736458,47.9877591",
   "lat": 29.3736458,
   "lng": 47.9877591,
   "halalFriendly": false,
   "bookingUrl": "https://www.marriott.com/en-us/hotels/kwier-marriott-executive-apartments-kuwait-city/overview/?scid=f2ae0541-1279-4f24-b197-a979c79310b0",
   "source": "osm"
  },
  {
   "nom": "Courtyard Marriott",
   "categorie": "Hôtel",
   "priceRange": "€€",
   "mapsUrl": "https://maps.google.com/?q=29.3776241,47.990674",
   "lat": 29.3776241,
   "lng": 47.990674,
   "halalFriendly": false,
   "bookingUrl": "https://Marriot.com",
   "source": "osm"
  },
  {
   "nom": "سيتي تاور",
   "categorie": "Hôtel",
   "priceRange": "€€",
   "mapsUrl": "https://maps.google.com/?q=29.3814157,47.9917121",
   "lat": 29.3814157,
   "lng": 47.9917121,
   "halalFriendly": false,
   "bookingUrl": "https://maps.google.com/?q=29.3814157,47.9917121",
   "source": "osm"
  },
  {
   "nom": "فندق جي دبليو ماريوت مدينة الكويت",
   "categorie": "Hôtel",
   "priceRange": "€€",
   "mapsUrl": "https://maps.google.com/?q=29.365071,47.9677167",
   "lat": 29.365071,
   "lng": 47.9677167,
   "halalFriendly": false,
   "bookingUrl": "https://maps.google.com/?q=29.365071,47.9677167",
   "source": "osm"
  },
  {
   "nom": "Four Seasons Hotel - Burj Al Shaya",
   "categorie": "Hôtel",
   "priceRange": "€€",
   "mapsUrl": "https://maps.google.com/?q=29.3621232,47.9810325",
   "lat": 29.3621232,
   "lng": 47.9810325,
   "halalFriendly": false,
   "bookingUrl": "https://maps.google.com/?q=29.3621232,47.9810325",
   "source": "osm"
  },
  {
   "nom": "Ibis Hotel",
   "categorie": "Hôtel",
   "priceRange": "€€",
   "mapsUrl": "https://maps.google.com/?q=29.3782254,47.994086",
   "lat": 29.3782254,
   "lng": 47.994086,
   "halalFriendly": false,
   "bookingUrl": "https://maps.google.com/?q=29.3782254,47.994086",
   "source": "osm"
  },
  {
   "nom": "فندق ريجنت الكويت",
   "categorie": "Hôtel",
   "priceRange": "€€",
   "mapsUrl": "https://maps.google.com/?q=29.3867243,47.9898747",
   "lat": 29.3867243,
   "lng": 47.9898747,
   "halalFriendly": false,
   "bookingUrl": "https://maps.google.com/?q=29.3867243,47.9898747",
   "source": "osm"
  },
  {
   "nom": "ميلينيوم سنترال داون تاون",
   "categorie": "Hôtel",
   "priceRange": "€€",
   "mapsUrl": "https://maps.google.com/?q=29.3861834,47.9908597",
   "lat": 29.3861834,
   "lng": 47.9908597,
   "halalFriendly": false,
   "bookingUrl": "https://maps.google.com/?q=29.3861834,47.9908597",
   "source": "osm"
  },
  {
   "nom": "ريزيدنس إن ماريوت",
   "categorie": "Hôtel",
   "priceRange": "€€€",
   "score": 3,
   "mapsUrl": "https://maps.google.com/?q=29.3884092,47.9907785",
   "lat": 29.3884092,
   "lng": 47.9907785,
   "halalFriendly": false,
   "bookingUrl": "https://www.marriott.com/en-us/hotels/kwiri-residence-inn-kuwait-city/overview/",
   "source": "osm"
  },
  {
   "nom": "City Suites",
   "categorie": "Hôtel",
   "priceRange": "€€",
   "mapsUrl": "https://maps.google.com/?q=29.3872921,47.992486",
   "lat": 29.3872921,
   "lng": 47.992486,
   "halalFriendly": false,
   "bookingUrl": "https://maps.google.com/?q=29.3872921,47.992486",
   "source": "osm"
  },
  {
   "nom": "Kuwait Continental Hotel",
   "categorie": "Hôtel",
   "priceRange": "€€",
   "mapsUrl": "https://maps.google.com/?q=29.3741497,47.9976748",
   "lat": 29.3741497,
   "lng": 47.9976748,
   "halalFriendly": false,
   "bookingUrl": "https://maps.google.com/?q=29.3741497,47.9976748",
   "source": "osm"
  },
  {
   "nom": "Al Bastaki Hotel",
   "categorie": "Hôtel",
   "priceRange": "€€",
   "mapsUrl": "https://maps.google.com/?q=29.3747479,47.9977332",
   "lat": 29.3747479,
   "lng": 47.9977332,
   "halalFriendly": false,
   "bookingUrl": "https://maps.google.com/?q=29.3747479,47.9977332",
   "source": "osm"
  },
  {
   "nom": "Kuwait Residence",
   "categorie": "Hôtel",
   "priceRange": "€€",
   "mapsUrl": "https://maps.google.com/?q=29.3875071,47.9928291",
   "lat": 29.3875071,
   "lng": 47.9928291,
   "halalFriendly": false,
   "bookingUrl": "https://maps.google.com/?q=29.3875071,47.9928291",
   "source": "osm"
  },
  {
   "nom": "Four Points by Sheraton",
   "categorie": "Hôtel",
   "priceRange": "€€",
   "mapsUrl": "https://maps.google.com/?q=29.3617612,47.9633765",
   "lat": 29.3617612,
   "lng": 47.9633765,
   "halalFriendly": false,
   "bookingUrl": "http://www.leroyalkuwait.com/",
   "source": "osm"
  },
  {
   "nom": "Sheraton",
   "categorie": "Hôtel",
   "priceRange": "€€",
   "mapsUrl": "https://maps.google.com/?q=29.361816,47.9624629",
   "lat": 29.361816,
   "lng": 47.9624629,
   "halalFriendly": false,
   "bookingUrl": "http://www.sheratonkuwait.com/",
   "source": "osm"
  },
  {
   "nom": "hotel",
   "categorie": "Hôtel",
   "priceRange": "€€",
   "mapsUrl": "https://maps.google.com/?q=29.3725061,48.00049",
   "lat": 29.3725061,
   "lng": 48.00049,
   "halalFriendly": false,
   "bookingUrl": "https://maps.google.com/?q=29.3725061,48.00049",
   "source": "osm"
  },
  {
   "nom": "فندق رويال ريزيدنس",
   "categorie": "Hôtel",
   "priceRange": "€€",
   "mapsUrl": "https://maps.google.com/?q=29.3701242,48.0046626",
   "lat": 29.3701242,
   "lng": 48.0046626,
   "halalFriendly": false,
   "bookingUrl": "https://maps.google.com/?q=29.3701242,48.0046626",
   "source": "osm"
  },
  {
   "nom": "تايمز سكوير للأجنحة الفندقية",
   "categorie": "Hôtel",
   "priceRange": "€€",
   "mapsUrl": "https://maps.google.com/?q=29.3409793,48.0078944",
   "lat": 29.3409793,
   "lng": 48.0078944,
   "halalFriendly": false,
   "bookingUrl": "https://maps.google.com/?q=29.3409793,48.0078944",
   "source": "osm"
  },
  {
   "nom": "PALAZZO HOTEL",
   "categorie": "Hôtel",
   "priceRange": "€€",
   "mapsUrl": "https://maps.google.com/?q=29.3395423,48.0060242",
   "lat": 29.3395423,
   "lng": 48.0060242,
   "halalFriendly": false,
   "bookingUrl": "https://maps.google.com/?q=29.3395423,48.0060242",
   "source": "osm"
  },
  {
   "nom": "منزل هشام خلف الكويت",
   "categorie": "Appartement",
   "priceRange": "€€",
   "mapsUrl": "https://maps.google.com/?q=29.3372804,48.0147509",
   "lat": 29.3372804,
   "lng": 48.0147509,
   "halalFriendly": false,
   "bookingUrl": "https://maps.google.com/?q=29.3372804,48.0147509",
   "source": "osm"
  },
  {
   "nom": "Costa del Sol",
   "categorie": "Hôtel",
   "priceRange": "€€",
   "mapsUrl": "https://maps.google.com/?q=29.3497586,48.0320989",
   "lat": 29.3497586,
   "lng": 48.0320989,
   "halalFriendly": false,
   "bookingUrl": "https://maps.google.com/?q=29.3497586,48.0320989",
   "source": "osm"
  },
  {
   "nom": "Al Suraqah",
   "categorie": "Appartement",
   "priceRange": "€€",
   "mapsUrl": "https://maps.google.com/?q=29.3327157,48.0237316",
   "lat": 29.3327157,
   "lng": 48.0237316,
   "halalFriendly": false,
   "bookingUrl": "https://maps.google.com/?q=29.3327157,48.0237316",
   "source": "osm"
  },
  {
   "nom": "My Apartment",
   "categorie": "Appartement",
   "priceRange": "€€",
   "mapsUrl": "https://maps.google.com/?q=29.3316489,48.0240999",
   "lat": 29.3316489,
   "lng": 48.0240999,
   "halalFriendly": false,
   "bookingUrl": "https://maps.google.com/?q=29.3316489,48.0240999",
   "source": "osm"
  },
  {
   "nom": "New Park Hotel",
   "categorie": "Hôtel",
   "priceRange": "€€",
   "mapsUrl": "https://maps.google.com/?q=29.3423466,48.0362246",
   "lat": 29.3423466,
   "lng": 48.0362246,
   "halalFriendly": false,
   "bookingUrl": "https://maps.google.com/?q=29.3423466,48.0362246",
   "source": "osm"
  },
  {
   "nom": "old apartments",
   "categorie": "Appartement",
   "priceRange": "€€",
   "mapsUrl": "https://maps.google.com/?q=29.3349925,48.0319186",
   "lat": 29.3349925,
   "lng": 48.0319186,
   "halalFriendly": false,
   "bookingUrl": "https://maps.google.com/?q=29.3349925,48.0319186",
   "source": "osm"
  },
  {
   "nom": "Moein Building",
   "categorie": "Appartement",
   "priceRange": "€€",
   "mapsUrl": "https://maps.google.com/?q=29.3405971,48.0372151",
   "lat": 29.3405971,
   "lng": 48.0372151,
   "halalFriendly": false,
   "bookingUrl": "https://maps.google.com/?q=29.3405971,48.0372151",
   "source": "osm"
  },
  {
   "nom": "ميلينيوم",
   "categorie": "Hôtel",
   "priceRange": "€€",
   "mapsUrl": "https://maps.google.com/?q=29.3294625,48.0416464",
   "lat": 29.3294625,
   "lng": 48.0416464,
   "halalFriendly": false,
   "bookingUrl": "https://maps.google.com/?q=29.3294625,48.0416464",
   "source": "osm"
  },
  {
   "nom": "Millennium Hotel & Convention Center Kuwait",
   "categorie": "Hôtel",
   "priceRange": "€€",
   "mapsUrl": "https://maps.google.com/?q=29.3295631,48.0418758",
   "lat": 29.3295631,
   "lng": 48.0418758,
   "halalFriendly": false,
   "bookingUrl": "https://www.millenniumhotels.com/en/kuwait-city/millennium-hotel-and-convention-centre-kuwait/",
   "source": "osm"
  },
  {
   "nom": "Hilton Garden Inn Kuwait",
   "categorie": "Hôtel",
   "priceRange": "€€€€",
   "score": 4,
   "mapsUrl": "https://maps.google.com/?q=29.3048972,47.9414983",
   "lat": 29.3048972,
   "lng": 47.9414983,
   "halalFriendly": false,
   "bookingUrl": "https://www.hilton.com/en/hotels/kwigigi-hilton-garden-inn-kuwait/",
   "source": "osm"
  },
  {
   "nom": "Al-Mumana Plaza",
   "categorie": "Hôtel",
   "priceRange": "€€",
   "mapsUrl": "https://maps.google.com/?q=29.3353248,48.0545782",
   "lat": 29.3353248,
   "lng": 48.0545782,
   "halalFriendly": false,
   "bookingUrl": "https://maps.google.com/?q=29.3353248,48.0545782",
   "source": "osm"
  },
  {
   "nom": "Baity Furnished Flats",
   "categorie": "Hôtel",
   "priceRange": "€€",
   "mapsUrl": "https://maps.google.com/?q=29.3363308,48.0564363",
   "lat": 29.3363308,
   "lng": 48.0564363,
   "halalFriendly": false,
   "bookingUrl": "https://maps.google.com/?q=29.3363308,48.0564363",
   "source": "osm"
  },
  {
   "nom": "Waldorf Astoria Kuwait",
   "categorie": "Hôtel",
   "priceRange": "€€",
   "mapsUrl": "https://maps.google.com/?q=29.3021911,47.9413294",
   "lat": 29.3021911,
   "lng": 47.9413294,
   "halalFriendly": false,
   "bookingUrl": "https://www.hilton.com/en/hotels/kwiwawa-waldorf-astoria-kuwait/",
   "source": "osm"
  },
  {
   "nom": "Marina Hotel",
   "categorie": "Hôtel",
   "priceRange": "€€",
   "mapsUrl": "https://maps.google.com/?q=29.343946,48.0632519",
   "lat": 29.343946,
   "lng": 48.0632519,
   "halalFriendly": false,
   "bookingUrl": "https://maps.google.com/?q=29.343946,48.0632519",
   "source": "osm"
  }
 ],
 "activites": [
  {
   "nom": "2022 Fire Memorial",
   "lat": 29.375098,
   "lng": 47.9748004,
   "coordonnees": {
    "lat": 29.375098,
    "lng": 47.9748004
   },
   "categorie": "Histoire",
   "mapsUrl": "https://maps.google.com/?q=29.375098,47.9748004",
   "source": "osm"
  },
  {
   "nom": "Mural woman with flowers",
   "lat": 29.3773399,
   "lng": 47.9744747,
   "coordonnees": {
    "lat": 29.3773399,
    "lng": 47.9744747
   },
   "categorie": "À voir",
   "mapsUrl": "https://maps.google.com/?q=29.3773399,47.9744747",
   "source": "osm"
  },
  {
   "nom": "بوابة قصر السيف",
   "lat": 29.3798881,
   "lng": 47.9728049,
   "coordonnees": {
    "lat": 29.3798881,
    "lng": 47.9728049
   },
   "categorie": "Histoire",
   "mapsUrl": "https://maps.google.com/?q=29.3798881,47.9728049",
   "source": "osm"
  },
  {
   "nom": "ساحة الصفاة",
   "lat": 29.3717145,
   "lng": 47.9725821,
   "coordonnees": {
    "lat": 29.3717145,
    "lng": 47.9725821
   },
   "categorie": "À voir",
   "mapsUrl": "https://maps.google.com/?q=29.3717145,47.9725821",
   "source": "osm"
  },
  {
   "nom": "بوابة قصر السيف",
   "lat": 29.3783584,
   "lng": 47.9706122,
   "coordonnees": {
    "lat": 29.3783584,
    "lng": 47.9706122
   },
   "categorie": "Histoire",
   "mapsUrl": "https://maps.google.com/?q=29.3783584,47.9706122",
   "source": "osm"
  },
  {
   "nom": "Ship monument",
   "lat": 29.3836072,
   "lng": 47.9765264,
   "coordonnees": {
    "lat": 29.3836072,
    "lng": 47.9765264
   },
   "categorie": "À voir",
   "mapsUrl": "https://maps.google.com/?q=29.3836072,47.9765264",
   "source": "osm"
  },
  {
   "nom": "بيت دكسون",
   "lat": 29.3839338,
   "lng": 47.9779368,
   "coordonnees": {
    "lat": 29.3839338,
    "lng": 47.9779368
   },
   "categorie": "Culture",
   "mapsUrl": "https://maps.google.com/?q=29.3839338,47.9779368",
   "source": "osm"
  },
  {
   "nom": "بيت السدو",
   "lat": 29.3746946,
   "lng": 47.9672615,
   "coordonnees": {
    "lat": 29.3746946,
    "lng": 47.9672615
   },
   "categorie": "À voir",
   "mapsUrl": "https://maps.google.com/?q=29.3746946,47.9672615",
   "source": "osm"
  },
  {
   "nom": "بوابة قصر السيف",
   "lat": 29.3764137,
   "lng": 47.9662938,
   "coordonnees": {
    "lat": 29.3764137,
    "lng": 47.9662938
   },
   "categorie": "Histoire",
   "mapsUrl": "https://maps.google.com/?q=29.3764137,47.9662938",
   "source": "osm"
  },
  {
   "nom": "Maritime Museum",
   "lat": 29.3851145,
   "lng": 47.9821403,
   "coordonnees": {
    "lat": 29.3851145,
    "lng": 47.9821403
   },
   "categorie": "Culture",
   "mapsUrl": "https://maps.google.com/?q=29.3851145,47.9821403",
   "source": "osm"
  },
  {
   "nom": "Museum of modern Art",
   "lat": 29.3845263,
   "lng": 47.9834758,
   "coordonnees": {
    "lat": 29.3845263,
    "lng": 47.9834758
   },
   "categorie": "Culture",
   "mapsUrl": "https://maps.google.com/?q=29.3845263,47.9834758",
   "source": "osm"
  },
  {
   "nom": "قصر نايف",
   "lat": 29.3657091,
   "lng": 47.9738336,
   "coordonnees": {
    "lat": 29.3657091,
    "lng": 47.9738336
   },
   "categorie": "Histoire",
   "mapsUrl": "https://maps.google.com/?q=29.3657091,47.9738336",
   "source": "osm"
  },
  {
   "nom": "Al Hamra Tower",
   "lat": 29.3793685,
   "lng": 47.9928413,
   "coordonnees": {
    "lat": 29.3793685,
    "lng": 47.9928413
   },
   "categorie": "À voir",
   "mapsUrl": "https://maps.google.com/?q=29.3793685,47.9928413",
   "source": "osm"
  },
  {
   "nom": "الساعة المائية",
   "lat": 29.389567,
   "lng": 47.9812434,
   "coordonnees": {
    "lat": 29.389567,
    "lng": 47.9812434
   },
   "categorie": "Histoire",
   "mapsUrl": "https://maps.google.com/?q=29.389567,47.9812434",
   "source": "osm"
  },
  {
   "nom": "دار الآثار الإسلامية",
   "lat": 29.3679496,
   "lng": 47.9621238,
   "coordonnees": {
    "lat": 29.3679496,
    "lng": 47.9621238
   },
   "categorie": "Culture",
   "mapsUrl": "https://maps.google.com/?q=29.3679496,47.9621238",
   "source": "osm"
  },
  {
   "nom": "Yaum Al Bahhar Village",
   "lat": 29.369092,
   "lng": 47.9610345,
   "coordonnees": {
    "lat": 29.369092,
    "lng": 47.9610345
   },
   "categorie": "À voir",
   "mapsUrl": "https://maps.google.com/?q=29.369092,47.9610345",
   "source": "osm"
  },
  {
   "nom": "Memorial Museum",
   "lat": 29.3664401,
   "lng": 47.992189,
   "coordonnees": {
    "lat": 29.3664401,
    "lng": 47.992189
   },
   "categorie": "Culture",
   "mapsUrl": "https://maps.google.com/?q=29.3664401,47.992189",
   "source": "osm"
  },
  {
   "nom": "قصر الشيخ خزعل",
   "lat": 29.3878171,
   "lng": 47.9953679,
   "coordonnees": {
    "lat": 29.3878171,
    "lng": 47.9953679
   },
   "categorie": "Histoire",
   "mapsUrl": "https://maps.google.com/?q=29.3878171,47.9953679",
   "source": "osm"
  },
  {
   "nom": "Al Maqsab Gate",
   "lat": 29.3639814,
   "lng": 47.9587945,
   "coordonnees": {
    "lat": 29.3639814,
    "lng": 47.9587945
   },
   "categorie": "À voir",
   "mapsUrl": "https://maps.google.com/?q=29.3639814,47.9587945",
   "source": "osm"
  },
  {
   "nom": "Musical Fountain",
   "lat": 29.3621363,
   "lng": 47.9591646,
   "coordonnees": {
    "lat": 29.3621363,
    "lng": 47.9591646
   },
   "categorie": "Histoire",
   "mapsUrl": "https://maps.google.com/?q=29.3621363,47.9591646",
   "source": "osm"
  },
  {
   "nom": "Cultural Centre Complex",
   "lat": 29.36002,
   "lng": 47.9558669,
   "coordonnees": {
    "lat": 29.36002,
    "lng": 47.9558669
   },
   "categorie": "À voir",
   "mapsUrl": "https://maps.google.com/?q=29.36002,47.9558669",
   "source": "osm"
  },
  {
   "nom": "\"Paper\" Boats",
   "lat": 29.3884587,
   "lng": 48.0029977,
   "coordonnees": {
    "lat": 29.3884587,
    "lng": 48.0029977
   },
   "categorie": "À voir",
   "mapsUrl": "https://maps.google.com/?q=29.3884587,48.0029977",
   "source": "osm"
  },
  {
   "nom": "حديقة كيفان",
   "lat": 29.3432176,
   "lng": 47.9540795,
   "coordonnees": {
    "lat": 29.3432176,
    "lng": 47.9540795
   },
   "categorie": "Nature",
   "mapsUrl": "https://maps.google.com/?q=29.3432176,47.9540795",
   "source": "osm"
  },
  {
   "nom": "maison miroir",
   "lat": 29.347198,
   "lng": 48.0095374,
   "coordonnees": {
    "lat": 29.347198,
    "lng": 48.0095374
   },
   "categorie": "À voir",
   "mapsUrl": "https://maps.google.com/?q=29.347198,48.0095374",
   "source": "osm"
  },
  {
   "nom": "شهداء منطقة العديلية",
   "lat": 29.3290987,
   "lng": 47.9817935,
   "coordonnees": {
    "lat": 29.3290987,
    "lng": 47.9817935
   },
   "categorie": "Histoire",
   "mapsUrl": "https://maps.google.com/?q=29.3290987,47.9817935",
   "source": "osm"
  },
  {
   "nom": "متحف بيت العثمان",
   "lat": 29.341038,
   "lng": 48.0139999,
   "coordonnees": {
    "lat": 29.341038,
    "lng": 48.0139999
   },
   "categorie": "Culture",
   "mapsUrl": "https://maps.google.com/?q=29.341038,48.0139999",
   "source": "osm"
  },
  {
   "nom": "work",
   "lat": 29.3335202,
   "lng": 47.9418631,
   "coordonnees": {
    "lat": 29.3335202,
    "lng": 47.9418631
   },
   "categorie": "À voir",
   "mapsUrl": "https://maps.google.com/?q=29.3335202,47.9418631",
   "source": "osm"
  },
  {
   "nom": "عكاز",
   "lat": 29.3600799,
   "lng": 47.9146173,
   "coordonnees": {
    "lat": 29.3600799,
    "lng": 47.9146173
   },
   "categorie": "Histoire",
   "mapsUrl": "https://maps.google.com/?q=29.3600799,47.9146173",
   "source": "osm"
  },
  {
   "nom": "Sheikh Abdullah Al Salem Cultural Centre",
   "lat": 29.3426285,
   "lng": 48.0402194,
   "coordonnees": {
    "lat": 29.3426285,
    "lng": 48.0402194
   },
   "categorie": "À voir",
   "mapsUrl": "https://maps.google.com/?q=29.3426285,48.0402194",
   "source": "osm"
  },
  {
   "nom": "Silsan Boat tour - 1KD (20 min)",
   "lat": 29.3419411,
   "lng": 48.0554018,
   "coordonnees": {
    "lat": 29.3419411,
    "lng": 48.0554018
   },
   "categorie": "À voir",
   "mapsUrl": "https://maps.google.com/?q=29.3419411,48.0554018",
   "source": "osm"
  },
  {
   "nom": "حديقة الحيوانات في الكويت",
   "lat": 29.3006483,
   "lng": 47.9611398,
   "coordonnees": {
    "lat": 29.3006483,
    "lng": 47.9611398
   },
   "categorie": "Famille",
   "mapsUrl": "https://maps.google.com/?q=29.3006483,47.9611398",
   "source": "osm"
  },
  {
   "nom": "Salmiya blowers",
   "lat": 29.3243557,
   "lng": 48.0468331,
   "coordonnees": {
    "lat": 29.3243557,
    "lng": 48.0468331
   },
   "categorie": "À voir",
   "mapsUrl": "https://maps.google.com/?q=29.3243557,48.0468331",
   "source": "osm"
  },
  {
   "nom": "Will",
   "lat": 29.3010314,
   "lng": 47.9097147,
   "coordonnees": {
    "lat": 29.3010314,
    "lng": 47.9097147
   },
   "categorie": "À voir",
   "mapsUrl": "https://maps.google.com/?q=29.3010314,47.9097147",
   "source": "osm"
  },
  {
   "nom": "داو فاتح الخير",
   "lat": 29.3501845,
   "lng": 48.0892555,
   "coordonnees": {
    "lat": 29.3501845,
    "lng": 48.0892555
   },
   "categorie": "Histoire",
   "mapsUrl": "https://maps.google.com/?q=29.3501845,48.0892555",
   "source": "osm"
  },
  {
   "nom": "View of Kuwait City",
   "lat": 29.3520434,
   "lng": 48.0970152,
   "coordonnees": {
    "lat": 29.3520434,
    "lng": 48.0970152
   },
   "categorie": "Panorama",
   "mapsUrl": "https://maps.google.com/?q=29.3520434,48.0970152",
   "source": "osm"
  },
  {
   "nom": "صالون شذر",
   "lat": 29.2712859,
   "lng": 47.9233993,
   "coordonnees": {
    "lat": 29.2712859,
    "lng": 47.9233993
   },
   "categorie": "Panorama",
   "mapsUrl": "https://maps.google.com/?q=29.2712859,47.9233993",
   "source": "osm"
  },
  {
   "nom": "Al Hashemi Marine Museum",
   "lat": 29.3014982,
   "lng": 48.0893454,
   "coordonnees": {
    "lat": 29.3014982,
    "lng": 48.0893454
   },
   "categorie": "Culture",
   "mapsUrl": "https://maps.google.com/?q=29.3014982,48.0893454",
   "source": "osm"
  },
  {
   "nom": "Doha shipwreck yard",
   "lat": 29.3828671,
   "lng": 47.8336834,
   "coordonnees": {
    "lat": 29.3828671,
    "lng": 47.8336834
   },
   "categorie": "À voir",
   "mapsUrl": "https://maps.google.com/?q=29.3828671,47.8336834",
   "source": "osm"
  },
  {
   "nom": "الحصاوى",
   "lat": 29.2577871,
   "lng": 47.920339,
   "coordonnees": {
    "lat": 29.2577871,
    "lng": 47.920339
   },
   "categorie": "À voir",
   "mapsUrl": "https://maps.google.com/?q=29.2577871,47.920339",
   "source": "osm"
  },
  {
   "nom": "Al ferdous",
   "lat": 29.2827772,
   "lng": 47.8724751,
   "coordonnees": {
    "lat": 29.2827772,
    "lng": 47.8724751
   },
   "categorie": "À voir",
   "mapsUrl": "https://maps.google.com/?q=29.2827772,47.8724751",
   "source": "osm"
  }
 ],
 "mosqueesPrincipales": [
  {
   "nom": "مسجد قصر نايف",
   "lat": 29.3661112,
   "lng": 47.9734721,
   "coordonnees": {
    "lat": 29.3661112,
    "lng": 47.9734721
   },
   "adresse": "Abdullah Al-Salem Street, القبلة",
   "mapsUrl": "https://maps.google.com/?q=29.3661112,47.9734721",
   "source": "osm"
  },
  {
   "nom": "الملا صالح الملا",
   "lat": 29.3679394,
   "lng": 47.9685609,
   "coordonnees": {
    "lat": 29.3679394,
    "lng": 47.9685609
   },
   "mapsUrl": "https://maps.google.com/?q=29.3679394,47.9685609",
   "source": "osm"
  },
  {
   "nom": "مسجد وزارة الاعلام",
   "lat": 29.3629195,
   "lng": 47.9733407,
   "coordonnees": {
    "lat": 29.3629195,
    "lng": 47.9733407
   },
   "adresse": "Abdullah Al-Salem Street, القبلة",
   "mapsUrl": "https://maps.google.com/?q=29.3629195,47.9733407",
   "source": "osm"
  },
  {
   "nom": "Mosque",
   "lat": 29.3731494,
   "lng": 47.994439,
   "coordonnees": {
    "lat": 29.3731494,
    "lng": 47.994439
   },
   "mapsUrl": "https://maps.google.com/?q=29.3731494,47.994439",
   "source": "osm"
  },
  {
   "nom": "شركة الاتصالات المتنقلة",
   "lat": 29.3449349,
   "lng": 47.9442241,
   "coordonnees": {
    "lat": 29.3449349,
    "lng": 47.9442241
   },
   "mapsUrl": "https://maps.google.com/?q=29.3449349,47.9442241",
   "source": "osm"
  },
  {
   "nom": "قصر الشعب",
   "lat": 29.3468649,
   "lng": 48.0358043,
   "coordonnees": {
    "lat": 29.3468649,
    "lng": 48.0358043
   },
   "adresse": "الشعب",
   "mapsUrl": "https://maps.google.com/?q=29.3468649,48.0358043",
   "source": "osm"
  },
  {
   "nom": "مبارك الكبير",
   "lat": 29.3291,
   "lng": 48.034,
   "coordonnees": {
    "lat": 29.3291,
    "lng": 48.034
   },
   "adresse": "الجابرية",
   "mapsUrl": "https://maps.google.com/?q=29.3291,48.034",
   "source": "osm"
  },
  {
   "nom": "جاسم بن علي بورسلي وابنه ماجد",
   "lat": 29.3193918,
   "lng": 47.9338311,
   "coordonnees": {
    "lat": 29.3193918,
    "lng": 47.9338311
   },
   "mapsUrl": "https://maps.google.com/?q=29.3193918,47.9338311",
   "source": "osm"
  },
  {
   "nom": "العديله مسجد الراشد",
   "lat": 29.3208101,
   "lng": 47.9202524,
   "coordonnees": {
    "lat": 29.3208101,
    "lng": 47.9202524
   },
   "mapsUrl": "https://maps.google.com/?q=29.3208101,47.9202524",
   "source": "osm"
  },
  {
   "nom": "مسجد سعد الظبيان",
   "lat": 29.2903681,
   "lng": 47.9364239,
   "coordonnees": {
    "lat": 29.2903681,
    "lng": 47.9364239
   },
   "adresse": "الرابية",
   "mapsUrl": "https://maps.google.com/?q=29.2903681,47.9364239",
   "source": "osm"
  },
  {
   "nom": "قصر بيان",
   "lat": 29.2883565,
   "lng": 48.0457616,
   "coordonnees": {
    "lat": 29.2883565,
    "lng": 48.0457616
   },
   "adresse": "بيان",
   "mapsUrl": "https://maps.google.com/?q=29.2883565,48.0457616",
   "source": "osm"
  },
  {
   "nom": "Musalla Masjid",
   "lat": 29.3362131,
   "lng": 48.0947326,
   "coordonnees": {
    "lat": 29.3362131,
    "lng": 48.0947326
   },
   "mapsUrl": "https://maps.google.com/?q=29.3362131,48.0947326",
   "source": "osm"
  },
  {
   "nom": "مسجد نورية المدرس",
   "lat": 29.2670951,
   "lng": 47.9948543,
   "coordonnees": {
    "lat": 29.2670951,
    "lng": 47.9948543
   },
   "adresse": "Faris Furah Al Wagayan Street, الزهراء",
   "mapsUrl": "https://maps.google.com/?q=29.2670951,47.9948543",
   "source": "osm"
  },
  {
   "nom": "نبيل خالد جعفر وزوجته د. أمل مبارك الحساوي",
   "lat": 29.2927694,
   "lng": 48.0746639,
   "coordonnees": {
    "lat": 29.2927694,
    "lng": 48.0746639
   },
   "adresse": "سلوى",
   "mapsUrl": "https://maps.google.com/?q=29.2927694,48.0746639",
   "source": "osm"
  },
  {
   "nom": "مساعد عبيد المجرن",
   "lat": 29.2940833,
   "lng": 48.0840583,
   "coordonnees": {
    "lat": 29.2940833,
    "lng": 48.0840583
   },
   "adresse": "سلوى",
   "mapsUrl": "https://maps.google.com/?q=29.2940833,48.0840583",
   "source": "osm"
  },
  {
   "nom": "الشيخة بدرية الأحمد الجابر الصباح",
   "lat": 29.2844853,
   "lng": 48.0874372,
   "coordonnees": {
    "lat": 29.2844853,
    "lng": 48.0874372
   },
   "adresse": "أنجفة",
   "mapsUrl": "https://maps.google.com/?q=29.2844853,48.0874372",
   "source": "osm"
  },
  {
   "id": "osm-154717717",
   "nom": "المسجد الكبير",
   "type": "mosquee",
   "lat": 29.3795308,
   "lng": 47.9751724,
   "mapsUrl": "https://maps.google.com/?q=29.3795308,47.9751724",
   "source": "osm"
  },
  {
   "id": "osm-154717867",
   "nom": "السوق الكبير",
   "type": "mosquee",
   "adresse": "Ali Al-Salem Streetشارع علي السالم",
   "lat": 29.3769432,
   "lng": 47.9739462,
   "mapsUrl": "https://maps.google.com/?q=29.3769432,47.9739462",
   "source": "osm"
  },
  {
   "id": "osm-154718512",
   "nom": "الساير الشرقي",
   "type": "mosquee",
   "lat": 29.3722456,
   "lng": 47.9681619,
   "mapsUrl": "https://maps.google.com/?q=29.3722456,47.9681619",
   "source": "osm"
  },
  {
   "id": "osm-154718545",
   "nom": "ياسين القناعي",
   "type": "mosquee",
   "lat": 29.3769451,
   "lng": 47.9721102,
   "mapsUrl": "https://maps.google.com/?q=29.3769451,47.9721102",
   "source": "osm"
  },
  {
   "id": "osm-154718559",
   "nom": "المزيدي",
   "type": "mosquee",
   "lat": 29.3778355,
   "lng": 47.9769356,
   "mapsUrl": "https://maps.google.com/?q=29.3778355,47.9769356",
   "source": "osm"
  },
  {
   "id": "osm-154718567",
   "nom": "العبدالرزاق",
   "type": "mosquee",
   "lat": 29.3765158,
   "lng": 47.9770072,
   "mapsUrl": "https://maps.google.com/?q=29.3765158,47.9770072",
   "source": "osm"
  },
  {
   "id": "osm-154718585",
   "nom": "عبدالعزيز العثمان",
   "type": "mosquee",
   "lat": 29.3727209,
   "lng": 47.9649962,
   "mapsUrl": "https://maps.google.com/?q=29.3727209,47.9649962",
   "source": "osm"
  },
  {
   "id": "osm-154718589",
   "nom": "اتحاد الصيادين",
   "type": "mosquee",
   "lat": 29.3842673,
   "lng": 47.9759142,
   "mapsUrl": "https://maps.google.com/?q=29.3842673,47.9759142",
   "source": "osm"
  },
  {
   "id": "osm-154718605",
   "nom": "السيد عبدالله العالم",
   "type": "mosquee",
   "lat": 29.3800897,
   "lng": 47.978882,
   "mapsUrl": "https://maps.google.com/?q=29.3800897,47.978882",
   "source": "osm"
  },
  {
   "id": "osm-154718632",
   "nom": "الخليفة",
   "type": "mosquee",
   "lat": 29.3808947,
   "lng": 47.9747164,
   "mapsUrl": "https://maps.google.com/?q=29.3808947,47.9747164",
   "source": "osm"
  },
  {
   "id": "osm-154718641",
   "nom": "الفهد",
   "type": "mosquee",
   "lat": 29.3758689,
   "lng": 47.9728396,
   "mapsUrl": "https://maps.google.com/?q=29.3758689,47.9728396",
   "source": "osm"
  },
  {
   "id": "osm-154718652",
   "nom": "المقهى الشعبي (قرية يوم البحار)",
   "type": "mosquee",
   "lat": 29.3686437,
   "lng": 47.9610315,
   "mapsUrl": "https://maps.google.com/?q=29.3686437,47.9610315",
   "source": "osm"
  },
  {
   "id": "osm-157075793",
   "nom": "السيد يعقوب السيد يوسف الرفاعي",
   "type": "mosquee",
   "lat": 29.335895,
   "lng": 47.9517239,
   "mapsUrl": "https://maps.google.com/?q=29.335895,47.9517239",
   "source": "osm"
  },
  {
   "id": "osm-167069309",
   "nom": "فاطمة حمود المقهوي",
   "type": "mosquee",
   "lat": 29.327013,
   "lng": 48.0708463,
   "mapsUrl": "https://maps.google.com/?q=29.327013,48.0708463",
   "source": "osm"
  },
  {
   "id": "osm-167069881",
   "nom": "مسجد خالد يوسف المرزوق",
   "type": "mosquee",
   "lat": 29.3277053,
   "lng": 48.0787397,
   "mapsUrl": "https://maps.google.com/?q=29.3277053,48.0787397",
   "source": "osm"
  },
  {
   "id": "osm-185812915",
   "nom": "الشيخ ناصر الصباح",
   "type": "mosquee",
   "lat": 29.3485396,
   "lng": 48.0938017,
   "mapsUrl": "https://maps.google.com/?q=29.3485396,48.0938017",
   "source": "osm"
  },
  {
   "id": "osm-188055775",
   "nom": "أبو سفيان بن حرب",
   "type": "mosquee",
   "lat": 29.3455889,
   "lng": 48.0905348,
   "mapsUrl": "https://maps.google.com/?q=29.3455889,48.0905348",
   "source": "osm"
  },
  {
   "id": "osm-198724655",
   "nom": "محمد عبدالله طالب الكندري",
   "type": "mosquee",
   "lat": 29.3164922,
   "lng": 48.0467043,
   "mapsUrl": "https://maps.google.com/?q=29.3164922,48.0467043",
   "source": "osm"
  },
  {
   "id": "osm-200829335",
   "nom": "مسجد أحمد علي المواش",
   "type": "mosquee",
   "adresse": "شارع 5, الجابرية",
   "lat": 29.3203047,
   "lng": 48.0357509,
   "mapsUrl": "https://maps.google.com/?q=29.3203047,48.0357509",
   "source": "osm"
  },
  {
   "id": "osm-201543563",
   "nom": "مسجد عبد الله صقر القطان",
   "type": "mosquee",
   "lat": 29.3215196,
   "lng": 48.0421501,
   "mapsUrl": "https://maps.google.com/?q=29.3215196,48.0421501",
   "source": "osm"
  },
  {
   "id": "osm-281769081",
   "nom": "مسجد بلقيس محمود إبراهيم الزهير",
   "type": "mosquee",
   "lat": 29.2652342,
   "lng": 47.943468,
   "mapsUrl": "https://maps.google.com/?q=29.2652342,47.943468",
   "source": "osm"
  },
  {
   "id": "osm-302625782",
   "nom": "بدرية إبراهيم ناصر الهاجري",
   "type": "mosquee",
   "lat": 29.2915605,
   "lng": 48.013255,
   "mapsUrl": "https://maps.google.com/?q=29.2915605,48.013255",
   "source": "osm"
  },
  {
   "id": "osm-308547558",
   "nom": "مسجد شعبان",
   "type": "mosquee",
   "lat": 29.3837799,
   "lng": 47.986428,
   "mapsUrl": "https://maps.google.com/?q=29.3837799,47.986428",
   "source": "osm"
  },
  {
   "id": "osm-316759515",
   "nom": "مسجد الإمام زين العابدين",
   "type": "mosquee",
   "adresse": "السالمية - قطعة 7",
   "lat": 29.326301,
   "lng": 48.0798344,
   "mapsUrl": "https://maps.google.com/?q=29.326301,48.0798344",
   "source": "osm"
  },
  {
   "id": "osm-336826442",
   "nom": "عبدالله عبدالمحسن الفارس",
   "type": "mosquee",
   "lat": 29.3411119,
   "lng": 48.0761087,
   "mapsUrl": "https://maps.google.com/?q=29.3411119,48.0761087",
   "source": "osm"
  },
  {
   "id": "osm-336963508",
   "nom": "عبدالله راشد الزير",
   "type": "mosquee",
   "lat": 29.3433984,
   "lng": 48.0948894,
   "mapsUrl": "https://maps.google.com/?q=29.3433984,48.0948894",
   "source": "osm"
  },
  {
   "id": "osm-347821520",
   "nom": "الوزان",
   "type": "mosquee",
   "lat": 29.366863,
   "lng": 47.9794306,
   "mapsUrl": "https://maps.google.com/?q=29.366863,47.9794306",
   "source": "osm"
  },
  {
   "id": "osm-347821533",
   "nom": "شملان بن علي آل سيف الشملان",
   "type": "mosquee",
   "adresse": "مدينة الكويت",
   "lat": 29.3696204,
   "lng": 47.9791563,
   "mapsUrl": "https://maps.google.com/?q=29.3696204,47.9791563",
   "source": "osm"
  },
  {
   "id": "osm-350559812",
   "nom": "مسجد الأنصار",
   "type": "mosquee",
   "lat": 29.2858657,
   "lng": 48.0273765,
   "mapsUrl": "https://maps.google.com/?q=29.2858657,48.0273765",
   "source": "osm"
  },
  {
   "id": "osm-360842050",
   "nom": "عيسى عبد الله عبدالعزيز العثمان",
   "type": "mosquee",
   "lat": 29.3333559,
   "lng": 47.9535018,
   "mapsUrl": "https://maps.google.com/?q=29.3333559,47.9535018",
   "source": "osm"
  },
  {
   "id": "osm-360842783",
   "nom": "مسجد زيد بن ثابت",
   "type": "mosquee",
   "lat": 29.3233532,
   "lng": 47.937179,
   "mapsUrl": "https://maps.google.com/?q=29.3233532,47.937179",
   "source": "osm"
  },
  {
   "id": "osm-362513748",
   "nom": "نجيبه علي عبدالوهاب المطوع",
   "type": "mosquee",
   "lat": 29.3381062,
   "lng": 48.0730773,
   "mapsUrl": "https://maps.google.com/?q=29.3381062,48.0730773",
   "source": "osm"
  },
  {
   "id": "osm-362775736",
   "nom": "مسجد عيد محمد الخرينج",
   "type": "mosquee",
   "lat": 29.2891731,
   "lng": 47.9290532,
   "mapsUrl": "https://maps.google.com/?q=29.2891731,47.9290532",
   "source": "osm"
  },
  {
   "id": "osm-362804614",
   "nom": "مسجد سعد بن صليب المطيري",
   "type": "mosquee",
   "lat": 29.2953228,
   "lng": 47.9285838,
   "mapsUrl": "https://maps.google.com/?q=29.2953228,47.9285838",
   "source": "osm"
  },
  {
   "id": "osm-363163112",
   "nom": "مسجد الهيئة العامة للزراعة والثروة السمكية",
   "type": "mosquee",
   "lat": 29.2942434,
   "lng": 47.9449399,
   "mapsUrl": "https://maps.google.com/?q=29.2942434,47.9449399",
   "source": "osm"
  },
  {
   "id": "osm-363660818",
   "nom": "إبراهيم مهنا عبدالرحمن المهنا",
   "type": "mosquee",
   "adresse": "جادة 85, Rumaithiya",
   "lat": 29.3217702,
   "lng": 48.0747444,
   "mapsUrl": "https://maps.google.com/?q=29.3217702,48.0747444",
   "source": "osm"
  },
  {
   "id": "osm-363850914",
   "nom": "مسجد محمد عبدالله السعد المنيفي",
   "type": "mosquee",
   "adresse": "الرميثية - قطعة 11",
   "lat": 29.3147399,
   "lng": 48.0646374,
   "mapsUrl": "https://maps.google.com/?q=29.3147399,48.0646374",
   "source": "osm"
  },
  {
   "id": "osm-363850915",
   "nom": "مسحد مقامس",
   "type": "mosquee",
   "adresse": "شارع ناصر المبارك, الرميثية",
   "lat": 29.3165626,
   "lng": 48.0688095,
   "mapsUrl": "https://maps.google.com/?q=29.3165626,48.0688095",
   "source": "osm"
  },
  {
   "id": "osm-363850916",
   "nom": "مسجد الشيخ سعد عبدالله علي العصفور",
   "type": "mosquee",
   "adresse": "شارع حسن البنا, الرميثية",
   "lat": 29.3166662,
   "lng": 48.0769969,
   "mapsUrl": "https://maps.google.com/?q=29.3166662,48.0769969",
   "source": "osm"
  },
  {
   "id": "osm-363850934",
   "nom": "عمرو بن الجموح",
   "type": "mosquee",
   "lat": 29.319313,
   "lng": 48.0656986,
   "mapsUrl": "https://maps.google.com/?q=29.319313,48.0656986",
   "source": "osm"
  },
  {
   "id": "osm-363850935",
   "nom": "مسجد سلمان الفارسي",
   "type": "mosquee",
   "lat": 29.3209683,
   "lng": 48.0698255,
   "mapsUrl": "https://maps.google.com/?q=29.3209683,48.0698255",
   "source": "osm"
  },
  {
   "id": "osm-363881154",
   "nom": "أبو دجانه سماك الأنصاري",
   "type": "mosquee",
   "lat": 29.3131,
   "lng": 48.0721906,
   "mapsUrl": "https://maps.google.com/?q=29.3131,48.0721906",
   "source": "osm"
  },
  {
   "id": "osm-363881155",
   "nom": "عبدالله بن عمرو بن العاص",
   "type": "mosquee",
   "lat": 29.3118393,
   "lng": 48.0773406,
   "mapsUrl": "https://maps.google.com/?q=29.3118393,48.0773406",
   "source": "osm"
  },
  {
   "id": "osm-363881157",
   "nom": "الإمام مسلم",
   "type": "mosquee",
   "lat": 29.3121723,
   "lng": 48.0829902,
   "mapsUrl": "https://maps.google.com/?q=29.3121723,48.0829902",
   "source": "osm"
  }
 ],
 "tags": [
  "golfe",
  "modernite",
  "souk",
  "famille",
  "gastronomie",
  "corniche"
 ],
 "description_en": "Koweït City, in Kuwait, is a halal-friendly destination with a Halal Trust Score of 4.7/5. Muslim travelers will find 61 halal restaurants listed, 1,500 mosques, real-time prayer times and the Qibla direction — a complete guide to travel with peace of mind.",
 "metaDescription_en": "Halal guide to Koweït City: 61 halal restaurants listed, 1,500 mosques, prayer times and tips for Muslim travelers. Halal Trust Score 4.7/5.",
 "nom_en": "Koweït City",
 "boucheries": [
  {
   "nom": "مستر كليفرز",
   "lat": 29.3545376,
   "lng": 48.0113511,
   "type": "Boucherie halal",
   "mapsUrl": "https://maps.google.com/?q=29.3545376,48.0113511",
   "source": "osm"
  }
 ],
 "infos_pratiques_en": {
  "langue": "Arabic",
  "meilleure_periode": "November to April",
  "appel_priere": "5 times a day",
  "nourriture_halal": "Largement disponible",
  "alcool": "Forbidden"
 },
 "dataPurgedAt": "2026-07-15",
 "osmEnrichedAt": "2026-07-15"
}