{
  "slug": "la-haye",
  "nom": "La Haye",
  "pays": "Pays-Bas",
  "pays_slug": "pays-bas",
  "continent": "Europe",
  "region": "Pays-Bas",
  "coordonnees": {
    "lat": 52.0705,
    "lng": 4.3007
  },
  "codeISO": "NL",
  "score_halal": 3.2,
  "halalScore": 6.4,
  "description": "La Haye, Pays-Bas. Repérez les restaurants halal et les mosquées via l'application.",
  "metaDescription": "La Haye, Pays-Bas. Repérez les restaurants halal et les mosquées via l'application.",
  "image": "https://images.unsplash.com/photo-1436491865332-7a61a109cc05?w=1200&q=80",
  "image_hero": "https://images.unsplash.com/photo-1436491865332-7a61a109cc05?w=1200&q=80",
  "imageAVenir": true,
  "imageCredit": "",
  "scoreIndicatif": true,
  "statistiques": {
    "restaurants_halal": 121,
    "mosquees": 48,
    "hotels": 120
  },
  "infoPratique": {
    "transport": "Accessible par avion et transports locaux.",
    "meilleureEpoque": "Selon la saison.",
    "conseilHalal": "Repérez restaurants halal et mosquées via l'application."
  },
  "tags": [
    "halal",
    "europe"
  ],
  "restaurants": [
    {
      "nom": "Miladi Tarim",
      "type": "uyghur",
      "priceRange": "€€",
      "mapsUrl": "https://maps.google.com/?q=52.0755201,4.3125885",
      "lat": 52.0755201,
      "lng": 4.3125885,
      "halalConfidence": "yes",
      "source": "osm"
    },
    {
      "nom": "Shakshuka",
      "type": "middle eastern",
      "priceRange": "€€",
      "mapsUrl": "https://maps.google.com/?q=52.0796398,4.3045908",
      "lat": 52.0796398,
      "lng": 4.3045908,
      "halalConfidence": "yes",
      "source": "osm"
    },
    {
      "nom": "Little V",
      "type": "vietnamese",
      "priceRange": "€€",
      "mapsUrl": "https://maps.google.com/?q=52.0756809,4.3143733",
      "lat": 52.0756809,
      "lng": 4.3143733,
      "halalConfidence": "yes",
      "source": "osm"
    },
    {
      "nom": "BWLZ",
      "type": "fries, chicken",
      "priceRange": "€€",
      "mapsUrl": "https://maps.google.com/?q=52.0742373,4.3161512",
      "lat": 52.0742373,
      "lng": 4.3161512,
      "halalConfidence": "yes",
      "source": "osm"
    },
    {
      "nom": "Fat Phill's",
      "type": "burger",
      "priceRange": "€€",
      "mapsUrl": "https://maps.google.com/?q=52.0768737,4.314982",
      "lat": 52.0768737,
      "lng": 4.314982,
      "halalConfidence": "yes",
      "source": "osm"
    },
    {
      "nom": "Oh My Bun!",
      "type": "burger",
      "priceRange": "€€",
      "mapsUrl": "https://maps.google.com/?q=52.0769224,4.3154501",
      "lat": 52.0769224,
      "lng": 4.3154501,
      "halalConfidence": "yes",
      "source": "osm"
    },
    {
      "nom": "The Don",
      "type": "caribbean",
      "priceRange": "€€",
      "mapsUrl": "https://maps.google.com/?q=52.0711814,4.3212675",
      "lat": 52.0711814,
      "lng": 4.3212675,
      "halalConfidence": "yes",
      "source": "osm"
    },
    {
      "nom": "Burgers 'n Freakin' Fries",
      "type": "burger, fries",
      "priceRange": "€€",
      "mapsUrl": "https://maps.google.com/?q=52.081517,4.3260821",
      "lat": 52.081517,
      "lng": 4.3260821,
      "halalConfidence": "yes",
      "source": "osm"
    },
    {
      "nom": "Rani",
      "type": "indian",
      "priceRange": "€€",
      "mapsUrl": "https://maps.google.com/?q=52.048475,4.2917745",
      "lat": 52.048475,
      "lng": 4.2917745,
      "halalConfidence": "yes",
      "source": "osm"
    },
    {
      "nom": "Mozart Pizza & Pasta",
      "type": "Restaurant halal",
      "priceRange": "€€",
      "mapsUrl": "https://maps.google.com/?q=52.0477322,4.2928745",
      "lat": 52.0477322,
      "lng": 4.2928745,
      "halalConfidence": "yes",
      "source": "osm"
    },
    {
      "nom": "Café-restaurant Pan",
      "type": "international",
      "priceRange": "€€",
      "mapsUrl": "https://maps.google.com/?q=52.0815812,4.337763",
      "lat": 52.0815812,
      "lng": 4.337763,
      "halalConfidence": "yes",
      "source": "osm"
    },
    {
      "nom": "Toastup",
      "type": "sandwich",
      "priceRange": "€€",
      "mapsUrl": "https://maps.google.com/?q=52.08781,4.3830951",
      "lat": 52.08781,
      "lng": 4.3830951,
      "halalConfidence": "yes",
      "source": "osm"
    },
    {
      "nom": "Klein Maar Fijn",
      "type": "chinese, surinamese",
      "priceRange": "€€",
      "mapsUrl": "https://maps.google.com/?q=52.0095374,4.3563539",
      "lat": 52.0095374,
      "lng": 4.3563539,
      "halalConfidence": "yes",
      "source": "osm"
    },
    {
      "nom": "Döner Hoek",
      "type": "kebab",
      "priceRange": "€€",
      "mapsUrl": "https://maps.google.com/?q=52.0102888,4.36191",
      "lat": 52.0102888,
      "lng": 4.36191,
      "halalConfidence": "yes",
      "source": "osm"
    },
    {
      "nom": "Evin2",
      "type": "kebab",
      "priceRange": "€€",
      "mapsUrl": "https://maps.google.com/?q=52.0664826,4.2959624",
      "lat": 52.0664826,
      "lng": 4.2959624,
      "halalConfidence": "likely",
      "source": "osm"
    },
    {
      "nom": "Yemek Dunyasi",
      "type": "turkish",
      "priceRange": "€€",
      "mapsUrl": "https://maps.google.com/?q=52.0647195,4.2983667",
      "lat": 52.0647195,
      "lng": 4.2983667,
      "halalConfidence": "likely",
      "source": "osm"
    },
    {
      "nom": "Mevlana",
      "type": "turkish",
      "priceRange": "€€",
      "mapsUrl": "https://maps.google.com/?q=52.0650047,4.2924664",
      "lat": 52.0650047,
      "lng": 4.2924664,
      "halalConfidence": "likely",
      "source": "osm"
    },
    {
      "nom": "Jst Kebab",
      "type": "kebab",
      "priceRange": "€€",
      "mapsUrl": "https://maps.google.com/?q=52.0762241,4.3086007",
      "lat": 52.0762241,
      "lng": 4.3086007,
      "halalConfidence": "likely",
      "source": "osm"
    },
    {
      "nom": "Ramsis",
      "type": "arab",
      "priceRange": "€€",
      "mapsUrl": "https://maps.google.com/?q=52.0762592,4.3085645",
      "lat": 52.0762592,
      "lng": 4.3085645,
      "halalConfidence": "likely",
      "source": "osm"
    },
    {
      "nom": "Andalus Chick'n",
      "type": "moroccan, barbecue",
      "priceRange": "€€",
      "mapsUrl": "https://maps.google.com/?q=52.062808,4.3009847",
      "lat": 52.062808,
      "lng": 4.3009847,
      "halalConfidence": "likely",
      "source": "osm"
    },
    {
      "nom": "Hadramout Restaurant",
      "type": "arab",
      "priceRange": "€€",
      "mapsUrl": "https://maps.google.com/?q=52.0775298,4.3058049",
      "lat": 52.0775298,
      "lng": 4.3058049,
      "halalConfidence": "likely",
      "source": "osm"
    },
    {
      "nom": "Falafel en Hummus",
      "type": "lebanese",
      "priceRange": "€€",
      "mapsUrl": "https://maps.google.com/?q=52.0760891,4.3098969",
      "lat": 52.0760891,
      "lng": 4.3098969,
      "halalConfidence": "likely",
      "source": "osm"
    },
    {
      "nom": "Arman Uyghur Restaurant",
      "type": "uyghur",
      "priceRange": "€€",
      "mapsUrl": "https://maps.google.com/?q=52.0761872,4.3097517",
      "lat": 52.0761872,
      "lng": 4.3097517,
      "halalConfidence": "likely",
      "source": "osm"
    },
    {
      "nom": "Baladi",
      "type": "lebanese",
      "priceRange": "€€",
      "mapsUrl": "https://maps.google.com/?q=52.0788304,4.3039354",
      "lat": 52.0788304,
      "lng": 4.3039354,
      "halalConfidence": "likely",
      "source": "osm"
    },
    {
      "nom": "Restaurant Kairo",
      "type": "egyptian",
      "priceRange": "€€",
      "mapsUrl": "https://maps.google.com/?q=52.0798436,4.3041086",
      "lat": 52.0798436,
      "lng": 4.3041086,
      "halalConfidence": "likely",
      "source": "osm"
    },
    {
      "nom": "Bagcilar",
      "type": "kebab",
      "priceRange": "€€",
      "mapsUrl": "https://maps.google.com/?q=52.0670924,4.285705",
      "lat": 52.0670924,
      "lng": 4.285705,
      "halalConfidence": "likely",
      "source": "osm"
    },
    {
      "nom": "Restaurant Amon",
      "type": "egyptian",
      "priceRange": "€€",
      "mapsUrl": "https://maps.google.com/?q=52.072258,4.2845222",
      "lat": 52.072258,
      "lng": 4.2845222,
      "halalConfidence": "likely",
      "source": "osm"
    },
    {
      "nom": "Tasty Point",
      "type": "turkish",
      "priceRange": "€€",
      "mapsUrl": "https://maps.google.com/?q=52.0765735,4.3142453",
      "lat": 52.0765735,
      "lng": 4.3142453,
      "halalConfidence": "likely",
      "source": "osm"
    },
    {
      "nom": "Aleppo Restaurant",
      "type": "kebab",
      "priceRange": "€€",
      "mapsUrl": "https://maps.google.com/?q=52.0805424,4.2965082",
      "lat": 52.0805424,
      "lng": 4.2965082,
      "halalConfidence": "likely",
      "source": "osm"
    },
    {
      "nom": "Börek Dünyasi",
      "type": "sandwich, turkish",
      "priceRange": "€€",
      "mapsUrl": "https://maps.google.com/?q=52.0767154,4.314669",
      "lat": 52.0767154,
      "lng": 4.314669,
      "halalConfidence": "likely",
      "source": "osm"
    },
    {
      "nom": "Grillroom Arena",
      "type": "turkish",
      "priceRange": "€€",
      "mapsUrl": "https://maps.google.com/?q=52.0766971,4.3149955",
      "lat": 52.0766971,
      "lng": 4.3149955,
      "halalConfidence": "likely",
      "source": "osm"
    },
    {
      "nom": "Köfte Hoor",
      "type": "turkish",
      "priceRange": "€€",
      "mapsUrl": "https://maps.google.com/?q=52.0624799,4.3123717",
      "lat": 52.0624799,
      "lng": 4.3123717,
      "halalConfidence": "likely",
      "source": "osm"
    },
    {
      "nom": "FLFL",
      "type": "arab, middle eastern",
      "priceRange": "€€",
      "mapsUrl": "https://maps.google.com/?q=52.0781081,4.3133617",
      "lat": 52.0781081,
      "lng": 4.3133617,
      "halalConfidence": "likely",
      "source": "osm"
    },
    {
      "nom": "Draai Döner",
      "type": "kebab",
      "priceRange": "€€",
      "mapsUrl": "https://maps.google.com/?q=52.0781334,4.3134174",
      "lat": 52.0781334,
      "lng": 4.3134174,
      "halalConfidence": "likely",
      "source": "osm"
    },
    {
      "nom": "Çadir",
      "type": "turkish",
      "priceRange": "€€",
      "mapsUrl": "https://maps.google.com/?q=52.0631003,4.3141817",
      "lat": 52.0631003,
      "lng": 4.3141817,
      "halalConfidence": "likely",
      "source": "osm"
    },
    {
      "nom": "Anfa Restaurant",
      "type": "moroccan",
      "priceRange": "€€",
      "mapsUrl": "https://maps.google.com/?q=52.0726682,4.3193005",
      "lat": 52.0726682,
      "lng": 4.3193005,
      "halalConfidence": "likely",
      "source": "osm"
    },
    {
      "nom": "UNO",
      "type": "burger, pasta, sandwich, shawarma",
      "priceRange": "€€",
      "mapsUrl": "https://maps.google.com/?q=52.069408,4.3200709",
      "lat": 52.069408,
      "lng": 4.3200709,
      "halalConfidence": "likely",
      "source": "osm"
    },
    {
      "nom": "Taste of Persia",
      "type": "persian",
      "priceRange": "€€",
      "mapsUrl": "https://maps.google.com/?q=52.0824745,4.3004043",
      "lat": 52.0824745,
      "lng": 4.3004043,
      "halalConfidence": "likely",
      "source": "osm"
    },
    {
      "nom": "Tuma",
      "type": "turkish",
      "priceRange": "€€",
      "mapsUrl": "https://maps.google.com/?q=52.0779481,4.2849235",
      "lat": 52.0779481,
      "lng": 4.2849235,
      "halalConfidence": "likely",
      "source": "osm"
    },
    {
      "nom": "ByŞef",
      "type": "turkish",
      "priceRange": "€€",
      "mapsUrl": "https://maps.google.com/?q=52.0655384,4.3190878",
      "lat": 52.0655384,
      "lng": 4.3190878,
      "halalConfidence": "likely",
      "source": "osm"
    },
    {
      "nom": "Calanddock restaurant",
      "type": "turkish",
      "priceRange": "€€",
      "mapsUrl": "https://maps.google.com/?q=52.0604117,4.3130529",
      "lat": 52.0604117,
      "lng": 4.3130529,
      "halalConfidence": "likely",
      "source": "osm"
    },
    {
      "nom": "Tandr",
      "type": "turkish",
      "priceRange": "€€",
      "mapsUrl": "https://maps.google.com/?q=52.0776968,4.317609",
      "lat": 52.0776968,
      "lng": 4.317609,
      "halalConfidence": "likely",
      "source": "osm"
    },
    {
      "nom": "Maydonoz Döner",
      "type": "turkish",
      "priceRange": "€€",
      "mapsUrl": "https://maps.google.com/?q=52.0791579,4.315699",
      "lat": 52.0791579,
      "lng": 4.315699,
      "halalConfidence": "likely",
      "source": "osm"
    },
    {
      "nom": "Ali's",
      "type": "lebanese",
      "priceRange": "€€",
      "mapsUrl": "https://maps.google.com/?q=52.0763954,4.2824185",
      "lat": 52.0763954,
      "lng": 4.2824185,
      "halalConfidence": "likely",
      "source": "osm"
    },
    {
      "nom": "Ahmet Usta",
      "type": "turkish, kebab",
      "priceRange": "€€",
      "mapsUrl": "https://maps.google.com/?q=52.0708436,4.3216594",
      "lat": 52.0708436,
      "lng": 4.3216594,
      "halalConfidence": "likely",
      "source": "osm"
    },
    {
      "nom": "HD Döner",
      "type": "kebab",
      "priceRange": "€€",
      "mapsUrl": "https://maps.google.com/?q=52.0658312,4.2810711",
      "lat": 52.0658312,
      "lng": 4.2810711,
      "halalConfidence": "likely",
      "source": "osm"
    },
    {
      "nom": "Dürümcü",
      "type": "turkish",
      "priceRange": "€€",
      "mapsUrl": "https://maps.google.com/?q=52.0705303,4.3219804",
      "lat": 52.0705303,
      "lng": 4.3219804,
      "halalConfidence": "likely",
      "source": "osm"
    },
    {
      "nom": "Jan Patat",
      "type": "fries, turkish",
      "priceRange": "€€",
      "mapsUrl": "https://maps.google.com/?q=52.0705574,4.3220687",
      "lat": 52.0705574,
      "lng": 4.3220687,
      "halalConfidence": "likely",
      "source": "osm"
    },
    {
      "nom": "Ekmekci",
      "type": "turkish",
      "priceRange": "€€",
      "mapsUrl": "https://maps.google.com/?q=52.0688352,4.3221787",
      "lat": 52.0688352,
      "lng": 4.3221787,
      "halalConfidence": "likely",
      "source": "osm"
    },
    {
      "nom": "The Döner Company",
      "type": "kebab",
      "priceRange": "€€",
      "mapsUrl": "https://maps.google.com/?q=52.0690315,4.3225354",
      "lat": 52.0690315,
      "lng": 4.3225354,
      "halalConfidence": "likely",
      "source": "osm"
    },
    {
      "nom": "Firoozi",
      "type": "persian",
      "priceRange": "€€",
      "mapsUrl": "https://maps.google.com/?q=52.0776091,4.3197074",
      "lat": 52.0776091,
      "lng": 4.3197074,
      "halalConfidence": "likely",
      "source": "osm"
    },
    {
      "nom": "Amier",
      "type": "lebanese",
      "priceRange": "€€",
      "mapsUrl": "https://maps.google.com/?q=52.080099,4.3176372",
      "lat": 52.080099,
      "lng": 4.3176372,
      "halalConfidence": "likely",
      "source": "osm"
    },
    {
      "nom": "Al Hayat",
      "type": "arab",
      "priceRange": "€€",
      "mapsUrl": "https://maps.google.com/?q=52.079641,4.318341",
      "lat": 52.079641,
      "lng": 4.318341,
      "halalConfidence": "likely",
      "source": "osm"
    },
    {
      "nom": "Chef Bulbol",
      "type": "lebanese",
      "priceRange": "€€",
      "mapsUrl": "https://maps.google.com/?q=52.0804765,4.3179681",
      "lat": 52.0804765,
      "lng": 4.3179681,
      "halalConfidence": "likely",
      "source": "osm"
    },
    {
      "nom": "Layali Alsham",
      "type": "kebab",
      "priceRange": "€€",
      "mapsUrl": "https://maps.google.com/?q=52.0809715,4.3193108",
      "lat": 52.0809715,
      "lng": 4.3193108,
      "halalConfidence": "likely",
      "source": "osm"
    },
    {
      "nom": "Datça",
      "type": "turkish",
      "priceRange": "€€",
      "mapsUrl": "https://maps.google.com/?q=52.0817323,4.2829065",
      "lat": 52.0817323,
      "lng": 4.2829065,
      "halalConfidence": "likely",
      "source": "osm"
    },
    {
      "nom": "Eethuis Marina Smir",
      "type": "moroccan",
      "priceRange": "€€",
      "mapsUrl": "https://maps.google.com/?q=52.0686744,4.327568",
      "lat": 52.0686744,
      "lng": 4.327568,
      "halalConfidence": "likely",
      "source": "osm"
    },
    {
      "nom": "Yemek Sarayi Samara",
      "type": "kebab",
      "priceRange": "€€",
      "mapsUrl": "https://maps.google.com/?q=52.0560423,4.3152462",
      "lat": 52.0560423,
      "lng": 4.3152462,
      "halalConfidence": "likely",
      "source": "osm"
    },
    {
      "nom": "Camp David",
      "type": "egyptian",
      "priceRange": "€€",
      "mapsUrl": "https://maps.google.com/?q=52.0590258,4.3218495",
      "lat": 52.0590258,
      "lng": 4.3218495,
      "halalConfidence": "likely",
      "source": "osm"
    },
    {
      "nom": "Sarban",
      "type": "afghan",
      "priceRange": "€€",
      "mapsUrl": "https://maps.google.com/?q=52.0875085,4.3104374",
      "lat": 52.0875085,
      "lng": 4.3104374,
      "halalConfidence": "likely",
      "source": "osm"
    },
    {
      "nom": "Zirve Restaurant",
      "type": "turkish",
      "priceRange": "€€",
      "mapsUrl": "https://maps.google.com/?q=52.079856,4.3272016",
      "lat": 52.079856,
      "lng": 4.3272016,
      "halalConfidence": "likely",
      "source": "osm"
    },
    {
      "nom": "Bohica",
      "type": "lebanese",
      "priceRange": "€€",
      "mapsUrl": "https://maps.google.com/?q=52.0816263,4.3259065",
      "lat": 52.0816263,
      "lng": 4.3259065,
      "halalConfidence": "likely",
      "source": "osm"
    },
    {
      "nom": "Shiraz",
      "type": "persian",
      "priceRange": "€€",
      "mapsUrl": "https://maps.google.com/?q=52.0761999,4.27078",
      "lat": 52.0761999,
      "lng": 4.27078,
      "halalConfidence": "likely",
      "source": "osm"
    },
    {
      "nom": "Anatolie",
      "type": "turkish",
      "priceRange": "€€",
      "mapsUrl": "https://maps.google.com/?q=52.0762959,4.269895",
      "lat": 52.0762959,
      "lng": 4.269895,
      "halalConfidence": "likely",
      "source": "osm"
    },
    {
      "nom": "Eethuis Leyenburger",
      "type": "arab, burger, friture, grill, kebab",
      "priceRange": "€€",
      "mapsUrl": "https://maps.google.com/?q=52.0620631,4.2698254",
      "lat": 52.0620631,
      "lng": 4.2698254,
      "halalConfidence": "likely",
      "source": "osm"
    },
    {
      "nom": "Snackbar Tuintje",
      "type": "friture, pizza, kebab, burger, shawarma",
      "priceRange": "€€",
      "mapsUrl": "https://maps.google.com/?q=52.0507262,4.3137952",
      "lat": 52.0507262,
      "lng": 4.3137952,
      "halalConfidence": "likely",
      "source": "osm"
    },
    {
      "nom": "Öz Atas",
      "type": "turkish",
      "priceRange": "€€",
      "mapsUrl": "https://maps.google.com/?q=52.0551075,4.2750294",
      "lat": 52.0551075,
      "lng": 4.2750294,
      "halalConfidence": "likely",
      "source": "osm"
    },
    {
      "nom": "Hanzade Çiğköfte",
      "type": "turkish",
      "priceRange": "€€",
      "mapsUrl": "https://maps.google.com/?q=52.0483545,4.291952",
      "lat": 52.0483545,
      "lng": 4.291952,
      "halalConfidence": "likely",
      "source": "osm"
    },
    {
      "nom": "El Mamma",
      "type": "egyptian",
      "priceRange": "€€",
      "mapsUrl": "https://maps.google.com/?q=52.0553207,4.3324677",
      "lat": 52.0553207,
      "lng": 4.3324677,
      "halalConfidence": "likely",
      "source": "osm"
    },
    {
      "nom": "Efes-Marmaris",
      "type": "turkish",
      "priceRange": "€€",
      "mapsUrl": "https://maps.google.com/?q=52.048256,4.2767157",
      "lat": 52.048256,
      "lng": 4.2767157,
      "halalConfidence": "likely",
      "source": "osm"
    },
    {
      "nom": "Istanbul Midye",
      "type": "turkish",
      "priceRange": "€€",
      "mapsUrl": "https://maps.google.com/?q=52.0433006,4.2940069",
      "lat": 52.0433006,
      "lng": 4.2940069,
      "halalConfidence": "likely",
      "source": "osm"
    },
    {
      "nom": "Harput",
      "type": "turkish",
      "priceRange": "€€",
      "mapsUrl": "https://maps.google.com/?q=52.0867068,4.3378795",
      "lat": 52.0867068,
      "lng": 4.3378795,
      "halalConfidence": "likely",
      "source": "osm"
    },
    {
      "nom": "Kameel",
      "type": "shawarma",
      "priceRange": "€€",
      "mapsUrl": "https://maps.google.com/?q=52.0813383,4.3430759",
      "lat": 52.0813383,
      "lng": 4.3430759,
      "halalConfidence": "likely",
      "source": "osm"
    },
    {
      "nom": "Haifa Shoarma",
      "type": "turkish",
      "priceRange": "€€",
      "mapsUrl": "https://maps.google.com/?q=52.0491583,4.3332503",
      "lat": 52.0491583,
      "lng": 4.3332503,
      "halalConfidence": "likely",
      "source": "osm"
    },
    {
      "nom": "Aras Gul Dönercenter",
      "type": "kebab, turkish",
      "priceRange": "€€",
      "mapsUrl": "https://maps.google.com/?q=52.0851543,4.3429784",
      "lat": 52.0851543,
      "lng": 4.3429784,
      "halalConfidence": "likely",
      "source": "osm"
    },
    {
      "nom": "Fatayer Time",
      "type": "arab",
      "priceRange": "€€",
      "mapsUrl": "https://maps.google.com/?q=52.0765123,4.3553073",
      "lat": 52.0765123,
      "lng": 4.3553073,
      "halalConfidence": "likely",
      "source": "osm"
    },
    {
      "nom": "Bon Appetit",
      "type": "kebab",
      "priceRange": "€€",
      "mapsUrl": "https://maps.google.com/?q=52.0760952,4.3571467",
      "lat": 52.0760952,
      "lng": 4.3571467,
      "halalConfidence": "likely",
      "source": "osm"
    },
    {
      "nom": "Olive Traiteur Turkse Specialiteiten",
      "type": "turkish",
      "priceRange": "€€",
      "mapsUrl": "https://maps.google.com/?q=52.0350926,4.3073721",
      "lat": 52.0350926,
      "lng": 4.3073721,
      "halalConfidence": "likely",
      "source": "osm"
    },
    {
      "nom": "Pizza City Scheveningen",
      "type": "pizza, turkish",
      "priceRange": "€€",
      "mapsUrl": "https://maps.google.com/?q=52.1034615,4.2771484",
      "lat": 52.1034615,
      "lng": 4.2771484,
      "halalConfidence": "likely",
      "source": "osm"
    },
    {
      "nom": "Oses Çiğköfte",
      "type": "turkish",
      "priceRange": "€€",
      "mapsUrl": "https://maps.google.com/?q=52.0437874,4.2597351",
      "lat": 52.0437874,
      "lng": 4.2597351,
      "halalConfidence": "likely",
      "source": "osm"
    },
    {
      "nom": "Shoarma Isis",
      "type": "kebab",
      "priceRange": "€€",
      "mapsUrl": "https://maps.google.com/?q=52.1048754,4.2792981",
      "lat": 52.1048754,
      "lng": 4.2792981,
      "halalConfidence": "likely",
      "source": "osm"
    },
    {
      "nom": "Döner Take Away",
      "type": "kebab",
      "priceRange": "€€",
      "mapsUrl": "https://maps.google.com/?q=52.1048165,4.324174",
      "lat": 52.1048165,
      "lng": 4.324174,
      "halalConfidence": "likely",
      "source": "osm"
    },
    {
      "nom": "Sphinx",
      "type": "turkish",
      "priceRange": "€€",
      "mapsUrl": "https://maps.google.com/?q=52.1045541,4.2757624",
      "lat": 52.1045541,
      "lng": 4.2757624,
      "halalConfidence": "likely",
      "source": "osm"
    },
    {
      "nom": "Jeffrey Grill",
      "type": "kebab",
      "priceRange": "€€",
      "mapsUrl": "https://maps.google.com/?q=52.0673452,4.3645588",
      "lat": 52.0673452,
      "lng": 4.3645588,
      "halalConfidence": "likely",
      "source": "osm"
    },
    {
      "nom": "Başak Dürüm",
      "type": "turkish",
      "priceRange": "€€",
      "mapsUrl": "https://maps.google.com/?q=52.0350914,4.2661576",
      "lat": 52.0350914,
      "lng": 4.2661576,
      "halalConfidence": "likely",
      "source": "osm"
    },
    {
      "nom": "Picco-Bello",
      "type": "kebab",
      "priceRange": "€€",
      "mapsUrl": "https://maps.google.com/?q=52.0927415,4.3591397",
      "lat": 52.0927415,
      "lng": 4.3591397,
      "halalConfidence": "likely",
      "source": "osm"
    },
    {
      "nom": "Pita Express",
      "type": "kebab",
      "priceRange": "€€",
      "mapsUrl": "https://maps.google.com/?q=52.0927518,4.3593255",
      "lat": 52.0927518,
      "lng": 4.3593255,
      "halalConfidence": "likely",
      "source": "osm"
    },
    {
      "nom": "Ali's Eethuis",
      "type": "kebab",
      "priceRange": "€€",
      "mapsUrl": "https://maps.google.com/?q=52.0593139,4.2309783",
      "lat": 52.0593139,
      "lng": 4.2309783,
      "halalConfidence": "likely",
      "source": "osm"
    },
    {
      "nom": "Mezze Arabische Tapasbar",
      "type": "arab, lebanese",
      "priceRange": "€€",
      "mapsUrl": "https://maps.google.com/?q=52.113311,4.2821665",
      "lat": 52.113311,
      "lng": 4.2821665,
      "halalConfidence": "likely",
      "source": "osm"
    },
    {
      "nom": "Marmaris Kijkduin",
      "type": "turkish",
      "priceRange": "€€",
      "mapsUrl": "https://maps.google.com/?q=52.0629708,4.2267896",
      "lat": 52.0629708,
      "lng": 4.2267896,
      "halalConfidence": "likely",
      "source": "osm"
    },
    {
      "nom": "Eethuis Lage Veld",
      "type": "pasta, pizza, turkish",
      "priceRange": "€€",
      "mapsUrl": "https://maps.google.com/?q=52.0194672,4.2972684",
      "lat": 52.0194672,
      "lng": 4.2972684,
      "halalConfidence": "likely",
      "source": "osm"
    },
    {
      "nom": "Ramak",
      "type": "turkish",
      "priceRange": "€€",
      "mapsUrl": "https://maps.google.com/?q=52.0418992,4.3704147",
      "lat": 52.0418992,
      "lng": 4.3704147,
      "halalConfidence": "likely",
      "source": "osm"
    },
    {
      "nom": "Ali's Lebanese Incredible Sandwiches",
      "type": "sandwich, lebanese",
      "priceRange": "€€",
      "mapsUrl": "https://maps.google.com/?q=52.0892995,4.3820793",
      "lat": 52.0892995,
      "lng": 4.3820793,
      "halalConfidence": "likely",
      "source": "osm"
    },
    {
      "nom": "Baahu's - Tandoori & Curries",
      "type": "pakistani",
      "priceRange": "€€",
      "mapsUrl": "https://maps.google.com/?q=52.0876057,4.3832348",
      "lat": 52.0876057,
      "lng": 4.3832348,
      "halalConfidence": "likely",
      "source": "osm"
    },
    {
      "nom": "Rahma halal",
      "type": "turkish",
      "priceRange": "€€",
      "mapsUrl": "https://maps.google.com/?q=52.0902443,4.3905078",
      "lat": 52.0902443,
      "lng": 4.3905078,
      "halalConfidence": "likely",
      "source": "osm"
    },
    {
      "nom": "Shanasheel Restaurant",
      "type": "kebab, turkish",
      "priceRange": "€€",
      "mapsUrl": "https://maps.google.com/?q=52.0821699,4.3954476",
      "lat": 52.0821699,
      "lng": 4.3954476,
      "halalConfidence": "likely",
      "source": "osm"
    },
    {
      "nom": "Ganii",
      "type": "kebab",
      "priceRange": "€€",
      "mapsUrl": "https://maps.google.com/?q=52.0115712,4.3158686",
      "lat": 52.0115712,
      "lng": 4.3158686,
      "halalConfidence": "likely",
      "source": "osm"
    },
    {
      "nom": "Eflatun",
      "type": "turkish",
      "priceRange": "€€",
      "mapsUrl": "https://maps.google.com/?q=52.0804867,4.3969236",
      "lat": 52.0804867,
      "lng": 4.3969236,
      "halalConfidence": "likely",
      "source": "osm"
    },
    {
      "nom": "Öztad doner-kebab",
      "type": "kebab",
      "priceRange": "€€",
      "mapsUrl": "https://maps.google.com/?q=52.0454657,4.3921523",
      "lat": 52.0454657,
      "lng": 4.3921523,
      "halalConfidence": "likely",
      "source": "osm"
    },
    {
      "nom": "Jeruzalem",
      "type": "kebab",
      "priceRange": "€€",
      "mapsUrl": "https://maps.google.com/?q=52.0130385,4.3581243",
      "lat": 52.0130385,
      "lng": 4.3581243,
      "halalConfidence": "likely",
      "source": "osm"
    },
    {
      "nom": "Adam's Food House",
      "type": "pizza, burger, shawarma",
      "priceRange": "€€",
      "mapsUrl": "https://maps.google.com/?q=52.0130606,4.3581893",
      "lat": 52.0130606,
      "lng": 4.3581893,
      "halalConfidence": "likely",
      "source": "osm"
    },
    {
      "nom": "Shoarma Oase",
      "type": "kebab",
      "priceRange": "€€",
      "mapsUrl": "https://maps.google.com/?q=52.0129902,4.3629411",
      "lat": 52.0129902,
      "lng": 4.3629411,
      "halalConfidence": "likely",
      "source": "osm"
    },
    {
      "nom": "Döner King",
      "type": "turkish",
      "priceRange": "€€",
      "mapsUrl": "https://maps.google.com/?q=52.0113686,4.3598342",
      "lat": 52.0113686,
      "lng": 4.3598342,
      "halalConfidence": "likely",
      "source": "osm"
    },
    {
      "nom": "Zaferuw",
      "type": "persian",
      "priceRange": "€€",
      "mapsUrl": "https://maps.google.com/?q=52.0119564,4.3616018",
      "lat": 52.0119564,
      "lng": 4.3616018,
      "halalConfidence": "likely",
      "source": "osm"
    },
    {
      "nom": "Karim Fastfood",
      "type": "kebab",
      "priceRange": "€€",
      "mapsUrl": "https://maps.google.com/?q=52.0102244,4.3575436",
      "lat": 52.0102244,
      "lng": 4.3575436,
      "halalConfidence": "likely",
      "source": "osm"
    },
    {
      "nom": "Kobi's Grill",
      "type": "kebab",
      "priceRange": "€€",
      "mapsUrl": "https://maps.google.com/?q=52.0102984,4.357775",
      "lat": 52.0102984,
      "lng": 4.357775,
      "halalConfidence": "likely",
      "source": "osm"
    },
    {
      "nom": "Döner to go",
      "type": "kebab",
      "priceRange": "€€",
      "mapsUrl": "https://maps.google.com/?q=52.0101271,4.360472",
      "lat": 52.0101271,
      "lng": 4.360472,
      "halalConfidence": "likely",
      "source": "osm"
    },
    {
      "nom": "Station Doner Pizza",
      "type": "pizza, kebab",
      "priceRange": "€€",
      "mapsUrl": "https://maps.google.com/?q=52.0073689,4.3580169",
      "lat": 52.0073689,
      "lng": 4.3580169,
      "halalConfidence": "likely",
      "source": "osm"
    },
    {
      "nom": "Vatan Döner",
      "type": "kebab, doner",
      "priceRange": "€€",
      "mapsUrl": "https://maps.google.com/?q=51.9990783,4.3551428",
      "lat": 51.9990783,
      "lng": 4.3551428,
      "halalConfidence": "likely",
      "source": "osm"
    },
    {
      "nom": "Restaurant Samara",
      "type": "turkish",
      "priceRange": "€€",
      "mapsUrl": "https://maps.google.com/?q=52.0051275,4.3911491",
      "lat": 52.0051275,
      "lng": 4.3911491,
      "halalConfidence": "likely",
      "source": "osm"
    },
    {
      "nom": "Restaurant De Witte Raaf",
      "type": "persian",
      "priceRange": "€€",
      "mapsUrl": "https://maps.google.com/?q=52.070227,4.4418574",
      "lat": 52.070227,
      "lng": 4.4418574,
      "halalConfidence": "likely",
      "source": "osm"
    },
    {
      "nom": "Oregano Foodhall",
      "type": "turkish",
      "priceRange": "€€",
      "mapsUrl": "https://maps.google.com/?q=52.1425316,4.395634",
      "lat": 52.1425316,
      "lng": 4.395634,
      "halalConfidence": "likely",
      "source": "osm"
    },
    {
      "nom": "Mister Kebab",
      "type": "kebab",
      "priceRange": "€€",
      "mapsUrl": "https://maps.google.com/?q=52.0191441,4.4302039",
      "lat": 52.0191441,
      "lng": 4.4302039,
      "halalConfidence": "likely",
      "source": "osm"
    },
    {
      "nom": "Dönercar Wassenaar",
      "type": "kebab",
      "priceRange": "€€",
      "mapsUrl": "https://maps.google.com/?q=52.1471903,4.3915252",
      "lat": 52.1471903,
      "lng": 4.3915252,
      "halalConfidence": "likely",
      "source": "osm"
    },
    {
      "nom": "Grillroom Jeruzalem",
      "type": "kebab",
      "priceRange": "€€",
      "mapsUrl": "https://maps.google.com/?q=52.1477365,4.3955927",
      "lat": 52.1477365,
      "lng": 4.3955927,
      "halalConfidence": "likely",
      "source": "osm"
    },
    {
      "nom": "Westland Döner",
      "type": "kebab",
      "priceRange": "€€",
      "mapsUrl": "https://maps.google.com/?q=52.0037093,4.1707438",
      "lat": 52.0037093,
      "lng": 4.1707438,
      "halalConfidence": "likely",
      "source": "osm"
    },
    {
      "nom": "Himalayan",
      "lat": 52.0773763,
      "lng": 4.3105149,
      "type": "indian",
      "halalConfidence": "likely",
      "mapsUrl": "https://maps.google.com/?q=52.0773763,4.3105149",
      "source": "osm"
    },
    {
      "nom": "Ramna",
      "lat": 52.0800114,
      "lng": 4.3070466,
      "type": "indian",
      "halalConfidence": "likely",
      "mapsUrl": "https://maps.google.com/?q=52.0800114,4.3070466",
      "source": "osm"
    },
    {
      "nom": "Mad'Ras",
      "lat": 52.081484,
      "lng": 4.2975186,
      "type": "indian",
      "halalConfidence": "likely",
      "mapsUrl": "https://maps.google.com/?q=52.081484,4.2975186",
      "source": "osm"
    },
    {
      "nom": "Maharani",
      "lat": 52.0825979,
      "lng": 4.3055582,
      "type": "indian",
      "halalConfidence": "likely",
      "mapsUrl": "https://maps.google.com/?q=52.0825979,4.3055582",
      "source": "osm"
    },
    {
      "nom": "Indian By Nature",
      "lat": 52.0812656,
      "lng": 4.3155743,
      "type": "indian",
      "halalConfidence": "likely",
      "mapsUrl": "https://maps.google.com/?q=52.0812656,4.3155743",
      "source": "osm"
    },
    {
      "nom": "Taste of India",
      "lat": 52.0670362,
      "lng": 4.277494,
      "type": "indian",
      "halalConfidence": "likely",
      "mapsUrl": "https://maps.google.com/?q=52.0670362,4.277494",
      "source": "osm"
    },
    {
      "nom": "Jaipur of India",
      "lat": 52.0724899,
      "lng": 4.2757797,
      "type": "indian",
      "halalConfidence": "likely",
      "mapsUrl": "https://maps.google.com/?q=52.0724899,4.2757797",
      "source": "osm"
    },
    {
      "nom": "Clay & Spice by Taj",
      "lat": 52.0844698,
      "lng": 4.3133764,
      "type": "indian",
      "halalConfidence": "likely",
      "mapsUrl": "https://maps.google.com/?q=52.0844698,4.3133764",
      "source": "osm"
    },
    {
      "nom": "Indian Foods Corner",
      "lat": 52.0569191,
      "lng": 4.3155634,
      "type": "indian",
      "halalConfidence": "likely",
      "mapsUrl": "https://maps.google.com/?q=52.0569191,4.3155634",
      "source": "osm"
    },
    {
      "nom": "Krishna Vilas",
      "lat": 52.0864025,
      "lng": 4.3121244,
      "type": "indian",
      "halalConfidence": "likely",
      "mapsUrl": "https://maps.google.com/?q=52.0864025,4.3121244",
      "source": "osm"
    },
    {
      "nom": "Mr. India",
      "lat": 52.0753009,
      "lng": 4.2681908,
      "type": "indian",
      "halalConfidence": "likely",
      "mapsUrl": "https://maps.google.com/?q=52.0753009,4.2681908",
      "source": "osm"
    },
    {
      "nom": "Indian Curry Club",
      "lat": 52.0790644,
      "lng": 4.2695041,
      "type": "indian",
      "halalConfidence": "likely",
      "mapsUrl": "https://maps.google.com/?q=52.0790644,4.2695041",
      "source": "osm"
    },
    {
      "nom": "Elaichi",
      "lat": 52.0878198,
      "lng": 4.2772193,
      "type": "indian",
      "halalConfidence": "likely",
      "mapsUrl": "https://maps.google.com/?q=52.0878198,4.2772193",
      "source": "osm"
    },
    {
      "nom": "Indie Ruchi",
      "lat": 52.0851063,
      "lng": 4.3344439,
      "type": "indian",
      "halalConfidence": "likely",
      "mapsUrl": "https://maps.google.com/?q=52.0851063,4.3344439",
      "source": "osm"
    },
    {
      "nom": "The Clay Oven",
      "lat": 52.0553932,
      "lng": 4.3338539,
      "type": "indian",
      "halalConfidence": "likely",
      "mapsUrl": "https://maps.google.com/?q=52.0553932,4.3338539",
      "source": "osm"
    },
    {
      "nom": "Indian Bay Dreams",
      "lat": 52.0947873,
      "lng": 4.2658483,
      "type": "indian",
      "halalConfidence": "likely",
      "mapsUrl": "https://maps.google.com/?q=52.0947873,4.2658483",
      "source": "osm"
    },
    {
      "nom": "Chef India",
      "lat": 52.0795075,
      "lng": 4.3523923,
      "type": "indian",
      "halalConfidence": "likely",
      "mapsUrl": "https://maps.google.com/?q=52.0795075,4.3523923",
      "source": "osm"
    },
    {
      "nom": "Anaya Foods",
      "lat": 52.1021696,
      "lng": 4.2780879,
      "type": "indian",
      "halalConfidence": "likely",
      "mapsUrl": "https://maps.google.com/?q=52.1021696,4.2780879",
      "source": "osm"
    },
    {
      "nom": "Golden House",
      "lat": 52.0333362,
      "lng": 4.3210129,
      "type": "chinese, indian",
      "halalConfidence": "likely",
      "mapsUrl": "https://maps.google.com/?q=52.0333362,4.3210129",
      "source": "osm"
    },
    {
      "nom": "Five Flavors",
      "lat": 52.0808732,
      "lng": 4.3629474,
      "type": "indian",
      "halalConfidence": "likely",
      "mapsUrl": "https://maps.google.com/?q=52.0808732,4.3629474",
      "source": "osm"
    },
    {
      "nom": "Bombay Palace",
      "lat": 52.1137403,
      "lng": 4.2865402,
      "type": "indian",
      "halalConfidence": "likely",
      "mapsUrl": "https://maps.google.com/?q=52.1137403,4.2865402",
      "source": "osm"
    },
    {
      "nom": "Ozan café",
      "lat": 52.0898209,
      "lng": 4.3847986,
      "type": "turkish",
      "halalConfidence": "likely",
      "mapsUrl": "https://maps.google.com/?q=52.0898209,4.3847986",
      "source": "osm"
    },
    {
      "nom": "Bombay Corner",
      "lat": 52.0163489,
      "lng": 4.3519572,
      "type": "indian",
      "halalConfidence": "likely",
      "mapsUrl": "https://maps.google.com/?q=52.0163489,4.3519572",
      "source": "osm"
    },
    {
      "nom": "India Garden",
      "lat": 52.0125465,
      "lng": 4.3607002,
      "type": "indian",
      "halalConfidence": "likely",
      "mapsUrl": "https://maps.google.com/?q=52.0125465,4.3607002",
      "source": "osm"
    },
    {
      "nom": "Maharaja",
      "lat": 52.0133467,
      "lng": 4.3642667,
      "type": "indian",
      "halalConfidence": "likely",
      "mapsUrl": "https://maps.google.com/?q=52.0133467,4.3642667",
      "source": "osm"
    },
    {
      "nom": "Tesi Boen afhaalcentrum",
      "lat": 51.9995231,
      "lng": 4.3538966,
      "type": "chinese, indian",
      "halalConfidence": "likely",
      "mapsUrl": "https://maps.google.com/?q=51.9995231,4.3538966",
      "source": "osm"
    }
  ],
  "hotels": [
    {
      "nom": "Will & Tate City Stay",
      "categorie": "Auberge",
      "priceRange": "€€",
      "mapsUrl": "https://maps.google.com/?q=52.0740874,4.3045518",
      "lat": 52.0740874,
      "lng": 4.3045518,
      "halalFriendly": false,
      "bookingUrl": "https://www.willandtate.com/",
      "source": "osm"
    },
    {
      "nom": "CityStay The Hague",
      "categorie": "Auberge",
      "priceRange": "€€",
      "mapsUrl": "https://maps.google.com/?q=52.073418,4.3076452",
      "lat": 52.073418,
      "lng": 4.3076452,
      "halalFriendly": false,
      "bookingUrl": "https://maps.google.com/?q=52.073418,4.3076452",
      "source": "osm"
    },
    {
      "nom": "Ibis",
      "categorie": "Hôtel",
      "priceRange": "€€€",
      "score": 3,
      "mapsUrl": "https://maps.google.com/?q=52.0764493,4.3069211",
      "lat": 52.0764493,
      "lng": 4.3069211,
      "halalFriendly": false,
      "bookingUrl": "https://all.accor.com/hotel/3701/index.nl.shtml",
      "source": "osm"
    },
    {
      "nom": "Pink Flamingo Hostel",
      "categorie": "Auberge",
      "priceRange": "€€",
      "mapsUrl": "https://maps.google.com/?q=52.0758952,4.3082676",
      "lat": 52.0758952,
      "lng": 4.3082676,
      "halalFriendly": false,
      "bookingUrl": "https://hosteldenhaag.nl",
      "source": "osm"
    },
    {
      "nom": "Hostel The Hague",
      "categorie": "Auberge",
      "priceRange": "€€",
      "mapsUrl": "https://maps.google.com/?q=52.0751622,4.3095029",
      "lat": 52.0751622,
      "lng": 4.3095029,
      "halalFriendly": false,
      "bookingUrl": "https://hostelthehague.com/",
      "source": "osm"
    },
    {
      "nom": "De Lola podshotel",
      "categorie": "Hôtel",
      "priceRange": "€€",
      "mapsUrl": "https://maps.google.com/?q=52.0768218,4.309626",
      "lat": 52.0768218,
      "lng": 4.309626,
      "halalFriendly": false,
      "bookingUrl": "https://delolapods.nl/",
      "source": "osm"
    },
    {
      "nom": "The Collector",
      "categorie": "Hôtel",
      "priceRange": "€€",
      "mapsUrl": "https://maps.google.com/?q=52.0770521,4.3095204",
      "lat": 52.0770521,
      "lng": 4.3095204,
      "halalFriendly": false,
      "bookingUrl": "https://thecollectorhotel.com/",
      "source": "osm"
    },
    {
      "nom": "Ibis Styles",
      "categorie": "Hôtel",
      "priceRange": "€€",
      "mapsUrl": "https://maps.google.com/?q=52.0780312,4.3075807",
      "lat": 52.0780312,
      "lng": 4.3075807,
      "halalFriendly": false,
      "bookingUrl": "https://maps.google.com/?q=52.0780312,4.3075807",
      "source": "osm"
    },
    {
      "nom": "'t Goude Hooft",
      "categorie": "Hôtel",
      "priceRange": "€€",
      "mapsUrl": "https://maps.google.com/?q=52.0782378,4.3088695",
      "lat": 52.0782378,
      "lng": 4.3088695,
      "halalFriendly": false,
      "bookingUrl": "https://tgoudehooft.nl/en/hotel/",
      "source": "osm"
    },
    {
      "nom": "PLAZA Premium Den Haag City Center",
      "categorie": "Hôtel",
      "priceRange": "€€",
      "mapsUrl": "https://maps.google.com/?q=52.0768343,4.3121434",
      "lat": 52.0768343,
      "lng": 4.3121434,
      "halalFriendly": false,
      "bookingUrl": "https://plazahotels.de/hotel-den-haag-city/",
      "source": "osm"
    },
    {
      "nom": "Hotel Hague Center",
      "categorie": "Hôtel",
      "priceRange": "€€",
      "mapsUrl": "https://maps.google.com/?q=52.0747553,4.3145129",
      "lat": 52.0747553,
      "lng": 4.3145129,
      "halalFriendly": false,
      "bookingUrl": "https://maps.google.com/?q=52.0747553,4.3145129",
      "source": "osm"
    },
    {
      "nom": "Parkhotel Den Haag",
      "categorie": "Hôtel",
      "priceRange": "€€€€",
      "score": 4,
      "mapsUrl": "https://maps.google.com/?q=52.0796028,4.3053464",
      "lat": 52.0796028,
      "lng": 4.3053464,
      "halalFriendly": false,
      "bookingUrl": "https://www.parkhoteldenhaag.nl/",
      "source": "osm"
    },
    {
      "nom": "Paleis Hotel",
      "categorie": "Hôtel",
      "priceRange": "€€€€",
      "score": 4,
      "mapsUrl": "https://maps.google.com/?q=52.0797723,4.3064225",
      "lat": 52.0797723,
      "lng": 4.3064225,
      "halalFriendly": false,
      "bookingUrl": "https://www.paleishotel.nl/",
      "source": "osm"
    },
    {
      "nom": "cove",
      "categorie": "Appartement",
      "priceRange": "€€",
      "mapsUrl": "https://maps.google.com/?q=52.0770332,4.3131609",
      "lat": 52.0770332,
      "lng": 4.3131609,
      "halalFriendly": false,
      "bookingUrl": "https://www.lockeliving.com/en/the-hague/cove-by-locke-the-hague",
      "source": "osm"
    },
    {
      "nom": "Corona",
      "categorie": "Hôtel",
      "priceRange": "€€",
      "mapsUrl": "https://maps.google.com/?q=52.0791,4.3101068",
      "lat": 52.0791,
      "lng": 4.3101068,
      "halalFriendly": false,
      "bookingUrl": "https://www.corona.nl/",
      "source": "osm"
    },
    {
      "nom": "Novotel Den Haag City Centre",
      "categorie": "Hôtel",
      "priceRange": "€€",
      "mapsUrl": "https://maps.google.com/?q=52.0783103,4.3120722",
      "lat": 52.0783103,
      "lng": 4.3120722,
      "halalFriendly": false,
      "bookingUrl": "https://all.accor.com/hotel/1180/index.nl.shtml",
      "source": "osm"
    },
    {
      "nom": "Hotel Indigo The Hague - Palace Noordeinde",
      "categorie": "Hôtel",
      "priceRange": "€€",
      "mapsUrl": "https://maps.google.com/?q=52.0807973,4.307624",
      "lat": 52.0807973,
      "lng": 4.307624,
      "halalFriendly": false,
      "bookingUrl": "https://www.ihg.com/hotelindigo/hotels/us/en/the-hague/hagrp/hoteldetail",
      "source": "osm"
    },
    {
      "nom": "voco The Hague",
      "categorie": "Hôtel",
      "priceRange": "€€",
      "mapsUrl": "https://maps.google.com/?q=52.080698,4.3089486",
      "lat": 52.080698,
      "lng": 4.3089486,
      "halalFriendly": false,
      "bookingUrl": "https://maps.google.com/?q=52.080698,4.3089486",
      "source": "osm"
    },
    {
      "nom": "The Social Hub",
      "categorie": "Hôtel",
      "priceRange": "€€",
      "mapsUrl": "https://maps.google.com/?q=52.0713331,4.3199462",
      "lat": 52.0713331,
      "lng": 4.3199462,
      "halalFriendly": false,
      "bookingUrl": "https://www.thesocialhub.co/the-hague/",
      "source": "osm"
    },
    {
      "nom": "Hendrik Lofts",
      "categorie": "Appartement",
      "priceRange": "€€",
      "mapsUrl": "https://maps.google.com/?q=52.0818273,4.2942652",
      "lat": 52.0818273,
      "lng": 4.2942652,
      "halalFriendly": false,
      "bookingUrl": "https://maps.google.com/?q=52.0818273,4.2942652",
      "source": "osm"
    },
    {
      "nom": "Hotel Sebel",
      "categorie": "Hôtel",
      "priceRange": "€€",
      "mapsUrl": "https://maps.google.com/?q=52.0820079,4.2949119",
      "lat": 52.0820079,
      "lng": 4.2949119,
      "halalFriendly": false,
      "bookingUrl": "https://www.hotelsebel.nl",
      "source": "osm"
    },
    {
      "nom": "TRIBE Hotel",
      "categorie": "Hôtel",
      "priceRange": "€€€€",
      "score": 4,
      "mapsUrl": "https://maps.google.com/?q=52.0764083,4.3177791",
      "lat": 52.0764083,
      "lng": 4.3177791,
      "halalFriendly": false,
      "bookingUrl": "https://tribehotels.com/nl/netherlands/den-haag/",
      "source": "osm"
    },
    {
      "nom": "The Golden Stork",
      "categorie": "Auberge",
      "priceRange": "€€",
      "mapsUrl": "https://maps.google.com/?q=52.0750182,4.3191374",
      "lat": 52.0750182,
      "lng": 4.3191374,
      "halalFriendly": false,
      "bookingUrl": "https://www.thegoldenstork.com/hostel-hotel-den-haag",
      "source": "osm"
    },
    {
      "nom": "First City Hotel",
      "categorie": "Hôtel",
      "priceRange": "€€",
      "mapsUrl": "https://maps.google.com/?q=52.0752931,4.3190139",
      "lat": 52.0752931,
      "lng": 4.3190139,
      "halalFriendly": false,
      "bookingUrl": "https://firstcityhotel.com",
      "source": "osm"
    },
    {
      "nom": "De Salon van Fagel",
      "categorie": "Hôtel",
      "priceRange": "€€",
      "mapsUrl": "https://maps.google.com/?q=52.0824164,4.3055261",
      "lat": 52.0824164,
      "lng": 4.3055261,
      "halalFriendly": false,
      "bookingUrl": "https://maps.google.com/?q=52.0824164,4.3055261",
      "source": "osm"
    },
    {
      "nom": "bent",
      "categorie": "Maison d'hôtes",
      "priceRange": "€€",
      "mapsUrl": "https://maps.google.com/?q=52.0776622,4.2843405",
      "lat": 52.0776622,
      "lng": 4.2843405,
      "halalFriendly": false,
      "bookingUrl": "https://maps.google.com/?q=52.0776622,4.2843405",
      "source": "osm"
    },
    {
      "nom": "Hotel Astoria",
      "categorie": "Hôtel",
      "priceRange": "€€",
      "mapsUrl": "https://maps.google.com/?q=52.0708845,4.3209091",
      "lat": 52.0708845,
      "lng": 4.3209091,
      "halalFriendly": false,
      "bookingUrl": "https://www.hotelastoriathehague.nl/",
      "source": "osm"
    },
    {
      "nom": "Mövenpick",
      "categorie": "Hôtel",
      "priceRange": "€€",
      "mapsUrl": "https://maps.google.com/?q=52.082351,4.3077626",
      "lat": 52.082351,
      "lng": 4.3077626,
      "halalFriendly": false,
      "bookingUrl": "https://maps.google.com/?q=52.082351,4.3077626",
      "source": "osm"
    },
    {
      "nom": "Staybridge Suites The Hague - Parliament",
      "categorie": "Hôtel",
      "priceRange": "€€€€",
      "score": 4,
      "mapsUrl": "https://maps.google.com/?q=52.0811045,4.3118971",
      "lat": 52.0811045,
      "lng": 4.3118971,
      "halalFriendly": false,
      "bookingUrl": "https://www.staybridgesuites.com/thehague",
      "source": "osm"
    },
    {
      "nom": "easy Hotel den Haag City Centre",
      "categorie": "Hôtel",
      "priceRange": "€€",
      "mapsUrl": "https://maps.google.com/?q=52.0825805,4.3087655",
      "lat": 52.0825805,
      "lng": 4.3087655,
      "halalFriendly": false,
      "bookingUrl": "http://www.easyhoteldenhaag.com",
      "source": "osm"
    },
    {
      "nom": "BizStay Walden",
      "categorie": "Hôtel",
      "priceRange": "€€",
      "mapsUrl": "https://maps.google.com/?q=52.0815386,4.2885789",
      "lat": 52.0815386,
      "lng": 4.2885789,
      "halalFriendly": false,
      "bookingUrl": "https://maps.google.com/?q=52.0815386,4.2885789",
      "source": "osm"
    },
    {
      "nom": "Haagsche Suites",
      "categorie": "Hôtel",
      "priceRange": "€€",
      "mapsUrl": "https://maps.google.com/?q=52.0813063,4.2863786",
      "lat": 52.0813063,
      "lng": 4.2863786,
      "halalFriendly": false,
      "bookingUrl": "https://maps.google.com/?q=52.0813063,4.2863786",
      "source": "osm"
    },
    {
      "nom": "Hilton The Hague",
      "categorie": "Hôtel",
      "priceRange": "€€",
      "mapsUrl": "https://maps.google.com/?q=52.0843273,4.3037838",
      "lat": 52.0843273,
      "lng": 4.3037838,
      "halalFriendly": false,
      "bookingUrl": "https://www.hilton.com/en/hotels/amshhhi-hilton-the-hague/",
      "source": "osm"
    },
    {
      "nom": "Fletcher Stadshotel Den Haag",
      "categorie": "Hôtel",
      "priceRange": "€€",
      "mapsUrl": "https://maps.google.com/?q=52.0832097,4.2911321",
      "lat": 52.0832097,
      "lng": 4.2911321,
      "halalFriendly": false,
      "bookingUrl": "https://maps.google.com/?q=52.0832097,4.2911321",
      "source": "osm"
    },
    {
      "nom": "the velvet lodge",
      "categorie": "Hôtel",
      "priceRange": "€€",
      "mapsUrl": "https://maps.google.com/?q=52.0791963,4.3187546",
      "lat": 52.0791963,
      "lng": 4.3187546,
      "halalFriendly": false,
      "bookingUrl": "https://maps.google.com/?q=52.0791963,4.3187546",
      "source": "osm"
    },
    {
      "nom": "Holiday Inn Express The Hague - Parliament",
      "categorie": "Hôtel",
      "priceRange": "€€€",
      "score": 3,
      "mapsUrl": "https://maps.google.com/?q=52.0809172,4.3162622",
      "lat": 52.0809172,
      "lng": 4.3162622,
      "halalFriendly": false,
      "bookingUrl": "https://maps.google.com/?q=52.0809172,4.3162622",
      "source": "osm"
    },
    {
      "nom": "Moxy",
      "categorie": "Hôtel",
      "priceRange": "€€",
      "mapsUrl": "https://maps.google.com/?q=52.078884,4.3193134",
      "lat": 52.078884,
      "lng": 4.3193134,
      "halalFriendly": false,
      "bookingUrl": "https://www.marriott.de/hotels/travel/rtmox-moxy-the-hague/",
      "source": "osm"
    },
    {
      "nom": "Court Garden Hotel",
      "categorie": "Hôtel",
      "priceRange": "€€",
      "mapsUrl": "https://maps.google.com/?q=52.0837637,4.2923053",
      "lat": 52.0837637,
      "lng": 4.2923053,
      "halalFriendly": false,
      "bookingUrl": "https://www.hotelcourtgarden.nl",
      "source": "osm"
    },
    {
      "nom": "La Paulowna Boutique Hotel",
      "categorie": "Hôtel",
      "priceRange": "€€",
      "mapsUrl": "https://maps.google.com/?q=52.0847323,4.2993231",
      "lat": 52.0847323,
      "lng": 4.2993231,
      "halalFriendly": false,
      "bookingUrl": "https://lapaulowna.com",
      "source": "osm"
    },
    {
      "nom": "Pension Mikkers",
      "categorie": "Maison d'hôtes",
      "priceRange": "€€",
      "mapsUrl": "https://maps.google.com/?q=52.0846881,4.2982717",
      "lat": 52.0846881,
      "lng": 4.2982717,
      "halalFriendly": false,
      "bookingUrl": "https://maps.google.com/?q=52.0846881,4.2982717",
      "source": "osm"
    },
    {
      "nom": "Residence Inn The Hague",
      "categorie": "Hôtel",
      "priceRange": "€€",
      "mapsUrl": "https://maps.google.com/?q=52.0790648,4.3193908",
      "lat": 52.0790648,
      "lng": 4.3193908,
      "halalFriendly": false,
      "bookingUrl": "https://www.marriott.com/en-us/hotels/rtmri-residence-inn-the-hague/overview/",
      "source": "osm"
    },
    {
      "nom": "The Ald",
      "categorie": "Hôtel",
      "priceRange": "€€",
      "mapsUrl": "https://maps.google.com/?q=52.0796591,4.3186446",
      "lat": 52.0796591,
      "lng": 4.3186446,
      "halalFriendly": false,
      "bookingUrl": "https://thealdhotel.com/",
      "source": "osm"
    },
    {
      "nom": "SkySuites",
      "categorie": "Hôtel",
      "priceRange": "€€",
      "mapsUrl": "https://maps.google.com/?q=52.0716619,4.3241124",
      "lat": 52.0716619,
      "lng": 4.3241124,
      "halalFriendly": false,
      "bookingUrl": "https://maps.google.com/?q=52.0716619,4.3241124",
      "source": "osm"
    },
    {
      "nom": "Townhouse Hotel Den Haag",
      "categorie": "Hôtel",
      "priceRange": "€€",
      "mapsUrl": "https://maps.google.com/?q=52.0812005,4.3170082",
      "lat": 52.0812005,
      "lng": 4.3170082,
      "halalFriendly": false,
      "bookingUrl": "https://www.townhousehotels.nl/den-haag",
      "source": "osm"
    },
    {
      "nom": "Chez Rose",
      "categorie": "Hôtel",
      "priceRange": "€€",
      "mapsUrl": "https://maps.google.com/?q=52.0854805,4.2987886",
      "lat": 52.0854805,
      "lng": 4.2987886,
      "halalFriendly": false,
      "bookingUrl": "https://maps.google.com/?q=52.0854805,4.2987886",
      "source": "osm"
    },
    {
      "nom": "Stayokay Den Haag (The Hague)",
      "categorie": "Auberge",
      "priceRange": "€€",
      "mapsUrl": "https://maps.google.com/?q=52.072596,4.3252674",
      "lat": 52.072596,
      "lng": 4.3252674,
      "halalFriendly": false,
      "bookingUrl": "https://www.stayokay.com/nl/hostel/den-haag",
      "source": "osm"
    },
    {
      "nom": "Carlton Ambassador",
      "categorie": "Hôtel",
      "priceRange": "€€",
      "mapsUrl": "https://maps.google.com/?q=52.0857031,4.3028626",
      "lat": 52.0857031,
      "lng": 4.3028626,
      "halalFriendly": false,
      "bookingUrl": "https://www.carlton.nl/ambassador",
      "source": "osm"
    },
    {
      "nom": "LVM Stays",
      "categorie": "Maison d'hôtes",
      "priceRange": "€€",
      "mapsUrl": "https://maps.google.com/?q=52.0857249,4.2978721",
      "lat": 52.0857249,
      "lng": 4.2978721,
      "halalFriendly": false,
      "bookingUrl": "https://maps.google.com/?q=52.0857249,4.2978721",
      "source": "osm"
    },
    {
      "nom": "The Hague Shortstay",
      "categorie": "Appartement",
      "priceRange": "€€",
      "mapsUrl": "https://maps.google.com/?q=52.0727932,4.3253788",
      "lat": 52.0727932,
      "lng": 4.3253788,
      "halalFriendly": false,
      "bookingUrl": "https://www.thehague-shortstay.com/",
      "source": "osm"
    },
    {
      "nom": "Hotel des Indes",
      "categorie": "Hôtel",
      "priceRange": "€€",
      "mapsUrl": "https://maps.google.com/?q=52.0837955,4.3133503",
      "lat": 52.0837955,
      "lng": 4.3133503,
      "halalFriendly": false,
      "bookingUrl": "https://www.desindes.nl",
      "source": "osm"
    },
    {
      "nom": "Bella Vita Hotel",
      "categorie": "Hôtel",
      "priceRange": "€€",
      "mapsUrl": "https://maps.google.com/?q=52.0811698,4.319742",
      "lat": 52.0811698,
      "lng": 4.319742,
      "halalFriendly": false,
      "bookingUrl": "https://www.bellavitadenhaag.nl",
      "source": "osm"
    },
    {
      "nom": "Stayci",
      "categorie": "Appartement",
      "priceRange": "€€",
      "mapsUrl": "https://maps.google.com/?q=52.0820058,4.3190043",
      "lat": 52.0820058,
      "lng": 4.3190043,
      "halalFriendly": false,
      "bookingUrl": "https://maps.google.com/?q=52.0820058,4.3190043",
      "source": "osm"
    },
    {
      "nom": "Pistache",
      "categorie": "Hôtel",
      "priceRange": "€€",
      "mapsUrl": "https://maps.google.com/?q=52.0871878,4.3003417",
      "lat": 52.0871878,
      "lng": 4.3003417,
      "halalFriendly": false,
      "bookingUrl": "https://maps.google.com/?q=52.0871878,4.3003417",
      "source": "osm"
    },
    {
      "nom": "Residenz stadslogement",
      "categorie": "Hôtel",
      "priceRange": "€€",
      "mapsUrl": "https://maps.google.com/?q=52.0832651,4.2828045",
      "lat": 52.0832651,
      "lng": 4.2828045,
      "halalFriendly": false,
      "bookingUrl": "https://www.residenz.nl/",
      "source": "osm"
    },
    {
      "nom": "Best Western Hotel Den Haag",
      "categorie": "Hôtel",
      "priceRange": "€€",
      "mapsUrl": "https://maps.google.com/?q=52.0850518,4.2856569",
      "lat": 52.0850518,
      "lng": 4.2856569,
      "halalFriendly": false,
      "bookingUrl": "https://www.bestwesterndenhaag.nl/nl/",
      "source": "osm"
    },
    {
      "nom": "Central Studios",
      "categorie": "Appartement",
      "priceRange": "€€",
      "mapsUrl": "https://maps.google.com/?q=52.0783331,4.3261466",
      "lat": 52.0783331,
      "lng": 4.3261466,
      "halalFriendly": false,
      "bookingUrl": "https://maps.google.com/?q=52.0783331,4.3261466",
      "source": "osm"
    },
    {
      "nom": "Babylon Hotel Den Haag",
      "categorie": "Hôtel",
      "priceRange": "€€",
      "mapsUrl": "https://maps.google.com/?q=52.0825094,4.3241237",
      "lat": 52.0825094,
      "lng": 4.3241237,
      "halalFriendly": false,
      "bookingUrl": "https://www.babylonhoteldenhaag.com/en/",
      "source": "osm"
    },
    {
      "nom": "Hotelstudio's “Archipel“",
      "categorie": "Maison d'hôtes",
      "priceRange": "€€",
      "mapsUrl": "https://maps.google.com/?q=52.089274,4.3100278",
      "lat": 52.089274,
      "lng": 4.3100278,
      "halalFriendly": false,
      "bookingUrl": "http://www.hotelstudio.nl",
      "source": "osm"
    },
    {
      "nom": "Stadsvilla Mozaic Den Haag",
      "categorie": "Hôtel",
      "priceRange": "€€",
      "mapsUrl": "https://maps.google.com/?q=52.0911381,4.3051355",
      "lat": 52.0911381,
      "lng": 4.3051355,
      "halalFriendly": false,
      "bookingUrl": "https://finehotelsandsuites.com/vestigingen/stadsvilla-hotel-mozaic-den-haag/",
      "source": "osm"
    },
    {
      "nom": "The Hague Marriott Hotel",
      "categorie": "Hôtel",
      "priceRange": "€€€€",
      "score": 4,
      "mapsUrl": "https://maps.google.com/?q=52.090127,4.282569",
      "lat": 52.090127,
      "lng": 4.282569,
      "halalFriendly": false,
      "bookingUrl": "https://www.thehaguemarriott.nl/",
      "source": "osm"
    },
    {
      "nom": "Teleport Hotel",
      "categorie": "Hôtel",
      "priceRange": "€€",
      "mapsUrl": "https://maps.google.com/?q=52.0681753,4.3373522",
      "lat": 52.0681753,
      "lng": 4.3373522,
      "halalFriendly": false,
      "bookingUrl": "https://thehague.teleporthotel.com",
      "source": "osm"
    },
    {
      "nom": "NH Den Haag",
      "categorie": "Hôtel",
      "priceRange": "€€",
      "mapsUrl": "https://maps.google.com/?q=52.0788826,4.3368392",
      "lat": 52.0788826,
      "lng": 4.3368392,
      "halalFriendly": false,
      "bookingUrl": "https://maps.google.com/?q=52.0788826,4.3368392",
      "source": "osm"
    },
    {
      "nom": "Novotel Den Haag World Forum",
      "categorie": "Hôtel",
      "priceRange": "€€",
      "mapsUrl": "https://maps.google.com/?q=52.0930141,4.2833884",
      "lat": 52.0930141,
      "lng": 4.2833884,
      "halalFriendly": false,
      "bookingUrl": "https://www.novotel.com/gb/hotel-5389-novotel-den-haag-world-forum/index.shtml",
      "source": "osm"
    },
    {
      "nom": "Hoevevoorde Hotel",
      "categorie": "Hôtel",
      "priceRange": "€€",
      "mapsUrl": "https://maps.google.com/?q=52.0452426,4.3031778",
      "lat": 52.0452426,
      "lng": 4.3031778,
      "halalFriendly": false,
      "bookingUrl": "https://www.hotelhoevevoorde.nl/",
      "source": "osm"
    },
    {
      "nom": "Excelsior",
      "categorie": "Hôtel",
      "priceRange": "€€",
      "mapsUrl": "https://maps.google.com/?q=52.0928322,4.2763765",
      "lat": 52.0928322,
      "lng": 4.2763765,
      "halalFriendly": false,
      "bookingUrl": "https://maps.google.com/?q=52.0928322,4.2763765",
      "source": "osm"
    },
    {
      "nom": "Margaretha",
      "categorie": "Hôtel",
      "priceRange": "€€",
      "mapsUrl": "https://maps.google.com/?q=52.0573579,4.3397454",
      "lat": 52.0573579,
      "lng": 4.3397454,
      "halalFriendly": false,
      "bookingUrl": "https://www.hotelmargaretha.nl/",
      "source": "osm"
    },
    {
      "nom": "Leonardo Royal Hotel Den Haag Promenade",
      "categorie": "Hôtel",
      "priceRange": "€€",
      "mapsUrl": "https://maps.google.com/?q=52.0969132,4.2872099",
      "lat": 52.0969132,
      "lng": 4.2872099,
      "halalFriendly": false,
      "bookingUrl": "https://www.leonardo-hotels.nl/the-hague/leonardo-royal-hotel-den-haag-promenade",
      "source": "osm"
    },
    {
      "nom": "Hotel De Plesman",
      "categorie": "Hôtel",
      "priceRange": "€€",
      "mapsUrl": "https://maps.google.com/?q=52.0990948,4.3025004",
      "lat": 52.0990948,
      "lng": 4.3025004,
      "halalFriendly": false,
      "bookingUrl": "https://deplesman.com/nl/home",
      "source": "osm"
    },
    {
      "nom": "Easyinn",
      "categorie": "Maison d'hôtes",
      "priceRange": "€€",
      "mapsUrl": "https://maps.google.com/?q=52.0620261,4.3475664",
      "lat": 52.0620261,
      "lng": 4.3475664,
      "halalFriendly": false,
      "bookingUrl": "https://www.easyinn.nl",
      "source": "osm"
    },
    {
      "nom": "guest_house",
      "categorie": "Maison d'hôtes",
      "priceRange": "€€",
      "mapsUrl": "https://maps.google.com/?q=52.0942245,4.2663943",
      "lat": 52.0942245,
      "lng": 4.2663943,
      "halalFriendly": false,
      "bookingUrl": "https://maps.google.com/?q=52.0942245,4.2663943",
      "source": "osm"
    },
    {
      "nom": "PLAZA Premium Grand Winston",
      "categorie": "Hôtel",
      "priceRange": "€€",
      "mapsUrl": "https://maps.google.com/?q=52.0383709,4.3238897",
      "lat": 52.0383709,
      "lng": 4.3238897,
      "halalFriendly": false,
      "bookingUrl": "https://plazahotels.de/hotel-den-haag/",
      "source": "osm"
    },
    {
      "nom": "Mixx Inn",
      "categorie": "Hôtel",
      "priceRange": "€€",
      "mapsUrl": "https://maps.google.com/?q=52.0423605,4.2645366",
      "lat": 52.0423605,
      "lng": 4.2645366,
      "halalFriendly": false,
      "bookingUrl": "https://maps.google.com/?q=52.0423605,4.2645366",
      "source": "osm"
    },
    {
      "nom": "Hotel Nordseka",
      "categorie": "Hôtel",
      "priceRange": "€€",
      "mapsUrl": "https://maps.google.com/?q=52.065841,4.3593916",
      "lat": 52.065841,
      "lng": 4.3593916,
      "halalFriendly": false,
      "bookingUrl": "https://www.nordseka.com/",
      "source": "osm"
    },
    {
      "nom": "Restaurant Hotel & Spa Savarin",
      "categorie": "Hôtel",
      "priceRange": "€€",
      "mapsUrl": "https://maps.google.com/?q=52.048756,4.3497365",
      "lat": 52.048756,
      "lng": 4.3497365,
      "halalFriendly": false,
      "bookingUrl": "https://maps.google.com/?q=52.048756,4.3497365",
      "source": "osm"
    },
    {
      "nom": "Jorplace Beach Hostel",
      "categorie": "Auberge",
      "priceRange": "€€",
      "mapsUrl": "https://maps.google.com/?q=52.1044144,4.2759252",
      "lat": 52.1044144,
      "lng": 4.2759252,
      "halalFriendly": false,
      "bookingUrl": "https://www.jorplace.nl/",
      "source": "osm"
    },
    {
      "nom": "Inntel Hotels Den Haag Marina Beach",
      "categorie": "Hôtel",
      "priceRange": "€€",
      "mapsUrl": "https://maps.google.com/?q=52.0995904,4.2617969",
      "lat": 52.0995904,
      "lng": 4.2617969,
      "halalFriendly": false,
      "bookingUrl": "https://www.inntelhotelsdenhaagmarinabeach.nl/",
      "source": "osm"
    },
    {
      "nom": "Ocean House Scheveningen",
      "categorie": "Hôtel",
      "priceRange": "€€",
      "mapsUrl": "https://maps.google.com/?q=52.105959,4.2738138",
      "lat": 52.105959,
      "lng": 4.2738138,
      "halalFriendly": false,
      "bookingUrl": "https://oceanhousescheveningen.com",
      "source": "osm"
    },
    {
      "nom": "Empire Hotel",
      "categorie": "Hôtel",
      "priceRange": "€€",
      "mapsUrl": "https://maps.google.com/?q=52.1067008,4.2723879",
      "lat": 52.1067008,
      "lng": 4.2723879,
      "halalFriendly": false,
      "bookingUrl": "https://empire.zuid-holland-hotels.com",
      "source": "osm"
    },
    {
      "nom": "Bastion Hotel Den Haag Rijswijk",
      "categorie": "Hôtel",
      "priceRange": "€€€",
      "score": 3,
      "mapsUrl": "https://maps.google.com/?q=52.0354951,4.3332982",
      "lat": 52.0354951,
      "lng": 4.3332982,
      "halalFriendly": false,
      "bookingUrl": "https://www.bastionhotels.com/nl-nl/hotels/hotel-rijswijk",
      "source": "osm"
    },
    {
      "nom": "Hotel Corel",
      "categorie": "Hôtel",
      "priceRange": "€€",
      "mapsUrl": "https://maps.google.com/?q=52.1101254,4.2880491",
      "lat": 52.1101254,
      "lng": 4.2880491,
      "halalFriendly": false,
      "bookingUrl": "hotelcorel.nl",
      "source": "osm"
    },
    {
      "nom": "Hotel Bella Vista",
      "categorie": "Hôtel",
      "priceRange": "€€",
      "mapsUrl": "https://maps.google.com/?q=52.1084322,4.2770726",
      "lat": 52.1084322,
      "lng": 4.2770726,
      "halalFriendly": false,
      "bookingUrl": "https://maps.google.com/?q=52.1084322,4.2770726",
      "source": "osm"
    },
    {
      "nom": "Badhotel Scheveningen",
      "categorie": "Hôtel",
      "priceRange": "€€",
      "mapsUrl": "https://maps.google.com/?q=52.1086256,4.2774277",
      "lat": 52.1086256,
      "lng": 4.2774277,
      "halalFriendly": false,
      "bookingUrl": "https://maps.google.com/?q=52.1086256,4.2774277",
      "source": "osm"
    },
    {
      "nom": "Hotel Mimosa",
      "categorie": "Hôtel",
      "priceRange": "€€",
      "mapsUrl": "https://maps.google.com/?q=52.109617,4.281721",
      "lat": 52.109617,
      "lng": 4.281721,
      "halalFriendly": false,
      "bookingUrl": "https://maps.google.com/?q=52.109617,4.281721",
      "source": "osm"
    },
    {
      "nom": "City Hotel Scheveningen",
      "categorie": "Hôtel",
      "priceRange": "€€",
      "mapsUrl": "https://maps.google.com/?q=52.1099198,4.2811244",
      "lat": 52.1099198,
      "lng": 4.2811244,
      "halalFriendly": false,
      "bookingUrl": "https://maps.google.com/?q=52.1099198,4.2811244",
      "source": "osm"
    },
    {
      "nom": "Hotel 't Sonnehuys",
      "categorie": "Hôtel",
      "priceRange": "€€",
      "mapsUrl": "https://maps.google.com/?q=52.1100164,4.2815495",
      "lat": 52.1100164,
      "lng": 4.2815495,
      "halalFriendly": false,
      "bookingUrl": "https://sonnehuys.nl",
      "source": "osm"
    },
    {
      "nom": "Hotel Andante - Villa",
      "categorie": "Hôtel",
      "priceRange": "€€",
      "mapsUrl": "https://maps.google.com/?q=52.1092109,4.2770315",
      "lat": 52.1092109,
      "lng": 4.2770315,
      "halalFriendly": false,
      "bookingUrl": "https://www.andantehotel.nl/",
      "source": "osm"
    },
    {
      "nom": "Boulevard Hotel",
      "categorie": "Hôtel",
      "priceRange": "€€",
      "mapsUrl": "https://maps.google.com/?q=52.1087545,4.275062",
      "lat": 52.1087545,
      "lng": 4.275062,
      "halalFriendly": false,
      "bookingUrl": "https://www.boulevardhotel.nl",
      "source": "osm"
    },
    {
      "nom": "Hotel Andante",
      "categorie": "Hôtel",
      "priceRange": "€€",
      "mapsUrl": "https://maps.google.com/?q=52.1092638,4.2767267",
      "lat": 52.1092638,
      "lng": 4.2767267,
      "halalFriendly": false,
      "bookingUrl": "https://www.andantehotel.nl/",
      "source": "osm"
    },
    {
      "nom": "Hotel De Stern",
      "categorie": "Hôtel",
      "priceRange": "€€",
      "mapsUrl": "https://maps.google.com/?q=52.110069,4.278801",
      "lat": 52.110069,
      "lng": 4.278801,
      "halalFriendly": false,
      "bookingUrl": "https://www.hoteldestern.nl/",
      "source": "osm"
    },
    {
      "nom": "Hotel 't Witte Huys",
      "categorie": "Hôtel",
      "priceRange": "€€",
      "mapsUrl": "https://maps.google.com/?q=52.1113513,4.2857123",
      "lat": 52.1113513,
      "lng": 4.2857123,
      "halalFriendly": false,
      "bookingUrl": "https://www.wittehuys.nl/",
      "source": "osm"
    },
    {
      "nom": "Central Park",
      "categorie": "Hôtel",
      "priceRange": "€€",
      "mapsUrl": "https://maps.google.com/?q=52.0699838,4.36952",
      "lat": 52.0699838,
      "lng": 4.36952,
      "halalFriendly": false,
      "bookingUrl": "https://www.centralparkvoorburg.com/",
      "source": "osm"
    },
    {
      "nom": "Fletcher Hotel-Restaurant",
      "categorie": "Hôtel",
      "priceRange": "€€",
      "mapsUrl": "https://maps.google.com/?q=52.111694,4.2822545",
      "lat": 52.111694,
      "lng": 4.2822545,
      "halalFriendly": false,
      "bookingUrl": "https://maps.google.com/?q=52.111694,4.2822545",
      "source": "osm"
    },
    {
      "nom": "Skotel",
      "categorie": "Hôtel",
      "priceRange": "€€",
      "mapsUrl": "https://maps.google.com/?q=52.1131316,4.2917738",
      "lat": 52.1131316,
      "lng": 4.2917738,
      "halalFriendly": false,
      "bookingUrl": "https://maps.google.com/?q=52.1131316,4.2917738",
      "source": "osm"
    },
    {
      "nom": "easyHotel Den Haag Scheveningen Beach",
      "categorie": "Hôtel",
      "priceRange": "€€",
      "mapsUrl": "https://maps.google.com/?q=52.1118642,4.2815171",
      "lat": 52.1118642,
      "lng": 4.2815171,
      "halalFriendly": false,
      "bookingUrl": "https://maps.google.com/?q=52.1118642,4.2815171",
      "source": "osm"
    },
    {
      "nom": "'t Ganzenest",
      "categorie": "Hôtel",
      "priceRange": "€€",
      "mapsUrl": "https://maps.google.com/?q=52.0369645,4.346061",
      "lat": 52.0369645,
      "lng": 4.346061,
      "halalFriendly": false,
      "bookingUrl": "https://ganzenest.nl/nl/hotel",
      "source": "osm"
    },
    {
      "nom": "Bij Frans en Marije",
      "categorie": "Maison d'hôtes",
      "priceRange": "€€",
      "mapsUrl": "https://maps.google.com/?q=52.1077794,4.3383765",
      "lat": 52.1077794,
      "lng": 4.3383765,
      "halalFriendly": false,
      "bookingUrl": "https://maps.google.com/?q=52.1077794,4.3383765",
      "source": "osm"
    },
    {
      "nom": "Kurhaus",
      "categorie": "Hôtel",
      "priceRange": "€€",
      "mapsUrl": "https://maps.google.com/?q=52.1132121,4.2816255",
      "lat": 52.1132121,
      "lng": 4.2816255,
      "halalFriendly": false,
      "bookingUrl": "https://maps.google.com/?q=52.1132121,4.2816255",
      "source": "osm"
    },
    {
      "nom": "Ramada",
      "categorie": "Hôtel",
      "priceRange": "€€",
      "mapsUrl": "https://maps.google.com/?q=52.1138699,4.2855888",
      "lat": 52.1138699,
      "lng": 4.2855888,
      "halalFriendly": false,
      "bookingUrl": "https://www.ramadascheveningen.nl",
      "source": "osm"
    },
    {
      "nom": "Bilderberg Europa Hotel",
      "categorie": "Hôtel",
      "priceRange": "€€",
      "mapsUrl": "https://maps.google.com/?q=52.114496,4.2860878",
      "lat": 52.114496,
      "lng": 4.2860878,
      "halalFriendly": false,
      "bookingUrl": "https://maps.google.com/?q=52.114496,4.2860878",
      "source": "osm"
    },
    {
      "nom": "Hotel Duinzicht",
      "categorie": "Hôtel",
      "priceRange": "€€",
      "mapsUrl": "https://maps.google.com/?q=52.1157829,4.2880521",
      "lat": 52.1157829,
      "lng": 4.2880521,
      "halalFriendly": false,
      "bookingUrl": "https://www.hotelduinzicht.com",
      "source": "osm"
    },
    {
      "nom": "Gevers hotel",
      "categorie": "Hôtel",
      "priceRange": "€€",
      "mapsUrl": "https://maps.google.com/?q=52.1162598,4.2874024",
      "lat": 52.1162598,
      "lng": 4.2874024,
      "halalFriendly": false,
      "bookingUrl": "https://maps.google.com/?q=52.1162598,4.2874024",
      "source": "osm"
    },
    {
      "nom": "Aquarius Hotel-Restaurant B.V.",
      "categorie": "Hôtel",
      "priceRange": "€€",
      "mapsUrl": "https://maps.google.com/?q=52.1167683,4.287045",
      "lat": 52.1167683,
      "lng": 4.287045,
      "halalFriendly": false,
      "bookingUrl": "https://www.aquarius-hotel.nl/",
      "source": "osm"
    },
    {
      "nom": "Strandhotel Scheveningen",
      "categorie": "Hôtel",
      "priceRange": "€€",
      "mapsUrl": "https://maps.google.com/?q=52.1169533,4.287175",
      "lat": 52.1169533,
      "lng": 4.287175,
      "halalFriendly": false,
      "bookingUrl": "https://www.strandhotel-scheveningen.nl",
      "source": "osm"
    },
    {
      "nom": "Carlton Beach Hotel",
      "categorie": "Hôtel",
      "priceRange": "€€",
      "mapsUrl": "https://maps.google.com/?q=52.1171318,4.2879815",
      "lat": 52.1171318,
      "lng": 4.2879815,
      "halalFriendly": false,
      "bookingUrl": "https://www.carlton.nl/beach-hotel-scheveningen",
      "source": "osm"
    },
    {
      "nom": "NH Atlantic Den Haag",
      "categorie": "Hôtel",
      "priceRange": "€€",
      "mapsUrl": "https://maps.google.com/?q=52.0699025,4.2223415",
      "lat": 52.0699025,
      "lng": 4.2223415,
      "halalFriendly": false,
      "bookingUrl": "https://maps.google.com/?q=52.0699025,4.2223415",
      "source": "osm"
    },
    {
      "nom": "De Pier Suites",
      "categorie": "Hôtel",
      "priceRange": "€€",
      "mapsUrl": "https://maps.google.com/?q=52.1176274,4.2799097",
      "lat": 52.1176274,
      "lng": 4.2799097,
      "halalFriendly": false,
      "bookingUrl": "https://www.piersuites.nl/",
      "source": "osm"
    },
    {
      "nom": "Van der Valk Hotel Den Haag - Wassenaar",
      "categorie": "Hôtel",
      "priceRange": "€€€€",
      "score": 4,
      "mapsUrl": "https://maps.google.com/?q=52.1053013,4.3602272",
      "lat": 52.1053013,
      "lng": 4.3602272,
      "halalFriendly": false,
      "bookingUrl": "https://www.hoteldenhaagwassenaar.nl/#",
      "source": "osm"
    },
    {
      "nom": "Novallure",
      "categorie": "Appartement",
      "priceRange": "€€",
      "mapsUrl": "https://maps.google.com/?q=52.0760911,4.3856847",
      "lat": 52.0760911,
      "lng": 4.3856847,
      "halalFriendly": false,
      "bookingUrl": "https://www.novallure.nl/",
      "source": "osm"
    },
    {
      "nom": "Fletcher Hotel-Restaurant Leidschendam-Den Haag",
      "categorie": "Hôtel",
      "priceRange": "€€",
      "mapsUrl": "https://maps.google.com/?q=52.0887077,4.3815237",
      "lat": 52.0887077,
      "lng": 4.3815237,
      "halalFriendly": false,
      "bookingUrl": "https://www.fletcherhoteldenhaag.nl/nl/",
      "source": "osm"
    },
    {
      "nom": "Wisma Tamu and Asrama",
      "categorie": "Maison d'hôtes",
      "priceRange": "€€",
      "mapsUrl": "https://maps.google.com/?q=52.1098927,4.3665959",
      "lat": 52.1098927,
      "lng": 4.3665959,
      "halalFriendly": false,
      "bookingUrl": "https://maps.google.com/?q=52.1098927,4.3665959",
      "source": "osm"
    },
    {
      "nom": "Riva Hotel",
      "categorie": "Hôtel",
      "priceRange": "€€",
      "mapsUrl": "https://maps.google.com/?q=52.0274059,4.3614468",
      "lat": 52.0274059,
      "lng": 4.3614468,
      "halalFriendly": false,
      "bookingUrl": "https://rivahotel.nl/",
      "source": "osm"
    },
    {
      "nom": "Hotel Delft A4",
      "categorie": "Hôtel",
      "priceRange": "€€",
      "mapsUrl": "https://maps.google.com/?q=52.0135082,4.3155104",
      "lat": 52.0135082,
      "lng": 4.3155104,
      "halalFriendly": false,
      "bookingUrl": "https://www.hoteldelft.com/",
      "source": "osm"
    },
    {
      "nom": "Shanghai Hotel Holland",
      "categorie": "Hôtel",
      "priceRange": "€€",
      "mapsUrl": "https://maps.google.com/?q=52.0258027,4.3640843",
      "lat": 52.0258027,
      "lng": 4.3640843,
      "halalFriendly": false,
      "bookingUrl": "https://www.shanghaihotelholland.com/",
      "source": "osm"
    },
    {
      "nom": "B&B The little flower",
      "categorie": "Maison d'hôtes",
      "priceRange": "€€",
      "mapsUrl": "https://maps.google.com/?q=52.0227993,4.2433625",
      "lat": 52.0227993,
      "lng": 4.2433625,
      "halalFriendly": false,
      "bookingUrl": "https://www.thelittleflower.nl/",
      "source": "osm"
    },
    {
      "nom": "De Buytenplaets",
      "categorie": "Hôtel",
      "priceRange": "€€",
      "mapsUrl": "https://maps.google.com/?q=52.0130748,4.3258374",
      "lat": 52.0130748,
      "lng": 4.3258374,
      "halalFriendly": false,
      "bookingUrl": "https://www.buytenplaets-sion.nl/",
      "source": "osm"
    },
    {
      "nom": "Campanile Delft",
      "categorie": "Hôtel",
      "priceRange": "€€€",
      "score": 3,
      "mapsUrl": "https://maps.google.com/?q=52.0249062,4.3652122",
      "lat": 52.0249062,
      "lng": 4.3652122,
      "halalFriendly": false,
      "bookingUrl": "https://www.campanile-delft.nl",
      "source": "osm"
    },
    {
      "nom": "Boerderij Dichtbij",
      "categorie": "Maison d'hôtes",
      "priceRange": "€€",
      "mapsUrl": "https://maps.google.com/?q=52.007344,4.2881381",
      "lat": 52.007344,
      "lng": 4.2881381,
      "halalFriendly": false,
      "bookingUrl": "https://www.boerderijdichtbij.nl",
      "source": "osm"
    },
    {
      "nom": "Van der Valk Hotel Den Haag - Nootdorp",
      "categorie": "Hôtel",
      "priceRange": "€€€€",
      "score": 4,
      "mapsUrl": "https://maps.google.com/?q=52.0524192,4.4016109",
      "lat": 52.0524192,
      "lng": 4.4016109,
      "halalFriendly": false,
      "bookingUrl": "https://www.hoteldenhaag.nl/",
      "source": "osm"
    }
  ],
  "mosqueesPrincipales": [
    {
      "id": "m2748346684",
      "nom": "Islamitisch Centrum",
      "type": "Mosquée",
      "adresse": "",
      "description": "Lieu de prière (OpenStreetMap).",
      "mapsUrl": "https://maps.google.com/?q=52.069545,4.2981658",
      "lat": 52.069545,
      "lng": 4.2981658,
      "source": "osm"
    },
    {
      "id": "m2746126398",
      "nom": "Seyh Said Camii",
      "type": "Mosquée",
      "adresse": "",
      "description": "Lieu de prière (OpenStreetMap).",
      "mapsUrl": "https://maps.google.com/?q=52.0687677,4.3039216",
      "lat": 52.0687677,
      "lng": 4.3039216,
      "source": "osm"
    },
    {
      "id": "m267143185",
      "nom": "Mimar Sinan Camii Moskee",
      "type": "Mosquée",
      "adresse": "",
      "description": "Lieu de prière (OpenStreetMap).",
      "mapsUrl": "https://maps.google.com/?q=52.068816,4.3051044",
      "lat": 52.068816,
      "lng": 4.3051044,
      "source": "osm"
    },
    {
      "id": "m1530751798",
      "nom": "Moskee el Islam",
      "type": "Mosquée",
      "adresse": "",
      "description": "Lieu de prière (OpenStreetMap).",
      "mapsUrl": "https://maps.google.com/?q=52.0669352,4.2993605",
      "lat": 52.0669352,
      "lng": 4.2993605,
      "source": "osm"
    },
    {
      "id": "m2726065242",
      "nom": "Minhaj-ul-Quran",
      "type": "Mosquée",
      "adresse": "Hobbemastraat, 's-Gravenhage",
      "description": "Lieu de prière (OpenStreetMap).",
      "mapsUrl": "https://maps.google.com/?q=52.0703462,4.3075853",
      "lat": 52.0703462,
      "lng": 4.3075853,
      "source": "osm"
    },
    {
      "id": "m2748346699",
      "nom": "Moskee Al Ichlaas",
      "type": "Mosquée",
      "adresse": "",
      "description": "Lieu de prière (OpenStreetMap).",
      "mapsUrl": "https://maps.google.com/?q=52.0726203,4.2931182",
      "lat": 52.0726203,
      "lng": 4.2931182,
      "source": "osm"
    },
    {
      "id": "m2746126391",
      "nom": "Jamaat Al-Imaan moskee",
      "type": "Mosquée",
      "adresse": "",
      "description": "Lieu de prière (OpenStreetMap).",
      "mapsUrl": "https://maps.google.com/?q=52.07091,4.309248",
      "lat": 52.07091,
      "lng": 4.309248,
      "source": "osm"
    },
    {
      "id": "m5910055485",
      "nom": "Al-Kawthar Cultural Foundation",
      "type": "Mosquée",
      "adresse": "",
      "description": "Lieu de prière (OpenStreetMap).",
      "mapsUrl": "https://maps.google.com/?q=52.070841,4.2919397",
      "lat": 52.070841,
      "lng": 4.2919397,
      "source": "osm"
    },
    {
      "id": "m267268001",
      "nom": "Moskee El Ferdous",
      "type": "Mosquée",
      "adresse": "",
      "description": "Lieu de prière (OpenStreetMap).",
      "mapsUrl": "https://maps.google.com/?q=52.0657998,4.2958831",
      "lat": 52.0657998,
      "lng": 4.2958831,
      "source": "osm"
    },
    {
      "id": "m2729417219",
      "nom": "Jamiat Ahl Al Hadith",
      "type": "Mosquée",
      "adresse": "Paul Krugerlaan, 's-Gravenhage",
      "description": "Lieu de prière (OpenStreetMap).",
      "mapsUrl": "https://maps.google.com/?q=52.0686508,4.2895973",
      "lat": 52.0686508,
      "lng": 4.2895973,
      "source": "osm"
    },
    {
      "id": "m2740463593",
      "nom": "On Dort Masumlar Cami",
      "type": "Mosquée",
      "adresse": "",
      "description": "Lieu de prière (OpenStreetMap).",
      "mapsUrl": "https://maps.google.com/?q=52.0636317,4.305362",
      "lat": 52.0636317,
      "lng": 4.305362,
      "source": "osm"
    },
    {
      "id": "m2750602749",
      "nom": "Medressye Nuriye",
      "type": "Mosquée",
      "adresse": "",
      "description": "Lieu de prière (OpenStreetMap).",
      "mapsUrl": "https://maps.google.com/?q=52.0657459,4.2911286",
      "lat": 52.0657459,
      "lng": 4.2911286,
      "source": "osm"
    },
    {
      "id": "m58617235",
      "nom": "Grote Kerk",
      "type": "Mosquée",
      "adresse": "Rond de Grote Kerk, 's-Gravenhage",
      "description": "Lieu de prière (OpenStreetMap).",
      "mapsUrl": "https://maps.google.com/?q=52.0773942,4.30717",
      "lat": 52.0773942,
      "lng": 4.30717,
      "source": "osm"
    },
    {
      "id": "m2748346673",
      "nom": "Djaam-e-Masdjied Qadri",
      "type": "Mosquée",
      "adresse": "",
      "description": "Lieu de prière (OpenStreetMap).",
      "mapsUrl": "https://maps.google.com/?q=52.0722756,4.2875961",
      "lat": 52.0722756,
      "lng": 4.2875961,
      "source": "osm"
    },
    {
      "id": "m2740463591",
      "nom": "Moskee El Fath",
      "type": "Mosquée",
      "adresse": "",
      "description": "Lieu de prière (OpenStreetMap).",
      "mapsUrl": "https://maps.google.com/?q=52.0632232,4.3070584",
      "lat": 52.0632232,
      "lng": 4.3070584,
      "source": "osm"
    },
    {
      "id": "m2729427763",
      "nom": "Ayasofya Moskee",
      "type": "Mosquée",
      "adresse": "Paul Krugerlaan, 's-Gravenhage",
      "description": "Lieu de prière (OpenStreetMap).",
      "mapsUrl": "https://maps.google.com/?q=52.0696039,4.2873253",
      "lat": 52.0696039,
      "lng": 4.2873253,
      "source": "osm"
    },
    {
      "id": "m267495264",
      "nom": "Noeroel Islam",
      "type": "Mosquée",
      "adresse": "Scheepersstraat, 's-Gravenhage",
      "description": "Lieu de prière (OpenStreetMap).",
      "mapsUrl": "https://maps.google.com/?q=52.0670358,4.2881016",
      "lat": 52.0670358,
      "lng": 4.2881016,
      "source": "osm"
    },
    {
      "id": "m58613152",
      "nom": "HDV Mescid-I Aksa Camii",
      "type": "Mosquée",
      "adresse": "",
      "description": "Lieu de prière (OpenStreetMap).",
      "mapsUrl": "https://maps.google.com/?q=52.0749295,4.3132165",
      "lat": 52.0749295,
      "lng": 4.3132165,
      "source": "osm"
    },
    {
      "id": "m2729415963",
      "nom": "Ahmadiyya Anjuman Isha 'at Islam Nederland",
      "type": "Mosquée",
      "adresse": "Paul Krugerlaan, 's-Gravenhage",
      "description": "Lieu de prière (OpenStreetMap).",
      "mapsUrl": "https://maps.google.com/?q=52.0705708,4.2856517",
      "lat": 52.0705708,
      "lng": 4.2856517,
      "source": "osm"
    },
    {
      "id": "m2729414812",
      "nom": "Al Qiblatain",
      "type": "Mosquée",
      "adresse": "Paul Krugerlaan, 's-Gravenhage",
      "description": "Lieu de prière (OpenStreetMap).",
      "mapsUrl": "https://maps.google.com/?q=52.0705851,4.285612",
      "lat": 52.0705851,
      "lng": 4.285612,
      "source": "osm"
    },
    {
      "id": "m2727319156",
      "nom": "Rukun Islam Den Haag",
      "type": "Mosquée",
      "adresse": "Schalk Burgerstraat, 's-Gravenhage",
      "description": "Lieu de prière (OpenStreetMap).",
      "mapsUrl": "https://maps.google.com/?q=52.0618932,4.2936031",
      "lat": 52.0618932,
      "lng": 4.2936031,
      "source": "osm"
    },
    {
      "id": "m2750602754",
      "nom": "Moskee Ehl-i-beyt",
      "type": "Mosquée",
      "adresse": "",
      "description": "Lieu de prière (OpenStreetMap).",
      "mapsUrl": "https://maps.google.com/?q=52.0633371,4.288832",
      "lat": 52.0633371,
      "lng": 4.288832,
      "source": "osm"
    },
    {
      "id": "m2752476689",
      "nom": "Dar Ul Islam",
      "type": "Mosquée",
      "adresse": "",
      "description": "Lieu de prière (OpenStreetMap).",
      "mapsUrl": "https://maps.google.com/?q=52.0715691,4.2841353",
      "lat": 52.0715691,
      "lng": 4.2841353,
      "source": "osm"
    },
    {
      "id": "m2752476742",
      "nom": "Moskee Quba",
      "type": "Mosquée",
      "adresse": "",
      "description": "Lieu de prière (OpenStreetMap).",
      "mapsUrl": "https://maps.google.com/?q=52.0718486,4.2835655",
      "lat": 52.0718486,
      "lng": 4.2835655,
      "source": "osm"
    },
    {
      "id": "m267270510",
      "nom": "As-Soennah moskee",
      "type": "Mosquée",
      "adresse": "Fruitweg, 's-Gravenhage",
      "description": "Lieu de prière (OpenStreetMap).",
      "mapsUrl": "https://maps.google.com/?q=52.060318,4.3074107",
      "lat": 52.060318,
      "lng": 4.3074107,
      "source": "osm"
    },
    {
      "id": "m267127015",
      "nom": "Moskee El Mouhsinin",
      "type": "Mosquée",
      "adresse": "Stationsweg, 's-Gravenhage",
      "description": "Lieu de prière (OpenStreetMap).",
      "mapsUrl": "https://maps.google.com/?q=52.072408,4.3192935",
      "lat": 52.072408,
      "lng": 4.3192935,
      "source": "osm"
    },
    {
      "id": "m1566853588",
      "nom": "Moslim Informatie Centrum",
      "type": "Mosquée",
      "adresse": "Beeklaan, 's-Gravenhage",
      "description": "Lieu de prière (OpenStreetMap).",
      "mapsUrl": "https://maps.google.com/?q=52.0742168,4.2813104",
      "lat": 52.0742168,
      "lng": 4.2813104,
      "source": "osm"
    },
    {
      "id": "m143216181",
      "nom": "Al Madinah Moskee",
      "type": "Mosquée",
      "adresse": "",
      "description": "Lieu de prière (OpenStreetMap).",
      "mapsUrl": "https://maps.google.com/?q=52.0699871,4.2795454",
      "lat": 52.0699871,
      "lng": 4.2795454,
      "source": "osm"
    },
    {
      "id": "m2731285644",
      "nom": "Moskee At-Tahweed",
      "type": "Mosquée",
      "adresse": "Newtonplein, 's-Gravenhage",
      "description": "Lieu de prière (OpenStreetMap).",
      "mapsUrl": "https://maps.google.com/?q=52.0721909,4.279193",
      "lat": 52.0721909,
      "lng": 4.279193,
      "source": "osm"
    },
    {
      "id": "m2752476735",
      "nom": "Moskee Anware Mustafa",
      "type": "Mosquée",
      "adresse": "Herschelstraat, 's-Gravenhage",
      "description": "Lieu de prière (OpenStreetMap).",
      "mapsUrl": "https://maps.google.com/?q=52.0732727,4.277794",
      "lat": 52.0732727,
      "lng": 4.277794,
      "source": "osm"
    },
    {
      "id": "m2752476732",
      "nom": "Jamia Madinatul-Islam",
      "type": "Mosquée",
      "adresse": "",
      "description": "Lieu de prière (OpenStreetMap).",
      "mapsUrl": "https://maps.google.com/?q=52.0726018,4.2729727",
      "lat": 52.0726018,
      "lng": 4.2729727,
      "source": "osm"
    },
    {
      "id": "m265452546",
      "nom": "Masjid Al-Hikmah",
      "type": "Mosquée",
      "adresse": "",
      "description": "Lieu de prière (OpenStreetMap).",
      "mapsUrl": "https://maps.google.com/?q=52.051786,4.3041984",
      "lat": 52.051786,
      "lng": 4.3041984,
      "source": "osm"
    },
    {
      "id": "m265130413",
      "nom": "El Mouahidin",
      "type": "Mosquée",
      "adresse": "",
      "description": "Lieu de prière (OpenStreetMap).",
      "mapsUrl": "https://maps.google.com/?q=52.0639007,4.3296737",
      "lat": 52.0639007,
      "lng": 4.3296737,
      "source": "osm"
    },
    {
      "id": "m265336748",
      "nom": "Moskee el Oemma",
      "type": "Mosquée",
      "adresse": "",
      "description": "Lieu de prière (OpenStreetMap).",
      "mapsUrl": "https://maps.google.com/?q=52.053666,4.3168342",
      "lat": 52.053666,
      "lng": 4.3168342,
      "source": "osm"
    },
    {
      "id": "m265336699",
      "nom": "ISN Mescid-i Kuba Moskee",
      "type": "Mosquée",
      "adresse": "",
      "description": "Lieu de prière (OpenStreetMap).",
      "mapsUrl": "https://maps.google.com/?q=52.0535302,4.3170027",
      "lat": 52.0535302,
      "lng": 4.3170027,
      "source": "osm"
    },
    {
      "id": "m267792941",
      "nom": "Mehfil-e-Ali",
      "type": "Mosquée",
      "adresse": "",
      "description": "Lieu de prière (OpenStreetMap).",
      "mapsUrl": "https://maps.google.com/?q=52.0706209,4.2671883",
      "lat": 52.0706209,
      "lng": 4.2671883,
      "source": "osm"
    },
    {
      "id": "m426241876",
      "nom": "Ahmadiyya Anjuman Isha'at Islam Lahore",
      "type": "Mosquée",
      "adresse": "",
      "description": "Lieu de prière (OpenStreetMap).",
      "mapsUrl": "https://maps.google.com/?q=52.057265,4.271952",
      "lat": 52.057265,
      "lng": 4.271952,
      "source": "osm"
    },
    {
      "id": "m2707851490",
      "nom": "ISN Molenwijk Moskee",
      "type": "Mosquée",
      "adresse": "Stuwstraat, 's-Gravenhage",
      "description": "Lieu de prière (OpenStreetMap).",
      "mapsUrl": "https://maps.google.com/?q=52.0623954,4.3367008",
      "lat": 52.0623954,
      "lng": 4.3367008,
      "source": "osm"
    },
    {
      "id": "m58613749",
      "nom": "Mobarak Moskee",
      "type": "Mosquée",
      "adresse": "Oostduinlaan, 's-Gravenhage",
      "description": "Lieu de prière (OpenStreetMap).",
      "mapsUrl": "https://maps.google.com/?q=52.0952918,4.3131108",
      "lat": 52.0952918,
      "lng": 4.3131108,
      "source": "osm"
    },
    {
      "id": "m267843277",
      "nom": "Moskee Annour",
      "type": "Mosquée",
      "adresse": "",
      "description": "Lieu de prière (OpenStreetMap).",
      "mapsUrl": "https://maps.google.com/?q=52.0384477,4.2702756",
      "lat": 52.0384477,
      "lng": 4.2702756,
      "source": "osm"
    },
    {
      "id": "m550255591",
      "nom": "Isn Ahi Evran Camii Moskee",
      "type": "Mosquée",
      "adresse": "",
      "description": "Lieu de prière (OpenStreetMap).",
      "mapsUrl": "https://maps.google.com/?q=52.0445434,4.2555152",
      "lat": 52.0445434,
      "lng": 4.2555152,
      "source": "osm"
    },
    {
      "id": "m267657882",
      "nom": "Essounnah Moskee",
      "type": "Mosquée",
      "adresse": "",
      "description": "Lieu de prière (OpenStreetMap).",
      "mapsUrl": "https://maps.google.com/?q=52.0270323,4.2713029",
      "lat": 52.0270323,
      "lng": 4.2713029,
      "source": "osm"
    },
    {
      "id": "m265675333",
      "nom": "Stichting Eenheid",
      "type": "Mosquée",
      "adresse": "",
      "description": "Lieu de prière (OpenStreetMap).",
      "mapsUrl": "https://maps.google.com/?q=52.0949373,4.3879754",
      "lat": 52.0949373,
      "lng": 4.3879754,
      "source": "osm"
    },
    {
      "id": "m239895200",
      "nom": "Oude Kerk",
      "type": "Mosquée",
      "adresse": "Heilige Geestkerkhof, Delft",
      "description": "Lieu de prière (OpenStreetMap).",
      "mapsUrl": "https://maps.google.com/?q=52.0125962,4.3559037",
      "lat": 52.0125962,
      "lng": 4.3559037,
      "source": "osm"
    },
    {
      "id": "m227924236",
      "nom": "Nieuwe Kerk",
      "type": "Mosquée",
      "adresse": "Markt, Delft",
      "description": "Lieu de prière (OpenStreetMap).",
      "mapsUrl": "https://maps.google.com/?q=52.0122894,4.3608065",
      "lat": 52.0122894,
      "lng": 4.3608065,
      "source": "osm"
    },
    {
      "id": "m229959977",
      "nom": "Sultan Ahmet Moskee",
      "type": "Mosquée",
      "adresse": "",
      "description": "Lieu de prière (OpenStreetMap).",
      "mapsUrl": "https://maps.google.com/?q=51.9966515,4.3478325",
      "lat": 51.9966515,
      "lng": 4.3478325,
      "source": "osm"
    },
    {
      "id": "m165208746",
      "nom": "Al Ansaar-moskee",
      "type": "Mosquée",
      "adresse": "",
      "description": "Lieu de prière (OpenStreetMap).",
      "mapsUrl": "https://maps.google.com/?q=51.9961688,4.3609086",
      "lat": 51.9961688,
      "lng": 4.3609086,
      "source": "osm"
    },
    {
      "id": "m269415624",
      "nom": "Almouwahidin Naaldwijk",
      "type": "Mosquée",
      "adresse": "",
      "description": "Lieu de prière (OpenStreetMap).",
      "mapsUrl": "https://maps.google.com/?q=51.9963087,4.2057345",
      "lat": 51.9963087,
      "lng": 4.2057345,
      "source": "osm"
    }
  ],
  "activites": [
    {
      "id": "a206723366",
      "nom": "Kinderboerderij",
      "categorie": "zoo",
      "description": "",
      "prix": "",
      "duree": "",
      "mapsUrl": "https://maps.google.com/?q=52.0687667,4.3061098",
      "lat": 52.0687667,
      "lng": 4.3061098,
      "source": "osm"
    },
    {
      "id": "a7746347913",
      "nom": "Zieken te bed",
      "categorie": "artwork",
      "description": "",
      "prix": "",
      "duree": "",
      "mapsUrl": "https://maps.google.com/?q=52.0744607,4.301397",
      "lat": 52.0744607,
      "lng": 4.301397,
      "source": "osm"
    },
    {
      "id": "a6564781497",
      "nom": "De Houthandelaar",
      "categorie": "artwork",
      "description": "",
      "prix": "",
      "duree": "",
      "mapsUrl": "https://maps.google.com/?q=52.0726165,4.3062752",
      "lat": 52.0726165,
      "lng": 4.3062752,
      "source": "osm"
    },
    {
      "id": "a458762606",
      "nom": "De Woelige Stal",
      "categorie": "zoo",
      "description": "",
      "prix": "",
      "duree": "",
      "mapsUrl": "https://maps.google.com/?q=52.0680329,4.2953588",
      "lat": 52.0680329,
      "lng": 4.2953588,
      "source": "osm"
    },
    {
      "id": "a1529620016",
      "nom": "Zusters van Liefde",
      "categorie": "memorial",
      "description": "",
      "prix": "",
      "duree": "",
      "mapsUrl": "https://maps.google.com/?q=52.0747097,4.3017661",
      "lat": 52.0747097,
      "lng": 4.3017661,
      "source": "osm"
    },
    {
      "id": "a4598231096",
      "nom": "Hindoestaans Immigratiemonument",
      "categorie": "memorial",
      "description": "",
      "prix": "",
      "duree": "",
      "mapsUrl": "https://maps.google.com/?q=52.0668214,4.2970959",
      "lat": 52.0668214,
      "lng": 4.2970959,
      "source": "osm"
    },
    {
      "id": "a1533708590",
      "nom": "Aartsengel Michael",
      "categorie": "memorial",
      "description": "",
      "prix": "",
      "duree": "",
      "mapsUrl": "https://maps.google.com/?q=52.074742,4.3018344",
      "lat": 52.074742,
      "lng": 4.3018344,
      "source": "osm"
    },
    {
      "id": "a4598231097",
      "nom": "Mahatma Gandhi",
      "categorie": "memorial",
      "description": "",
      "prix": "",
      "duree": "",
      "mapsUrl": "https://maps.google.com/?q=52.0667834,4.2968193",
      "lat": 52.0667834,
      "lng": 4.2968193,
      "source": "osm"
    },
    {
      "id": "a5973060828",
      "nom": "Plastiek",
      "categorie": "artwork",
      "description": "",
      "prix": "",
      "duree": "",
      "mapsUrl": "https://maps.google.com/?q=52.071071,4.3081361",
      "lat": 52.071071,
      "lng": 4.3081361,
      "source": "osm"
    },
    {
      "id": "a624088808",
      "nom": "Kortenbos Poort",
      "categorie": "artwork",
      "description": "",
      "prix": "",
      "duree": "",
      "mapsUrl": "https://maps.google.com/?q=52.0752305,4.2975472",
      "lat": 52.0752305,
      "lng": 4.2975472,
      "source": "osm"
    },
    {
      "id": "a5973060829",
      "nom": "Reliëf Varkenmarkt",
      "categorie": "artwork",
      "description": "",
      "prix": "",
      "duree": "",
      "mapsUrl": "https://maps.google.com/?q=52.0746465,4.3061388",
      "lat": 52.0746465,
      "lng": 4.3061388,
      "source": "osm"
    },
    {
      "id": "a2720005284",
      "nom": "Billytown",
      "categorie": "gallery",
      "description": "",
      "prix": "",
      "duree": "",
      "mapsUrl": "https://maps.google.com/?q=52.0727189,4.3086684",
      "lat": 52.0727189,
      "lng": 4.3086684,
      "source": "osm"
    },
    {
      "id": "a8812076953",
      "nom": "Museum van Kleef",
      "categorie": "museum",
      "description": "",
      "prix": "",
      "duree": "",
      "mapsUrl": "https://maps.google.com/?q=52.073273,4.3083995",
      "lat": 52.073273,
      "lng": 4.3083995,
      "source": "osm"
    },
    {
      "id": "a6459700739",
      "nom": "Design Museum Dedel",
      "categorie": "museum",
      "description": "",
      "prix": "",
      "duree": "",
      "mapsUrl": "https://maps.google.com/?q=52.0752058,4.307655",
      "lat": 52.0752058,
      "lng": 4.307655,
      "source": "osm"
    },
    {
      "id": "a5777098202",
      "nom": "Wachters",
      "categorie": "artwork",
      "description": "",
      "prix": "",
      "duree": "",
      "mapsUrl": "https://maps.google.com/?q=52.0726084,4.2895476",
      "lat": 52.0726084,
      "lng": 4.2895476,
      "source": "osm"
    },
    {
      "id": "a5617996222",
      "nom": "Haagse Harry",
      "categorie": "artwork",
      "description": "",
      "prix": "",
      "duree": "",
      "mapsUrl": "https://maps.google.com/?q=52.0755527,4.3091587",
      "lat": 52.0755527,
      "lng": 4.3091587,
      "source": "osm"
    },
    {
      "id": "a8254698017",
      "nom": "Stroom",
      "categorie": "artwork",
      "description": "",
      "prix": "",
      "duree": "",
      "mapsUrl": "https://maps.google.com/?q=52.075626,4.3098767",
      "lat": 52.075626,
      "lng": 4.3098767,
      "source": "osm"
    },
    {
      "id": "a8254646916",
      "nom": "Beeld",
      "categorie": "artwork",
      "description": "",
      "prix": "",
      "duree": "",
      "mapsUrl": "https://maps.google.com/?q=52.0756701,4.3100344",
      "lat": 52.0756701,
      "lng": 4.3100344,
      "source": "osm"
    },
    {
      "id": "a6229575116",
      "nom": "Van Assendelftkapel",
      "categorie": "attraction",
      "description": "",
      "prix": "",
      "duree": "",
      "mapsUrl": "https://maps.google.com/?q=52.0771916,4.3069744",
      "lat": 52.0771916,
      "lng": 4.3069744,
      "source": "osm"
    },
    {
      "id": "a8254646915",
      "nom": "ZT",
      "categorie": "artwork",
      "description": "",
      "prix": "",
      "duree": "",
      "mapsUrl": "https://maps.google.com/?q=52.0757373,4.3102526",
      "lat": 52.0757373,
      "lng": 4.3102526,
      "source": "osm"
    },