{
 "slug": "la-mecque",
 "nom": "La Mecque",
 "nom_arabe": "مكة المكرمة",
 "pays": "Arabie Saoudite",
 "pays_slug": "arabie-saoudite",
 "drapeau": "🇸🇦",
 "region": "Péninsule Arabique",
 "coordonnees": {
  "lat": 21.3891,
  "lng": 39.8579
 },
 "score_halal": 4.9,
 "score_securite": 5,
 "score_famille": 4,
 "score_budget": 3,
 "description": "La ville la plus sacrée de l'Islam — Masjid al-Haram, Kaaba et le pèlerinage du Hajj. Accessible uniquement aux musulmans. Lieu de naissance du Prophète Muhammad ﷺ.",
 "description_courte": "La ville sainte, destination ultime du musulman",
 "description_longue": "La Mecque est la destination spirituelle suprême pour 1,8 milliard de musulmans dans le monde. Chaque prière de la journée, les musulmans se tournent vers la Kaaba. Chaque musulman qui en a les moyens doit accomplir le Hajj au moins une fois dans sa vie. La ville est interdite aux non-musulmans. L'enceinte de la Grande Mosquée (Masjid al-Haram) est la plus grande mosquée au monde, pouvant accueillir jusqu'à 4 millions de fidèles pendant le Hajj.",
 "image_hero": "https://images.unsplash.com/photo-1693590614566-1d3ea9ef32f7?w=1600&q=80",
 "image_alt": "La Kaaba illuminée au coeur de la Grande Mosquée de La Mecque",
 "meta_title": "La Mecque 2025 — Guide Pèlerinage Hajj & Omra",
 "meta_description": "Guide complet pour La Mecque : Hajj, Omra, Masjid al-Haram, Kaaba, hôtels, restaurants. La ville sainte réservée aux musulmans.",
 "statistiques": {
  "mosquees": 28,
  "restaurants_halal": 26,
  "hotels_halal": 200,
  "boucheries_halal": 500,
  "habitants_musulmans_pct": 100,
  "habitants": 2000000,
  "altitude_m": 277,
  "superficie_km2": 1200,
  "hotels": 108
 },
 "infos_pratiques": {
  "langue_officielle": "Arabe",
  "langues_parlees": [
   "Arabe",
   "Ourdou",
   "Indonésien",
   "Français",
   "Anglais (guides)"
  ],
  "monnaie": "Riyal saoudien (SAR)",
  "taux_change_eur": "1 EUR ≈ 4.10 SAR",
  "meilleure_periode": "Omra : novembre-février (températures douces). Hajj : date fixe du calendrier islamique (varie chaque année grégorienne)",
  "a_eviter": "Juillet-Août (températures extrêmes 45°C+, sauf Hajj obligatoire)",
  "fuseau_horaire": "AST (UTC+3)",
  "appel_priere": "Appel depuis la Grande Mosquée diffusé dans toute la ville — les 5 prières rythment la vie",
  "nourriture_halal": "100% halal — tout est halal par essence divine",
  "alcool": "Strictement interdit dans toute l'Arabie Saoudite",
  "tenue_recommandee": "Hommes : ihram pour Hajj/Omra (2 pièces de tissu blanc). Femmes : abaya + hijab, niqab courant mais non obligatoire légalement",
  "securite": "Excellente — police spéciale du Haram, forces de sécurité saoudiennes partout",
  "transport_local": "Bus Al-Mashaaer El-Moqaddassah (ligne Hajj/Omra), taxis, voitures de location. Train pour Hajj.",
  "aeroport": "Aéroport international King Abdulaziz (JED) à Djeddah — 80 km, Terminal Hajj spécial",
  "visa": "VISA SPÉCIAL OBLIGATOIRE — Visa Omra (toute l'année), Visa Hajj (période du pèlerinage uniquement). NON-MUSULMANS INTERDITS D'ENTRÉE."
 },
 "meteo_par_mois": [
  {
   "mois": "Janvier",
   "temp_max": 31,
   "temp_min": 18,
   "pluie_jours": 1,
   "emoji": "☀️"
  },
  {
   "mois": "Février",
   "temp_max": 33,
   "temp_min": 19,
   "pluie_jours": 1,
   "emoji": "☀️"
  },
  {
   "mois": "Mars",
   "temp_max": 37,
   "temp_min": 22,
   "pluie_jours": 1,
   "emoji": "☀️"
  },
  {
   "mois": "Avril",
   "temp_max": 40,
   "temp_min": 25,
   "pluie_jours": 0,
   "emoji": "🌞"
  },
  {
   "mois": "Mai",
   "temp_max": 43,
   "temp_min": 28,
   "pluie_jours": 0,
   "emoji": "🌞"
  },
  {
   "mois": "Juin",
   "temp_max": 45,
   "temp_min": 31,
   "pluie_jours": 0,
   "emoji": "🌡️"
  },
  {
   "mois": "Juillet",
   "temp_max": 43,
   "temp_min": 30,
   "pluie_jours": 0,
   "emoji": "🌡️"
  },
  {
   "mois": "Août",
   "temp_max": 43,
   "temp_min": 29,
   "pluie_jours": 0,
   "emoji": "🌡️"
  },
  {
   "mois": "Septembre",
   "temp_max": 41,
   "temp_min": 27,
   "pluie_jours": 0,
   "emoji": "🌞"
  },
  {
   "mois": "Octobre",
   "temp_max": 37,
   "temp_min": 24,
   "pluie_jours": 1,
   "emoji": "☀️"
  },
  {
   "mois": "Novembre",
   "temp_max": 33,
   "temp_min": 20,
   "pluie_jours": 1,
   "emoji": "☀️"
  },
  {
   "mois": "Décembre",
   "temp_max": 30,
   "temp_min": 17,
   "pluie_jours": 1,
   "emoji": "⛅"
  }
 ],
 "restaurants": [
  {
   "nom": "شاورما قمر الدين",
   "lat": 21.3966006,
   "lng": 39.8746507,
   "type": "syrian",
   "halalConfidence": "likely",
   "mapsUrl": "https://maps.google.com/?q=21.3966006,39.8746507",
   "source": "osm"
  },
  {
   "nom": "panoor hotel",
   "lat": 21.3851135,
   "lng": 39.8776666,
   "type": "kerala, indian",
   "halalConfidence": "high",
   "mapsUrl": "https://maps.google.com/?q=21.3851135,39.8776666",
   "source": "osm"
  },
  {
   "nom": "Master chef",
   "lat": 21.3908657,
   "lng": 39.8780904,
   "type": "pakistani",
   "halalConfidence": "high",
   "mapsUrl": "https://maps.google.com/?q=21.3908657,39.8780904",
   "source": "osm"
  },
  {
   "nom": "مطعم شيف جريل",
   "lat": 21.3953215,
   "lng": 39.8838427,
   "type": "asian, arab, japanese, pakistani, indian, thai",
   "halalConfidence": "high",
   "mapsUrl": "https://maps.google.com/?q=21.3953215,39.8838427",
   "source": "osm"
  },
  {
   "nom": "Kebab Restaurant",
   "lat": 21.4155063,
   "lng": 39.862493,
   "type": "kebab",
   "halalConfidence": "likely",
   "mapsUrl": "https://maps.google.com/?q=21.4155063,39.862493",
   "source": "osm"
  },
  {
   "nom": "Turkish Restaurant",
   "lat": 21.4162048,
   "lng": 39.8645705,
   "type": "turkish",
   "halalConfidence": "likely",
   "mapsUrl": "https://maps.google.com/?q=21.4162048,39.8645705",
   "source": "osm"
  },
  {
   "nom": "Istanbul Turk Lokantasi",
   "lat": 21.4223257,
   "lng": 39.8475037,
   "type": "turkish",
   "halalConfidence": "likely",
   "mapsUrl": "https://maps.google.com/?q=21.4223257,39.8475037",
   "source": "osm"
  },
  {
   "nom": "مطعم تركي",
   "lat": 21.4272203,
   "lng": 39.8559973,
   "type": "turkish",
   "halalConfidence": "likely",
   "mapsUrl": "https://maps.google.com/?q=21.4272203,39.8559973",
   "source": "osm"
  },
  {
   "nom": "المذاق التركي",
   "lat": 21.4281773,
   "lng": 39.85601,
   "type": "turkish",
   "halalConfidence": "likely",
   "mapsUrl": "https://maps.google.com/?q=21.4281773,39.85601",
   "source": "osm"
  },
  {
   "nom": "Doner Kebab DK72 - 4th Floor",
   "lat": 21.4186103,
   "lng": 39.8258702,
   "type": "turkish",
   "halalConfidence": "likely",
   "mapsUrl": "https://maps.google.com/?q=21.4186103,39.8258702",
   "source": "osm"
  },
  {
   "nom": "مطعم تركي",
   "lat": 21.4185115,
   "lng": 39.8250201,
   "type": "turkish",
   "halalConfidence": "likely",
   "mapsUrl": "https://maps.google.com/?q=21.4185115,39.8250201",
   "source": "osm"
  },
  {
   "nom": "Trabzon - Turkish Restaurant",
   "lat": 21.4325212,
   "lng": 39.8556657,
   "type": "turkish",
   "halalConfidence": "likely",
   "mapsUrl": "https://maps.google.com/?q=21.4325212,39.8556657",
   "source": "osm"
  },
  {
   "nom": "مطعم زمزم",
   "lat": 21.419459,
   "lng": 39.8241884,
   "type": "arabic, pakistani, indian",
   "halalConfidence": "likely",
   "mapsUrl": "https://maps.google.com/?q=21.419459,39.8241884",
   "source": "osm"
  },
  {
   "nom": "Sahtein Restaurant",
   "lat": 21.4208993,
   "lng": 39.8221561,
   "type": "lebanese, regional, dessert",
   "halalConfidence": "high",
   "mapsUrl": "https://maps.google.com/?q=21.4208993,39.8221561",
   "source": "osm"
  },
  {
   "nom": "مطعم زمزم",
   "lat": 21.4328236,
   "lng": 39.82936,
   "type": "turkish, arabic, pakistani",
   "halalConfidence": "likely",
   "mapsUrl": "https://maps.google.com/?q=21.4328236,39.82936",
   "source": "osm"
  },
  {
   "nom": "كافتريا خيرات",
   "lat": 21.4398465,
   "lng": 39.8352835,
   "type": "kebab",
   "halalConfidence": "likely",
   "mapsUrl": "https://maps.google.com/?q=21.4398465,39.8352835",
   "source": "osm"
  },
  {
   "nom": "مطاعم ومطابخ بن علي",
   "lat": 21.4339595,
   "lng": 39.8178905,
   "type": "kebab",
   "halalConfidence": "likely",
   "mapsUrl": "https://maps.google.com/?q=21.4339595,39.8178905",
   "source": "osm"
  },
  {
   "nom": "بريمو",
   "lat": 21.3830016,
   "lng": 39.795426,
   "type": "pizza, dessert, noodle, sandwich, pasta",
   "halalConfidence": "high",
   "mapsUrl": "https://maps.google.com/?q=21.3830016,39.795426",
   "source": "osm"
  },
  {
   "nom": "Bin Ali Restaurant",
   "lat": 21.3711871,
   "lng": 39.79782,
   "type": "kebab, turkish",
   "halalConfidence": "likely",
   "mapsUrl": "https://maps.google.com/?q=21.3711871,39.79782",
   "source": "osm"
  },
  {
   "nom": "مطبخ الباني",
   "lat": 21.3973111,
   "lng": 39.7869396,
   "type": "arab",
   "halalConfidence": "likely",
   "mapsUrl": "https://maps.google.com/?q=21.3973111,39.7869396",
   "source": "osm"
  },
  {
   "nom": "الدار للمشويات الشامية",
   "lat": 21.442131,
   "lng": 39.8115226,
   "type": "grill, syrian",
   "halalConfidence": "likely",
   "mapsUrl": "https://maps.google.com/?q=21.442131,39.8115226",
   "source": "osm"
  },
  {
   "nom": "مطعم أفندم",
   "lat": 21.4401718,
   "lng": 39.8014399,
   "type": "turkish",
   "halalConfidence": "likely",
   "mapsUrl": "https://maps.google.com/?q=21.4401718,39.8014399",
   "source": "osm"
  },
  {
   "nom": "مكارم الشام",
   "lat": 21.4373352,
   "lng": 39.7979345,
   "type": "syrian",
   "halalConfidence": "likely",
   "mapsUrl": "https://maps.google.com/?q=21.4373352,39.7979345",
   "source": "osm"
  },
  {
   "nom": "كباب",
   "lat": 21.4376896,
   "lng": 39.7937049,
   "type": "turkish",
   "halalConfidence": "likely",
   "mapsUrl": "https://maps.google.com/?q=21.4376896,39.7937049",
   "source": "osm"
  },
  {
   "nom": "الأطباق",
   "lat": 21.4382982,
   "lng": 39.792094,
   "type": "pakistani",
   "halalConfidence": "likely",
   "mapsUrl": "https://maps.google.com/?q=21.4382982,39.792094",
   "source": "osm"
  },
  {
   "nom": "مذاق الشرق",
   "lat": 21.4767822,
   "lng": 39.8427221,
   "type": "regional, chicken, juice, salad, dessert",
   "halalConfidence": "high",
   "mapsUrl": "https://maps.google.com/?q=21.4767822,39.8427221",
   "source": "osm"
  }
 ],
 "mosquees": [],
 "hotels": [
  {
   "nom": "فندق هاجر",
   "categorie": "Hôtel",
   "priceRange": "€€",
   "mapsUrl": "https://maps.google.com/?q=21.3954376,39.8662468",
   "lat": 21.3954376,
   "lng": 39.8662468,
   "halalFriendly": false,
   "bookingUrl": "https://maps.google.com/?q=21.3954376,39.8662468",
   "source": "osm"
  },
  {
   "nom": "Home mkh",
   "categorie": "Hôtel",
   "priceRange": "€€",
   "mapsUrl": "https://maps.google.com/?q=21.398087,39.8646182",
   "lat": 21.398087,
   "lng": 39.8646182,
   "halalFriendly": false,
   "bookingUrl": "https://maps.google.com/?q=21.398087,39.8646182",
   "source": "osm"
  },
  {
   "nom": "القوس الازرق",
   "categorie": "Hôtel",
   "priceRange": "€€",
   "mapsUrl": "https://maps.google.com/?q=21.3989774,39.8637997",
   "lat": 21.3989774,
   "lng": 39.8637997,
   "halalFriendly": false,
   "bookingUrl": "https://maps.google.com/?q=21.3989774,39.8637997",
   "source": "osm"
  },
  {
   "nom": "Al Faris Royal Hotel",
   "categorie": "Hôtel",
   "priceRange": "€€",
   "mapsUrl": "https://maps.google.com/?q=21.4007484,39.8627912",
   "lat": 21.4007484,
   "lng": 39.8627912,
   "halalFriendly": false,
   "bookingUrl": "https://maps.google.com/?q=21.4007484,39.8627912",
   "source": "osm"
  },
  {
   "nom": "DoubleTree by Hilton Makkah Aziziyah",
   "categorie": "Hôtel",
   "priceRange": "€€€€",
   "score": 4,
   "mapsUrl": "https://maps.google.com/?q=21.3970221,39.87033",
   "lat": 21.3970221,
   "lng": 39.87033,
   "halalFriendly": false,
   "bookingUrl": "https://www.hilton.com/en/hotels/makdtdi-doubletree-makkah-aziziyah/",
   "source": "osm"
  },
  {
   "nom": "سنت العزيزية",
   "categorie": "Hôtel",
   "priceRange": "€€",
   "mapsUrl": "https://maps.google.com/?q=21.3992233,39.8691226",
   "lat": 21.3992233,
   "lng": 39.8691226,
   "halalFriendly": false,
   "bookingUrl": "https://maps.google.com/?q=21.3992233,39.8691226",
   "source": "osm"
  },
  {
   "nom": "Park Inn",
   "categorie": "Hôtel",
   "priceRange": "€€",
   "mapsUrl": "https://maps.google.com/?q=21.3819506,39.8723596",
   "lat": 21.3819506,
   "lng": 39.8723596,
   "halalFriendly": false,
   "bookingUrl": "https://maps.google.com/?q=21.3819506,39.8723596",
   "source": "osm"
  },
  {
   "nom": "فندق حياة جبيل",
   "categorie": "Hôtel",
   "priceRange": "€€",
   "mapsUrl": "https://maps.google.com/?q=21.3994294,39.870694",
   "lat": 21.3994294,
   "lng": 39.870694,
   "halalFriendly": false,
   "bookingUrl": "https://maps.google.com/?q=21.3994294,39.870694",
   "source": "osm"
  },
  {
   "nom": "Millennium",
   "categorie": "Hôtel",
   "priceRange": "€€",
   "mapsUrl": "https://maps.google.com/?q=21.3808852,39.8728446",
   "lat": 21.3808852,
   "lng": 39.8728446,
   "halalFriendly": false,
   "bookingUrl": "https://maps.google.com/?q=21.3808852,39.8728446",
   "source": "osm"
  },
  {
   "nom": "Fadaq building no 348",
   "categorie": "Hôtel",
   "priceRange": "€€",
   "mapsUrl": "https://maps.google.com/?q=21.3928104,39.8749887",
   "lat": 21.3928104,
   "lng": 39.8749887,
   "halalFriendly": false,
   "bookingUrl": "https://maps.google.com/?q=21.3928104,39.8749887",
   "source": "osm"
  },
  {
   "nom": "Azizia building 348",
   "categorie": "Hôtel",
   "priceRange": "€€",
   "mapsUrl": "https://maps.google.com/?q=21.3925712,39.87511",
   "lat": 21.3925712,
   "lng": 39.87511,
   "halalFriendly": false,
   "bookingUrl": "https://maps.google.com/?q=21.3925712,39.87511",
   "source": "osm"
  },
  {
   "nom": "Four Points by Sheraton",
   "categorie": "Hôtel",
   "priceRange": "€€",
   "mapsUrl": "https://maps.google.com/?q=21.3805875,39.8741232",
   "lat": 21.3805875,
   "lng": 39.8741232,
   "halalFriendly": false,
   "bookingUrl": "https://maps.google.com/?q=21.3805875,39.8741232",
   "source": "osm"
  },
  {
   "nom": "فندق سيف بلص",
   "categorie": "Hôtel",
   "priceRange": "€€",
   "mapsUrl": "https://maps.google.com/?q=21.4063229,39.8609007",
   "lat": 21.4063229,
   "lng": 39.8609007,
   "halalFriendly": false,
   "bookingUrl": "https://maps.google.com/?q=21.4063229,39.8609007",
   "source": "osm"
  },
  {
   "nom": "فندق تبارك",
   "categorie": "Maison d'hôtes",
   "priceRange": "€€",
   "mapsUrl": "https://maps.google.com/?q=21.4066517,39.8616876",
   "lat": 21.4066517,
   "lng": 39.8616876,
   "halalFriendly": false,
   "bookingUrl": "https://maps.google.com/?q=21.4066517,39.8616876",
   "source": "osm"
  },
  {
   "nom": "Diyar Al-Mashaer Hotel",
   "categorie": "Hôtel",
   "priceRange": "€€",
   "mapsUrl": "https://maps.google.com/?q=21.4016564,39.8728876",
   "lat": 21.4016564,
   "lng": 39.8728876,
   "halalFriendly": false,
   "bookingUrl": "https://maps.google.com/?q=21.4016564,39.8728876",
   "source": "osm"
  },
  {
   "nom": "Al Hidaya towers hotel",
   "categorie": "Hôtel",
   "priceRange": "€€",
   "mapsUrl": "https://maps.google.com/?q=21.3896825,39.878599",
   "lat": 21.3896825,
   "lng": 39.878599,
   "halalFriendly": false,
   "bookingUrl": "https://maps.google.com/?q=21.3896825,39.878599",
   "source": "osm"
  },
  {
   "nom": "فندق طيف مكة",
   "categorie": "Hôtel",
   "priceRange": "€€",
   "mapsUrl": "https://maps.google.com/?q=21.4037977,39.8722434",
   "lat": 21.4037977,
   "lng": 39.8722434,
   "halalFriendly": false,
   "bookingUrl": "https://maps.google.com/?q=21.4037977,39.8722434",
   "source": "osm"
  },
  {
   "nom": "فندق رفاف المشاعر",
   "categorie": "Hôtel",
   "priceRange": "€€",
   "mapsUrl": "https://maps.google.com/?q=21.4032185,39.8730749",
   "lat": 21.4032185,
   "lng": 39.8730749,
   "halalFriendly": false,
   "bookingUrl": "https://maps.google.com/?q=21.4032185,39.8730749",
   "source": "osm"
  },
  {
   "nom": "عمائر فرسان السلام 1",
   "categorie": "Hôtel",
   "priceRange": "€€",
   "mapsUrl": "https://maps.google.com/?q=21.4061155,39.8698887",
   "lat": 21.4061155,
   "lng": 39.8698887,
   "halalFriendly": false,
   "bookingUrl": "https://maps.google.com/?q=21.4061155,39.8698887",
   "source": "osm"
  },
  {
   "nom": "عمائر فرسان السلام 2",
   "categorie": "Hôtel",
   "priceRange": "€€",
   "mapsUrl": "https://maps.google.com/?q=21.406314,39.8696437",
   "lat": 21.406314,
   "lng": 39.8696437,
   "halalFriendly": false,
   "bookingUrl": "https://forsanhotels.sa",
   "source": "osm"
  },
  {
   "nom": "عمائر فرسان السلام",
   "categorie": "Hôtel",
   "priceRange": "€€",
   "mapsUrl": "https://maps.google.com/?q=21.4064852,39.8694379",
   "lat": 21.4064852,
   "lng": 39.8694379,
   "halalFriendly": false,
   "bookingUrl": "https://forsanhotels.sa",
   "source": "osm"
  },
  {
   "nom": "عمائر فرسان السلام 4",
   "categorie": "Hôtel",
   "priceRange": "€€",
   "mapsUrl": "https://maps.google.com/?q=21.4066297,39.8692482",
   "lat": 21.4066297,
   "lng": 39.8692482,
   "halalFriendly": false,
   "bookingUrl": "https://forsanhotels.sa",
   "source": "osm"
  },
  {
   "nom": "عمائر فرسان السلام 5",
   "categorie": "Hôtel",
   "priceRange": "€€",
   "mapsUrl": "https://maps.google.com/?q=21.4067765,39.8690669",
   "lat": 21.4067765,
   "lng": 39.8690669,
   "halalFriendly": false,
   "bookingUrl": "https://forsanhotels.sa",
   "source": "osm"
  },
  {
   "nom": "عمائر فرسان السلام",
   "categorie": "Hôtel",
   "priceRange": "€€",
   "mapsUrl": "https://maps.google.com/?q=21.4068431,39.8691908",
   "lat": 21.4068431,
   "lng": 39.8691908,
   "halalFriendly": false,
   "bookingUrl": "https://forsanhotels.sa",
   "source": "osm"
  },
  {
   "nom": "فرج بن عبد الله",
   "categorie": "Hôtel",
   "priceRange": "€€",
   "mapsUrl": "https://maps.google.com/?q=21.4010348,39.8760926",
   "lat": 21.4010348,
   "lng": 39.8760926,
   "halalFriendly": false,
   "bookingUrl": "https://maps.google.com/?q=21.4010348,39.8760926",
   "source": "osm"
  },
  {
   "nom": "Burj Al Bahaa",
   "categorie": "Hôtel",
   "priceRange": "€€",
   "mapsUrl": "https://maps.google.com/?q=21.4067676,39.8699887",
   "lat": 21.4067676,
   "lng": 39.8699887,
   "halalFriendly": false,
   "bookingUrl": "https://maps.google.com/?q=21.4067676,39.8699887",
   "source": "osm"
  },
  {
   "nom": "حلم مكه",
   "categorie": "Hôtel",
   "priceRange": "€€",
   "mapsUrl": "https://maps.google.com/?q=21.4005338,39.8769775",
   "lat": 21.4005338,
   "lng": 39.8769775,
   "halalFriendly": false,
   "bookingUrl": "https://maps.google.com/?q=21.4005338,39.8769775",
   "source": "osm"
  },
  {
   "nom": "منازلي",
   "categorie": "Hôtel",
   "priceRange": "€€",
   "mapsUrl": "https://maps.google.com/?q=21.386465,39.8804183",
   "lat": 21.386465,
   "lng": 39.8804183,
   "halalFriendly": false,
   "bookingUrl": "https://maps.google.com/?q=21.386465,39.8804183",
   "source": "osm"
  },
  {
   "nom": "فندق ضي مكة",
   "categorie": "Hôtel",
   "priceRange": "€€",
   "mapsUrl": "https://maps.google.com/?q=21.4088769,39.8664069",
   "lat": 21.4088769,
   "lng": 39.8664069,
   "halalFriendly": false,
   "bookingUrl": "https://maps.google.com/?q=21.4088769,39.8664069",
   "source": "osm"
  },
  {
   "nom": "فندق اوركيد سراي العزيزية",
   "categorie": "Hôtel",
   "priceRange": "€€",
   "mapsUrl": "https://maps.google.com/?q=21.407929,39.8687263",
   "lat": 21.407929,
   "lng": 39.8687263,
   "halalFriendly": false,
   "bookingUrl": "https://maps.google.com/?q=21.407929,39.8687263",
   "source": "osm"
  },
  {
   "nom": "Muskaan Al Safwa",
   "categorie": "Hôtel",
   "priceRange": "€€",
   "mapsUrl": "https://maps.google.com/?q=21.3921427,39.8806745",
   "lat": 21.3921427,
   "lng": 39.8806745,
   "halalFriendly": false,
   "bookingUrl": "https://maps.google.com/?q=21.3921427,39.8806745",
   "source": "osm"
  },
  {
   "nom": "أثمان",
   "categorie": "Hôtel",
   "priceRange": "€€",
   "mapsUrl": "https://maps.google.com/?q=21.4071901,39.8708279",
   "lat": 21.4071901,
   "lng": 39.8708279,
   "halalFriendly": false,
   "bookingUrl": "https://maps.google.com/?q=21.4071901,39.8708279",
   "source": "osm"
  },
  {
   "nom": "عفراء",
   "categorie": "Hôtel",
   "priceRange": "€€",
   "mapsUrl": "https://maps.google.com/?q=21.4087058,39.8679615",
   "lat": 21.4087058,
   "lng": 39.8679615,
   "halalFriendly": false,
   "bookingUrl": "https://maps.google.com/?q=21.4087058,39.8679615",
   "source": "osm"
  },
  {
   "nom": "واحة الرفاع",
   "categorie": "Hôtel",
   "priceRange": "€€€",
   "score": 3,
   "mapsUrl": "https://maps.google.com/?q=21.4089675,39.8677182",
   "lat": 21.4089675,
   "lng": 39.8677182,
   "halalFriendly": false,
   "bookingUrl": "https://newhaj.com/places/hotel-wahat-al-refaa/",
   "source": "osm"
  },
  {
   "nom": "فندق ثروات منى",
   "categorie": "Hôtel",
   "priceRange": "€€",
   "mapsUrl": "https://maps.google.com/?q=21.405562,39.8734478",
   "lat": 21.405562,
   "lng": 39.8734478,
   "halalFriendly": false,
   "bookingUrl": "https://maps.google.com/?q=21.405562,39.8734478",
   "source": "osm"
  },
  {
   "nom": "الرفاع العزيزية",
   "categorie": "Hôtel",
   "priceRange": "€€",
   "mapsUrl": "https://maps.google.com/?q=21.4093438,39.8673847",
   "lat": 21.4093438,
   "lng": 39.8673847,
   "halalFriendly": false,
   "bookingUrl": "https://maps.google.com/?q=21.4093438,39.8673847",
   "source": "osm"
  },
  {
   "nom": "فجر مكة",
   "categorie": "Hôtel",
   "priceRange": "€€",
   "mapsUrl": "https://maps.google.com/?q=21.4099037,39.8663298",
   "lat": 21.4099037,
   "lng": 39.8663298,
   "halalFriendly": false,
   "bookingUrl": "https://maps.google.com/?q=21.4099037,39.8663298",
   "source": "osm"
  },
  {
   "nom": "Spectrums Residence Makkah",
   "categorie": "Hôtel",
   "priceRange": "€€",
   "mapsUrl": "https://maps.google.com/?q=21.4097132,39.8669919",
   "lat": 21.4097132,
   "lng": 39.8669919,
   "halalFriendly": false,
   "bookingUrl": "https://maps.google.com/?q=21.4097132,39.8669919",
   "source": "osm"
  },
  {
   "nom": "الزائر برلنت",
   "categorie": "Hôtel",
   "priceRange": "€€",
   "mapsUrl": "https://maps.google.com/?q=21.409173,39.8688782",
   "lat": 21.409173,
   "lng": 39.8688782,
   "halalFriendly": false,
   "bookingUrl": "https://maps.google.com/?q=21.409173,39.8688782",
   "source": "osm"
  },
  {
   "nom": "فندق ٢١",
   "categorie": "Hôtel",
   "priceRange": "€€",
   "mapsUrl": "https://maps.google.com/?q=21.4023531,39.8775338",
   "lat": 21.4023531,
   "lng": 39.8775338,
   "halalFriendly": false,
   "bookingUrl": "https://maps.google.com/?q=21.4023531,39.8775338",
   "source": "osm"
  },
  {
   "nom": "Ayat Al Wafaa Hotel",
   "categorie": "Hôtel",
   "priceRange": "€€",
   "mapsUrl": "https://maps.google.com/?q=21.4096918,39.8683566",
   "lat": 21.4096918,
   "lng": 39.8683566,
   "halalFriendly": false,
   "bookingUrl": "https://maps.google.com/?q=21.4096918,39.8683566",
   "source": "osm"
  },
  {
   "nom": "ابراج العائلة العزيزية",
   "categorie": "Hôtel",
   "priceRange": "€€",
   "mapsUrl": "https://maps.google.com/?q=21.398963,39.8801687",
   "lat": 21.398963,
   "lng": 39.8801687,
   "halalFriendly": false,
   "bookingUrl": "https://maps.google.com/?q=21.398963,39.8801687",
   "source": "osm"
  },
  {
   "nom": "فندق العليان العزيزية الذهبي",
   "categorie": "Hôtel",
   "priceRange": "€€",
   "mapsUrl": "https://maps.google.com/?q=21.4109301,39.8658025",
   "lat": 21.4109301,
   "lng": 39.8658025,
   "halalFriendly": false,
   "bookingUrl": "https://maps.google.com/?q=21.4109301,39.8658025",
   "source": "osm"
  },
  {
   "nom": "فندق اتش",
   "categorie": "Hôtel",
   "priceRange": "€€",
   "mapsUrl": "https://maps.google.com/?q=21.40479,39.876096",
   "lat": 21.40479,
   "lng": 39.876096,
   "halalFriendly": false,
   "bookingUrl": "https://maps.google.com/?q=21.40479,39.876096",
   "source": "osm"
  },
  {
   "nom": "Al Hayat Line Hotel",
   "categorie": "Hôtel",
   "priceRange": "€€",
   "mapsUrl": "https://maps.google.com/?q=21.4103486,39.8676845",
   "lat": 21.4103486,
   "lng": 39.8676845,
   "halalFriendly": false,
   "bookingUrl": "https://maps.google.com/?q=21.4103486,39.8676845",
   "source": "osm"
  },
  {
   "nom": "العرب إن المشاعر",
   "categorie": "Hôtel",
   "priceRange": "€€",
   "mapsUrl": "https://maps.google.com/?q=21.4106455,39.8674437",
   "lat": 21.4106455,
   "lng": 39.8674437,
   "halalFriendly": false,
   "bookingUrl": "https://maps.google.com/?q=21.4106455,39.8674437",
   "source": "osm"
  },
  {
   "nom": "الريان المكيه",
   "categorie": "Hôtel",
   "priceRange": "€€",
   "mapsUrl": "https://maps.google.com/?q=21.3995455,39.8803051",
   "lat": 21.3995455,
   "lng": 39.8803051,
   "halalFriendly": false,
   "bookingUrl": "https://maps.google.com/?q=21.3995455,39.8803051",
   "source": "osm"
  },
  {
   "nom": "Anan Al Aziziyah",
   "categorie": "Hôtel",
   "priceRange": "€€",
   "mapsUrl": "https://maps.google.com/?q=21.4024001,39.878533",
   "lat": 21.4024001,
   "lng": 39.878533,
   "halalFriendly": false,
   "bookingUrl": "https://maps.google.com/?q=21.4024001,39.878533",
   "source": "osm"
  },
  {
   "nom": "فندق بارك ان",
   "categorie": "Hôtel",
   "priceRange": "€€",
   "mapsUrl": "https://maps.google.com/?q=21.4014774,39.8792403",
   "lat": 21.4014774,
   "lng": 39.8792403,
   "halalFriendly": false,
   "bookingUrl": "https://maps.google.com/?q=21.4014774,39.8792403",
   "source": "osm"
  },
  {
   "nom": "الصبيعي",
   "categorie": "Hôtel",
   "priceRange": "€€",
   "mapsUrl": "https://maps.google.com/?q=21.4108764,39.8671927",
   "lat": 21.4108764,
   "lng": 39.8671927,
   "halalFriendly": false,
   "bookingUrl": "https://maps.google.com/?q=21.4108764,39.8671927",
   "source": "osm"
  },
  {
   "nom": "Al Reyadah Life Hotel",
   "categorie": "Hôtel",
   "priceRange": "€€",
   "mapsUrl": "https://maps.google.com/?q=21.411267,39.8667642",
   "lat": 21.411267,
   "lng": 39.8667642,
   "halalFriendly": false,
   "bookingUrl": "https://maps.google.com/?q=21.411267,39.8667642",
   "source": "osm"
  },
  {
   "nom": "برج الريان",
   "categorie": "Hôtel",
   "priceRange": "€€",
   "mapsUrl": "https://maps.google.com/?q=21.4115127,39.8665412",
   "lat": 21.4115127,
   "lng": 39.8665412,
   "halalFriendly": false,
   "bookingUrl": "https://maps.google.com/?q=21.4115127,39.8665412",
   "source": "osm"
  },
  {
   "nom": "فندق سناف إن",
   "categorie": "Hôtel",
   "priceRange": "€€",
   "mapsUrl": "https://maps.google.com/?q=21.4118071,39.866279",
   "lat": 21.4118071,
   "lng": 39.866279,
   "halalFriendly": false,
   "bookingUrl": "https://maps.google.com/?q=21.4118071,39.866279",
   "source": "osm"
  },
  {
   "nom": "أوتاد الصفوة",
   "categorie": "Hôtel",
   "priceRange": "€€",
   "mapsUrl": "https://maps.google.com/?q=21.4125667,39.8636848",
   "lat": 21.4125667,
   "lng": 39.8636848,
   "halalFriendly": false,
   "bookingUrl": "https://maps.google.com/?q=21.4125667,39.8636848",
   "source": "osm"
  },
  {
   "nom": "Dura al Salam al-Dhabi Hotel",
   "categorie": "Hôtel",
   "priceRange": "€€",
   "mapsUrl": "https://maps.google.com/?q=21.412573,39.8642282",
   "lat": 21.412573,
   "lng": 39.8642282,
   "halalFriendly": false,
   "bookingUrl": "https://maps.google.com/?q=21.412573,39.8642282",
   "source": "osm"
  },
  {
   "nom": "فندق رويال المشاعر",
   "categorie": "Hôtel",
   "priceRange": "€€",
   "mapsUrl": "https://maps.google.com/?q=21.3993017,39.8819103",
   "lat": 21.3993017,
   "lng": 39.8819103,
   "halalFriendly": false,
   "bookingUrl": "https://maps.google.com/?q=21.3993017,39.8819103",
   "source": "osm"
  },
  {
   "nom": "فندق عبير العزيزية",
   "categorie": "Hôtel",
   "priceRange": "€€",
   "mapsUrl": "https://maps.google.com/?q=21.400327,39.8814436",
   "lat": 21.400327,
   "lng": 39.8814436,
   "halalFriendly": false,
   "bookingUrl": "https://maps.google.com/?q=21.400327,39.8814436",
   "source": "osm"
  },
  {
   "nom": "برج هياء",
   "categorie": "Hôtel",
   "priceRange": "€€",
   "mapsUrl": "https://maps.google.com/?q=21.4127947,39.8653549",
   "lat": 21.4127947,
   "lng": 39.8653549,
   "halalFriendly": false,
   "bookingUrl": "https://maps.google.com/?q=21.4127947,39.8653549",
   "source": "osm"
  },
  {
   "nom": "فندق السنود المعالی",
   "categorie": "Hôtel",
   "priceRange": "€€",
   "mapsUrl": "https://maps.google.com/?q=21.4138108,39.8575919",
   "lat": 21.4138108,
   "lng": 39.8575919,
   "halalFriendly": false,
   "bookingUrl": "https://maps.google.com/?q=21.4138108,39.8575919",
   "source": "osm"
  },
  {
   "nom": "عبير العزيزية",
   "categorie": "Hôtel",
   "priceRange": "€€",
   "mapsUrl": "https://maps.google.com/?q=21.4003441,39.8816382",
   "lat": 21.4003441,
   "lng": 39.8816382,
   "halalFriendly": false,
   "bookingUrl": "https://maps.google.com/?q=21.4003441,39.8816382",
   "source": "osm"
  },
  {
   "nom": "Azizia Hotel",
   "categorie": "Hôtel",
   "priceRange": "€€",
   "mapsUrl": "https://maps.google.com/?q=21.4052591,39.8781984",
   "lat": 21.4052591,
   "lng": 39.8781984,
   "halalFriendly": false,
   "bookingUrl": "https://maps.google.com/?q=21.4052591,39.8781984",
   "source": "osm"
  },
  {
   "nom": "العليان بلازا",
   "categorie": "Hôtel",
   "priceRange": "€€",
   "mapsUrl": "https://maps.google.com/?q=21.4130558,39.8650593",
   "lat": 21.4130558,
   "lng": 39.8650593,
   "halalFriendly": false,
   "bookingUrl": "https://maps.google.com/?q=21.4130558,39.8650593",
   "source": "osm"
  },
  {
   "nom": "مكة كونكورد",
   "categorie": "Hôtel",
   "priceRange": "€€",
   "mapsUrl": "https://maps.google.com/?q=21.4134352,39.8633914",
   "lat": 21.4134352,
   "lng": 39.8633914,
   "halalFriendly": false,
   "bookingUrl": "https://maps.google.com/?q=21.4134352,39.8633914",
   "source": "osm"
  },
  {
   "nom": "فندق مسك مكة",
   "categorie": "Hôtel",
   "priceRange": "€€",
   "mapsUrl": "https://maps.google.com/?q=21.4113016,39.8711999",
   "lat": 21.4113016,
   "lng": 39.8711999,
   "halalFriendly": false,
   "bookingUrl": "https://maps.google.com/?q=21.4113016,39.8711999",
   "source": "osm"
  },
  {
   "nom": "فندق شذى مكة",
   "categorie": "Hôtel",
   "priceRange": "€€",
   "mapsUrl": "https://maps.google.com/?q=21.4118219,39.8708345",
   "lat": 21.4118219,
   "lng": 39.8708345,
   "halalFriendly": false,
   "bookingUrl": "https://maps.google.com/?q=21.4118219,39.8708345",
   "source": "osm"
  },
  {
   "nom": "منى كونكورد",
   "categorie": "Hôtel",
   "priceRange": "€€",
   "mapsUrl": "https://maps.google.com/?q=21.4144082,39.8633172",
   "lat": 21.4144082,
   "lng": 39.8633172,
   "halalFriendly": false,
   "bookingUrl": "https://maps.google.com/?q=21.4144082,39.8633172",
   "source": "osm"
  },
  {
   "nom": "فندق المحفوظ",
   "categorie": "Hôtel",
   "priceRange": "€€",
   "mapsUrl": "https://maps.google.com/?q=21.4033105,39.8810869",
   "lat": 21.4033105,
   "lng": 39.8810869,
   "halalFriendly": false,
   "bookingUrl": "https://maps.google.com/?q=21.4033105,39.8810869",
   "source": "osm"
  },
  {
   "nom": "فندق اسكان 6",
   "categorie": "Hôtel",
   "priceRange": "€€",
   "mapsUrl": "https://maps.google.com/?q=21.3997123,39.8832692",
   "lat": 21.3997123,
   "lng": 39.8832692,
   "halalFriendly": false,
   "bookingUrl": "https://maps.google.com/?q=21.3997123,39.8832692",
   "source": "osm"
  },
  {
   "nom": "فندق درنف أجياد",
   "categorie": "Hôtel",
   "priceRange": "€€",
   "mapsUrl": "https://maps.google.com/?q=21.4008325,39.8330073",
   "lat": 21.4008325,
   "lng": 39.8330073,
   "halalFriendly": false,
   "bookingUrl": "https://maps.google.com/?q=21.4008325,39.8330073",
   "source": "osm"
  },
  {
   "nom": "Boudl apart Ajyad بودل ابارت اجياد",
   "categorie": "Hôtel",
   "priceRange": "€€",
   "mapsUrl": "https://maps.google.com/?q=21.4006877,39.8328088",
   "lat": 21.4006877,
   "lng": 39.8328088,
   "halalFriendly": false,
   "bookingUrl": "https://maps.google.com/?q=21.4006877,39.8328088",
   "source": "osm"
  },
  {
   "nom": "فندق الايام ايليت",
   "categorie": "Hôtel",
   "priceRange": "€€",
   "mapsUrl": "https://maps.google.com/?q=21.3770271,39.8330644",
   "lat": 21.3770271,
   "lng": 39.8330644,
   "halalFriendly": false,
   "bookingUrl": "https://maps.google.com/?q=21.3770271,39.8330644",
   "source": "osm"
  },
  {
   "nom": "فندق درنف أجياد",
   "categorie": "Hôtel",
   "priceRange": "€€",
   "mapsUrl": "https://maps.google.com/?q=21.4008126,39.8327954",
   "lat": 21.4008126,
   "lng": 39.8327954,
   "halalFriendly": false,
   "bookingUrl": "https://maps.google.com/?q=21.4008126,39.8327954",
   "source": "osm"
  },
  {
   "nom": "منى كونكورد",
   "categorie": "Hôtel",
   "priceRange": "€€",
   "mapsUrl": "https://maps.google.com/?q=21.4152332,39.8630531",
   "lat": 21.4152332,
   "lng": 39.8630531,
   "halalFriendly": false,
   "bookingUrl": "https://maps.google.com/?q=21.4152332,39.8630531",
   "source": "osm"
  },
  {
   "nom": "منازل العين جراند",
   "categorie": "Hôtel",
   "priceRange": "€€",
   "mapsUrl": "https://maps.google.com/?q=21.4137188,39.8687116",
   "lat": 21.4137188,
   "lng": 39.8687116,
   "halalFriendly": false,
   "bookingUrl": "https://maps.google.com/?q=21.4137188,39.8687116",
   "source": "osm"
  },
  {
   "nom": "فندق نزل الكرام ٢",
   "categorie": "Hôtel",
   "priceRange": "€€",
   "mapsUrl": "https://maps.google.com/?q=21.4156005,39.8545861",
   "lat": 21.4156005,
   "lng": 39.8545861,
   "halalFriendly": false,
   "bookingUrl": "https://maps.google.com/?q=21.4156005,39.8545861",
   "source": "osm"
  },
  {
   "nom": "Ajyad Bakkah Hotel فندق أجياد بكة",
   "categorie": "Hôtel",
   "priceRange": "€€",
   "mapsUrl": "https://maps.google.com/?q=21.4010236,39.8321624",
   "lat": 21.4010236,
   "lng": 39.8321624,
   "halalFriendly": false,
   "bookingUrl": "https://maps.google.com/?q=21.4010236,39.8321624",
   "source": "osm"
  },
  {
   "nom": "Lamar Al Bait Hotel فندق لمار البيت",
   "categorie": "Hôtel",
   "priceRange": "€€",
   "mapsUrl": "https://maps.google.com/?q=21.4005204,39.8318204",
   "lat": 21.4005204,
   "lng": 39.8318204,
   "halalFriendly": false,
   "bookingUrl": "https://maps.google.com/?q=21.4005204,39.8318204",
   "source": "osm"
  },
  {
   "nom": "Salam Al-Bayt Hotel",
   "categorie": "Hôtel",
   "priceRange": "€€",
   "mapsUrl": "https://maps.google.com/?q=21.4159078,39.8551083",
   "lat": 21.4159078,
   "lng": 39.8551083,
   "halalFriendly": false,
   "bookingUrl": "https://maps.google.com/?q=21.4159078,39.8551083",
   "source": "osm"
  },
  {
   "nom": "فندق زاد الرحاب",
   "categorie": "Hôtel",
   "priceRange": "€€",
   "mapsUrl": "https://maps.google.com/?q=21.4021249,39.8325366",
   "lat": 21.4021249,
   "lng": 39.8325366,
   "halalFriendly": false,
   "bookingUrl": "https://maps.google.com/?q=21.4021249,39.8325366",
   "source": "osm"
  },
  {
   "nom": "فندق القمة أطلس 3",
   "categorie": "Hôtel",
   "priceRange": "€€",
   "mapsUrl": "https://maps.google.com/?q=21.4159516,39.8548527",
   "lat": 21.4159516,
   "lng": 39.8548527,
   "halalFriendly": false,
   "bookingUrl": "https://maps.google.com/?q=21.4159516,39.8548527",
   "source": "osm"
  },
  {
   "nom": "هوليدي إن العزيزية",
   "categorie": "Hôtel",
   "priceRange": "€€",
   "mapsUrl": "https://maps.google.com/?q=21.41602,39.8605256",
   "lat": 21.41602,
   "lng": 39.8605256,
   "halalFriendly": false,
   "bookingUrl": "https://maps.google.com/?q=21.41602,39.8605256",
   "source": "osm"
  },
  {
   "nom": "Sari Kuday Hotel فندق ساري كدي",
   "categorie": "Hôtel",
   "priceRange": "€€",
   "mapsUrl": "https://maps.google.com/?q=21.4008575,39.8315468",
   "lat": 21.4008575,
   "lng": 39.8315468,
   "halalFriendly": false,
   "bookingUrl": "https://maps.google.com/?q=21.4008575,39.8315468",
   "source": "osm"
  },
  {
   "nom": "بركة الاصيل",
   "categorie": "Hôtel",
   "priceRange": "€€",
   "mapsUrl": "https://maps.google.com/?q=21.4160705,39.8623673",
   "lat": 21.4160705,
   "lng": 39.8623673,
   "halalFriendly": false,
   "bookingUrl": "https://maps.google.com/?q=21.4160705,39.8623673",
   "source": "osm"
  },
  {
   "nom": "فندق الأسواف",
   "categorie": "Hôtel",
   "priceRange": "€€",
   "mapsUrl": "https://maps.google.com/?q=21.4163889,39.8599143",
   "lat": 21.4163889,
   "lng": 39.8599143,
   "halalFriendly": false,
   "bookingUrl": "https://maps.google.com/?q=21.4163889,39.8599143",
   "source": "osm"
  },
  {
   "nom": "Jawharat Al Muneer Hotel فندق جوهرة المنير",
   "categorie": "Hôtel",
   "priceRange": "€€",
   "mapsUrl": "https://maps.google.com/?q=21.4013395,39.8316233",
   "lat": 21.4013395,
   "lng": 39.8316233,
   "halalFriendly": false,
   "bookingUrl": "https://maps.google.com/?q=21.4013395,39.8316233",
   "source": "osm"
  },
  {
   "nom": "Al Khaimah Hotel فندق أنوار الخيمة",
   "categorie": "Hôtel",
   "priceRange": "€€",
   "mapsUrl": "https://maps.google.com/?q=21.4017603,39.8318204",
   "lat": 21.4017603,
   "lng": 39.8318204,
   "halalFriendly": false,
   "bookingUrl": "https://maps.google.com/?q=21.4017603,39.8318204",
   "source": "osm"
  },
  {
   "nom": "Swiss International Hotel",
   "categorie": "Hôtel",
   "priceRange": "€€",
   "mapsUrl": "https://maps.google.com/?q=21.4158476,39.8648404",
   "lat": 21.4158476,
   "lng": 39.8648404,
   "halalFriendly": false,
   "bookingUrl": "https://maps.google.com/?q=21.4158476,39.8648404",
   "source": "osm"
  },
  {
   "nom": "Al Abraj Hotel فندق الأبراج",
   "categorie": "Hôtel",
   "priceRange": "€€",
   "mapsUrl": "https://maps.google.com/?q=21.4017628,39.8315844",
   "lat": 21.4017628,
   "lng": 39.8315844,
   "halalFriendly": false,
   "bookingUrl": "https://maps.google.com/?q=21.4017628,39.8315844",
   "source": "osm"
  },
  {
   "nom": "فندق القمة أطلس",
   "categorie": "Hôtel",
   "priceRange": "€€",
   "mapsUrl": "https://maps.google.com/?q=21.4165395,39.8545491",
   "lat": 21.4165395,
   "lng": 39.8545491,
   "halalFriendly": false,
   "bookingUrl": "https://maps.google.com/?q=21.4165395,39.8545491",
   "source": "osm"
  },
  {
   "nom": "Lamar Ajyad First Hotel فندق لمار أجياد الأول",
   "categorie": "Hôtel",
   "priceRange": "€€",
   "mapsUrl": "https://maps.google.com/?q=21.4008313,39.830995",
   "lat": 21.4008313,
   "lng": 39.830995,
   "halalFriendly": false,
   "bookingUrl": "https://maps.google.com/?q=21.4008313,39.830995",
   "source": "osm"
  },
  {
   "nom": "Lamar Ajyad tower B Hotel فندق لمار أجياد الثاني",
   "categorie": "Hôtel",
   "priceRange": "€€",
   "mapsUrl": "https://maps.google.com/?q=21.4010024,39.8310332",
   "lat": 21.4010024,
   "lng": 39.8310332,
   "halalFriendly": false,
   "bookingUrl": "https://maps.google.com/?q=21.4010024,39.8310332",
   "source": "osm"
  },
  {
   "nom": "My hotel",
   "categorie": "Hôtel",
   "priceRange": "€€",
   "mapsUrl": "https://maps.google.com/?q=21.4167786,39.8559001",
   "lat": 21.4167786,
   "lng": 39.8559001,
   "halalFriendly": false,
   "bookingUrl": "https://maps.google.com/?q=21.4167786,39.8559001",
   "source": "osm"
  },
  {
   "nom": "Midan Hotel",
   "categorie": "Hôtel",
   "priceRange": "€€",
   "mapsUrl": "https://maps.google.com/?q=21.4167329,39.8542698",
   "lat": 21.4167329,
   "lng": 39.8542698,
   "halalFriendly": false,
   "bookingUrl": "https://maps.google.com/?q=21.4167329,39.8542698",
   "source": "osm"
  },
  {
   "nom": "فندق دار لمار",
   "categorie": "Hôtel",
   "priceRange": "€€",
   "mapsUrl": "https://maps.google.com/?q=21.4021648,39.8314597",
   "lat": 21.4021648,
   "lng": 39.8314597,
   "halalFriendly": false,
   "bookingUrl": "https://maps.google.com/?q=21.4021648,39.8314597",
   "source": "osm"
  },
  {
   "nom": "Prince Mishari bin Abdulaziz Residential Complex مجمع الأمير مشاري بن عبد العزيز السكني",
   "categorie": "Hôtel",
   "priceRange": "€€",
   "mapsUrl": "https://maps.google.com/?q=21.4013813,39.8310077",
   "lat": 21.4013813,
   "lng": 39.8310077,
   "halalFriendly": false,
   "bookingUrl": "https://maps.google.com/?q=21.4013813,39.8310077",
   "source": "osm"
  },
  {
   "nom": "مدن الخير",
   "categorie": "Hôtel",
   "priceRange": "€€",
   "mapsUrl": "https://maps.google.com/?q=21.4170254,39.8582688",
   "lat": 21.4170254,
   "lng": 39.8582688,
   "halalFriendly": false,
   "bookingUrl": "https://maps.google.com/?q=21.4170254,39.8582688",
   "source": "osm"
  },
  {
   "nom": "فندق ساري منى",
   "categorie": "Hôtel",
   "priceRange": "€€",
   "mapsUrl": "https://maps.google.com/?q=21.4162977,39.8650892",
   "lat": 21.4162977,
   "lng": 39.8650892,
   "halalFriendly": false,
   "bookingUrl": "https://maps.google.com/?q=21.4162977,39.8650892",
   "source": "osm"
  },
  {
   "nom": "Kudi Tower Hotel 2 فندق كدي تاور",
   "categorie": "Hôtel",
   "priceRange": "€€",
   "mapsUrl": "https://maps.google.com/?q=21.401656,39.8309997",
   "lat": 21.401656,
   "lng": 39.8309997,
   "halalFriendly": false,
   "bookingUrl": "https://maps.google.com/?q=21.401656,39.8309997",
   "source": "osm"
  },
  {
   "nom": "فندق كابيتل جيست",
   "categorie": "Hôtel",
   "priceRange": "€€",
   "mapsUrl": "https://maps.google.com/?q=21.4171172,39.858704",
   "lat": 21.4171172,
   "lng": 39.858704,
   "halalFriendly": false,
   "bookingUrl": "https://maps.google.com/?q=21.4171172,39.858704",
   "source": "osm"
  },
  {
   "nom": "Akalil Hotel فندق أكاليل",
   "categorie": "Hôtel",
   "priceRange": "€€",
   "mapsUrl": "https://maps.google.com/?q=21.402437,39.8314147",
   "lat": 21.402437,
   "lng": 39.8314147,
   "halalFriendly": false,
   "bookingUrl": "https://maps.google.com/?q=21.402437,39.8314147",
   "source": "osm"
  },
  {
   "nom": "Al Aseel Plaza Hotel فندق الأصيل بلازا",
   "categorie": "Hôtel",
   "priceRange": "€€",
   "mapsUrl": "https://maps.google.com/?q=21.4065624,39.8343215",
   "lat": 21.4065624,
   "lng": 39.8343215,
   "halalFriendly": false,
   "bookingUrl": "https://maps.google.com/?q=21.4065624,39.8343215",
   "source": "osm"
  },
  {
   "nom": "فندق رحاب الشروق",
   "categorie": "Hôtel",
   "priceRange": "€€",
   "mapsUrl": "https://maps.google.com/?q=21.4171337,39.8540973",
   "lat": 21.4171337,
   "lng": 39.8540973,
   "halalFriendly": false,
   "bookingUrl": "https://maps.google.com/?q=21.4171337,39.8540973",
   "source": "osm"
  },
  {
   "nom": "Kudi Tower Hotel 1 فندق كدي تاور",
   "categorie": "Hôtel",
   "priceRange": "€€",
   "mapsUrl": "https://maps.google.com/?q=21.4020937,39.8309433",
   "lat": 21.4020937,
   "lng": 39.8309433,
   "halalFriendly": false,
   "bookingUrl": "https://maps.google.com/?q=21.4020937,39.8309433",
   "source": "osm"
  },
  {
   "nom": "فندق هيلا إن العزيزية",
   "categorie": "Hôtel",
   "priceRange": "€€",
   "mapsUrl": "https://maps.google.com/?q=21.4173792,39.8578229",
   "lat": 21.4173792,
   "lng": 39.8578229,
   "halalFriendly": false,
   "bookingUrl": "https://maps.google.com/?q=21.4173792,39.8578229",
   "source": "osm"
  },
  {
   "nom": "Alaseel Refadah hotel فندق الأصيل رفادة",
   "categorie": "Hôtel",
   "priceRange": "€€",
   "mapsUrl": "https://maps.google.com/?q=21.4065574,39.8339595",
   "lat": 21.4065574,
   "lng": 39.8339595,
   "halalFriendly": false,
   "bookingUrl": "https://maps.google.com/?q=21.4065574,39.8339595",
   "source": "osm"
  },
  {
   "nom": "القفيص الذهبي",
   "categorie": "Hôtel",
   "priceRange": "€€",
   "mapsUrl": "https://maps.google.com/?q=21.4173048,39.8551391",
   "lat": 21.4173048,
   "lng": 39.8551391,
   "halalFriendly": false,
   "bookingUrl": "https://maps.google.com/?q=21.4173048,39.8551391",
   "source": "osm"
  },
  {
   "nom": "Rawabi Salam Hotel فندق روابي سلام",
   "categorie": "Hôtel",
   "priceRange": "€€",
   "mapsUrl": "https://maps.google.com/?q=21.4062827,39.8336967",
   "lat": 21.4062827,
   "lng": 39.8336967,
   "halalFriendly": false,
   "bookingUrl": "https://maps.google.com/?q=21.4062827,39.8336967",
   "source": "osm"
  },
  {
   "nom": "Makarem Umm Al Qura Hotel فندق مكارم ام القرى",
   "categorie": "Hôtel",
   "priceRange": "€€",
   "mapsUrl": "https://maps.google.com/?q=21.4025082,39.8309138",
   "lat": 21.4025082,
   "lng": 39.8309138,
   "halalFriendly": false,
   "bookingUrl": "https://maps.google.com/?q=21.4025082,39.8309138",
   "source": "osm"
  }
 ],
 "activites": [
  {
   "nom": "متحف التراث الإنساني",
   "lat": 21.4045196,
   "lng": 39.8789549,
   "coordonnees": {
    "lat": 21.4045196,
    "lng": 39.8789549
   },
   "categorie": "Culture",
   "mapsUrl": "https://maps.google.com/?q=21.4045196,39.8789549",
   "source": "osm"
  },
  {
   "nom": "شجرة",
   "lat": 21.4088129,
   "lng": 39.8787228,
   "coordonnees": {
    "lat": 21.4088129,
    "lng": 39.8787228
   },
   "categorie": "Nature",
   "mapsUrl": "https://maps.google.com/?q=21.4088129,39.8787228",
   "source": "osm"
  },
  {
   "nom": "كدي",
   "lat": 21.3913961,
   "lng": 39.825478,
   "coordonnees": {
    "lat": 21.3913961,
    "lng": 39.825478
   },
   "categorie": "Culture",
   "mapsUrl": "https://maps.google.com/?q=21.3913961,39.825478",
   "source": "osm"
  },
  {
   "nom": "التجمع ساحات الجنوبيه",
   "lat": 21.4175366,
   "lng": 39.8756207,
   "coordonnees": {
    "lat": 21.4175366,
    "lng": 39.8756207
   },
   "categorie": "À voir",
   "mapsUrl": "https://maps.google.com/?q=21.4175366,39.8756207",
   "source": "osm"
  },
  {
   "nom": "الجمرة الصغرى",
   "lat": 21.4199079,
   "lng": 39.8741791,
   "coordonnees": {
    "lat": 21.4199079,
    "lng": 39.8741791
   },
   "categorie": "Histoire",
   "mapsUrl": "https://maps.google.com/?q=21.4199079,39.8741791",
   "source": "osm"
  },
  {
   "nom": "معارض السيارات القديمة",
   "lat": 21.3794178,
   "lng": 39.8934121,
   "coordonnees": {
    "lat": 21.3794178,
    "lng": 39.8934121
   },
   "categorie": "Histoire",
   "mapsUrl": "https://maps.google.com/?q=21.3794178,39.8934121",
   "source": "osm"
  },
  {
   "nom": "الجمرة الوسطى",
   "lat": 21.4207404,
   "lng": 39.8729996,
   "coordonnees": {
    "lat": 21.4207404,
    "lng": 39.8729996
   },
   "categorie": "Histoire",
   "mapsUrl": "https://maps.google.com/?q=21.4207404,39.8729996",
   "source": "osm"
  },
  {
   "nom": "الجمرة الكبرى",
   "lat": 21.4216493,
   "lng": 39.8709424,
   "coordonnees": {
    "lat": 21.4216493,
    "lng": 39.8709424
   },
   "categorie": "Histoire",
   "mapsUrl": "https://maps.google.com/?q=21.4216493,39.8709424",
   "source": "osm"
  },
  {
   "nom": "Mansoor koraliyel",
   "lat": 21.4262786,
   "lng": 39.8550886,
   "coordonnees": {
    "lat": 21.4262786,
    "lng": 39.8550886
   },
   "categorie": "À voir",
   "mapsUrl": "https://maps.google.com/?q=21.4262786,39.8550886",
   "source": "osm"
  },
  {
   "nom": "chilar bilding",
   "lat": 21.4172646,
   "lng": 39.8283185,
   "coordonnees": {
    "lat": 21.4172646,
    "lng": 39.8283185
   },
   "categorie": "À voir",
   "mapsUrl": "https://maps.google.com/?q=21.4172646,39.8283185",
   "source": "osm"
  },
  {
   "nom": "Clock Tower Museum",
   "lat": 21.4179756,
   "lng": 39.8255385,
   "coordonnees": {
    "lat": 21.4179756,
    "lng": 39.8255385
   },
   "categorie": "Culture",
   "mapsUrl": "https://maps.google.com/?q=21.4179756,39.8255385",
   "source": "osm"
  },
  {
   "nom": "Maktab 18",
   "lat": 21.398768,
   "lng": 39.7883839,
   "coordonnees": {
    "lat": 21.398768,
    "lng": 39.7883839
   },
   "categorie": "À voir",
   "mapsUrl": "https://maps.google.com/?q=21.398768,39.7883839",
   "source": "osm"
  },
  {
   "nom": "Al-Hukair Time",
   "lat": 21.447655,
   "lng": 39.8073156,
   "coordonnees": {
    "lat": 21.447655,
    "lng": 39.8073156
   },
   "categorie": "Famille",
   "mapsUrl": "https://maps.google.com/?q=21.447655,39.8073156",
   "source": "osm"
  },
  {
   "nom": "حديقه ام الكتاد",
   "lat": 21.3804616,
   "lng": 39.7777289,
   "coordonnees": {
    "lat": 21.3804616,
    "lng": 39.7777289
   },
   "categorie": "Nature",
   "mapsUrl": "https://maps.google.com/?q=21.3804616,39.7777289",
   "source": "osm"
  },
  {
   "nom": "مسجد ام الموءمنين عاءشه رضي الله عنها",
   "lat": 21.4735917,
   "lng": 39.7911028,
   "coordonnees": {
    "lat": 21.4735917,
    "lng": 39.7911028
   },
   "categorie": "À voir",
   "mapsUrl": "https://maps.google.com/?q=21.4735917,39.7911028",
   "source": "osm"
  },
  {
   "nom": "حديقة مخطط 11",
   "lat": 21.4455036,
   "lng": 39.9586752,
   "coordonnees": {
    "lat": 21.4455036,
    "lng": 39.9586752
   },
   "categorie": "Nature",
   "mapsUrl": "https://maps.google.com/?q=21.4455036,39.9586752",
   "source": "osm"
  },
  {
   "nom": "المركز",
   "lat": 21.4741516,
   "lng": 39.9876322,
   "coordonnees": {
    "lat": 21.4741516,
    "lng": 39.9876322
   },
   "categorie": "À voir",
   "mapsUrl": "https://maps.google.com/?q=21.4741516,39.9876322",
   "source": "osm"
  }
 ],
 "road_trips": [
  {
   "id": "rt1",
   "titre": "La Mecque — Médine : Le Chemin des Prophètes",
   "emoji": "🕌",
   "duree": "2-3 jours",
   "distance_km": 450,
   "difficulte": "Facile",
   "budget_estime_eur": "100-200€ (hors package Hajj)",
   "etapes": [
    {
     "ville": "La Mecque",
     "nuits": 1,
     "highlights": [
      "Grande Mosquée",
      "Kaaba",
      "Safa-Marwa"
     ]
    },
    {
     "ville": "Badr",
     "nuits": 0,
     "highlights": [
      "Champ de bataille de Badr 624",
      "Cimetière des martyrs"
     ]
    },
    {
     "ville": "Médine",
     "nuits": 2,
     "highlights": [
      "Masjid al-Nabawi",
      "Masjid Quba",
      "Cimetière Al-Baqi"
     ]
    }
   ],
   "conseils_halal": "Route 100% halal, autoroute Makkah-Madinah avec mosquées et restaurants halal aux stations.",
   "tags": [
    "Spirituel",
    "Prophètes",
    "Hajj"
   ]
  },
  {
   "id": "rt2",
   "titre": "Circuit Sites Islamiques Hijaz",
   "emoji": "🏜️",
   "duree": "5 jours",
   "distance_km": 800,
   "difficulte": "Modéré",
   "budget_estime_eur": "200-350€",
   "etapes": [
    {
     "ville": "La Mecque",
     "nuits": 2,
     "highlights": [
      "Hajj/Omra rites",
      "Arafat",
      "Mina"
     ]
    },
    {
     "ville": "Taïf",
     "nuits": 1,
     "highlights": [
      "Jardin de roses",
      "Masjid Addas",
      "Souk Al-Taif"
     ]
    },
    {
     "ville": "Djeddah",
     "nuits": 1,
     "highlights": [
      "Jeddah historique UNESCO",
      "Mosquée Flottante",
      "Corniche"
     ]
    }
   ],
   "conseils_halal": "Djeddah est la porte maritime du Hajj — restaurants halal excellents dans la Vieille Ville UNESCO.",
   "tags": [
    "Hijaz",
    "Taïf",
    "Djeddah"
   ]
  },
  {
   "id": "rt3",
   "titre": "Djeddah — La Mecque — Médine Express",
   "emoji": "✈️",
   "duree": "7 jours",
   "distance_km": 600,
   "difficulte": "Facile",
   "budget_estime_eur": "300-500€ (hors Hajj)",
   "etapes": [
    {
     "ville": "Djeddah",
     "nuits": 2,
     "highlights": [
      "Vieille Ville UNESCO",
      "King Fahd Fountain (plus haute du monde)",
      "Corniche"
     ]
    },
    {
     "ville": "La Mecque",
     "nuits": 3,
     "highlights": [
      "Omra",
      "Kaaba",
      "Safa-Marwa"
     ]
    },
    {
     "ville": "Médine",
     "nuits": 2,
     "highlights": [
      "Masjid al-Nabawi",
      "Prière verte",
      "Dates Ajwa"
     ]
    }
   ],
   "conseils_halal": "Package Omra inclut hébergement, transport La Mecque-Médine et guide. Réserver 6 mois à l'avance en haute saison.",
   "tags": [
    "Omra",
    "Djeddah",
    "Package"
   ]
  }
 ],
 "voyages_par_type": {
  "en_couple": {
   "emoji": "💑",
   "couleur": "#e91e8c",
   "intro": "La Mecque pour un couple de musulmans, c'est le voyage de l'âme — accomplir l'Omra ensemble, prier côte à côte dans la Grande Mosquée et se retrouver spirituellement à l'endroit le plus sacré de la Terre.",
   "top_experiences": [
    {
     "titre": "Tawaf de nuit à 3h du matin",
     "details": "La Kaaba illuminée, quasiment seuls, moment magique",
     "prix": "Gratuit"
    },
    {
     "titre": "Prière Fajr côte à côte",
     "details": "Face à la Kaaba, au lever du soleil",
     "prix": "Gratuit"
    },
    {
     "titre": "Eau Zamzam à deux",
     "details": "Boire l'eau de la source éternelle ensemble",
     "prix": "Gratuit"
    }
   ],
   "hotels_recommandes": [
    "Raffles Makkah Palace",
    "Fairmont Clock Tower"
   ],
   "conseils": "Les couples mariés peuvent partager une chambre — preuve de mariage conseillée. L'Omra ensemble renforce le lien spirituel et conjugal."
  },
  "en_famille": {
   "emoji": "👨‍👩‍👧‍👦",
   "couleur": "#4CAF50",
   "intro": "Emmener ses enfants à La Mecque est un acte éducatif et spirituel majeur. Même les nourrissons peuvent accompagner leurs parents pour l'Omra.",
   "top_experiences": [
    {
     "titre": "Tawaf avec les enfants",
     "details": "Expliquer la signification à chaque tour",
     "prix": "Gratuit"
    },
    {
     "titre": "Eau Zamzam pour les enfants",
     "details": "Leur expliquer l'histoire d'Hajar et Ismaël",
     "prix": "Gratuit"
    },
    {
     "titre": "Jabal Al-Nour (parents adultes)",
     "details": "Pendant que les enfants se reposent à l'hôtel",
     "prix": "Gratuit"
    }
   ],
   "hotels_recommandes": [
    "Hotel Anjum Makkah",
    "Millennium Hotel"
   ],
   "conseils": "Poussettes autorisées dans le Haram (niveau 0 et niveaux supérieurs). Réserver des chambres familiales. Halte-garderie à certains hôtels."
  },
  "entre_amis": {
   "emoji": "👫",
   "couleur": "#9C27B0",
   "intro": "Un groupe d'amis à La Mecque pour l'Omra est une tradition centenaire. Soutien mutuel, prières collectives et dîners partagés de spécialités du monde entier.",
   "top_experiences": [
    {
     "titre": "Omra de groupe avec guide",
     "details": "Guide francophone disponible",
     "prix": "50-100€/pers"
    },
    {
     "titre": "Dîner interculturel Hajj",
     "details": "Rencontrer des pèlerins du monde entier",
     "prix": "10-20€"
    },
    {
     "titre": "Shopping cadeaux du Haram",
     "details": "Dattes, tasbihs, tapis de prière pour les familles",
     "prix": "Variable"
    }
   ],
   "conseils": "Voyager en groupe réduit la coût. Groupe de femmes uniquement: un mahram (tuteur masculin) est recommandé mais certaines agences proposent des Omra féminines encadrées."
  },
  "voyage_solo": {
   "emoji": "🎒",
   "couleur": "#FF9800",
   "intro": "L'Omra en solo est une expérience profondément introspective — se retrouver seul face à la Kaaba est un moment de vérité pour beaucoup de musulmans.",
   "top_experiences": [
    {
     "titre": "Itikaf (retraite spirituelle)",
     "details": "S'isoler pour lire le Coran et prier",
     "prix": "Gratuit"
    },
    {
     "titre": "Tawaf nocturne solitaire",
     "details": "La Kaaba à 2h du matin, presque seul",
     "prix": "Gratuit"
    },
    {
     "titre": "Du'a personnel devant la Kaaba",
     "details": "Supplications intimes et personnelles",
     "prix": "Gratuit"
    }
   ],
   "conseil_securite": "La Mecque est très sûre. La police du Haram est nombreuse. Garder son visa Omra sur soi. Les femmes voyageant seules sont de plus en plus acceptées depuis les réformes Vision 2030."
  },
  "voyage_spirituel": {
   "emoji": "🕌",
   "couleur": "#2196F3",
   "intro": "La Mecque EST le voyage spirituel par excellence. Chaque instant, chaque respiration dans la ville sainte est un acte d'adoration. L'objectif d'une vie pour tout musulman.",
   "top_experiences": [
    {
     "titre": "Hajj — Le 5ème pilier de l'Islam",
     "details": "Arafat, Muzdalifah, Mina, Djamarat — complet",
     "prix": "Package Hajj 3000-8000€"
    },
    {
     "titre": "Omra pendant Ramadan = Hajj en récompense",
     "details": "Hadith du Prophète ﷺ",
     "prix": "Package Omra 800-2000€"
    },
    {
     "titre": "Prière de 2 raka'at derrière le Maqam Ibrahim",
     "details": "Derrière la Kaaba, face à Ibrahim",
     "prix": "Gratuit"
    }
   ],
   "conseil_pratique": "Réserver le package Hajj/Omra via une agence agréée par le Ministère du Hajj saoudien. Éviter les packages non-officiels frauduleux."
  }
 },
 "boucheries": [],
 "boulangeries": [
  {
   "id": "bo1",
   "nom": "Pain Saoudien Samoun",
   "adresse": "Marché Al Haram",
   "quartier": "Al Haram",
   "description": "Samoun — pain plat saoudien cuit au four à bois, companion du kabsa et du mandi.",
   "specialites": [
    "Samoun",
    "Khobz arabe",
    "Taftan persan"
   ],
   "prix": "0.50-2 SAR",
   "horaires": "5h-23h",
   "note": 4.5
  },
  {
   "id": "bo2",
   "nom": "Boulangerie Turque Istanbul",
   "adresse": "Jarwal, La Mecque",
   "quartier": "Jarwal",
   "description": "Simit turc (couronne de sésame) et pide maison pour les pèlerins turcs — un peu de Constantinople à La Mecque.",
   "specialites": [
    "Simit au sésame",
    "Pide au fromage",
    "Baklava"
   ],
   "prix": "2-8 SAR",
   "horaires": "7h-22h",
   "note": 4.4
  },
  {
   "id": "bo3",
   "nom": "Boulangerie Marocaine Msemmen",
   "adresse": "Ajyad Area",
   "quartier": "Ajyad",
   "description": "Msemmen, baghrir et harcha marocains pour les pèlerins du Maghreb.",
   "specialites": [
    "Msemmen feuilleté",
    "Baghrir mille trous",
    "Harcha semoule"
   ],
   "prix": "2-5 SAR",
   "horaires": "6h-14h",
   "note": 4.6
  },
  {
   "id": "bo4",
   "nom": "Pâtisserie Al-Hilal",
   "adresse": "Makkah Mall",
   "quartier": "Al Haram",
   "specialites": [
    "Zlabia de Hajj",
    "Ma'amoul dattes",
    "Ghraybeh beurre"
   ],
   "prix": "5-20 SAR",
   "horaires": "9h-midnight",
   "note": 4.5
  },
  {
   "id": "bo5",
   "nom": "Dates Specialists Tamr Al-Madinah",
   "adresse": "Abraj Al-Bait Mall",
   "quartier": "Al Haram",
   "description": "Spécialiste des dattes saoudiennes de tous types — Ajwa, Medjool, Sukkari — conditionnées en cadeaux magnifiques.",
   "specialites": [
    "Dattes Ajwa Médine",
    "Dattes Medjool",
    "Dattes enrobées chocolat halal"
   ],
   "prix": "30-200 SAR/boite",
   "horaires": "10h-23h",
   "note": 4.8
  }
 ],
 "articles_lies": [
  "guide-hajj-complet",
  "omra-guide-pratique",
  "la-mecque-histoire"
 ],
 "villes_proches": [
  "medine",
  "djeddah"
 ],
 "destinations_combiner": [
  {
   "ville": "Médine",
   "distance_km": 450,
   "raison": "Package Omra La Mecque + Médine classique — Masjid al-Nabawi du Prophète ﷺ"
  },
  {
   "ville": "Djeddah",
   "distance_km": 80,
   "raison": "Porte d'entrée du Hajj, Vieille Ville UNESCO, grande métropole moderne"
  },
  {
   "ville": "Taïf",
   "distance_km": 90,
   "raison": "Ville des roses à 1800m d'altitude, fraîcheur et jardins, Masjid Addas historique"
  }
 ],
 "conseils_halal": "La Mecque est 100% halal par essence divine — c'est la ville la plus sainte de l'Islam. Aucun alcool, porc ou comportement interdit n'est toléré. Tout est organisé pour les besoins spirituels et matériels des pèlerins musulmans du monde entier. IMPORTANT : L'entrée à La Mecque est strictement réservée aux musulmans — un contrôle de foi est exercé aux points d'entrée.",
 "codeISO": "SA",
 "image": "https://images.unsplash.com/photo-1693590614566-1d3ea9ef32f7?w=1600&q=80",
 "continent": "Asie",
 "metaDescription": "Restaurants halal signalés, mosquées et guide pratique pour La Mecque — Halal Trust Score 5/5.",
 "mosqueesPrincipales": [
  {
   "nom": "مسجد دار الهجرة",
   "lat": 21.3922517,
   "lng": 39.839915,
   "coordonnees": {
    "lat": 21.3922517,
    "lng": 39.839915
   },
   "mapsUrl": "https://maps.google.com/?q=21.3922517,39.839915",
   "source": "osm"
  },
  {
   "nom": "عامر النهدي",
   "lat": 21.3990673,
   "lng": 39.8800674,
   "coordonnees": {
    "lat": 21.3990673,
    "lng": 39.8800674
   },
   "mapsUrl": "https://maps.google.com/?q=21.3990673,39.8800674",
   "source": "osm"
  },
  {
   "nom": "Masjid مسجد",
   "lat": 21.4013706,
   "lng": 39.8311618,
   "coordonnees": {
    "lat": 21.4013706,
    "lng": 39.8311618
   },
   "mapsUrl": "https://maps.google.com/?q=21.4013706,39.8311618",
   "source": "osm"
  },
  {
   "nom": "Masjid Mohamed Al Sabil مسجد محمد السبيل",
   "lat": 21.4061217,
   "lng": 39.8330381,
   "coordonnees": {
    "lat": 21.4061217,
    "lng": 39.8330381
   },
   "mapsUrl": "https://maps.google.com/?q=21.4061217,39.8330381",
   "source": "osm"
  },
  {
   "nom": "جامع الرحمة",
   "lat": 21.3690461,
   "lng": 39.832677,
   "coordonnees": {
    "lat": 21.3690461,
    "lng": 39.832677
   },
   "adresse": "Batha Quraysh",
   "mapsUrl": "https://maps.google.com/?q=21.3690461,39.832677",
   "source": "osm"
  },
  {
   "nom": "Masjid Ibn Ammar مسجد ابن عمار",
   "lat": 21.4077199,
   "lng": 39.8310399,
   "coordonnees": {
    "lat": 21.4077199,
    "lng": 39.8310399
   },
   "mapsUrl": "https://maps.google.com/?q=21.4077199,39.8310399",
   "source": "osm"
  },
  {
   "nom": "الصابرين",
   "lat": 21.3805554,
   "lng": 39.8200996,
   "coordonnees": {
    "lat": 21.3805554,
    "lng": 39.8200996
   },
   "mapsUrl": "https://maps.google.com/?q=21.3805554,39.8200996",
   "source": "osm"
  },
  {
   "nom": "البخاري",
   "lat": 21.4157575,
   "lng": 39.8305175,
   "coordonnees": {
    "lat": 21.4157575,
    "lng": 39.8305175
   },
   "mapsUrl": "https://maps.google.com/?q=21.4157575,39.8305175",
   "source": "osm"
  },
  {
   "nom": "مسجد عبد الله السديس",
   "lat": 21.35974,
   "lng": 39.831744,
   "coordonnees": {
    "lat": 21.35974,
    "lng": 39.831744
   },
   "mapsUrl": "https://maps.google.com/?q=21.35974,39.831744",
   "source": "osm"
  },
  {
   "nom": "Masjid Abu Marwan مسجد ابو مروان",
   "lat": 21.4129289,
   "lng": 39.823881,
   "coordonnees": {
    "lat": 21.4129289,
    "lng": 39.823881
   },
   "mapsUrl": "https://maps.google.com/?q=21.4129289,39.823881",
   "source": "osm"
  },
  {
   "nom": "المسجد",
   "lat": 21.355413,
   "lng": 39.835346,
   "coordonnees": {
    "lat": 21.355413,
    "lng": 39.835346
   },
   "mapsUrl": "https://maps.google.com/?q=21.355413,39.835346",
   "source": "osm"
  },
  {
   "nom": "Prayer Hall - Abraj al Bait",
   "lat": 21.4194016,
   "lng": 39.8256123,
   "coordonnees": {
    "lat": 21.4194016,
    "lng": 39.8256123
   },
   "mapsUrl": "https://maps.google.com/?q=21.4194016,39.8256123",
   "source": "osm"
  },
  {
   "nom": "ابوبكر الصديق-الطابق الثالث",
   "lat": 21.420018,
   "lng": 39.8242339,
   "coordonnees": {
    "lat": 21.420018,
    "lng": 39.8242339
   },
   "mapsUrl": "https://maps.google.com/?q=21.420018,39.8242339",
   "source": "osm"
  },
  {
   "nom": "مسجد الإحسان ومبنى توعية الجاليات",
   "lat": 21.3952809,
   "lng": 39.7977868,
   "coordonnees": {
    "lat": 21.3952809,
    "lng": 39.7977868
   },
   "mapsUrl": "https://maps.google.com/?q=21.3952809,39.7977868",
   "source": "osm"
  },
  {
   "nom": "مصلى العيد",
   "lat": 21.3494178,
   "lng": 39.9108219,
   "coordonnees": {
    "lat": 21.3494178,
    "lng": 39.9108219
   },
   "mapsUrl": "https://maps.google.com/?q=21.3494178,39.9108219",
   "source": "osm"
  },
  {
   "nom": "Masjid Khatija",
   "lat": 21.3983869,
   "lng": 39.79038,
   "coordonnees": {
    "lat": 21.3983869,
    "lng": 39.79038
   },
   "mapsUrl": "https://maps.google.com/?q=21.3983869,39.79038",
   "source": "osm"
  },
  {
   "nom": "جامع الإمام مسلم",
   "lat": 21.345288,
   "lng": 39.9085037,
   "coordonnees": {
    "lat": 21.345288,
    "lng": 39.9085037
   },
   "mapsUrl": "https://maps.google.com/?q=21.345288,39.9085037",
   "source": "osm"
  },
  {
   "nom": "مسجد الغزاوي",
   "lat": 21.4540752,
   "lng": 39.8461627,
   "coordonnees": {
    "lat": 21.4540752,
    "lng": 39.8461627
   },
   "adresse": "شارع الحج",
   "mapsUrl": "https://maps.google.com/?q=21.4540752,39.8461627",
   "source": "osm"
  },
  {
   "nom": "Masjid Khair",
   "lat": 21.4021403,
   "lng": 39.7882048,
   "coordonnees": {
    "lat": 21.4021403,
    "lng": 39.7882048
   },
   "mapsUrl": "https://maps.google.com/?q=21.4021403,39.7882048",
   "source": "osm"
  },
  {
   "nom": "المسجد القطري بالخالدية",
   "lat": 21.3950025,
   "lng": 39.7865555,
   "coordonnees": {
    "lat": 21.3950025,
    "lng": 39.7865555
   },
   "mapsUrl": "https://maps.google.com/?q=21.3950025,39.7865555",
   "source": "osm"
  },
  {
   "nom": "مسجد الشنقيطي",
   "lat": 21.4466159,
   "lng": 39.821385,
   "coordonnees": {
    "lat": 21.4466159,
    "lng": 39.821385
   },
   "adresse": "Al Jazair Street",
   "mapsUrl": "https://maps.google.com/?q=21.4466159,39.821385",
   "source": "osm"
  },
  {
   "nom": "مسحد حسن السبحي",
   "lat": 21.3677065,
   "lng": 39.7748493,
   "coordonnees": {
    "lat": 21.3677065,
    "lng": 39.7748493
   },
   "mapsUrl": "https://maps.google.com/?q=21.3677065,39.7748493",
   "source": "osm"
  },
  {
   "nom": "مسجد الصالحين",
   "lat": 21.4657148,
   "lng": 39.9371359,
   "coordonnees": {
    "lat": 21.4657148,
    "lng": 39.9371359
   },
   "mapsUrl": "https://maps.google.com/?q=21.4657148,39.9371359",
   "source": "osm"
  },
  {
   "nom": "مسجد حجز الشرائع",
   "lat": 21.4837269,
   "lng": 39.9166413,
   "coordonnees": {
    "lat": 21.4837269,
    "lng": 39.9166413
   },
   "mapsUrl": "https://maps.google.com/?q=21.4837269,39.9166413",
   "source": "osm"
  },
  {
   "nom": "مسجد الشيباني",
   "lat": 21.4833098,
   "lng": 39.9425291,
   "coordonnees": {
    "lat": 21.4833098,
    "lng": 39.9425291
   },
   "mapsUrl": "https://maps.google.com/?q=21.4833098,39.9425291",
   "source": "osm"
  },
  {
   "nom": "جامع دورة ٤٤ الأمنية",
   "lat": 21.3290866,
   "lng": 39.7142061,
   "coordonnees": {
    "lat": 21.3290866,
    "lng": 39.7142061
   },
   "mapsUrl": "https://maps.google.com/?q=21.3290866,39.7142061",
   "source": "osm"
  },
  {
   "nom": "مسجد هاجر نيازي",
   "lat": 21.5070518,
   "lng": 39.7619306,
   "coordonnees": {
    "lat": 21.5070518,
    "lng": 39.7619306
   },
   "mapsUrl": "https://maps.google.com/?q=21.5070518,39.7619306",
   "source": "osm"
  },
  {
   "nom": "مسجد",
   "lat": 21.2958002,
   "lng": 39.9960874,
   "coordonnees": {
    "lat": 21.2958002,
    "lng": 39.9960874
   },
   "mapsUrl": "https://maps.google.com/?q=21.2958002,39.9960874",
   "source": "osm"
  }
 ],
 "halalScore": 9.8,
 "description_en": "Mecca, in Saudi Arabia, is a halal-friendly destination with a Halal Trust Score of 4.9/5. Muslim travelers will find 76 halal restaurants listed, 400 mosques, real-time prayer times and the Qibla direction — a complete guide to travel with peace of mind. Best time to visit: Omra : November-February . Hajj : date fixe du calendrier islamique.",
 "metaDescription_en": "Halal guide to Mecca: 76 halal restaurants listed, 400 mosques, prayer times and tips for Muslim travelers. Halal Trust Score 4.9/5.",
 "nom_en": "Mecca",
 "infos_pratiques_en": {
  "langue_officielle": "Arabic",
  "monnaie": "Saudi riyal (SAR)",
  "taux_change_eur": "1 EUR ≈ 4.10 SAR",
  "fuseau_horaire": "AST (UTC+3)",
  "transport_local": "Bus Al-Mashaaer El-Moqaddassah (ligne Hajj/Omra), taxis, voitures de location. Train for Hajj."
 },
 "dataPurgedAt": "2026-07-15"
}