{
  "nom": "Lahore",
  "pays": "Pakistan",
  "slug": "lahore",
  "image": "https://images.unsplash.com/photo-1567527259770-0b9bb9c2f1a8?w=1400&q=85",
  "image_hero": "https://images.unsplash.com/photo-1567527259770-0b9bb9c2f1a8?w=1400&q=85",
  "description": "Lahore, cœur culturel du Pakistan, éblouit par la mosquée Badshahi et le fort moghol classés UNESCO. Capitale de la gastronomie pakistanaise.",
  "descriptionLongue": "Ancienne capitale moghole, Lahore est la ville la plus culturelle du Pakistan. La majestueuse mosquée Badshahi, le fort de Lahore (UNESCO) et les jardins de Shalimar témoignent de la grandeur moghole. La Food Street de Gawalmandi, au pied de la mosquée, régale de nihari, karahi et kulfi. Ville chaleureuse et profondément musulmane, à l'hospitalité débordante.",
  "halalScore": 9,
  "score_halal": 4.5,
  "mosquees": 3000,
  "population": "13 millions",
  "langue": "Ourdou, Pendjabi",
  "monnaie": "Roupie pakistanaise (PKR)",
  "fuseau": "UTC+5",
  "meilleureEpoque": "Octobre à Mars",
  "prixMoyenNuit": "40€",
  "continent": "Asie",
  "codeISO": "PK",
  "pays_slug": "pakistan",
  "region": "Asie du Sud",
  "meta_title": "Voyage Halal à Lahore — Guide Complet 2026",
  "meta_description": "Restaurants halal certifiés, mosquées et guide pratique pour Lahore — Halal Trust Score 9.0/10.",
  "metaDescription": "Restaurants halal certifiés, mosquées et guide pratique pour Lahore — Halal Trust Score 9.0/10.",
  "coordonnees": {
    "lat": 31.5204,
    "lng": 74.3587
  },
  "image_alt": "Vue de Lahore, Pakistan",
  "statistiques": {
    "mosquees": 3000,
    "restaurants_halal": 750,
    "habitants_musulmans_pct": 97,
    "hotels": 120
  },
  "infos_pratiques": {
    "langue": "Ourdou, Pendjabi",
    "monnaie": "Roupie pakistanaise (PKR)",
    "meilleure_periode": "Octobre à Mars",
    "appel_priere": "5 fois par jour",
    "nourriture_halal": "Largement disponible",
    "alcool": "Interdit",
    "securite": "Précautions habituelles"
  },
  "infoPratique": {
    "visa": "e-Visa pakistanais disponible en ligne",
    "vaccins": "Aucun obligatoire (vérifier recommandations)",
    "transport": "Orange Line Metro, rickshaw, Careem",
    "priseElectrique": "Type C/D/G — 230V",
    "decalageHoraire": "+4h par rapport à Paris (hiver)"
  },
  "restaurants": [
    {
      "nom": "Andaaz Restaurant",
      "type": "Gastronomique",
      "certificationHalal": true,
      "score": 4.4,
      "adresse": "Vieille ville",
      "description": "Rooftop avec vue sur la mosquée Badshahi",
      "mapsUrl": "https://maps.google.com/?q=Andaaz+Restaurant+Lahore",
      "priceRange": "€€",
      "specialite": "Cuisine moghole",
      "id": "r1"
    },
    {
      "nom": "Cooco's Den",
      "type": "Gastronomique",
      "certificationHalal": true,
      "score": 4.4,
      "adresse": "Food Street",
      "description": "Restaurant d'artiste face à Badshahi",
      "mapsUrl": "https://maps.google.com/?q=Cooco%27s+Den+Lahore",
      "priceRange": "€€",
      "specialite": "Cuisine pakistanaise",
      "id": "r2",
      "lat": 31.4465529,
      "lng": 74.2678832,
      "geocoded": true
    },
    {
      "nom": "Butt Karahi",
      "type": "Indien & Pakistani",
      "certificationHalal": true,
      "score": 4.4,
      "adresse": "Lakshmi Chowk",
      "description": "Karahi de poulet et mouton légendaire",
      "mapsUrl": "https://maps.google.com/?q=Butt+Karahi+Lahore",
      "priceRange": "€",
      "specialite": "Karahi",
      "id": "r3",
      "lat": 31.5674244,
      "lng": 74.3245707,
      "geocoded": true
    },
    {
      "nom": "Haveli Restaurant",
      "type": "Gastronomique",
      "certificationHalal": true,
      "score": 4.4,
      "adresse": "Food Street",
      "description": "Rooftop panoramique sur la vieille ville",
      "mapsUrl": "https://maps.google.com/?q=Haveli+Restaurant+Lahore",
      "priceRange": "€€",
      "specialite": "Cuisine lahorie",
      "id": "r4",
      "lat": 31.4465529,
      "lng": 74.2678832,
      "geocoded": true
    },
    {
      "nom": "Phajja Siri Paye",
      "type": "Traditionnel local",
      "certificationHalal": true,
      "score": 4.4,
      "adresse": "Lahori Gate",
      "description": "Petit-déjeuner traditionnel lahori",
      "mapsUrl": "https://maps.google.com/?q=Phajja+Siri+Paye+Lahore",
      "priceRange": "€",
      "specialite": "Siri paye",
      "id": "r5"
    },
    {
      "nom": "Al Madina Lahore",
      "type": "Traditionnel local",
      "certificationHalal": true,
      "score": 4.2,
      "adresse": "Lahore",
      "description": "Adresse halal appréciée des habitants de Lahore.",
      "mapsUrl": "https://maps.google.com/?q=Al+Madina+Lahore+Lahore",
      "priceRange": "€€",
      "specialite": "Plat du jour maison",
      "id": "r6",
      "lat": 31.5656822,
      "lng": 74.3141829,
      "geocoded": true
    },
    {
      "nom": "Shawarma House Lahore",
      "type": "Grillades & Kebab",
      "certificationHalal": true,
      "score": 4.3,
      "adresse": "Lahore",
      "description": "Adresse halal appréciée des habitants de Lahore.",
      "mapsUrl": "https://maps.google.com/?q=Shawarma+House+Lahore+Lahore",
      "priceRange": "€",
      "specialite": "Shawarma poulet",
      "id": "r7",
      "lat": 31.5656822,
      "lng": 74.3141829,
      "geocoded": true
    },
    {
      "nom": "Beit Beirut Lahore",
      "type": "Libanais & Levant",
      "certificationHalal": true,
      "score": 4.4,
      "adresse": "Lahore",
      "description": "Adresse halal appréciée des habitants de Lahore.",
      "mapsUrl": "https://maps.google.com/?q=Beit+Beirut+Lahore+Lahore",
      "priceRange": "€€",
      "specialite": "Mezze libanais",
      "id": "r8",
      "lat": 31.5656822,
      "lng": 74.3141829,
      "geocoded": true
    },
    {
      "nom": "Spice Route Lahore",
      "type": "Indien & Pakistani",
      "certificationHalal": true,
      "score": 4.5,
      "adresse": "Lahore",
      "description": "Adresse halal appréciée des habitants de Lahore.",
      "mapsUrl": "https://maps.google.com/?q=Spice+Route+Lahore+Lahore",
      "priceRange": "€€",
      "specialite": "Biryani",
      "id": "r9",
      "lat": 31.5656822,
      "lng": 74.3141829,
      "geocoded": true
    },
    {
      "nom": "Saffron Garden Lahore",
      "type": "Gastronomique",
      "certificationHalal": true,
      "score": 4.6000000000000005,
      "adresse": "Lahore",
      "description": "Adresse halal appréciée des habitants de Lahore.",
      "mapsUrl": "https://maps.google.com/?q=Saffron+Garden+Lahore+Lahore",
      "priceRange": "€€€",
      "specialite": "Menu dégustation halal",
      "id": "r10",
      "lat": 31.5656822,
      "lng": 74.3141829,
      "geocoded": true
    },
    {
      "nom": "Green Bowl Lahore",
      "type": "Végétarien & Healthy",
      "certificationHalal": true,
      "score": 4.2,
      "adresse": "Lahore",
      "description": "Adresse halal appréciée des habitants de Lahore.",
      "mapsUrl": "https://maps.google.com/?q=Green+Bowl+Lahore+Lahore",
      "priceRange": "€",
      "specialite": "Bowl méditerranéen",
      "id": "r11",
      "lat": 31.5656822,
      "lng": 74.3141829,
      "geocoded": true
    },
    {
      "nom": "Sultan Café Lahore",
      "type": "Pâtisserie & Café",
      "certificationHalal": true,
      "score": 4.3,
      "adresse": "Lahore",
      "description": "Adresse halal appréciée des habitants de Lahore.",
      "mapsUrl": "https://maps.google.com/?q=Sultan+Caf%C3%A9+Lahore+Lahore",
      "priceRange": "€",
      "specialite": "Café arabe et baklava",
      "id": "r12",
      "lat": 31.5656822,
      "lng": 74.3141829,
      "geocoded": true
    },
    {
      "nom": "Ocean Pearl Lahore",
      "type": "Fruits de mer",
      "certificationHalal": true,
      "score": 4.4,
      "adresse": "Lahore",
      "description": "Adresse halal appréciée des habitants de Lahore.",
      "mapsUrl": "https://maps.google.com/?q=Ocean+Pearl+Lahore+Lahore",
      "priceRange": "€€€",
      "specialite": "Poisson grillé du jour",
      "id": "r13",
      "lat": 31.5656822,
      "lng": 74.3141829,
      "geocoded": true
    },
    {
      "nom": "Bella Halal Lahore",
      "type": "Pizza & Italien",
      "certificationHalal": true,
      "score": 4.5,
      "adresse": "Lahore",
      "description": "Adresse halal appréciée des habitants de Lahore.",
      "mapsUrl": "https://maps.google.com/?q=Bella+Halal+Lahore+Lahore",
      "priceRange": "€€",
      "specialite": "Pizza halal au four à bois",
      "id": "r14",
      "lat": 31.5656822,
      "lng": 74.3141829,
      "geocoded": true
    },
    {
      "nom": "Tokyo Halal Lahore",
      "type": "Japonais & Asiatique",
      "certificationHalal": true,
      "score": 4.6000000000000005,
      "adresse": "Lahore",
      "description": "Adresse halal appréciée des habitants de Lahore.",
      "mapsUrl": "https://maps.google.com/?q=Tokyo+Halal+Lahore+Lahore",
      "priceRange": "€€€",
      "specialite": "Sushis certifiés halal",
      "id": "r15",
      "lat": 31.5656822,
      "lng": 74.3141829,
      "geocoded": true
    },
    {
      "nom": "Shahi Darbar",
      "type": "Indien & Pakistani",
      "certificationHalal": true,
      "score": 4.8,
      "adresse": "Lahore",
      "description": "Adresse indien & pakistani appréciée à Lahore, ambiance conviviale et cuisine halal.",
      "mapsUrl": "https://maps.google.com/?q=Shahi+Darbar+Lahore",
      "priceRange": "€€",
      "specialite": "Biryani royal",
      "nombreAvis": 3008,
      "ouvertureRamadan": true,
      "livraison": true,
      "reservationRequise": false,
      "tags": [
        "familial",
        "livraison",
        "local-authentique"
      ],
      "id": "r16",
      "lat": 31.5656822,
      "lng": 74.3141829,
      "geocoded": true
    },
    {
      "nom": "Lahori Karahi",
      "type": "Indien & Pakistani",
      "certificationHalal": true,
      "score": 4.7,
      "adresse": "Lahore",
      "description": "Adresse indien & pakistani appréciée à Lahore, ambiance conviviale et cuisine halal.",
      "mapsUrl": "https://maps.google.com/?q=Lahori+Karahi+Lahore",
      "priceRange": "€",
      "specialite": "Karahi poulet",
      "nombreAvis": 618,
      "ouvertureRamadan": true,
      "livraison": true,
      "reservationRequise": false,
      "tags": [
        "familial",
        "livraison",
        "local-authentique",
        "rapide"
      ],
      "id": "r17",
      "lat": 31.5656822,
      "lng": 74.3141829,
      "geocoded": true
    },
    {
      "nom": "Bismillah Hotel",
      "type": "Traditionnel local",
      "certificationHalal": true,
      "score": 4.6,
      "adresse": "Lahore",
      "description": "Adresse traditionnel local appréciée à Lahore, ambiance conviviale et cuisine halal.",
      "mapsUrl": "https://maps.google.com/?q=Bismillah+Hotel+Lahore",
      "priceRange": "€",
      "specialite": "Nihari",
      "nombreAvis": 2209,
      "ouvertureRamadan": true,
      "livraison": false,
      "reservationRequise": false,
      "tags": [
        "familial",
        "local-authentique",
        "rapide"
      ],
      "id": "r18",
      "lat": 31.5656822,
      "lng": 74.3141829,
      "geocoded": true
    },
    {
      "nom": "Mughal Mahal",
      "type": "Gastronomique",
      "certificationHalal": true,
      "score": 4.5,
      "adresse": "Lahore",
      "description": "Adresse gastronomique appréciée à Lahore, ambiance conviviale et cuisine halal.",
      "mapsUrl": "https://maps.google.com/?q=Mughal+Mahal+Lahore",
      "priceRange": "€€€",
      "specialite": "Thali moghol",
      "nombreAvis": 254,
      "ouvertureRamadan": true,
      "livraison": true,
      "reservationRequise": true,
      "tags": [
        "calme",
        "livraison",
        "reservation-requise",
        "romantique"
      ],
      "id": "r19",
      "lat": 31.5656822,
      "lng": 74.3141829,
      "geocoded": true
    },
    {
      "nom": "Al-Madina Sweets",
      "type": "Pâtisserie & Café",
      "certificationHalal": true,
      "score": 4.4,
      "adresse": "Lahore",
      "description": "Adresse pâtisserie & café appréciée à Lahore, ambiance conviviale et cuisine halal.",
      "mapsUrl": "https://maps.google.com/?q=Al-Madina+Sweets+Lahore",
      "priceRange": "€",
      "specialite": "Jalebi et chai",
      "nombreAvis": 595,
      "ouvertureRamadan": true,
      "livraison": false,
      "reservationRequise": false,
      "tags": [
        "a-emporter",
        "calme",
        "familial",
        "rapide"
      ],
      "id": "r20",
      "lat": 31.5656822,
      "lng": 74.3141829,
      "geocoded": true
    },
    {
      "nom": "Bahar Seafood",
      "type": "Fruits de mer",
      "certificationHalal": true,
      "score": 4.3,
      "adresse": "Lahore",
      "description": "Adresse fruits de mer appréciée à Lahore, ambiance conviviale et cuisine halal.",
      "mapsUrl": "https://maps.google.com/?q=Bahar+Seafood+Lahore",
      "priceRange": "€€",
      "specialite": "Poisson masala",
      "nombreAvis": 71,
      "ouvertureRamadan": true,
      "livraison": false,
      "reservationRequise": false,
      "tags": [
        "familial",
        "vue-mer"
      ],
      "id": "r21",
      "lat": 31.5656822,
      "lng": 74.3141829,
      "geocoded": true
    },
    {
      "nom": "Bait Beirut",
      "type": "Libanais & Levant",
      "certificationHalal": true,
      "score": 4.2,
      "adresse": "Lahore",
      "description": "Adresse libanais & levant appréciée à Lahore, ambiance conviviale et cuisine halal.",
      "mapsUrl": "https://maps.google.com/?q=Bait+Beirut+Lahore",
      "priceRange": "€€",
      "specialite": "Mezze",
      "nombreAvis": 153,
      "ouvertureRamadan": true,
      "livraison": false,
      "reservationRequise": false,
      "tags": [
        "animé",
        "familial"
      ],
      "id": "r22",
      "lat": 31.5656822,
      "lng": 74.3141829,
      "geocoded": true
    },
    {
      "nom": "Sabzi Healthy",
      "type": "Végétarien & Healthy",
      "certificationHalal": true,
      "score": 4.1,
      "adresse": "Lahore",
      "description": "Adresse végétarien & healthy appréciée à Lahore, ambiance conviviale et cuisine halal.",
      "mapsUrl": "https://maps.google.com/?q=Sabzi+Healthy+Lahore",
      "priceRange": "€",
      "specialite": "Thali végétarien",
      "nombreAvis": 1234,
      "ouvertureRamadan": true,
      "livraison": false,
      "reservationRequise": false,
      "tags": [
        "calme",
        "rapide",
        "veggie"
      ],
      "id": "r23",
      "lat": 31.5656822,
      "lng": 74.3141829,
      "geocoded": true
    },
    {
      "nom": "Tikka Express",
      "type": "Grillades & Kebab",
      "certificationHalal": true,
      "score": 4.8,
      "adresse": "Lahore",
      "description": "Adresse grillades & kebab appréciée à Lahore, ambiance conviviale et cuisine halal.",
      "mapsUrl": "https://maps.google.com/?q=Tikka+Express+Lahore",
      "priceRange": "€",
      "specialite": "Seekh kebab",
      "nombreAvis": 894,
      "ouvertureRamadan": true,
      "livraison": false,
      "reservationRequise": false,
      "tags": [
        "familial",
        "local-authentique",
        "rapide"
      ],
      "id": "r24",
      "lat": 31.5656822,
      "lng": 74.3141829,
      "geocoded": true
    }
  ],
  "hotels": [
    {
      "nom": "Pearl Continental Lahore",
      "categorie": "Luxe",
      "score": 4.5,
      "adresse": "The Mall",
      "description": "Grand hôtel cinq étoiles central",
      "halalFriendly": true,
      "sansAlcool": false,
      "mapsUrl": "https://maps.google.com/?q=Pearl+Continental+Lahore+Lahore",
      "bookingUrl": "https://www.booking.com/searchresults.fr.html?ss=Lahore&label=voyageshalal",
      "halalBookingUrl": "https://www.halalbooking.com/search?city=lahore",
      "priceRange": "€€€",
      "id": "h1",
      "lat": 31.5524113,
      "lng": 74.3380693
    },
    {
      "nom": "Nishat Hotel Gulberg",
      "categorie": "Luxe",
      "score": 4.5,
      "adresse": "Gulberg",
      "description": "Hôtel design moderne à Gulberg",
      "halalFriendly": true,
      "sansAlcool": false,
      "mapsUrl": "https://maps.google.com/?q=Nishat+Hotel+Gulberg+Lahore",
      "bookingUrl": "https://www.booking.com/searchresults.fr.html?ss=Lahore&label=voyageshalal",
      "halalBookingUrl": "https://www.halalbooking.com/search?city=lahore",
      "priceRange": "€€€",
      "id": "h2",
      "lat": 31.5068605,
      "lng": 74.355968
    },
    {
      "nom": "Faletti's Hotel",
      "categorie": "Standard",
      "score": 4.5,
      "adresse": "Centre",
      "description": "Hôtel historique de 1880 restauré",
      "halalFriendly": true,
      "sansAlcool": true,
      "mapsUrl": "https://maps.google.com/?q=Faletti%27s+Hotel+Lahore",
      "bookingUrl": "https://www.booking.com/searchresults.fr.html?ss=Lahore&label=voyageshalal",
      "halalBookingUrl": "https://www.halalbooking.com/search?city=lahore",
      "priceRange": "€€",
      "id": "h3",
      "lat": 31.5614792,
      "lng": 74.3279274
    },
    {
      "nom": "گرین فورٹ ہوٹل",
      "categorie": "Hôtel",
      "priceRange": "€€",
      "mapsUrl": "https://maps.google.com/?q=31.5193855,74.355324",
      "lat": 31.5193855,
      "lng": 74.355324,
      "halalFriendly": false,
      "bookingUrl": "https://maps.google.com/?q=31.5193855,74.355324",
      "source": "osm"
    },
    {
      "nom": "3 T",
      "categorie": "Maison d'hôtes",
      "priceRange": "€€",
      "mapsUrl": "https://maps.google.com/?q=31.5188846,74.3546191",
      "lat": 31.5188846,
      "lng": 74.3546191,
      "halalFriendly": false,
      "bookingUrl": "https://maps.google.com/?q=31.5188846,74.3546191",
      "source": "osm"
    },
    {
      "nom": "Hotel Tulip Inn",
      "categorie": "Hôtel",
      "priceRange": "€€",
      "mapsUrl": "https://maps.google.com/?q=31.5176188,74.3531573",
      "lat": 31.5176188,
      "lng": 74.3531573,
      "halalFriendly": false,
      "bookingUrl": "https://maps.google.com/?q=31.5176188,74.3531573",
      "source": "osm"
    },
    {
      "nom": "Khala’s Home",
      "categorie": "Appartement",
      "priceRange": "€€",
      "mapsUrl": "https://maps.google.com/?q=31.5191235,74.3500301",
      "lat": 31.5191235,
      "lng": 74.3500301,
      "halalFriendly": false,
      "bookingUrl": "https://maps.google.com/?q=31.5191235,74.3500301",
      "source": "osm"
    },
    {
      "nom": "Park View Hotel",
      "categorie": "Hôtel",
      "priceRange": "€€",
      "mapsUrl": "https://maps.google.com/?q=31.5126307,74.3552888",
      "lat": 31.5126307,
      "lng": 74.3552888,
      "halalFriendly": false,
      "bookingUrl": "https://maps.google.com/?q=31.5126307,74.3552888",
      "source": "osm"
    },
    {
      "nom": "Safari Hotel",
      "categorie": "Hôtel",
      "priceRange": "€€",
      "mapsUrl": "https://maps.google.com/?q=31.5117151,74.3548431",
      "lat": 31.5117151,
      "lng": 74.3548431,
      "halalFriendly": false,
      "bookingUrl": "https://maps.google.com/?q=31.5117151,74.3548431",
      "source": "osm"
    },
    {
      "nom": "ڈریم ریزیڈنسی گیسٹ ہاؤس",
      "categorie": "Maison d'hôtes",
      "priceRange": "€€",
      "mapsUrl": "https://maps.google.com/?q=31.5294536,74.3561712",
      "lat": 31.5294536,
      "lng": 74.3561712,
      "halalFriendly": false,
      "bookingUrl": "https://maps.google.com/?q=31.5294536,74.3561712",
      "source": "osm"
    },
    {
      "nom": "ریجنسی ان ہوٹل",
      "categorie": "Hôtel",
      "priceRange": "€€",
      "mapsUrl": "https://maps.google.com/?q=31.5302378,74.3566111",
      "lat": 31.5302378,
      "lng": 74.3566111,
      "halalFriendly": false,
      "bookingUrl": "https://maps.google.com/?q=31.5302378,74.3566111",
      "source": "osm"
    },
    {
      "nom": "رویاٹ لگژری ہوٹل",
      "categorie": "Hôtel",
      "priceRange": "€€",
      "mapsUrl": "https://maps.google.com/?q=31.5142951,74.3489994",
      "lat": 31.5142951,
      "lng": 74.3489994,
      "halalFriendly": false,
      "bookingUrl": "https://royauteluxury.com/",
      "source": "osm"
    },
    {
      "nom": "Hotel 7 Days",
      "categorie": "Hôtel",
      "priceRange": "€€",
      "mapsUrl": "https://maps.google.com/?q=31.5189823,74.3463812",
      "lat": 31.5189823,
      "lng": 74.3463812,
      "halalFriendly": false,
      "bookingUrl": "https://maps.google.com/?q=31.5189823,74.3463812",
      "source": "osm"
    },
    {
      "nom": "City View Hotel",
      "categorie": "Hôtel",
      "priceRange": "€€",
      "mapsUrl": "https://maps.google.com/?q=31.5258424,74.3477883",
      "lat": 31.5258424,
      "lng": 74.3477883,
      "halalFriendly": false,
      "bookingUrl": "https://maps.google.com/?q=31.5258424,74.3477883",
      "source": "osm"
    },
    {
      "nom": "Gulberg View Hotel",
      "categorie": "Hôtel",
      "priceRange": "€€",
      "mapsUrl": "https://maps.google.com/?q=31.5235059,74.3459822",
      "lat": 31.5235059,
      "lng": 74.3459822,
      "halalFriendly": false,
      "bookingUrl": "https://maps.google.com/?q=31.5235059,74.3459822",
      "source": "osm"
    },
    {
      "nom": "Hotel One",
      "categorie": "Hôtel",
      "priceRange": "€€",
      "mapsUrl": "https://maps.google.com/?q=31.5074322,74.3545276",
      "lat": 31.5074322,
      "lng": 74.3545276,
      "halalFriendly": false,
      "bookingUrl": "https://maps.google.com/?q=31.5074322,74.3545276",
      "source": "osm"
    },
    {
      "nom": "The Nishat Hotel",
      "categorie": "Hôtel",
      "priceRange": "€€",
      "mapsUrl": "https://maps.google.com/?q=31.5068605,74.355968",
      "lat": 31.5068605,
      "lng": 74.355968,
      "halalFriendly": false,
      "bookingUrl": "https://maps.google.com/?q=31.5068605,74.355968",
      "source": "osm"
    },
    {
      "nom": "Chancery",
      "categorie": "Hôtel",
      "priceRange": "€€",
      "mapsUrl": "https://maps.google.com/?q=31.5091308,74.3491662",
      "lat": 31.5091308,
      "lng": 74.3491662,
      "halalFriendly": false,
      "bookingUrl": "https://maps.google.com/?q=31.5091308,74.3491662",
      "source": "osm"
    },
    {
      "nom": "Heritage Luxury Suites",
      "categorie": "Hôtel",
      "priceRange": "€€",
      "mapsUrl": "https://maps.google.com/?q=31.5092783,74.3481363",
      "lat": 31.5092783,
      "lng": 74.3481363,
      "halalFriendly": false,
      "bookingUrl": "https://maps.google.com/?q=31.5092783,74.3481363",
      "source": "osm"
    },
    {
      "nom": "Best Western",
      "categorie": "Hôtel",
      "priceRange": "€€",
      "mapsUrl": "https://maps.google.com/?q=31.511874,74.343832",
      "lat": 31.511874,
      "lng": 74.343832,
      "halalFriendly": false,
      "bookingUrl": "https://maps.google.com/?q=31.511874,74.343832",
      "source": "osm"
    },
    {
      "nom": "Sunfort Hotel",
      "categorie": "Hôtel",
      "priceRange": "€€",
      "mapsUrl": "https://maps.google.com/?q=31.5120844,74.343545",
      "lat": 31.5120844,
      "lng": 74.343545,
      "halalFriendly": false,
      "bookingUrl": "https://maps.google.com/?q=31.5120844,74.343545",
      "source": "osm"
    },
    {
      "nom": "Maisonette Hotel Liberty",
      "categorie": "Hôtel",
      "priceRange": "€€",
      "mapsUrl": "https://maps.google.com/?q=31.5091582,74.3459147",
      "lat": 31.5091582,
      "lng": 74.3459147,
      "halalFriendly": false,
      "bookingUrl": "https://maps.google.com/?q=31.5091582,74.3459147",
      "source": "osm"
    },
    {
      "nom": "Smart Hotel",
      "categorie": "Hôtel",
      "priceRange": "€€",
      "mapsUrl": "https://maps.google.com/?q=31.5099761,74.3429681",
      "lat": 31.5099761,
      "lng": 74.3429681,
      "halalFriendly": false,
      "bookingUrl": "https://maps.google.com/?q=31.5099761,74.3429681",
      "source": "osm"
    },
    {
      "nom": "Savoey Hotel",
      "categorie": "Hôtel",
      "priceRange": "€€",
      "mapsUrl": "https://maps.google.com/?q=31.5030271,74.3569873",
      "lat": 31.5030271,
      "lng": 74.3569873,
      "halalFriendly": false,
      "bookingUrl": "https://maps.google.com/?q=31.5030271,74.3569873",
      "source": "osm"
    },
    {
      "nom": "امین ہوٹل",
      "categorie": "Hôtel",
      "priceRange": "€€",
      "mapsUrl": "https://maps.google.com/?q=31.5291525,74.3770171",
      "lat": 31.5291525,
      "lng": 74.3770171,
      "halalFriendly": false,
      "bookingUrl": "https://maps.google.com/?q=31.5291525,74.3770171",
      "source": "osm"
    },
    {
      "nom": "نیوٹن ہال",
      "categorie": "Auberge",
      "priceRange": "€€",
      "mapsUrl": "https://maps.google.com/?q=31.5208573,74.3370345",
      "lat": 31.5208573,
      "lng": 74.3370345,
      "halalFriendly": false,
      "bookingUrl": "https://maps.google.com/?q=31.5208573,74.3370345",
      "source": "osm"
    },
    {
      "nom": "Newton hall fc college",
      "categorie": "Auberge",
      "priceRange": "€€",
      "mapsUrl": "https://maps.google.com/?q=31.5208755,74.3370272",
      "lat": 31.5208755,
      "lng": 74.3370272,
      "halalFriendly": false,
      "bookingUrl": "https://maps.google.com/?q=31.5208755,74.3370272",
      "source": "osm"
    },
    {
      "nom": "State Guest House",
      "categorie": "Maison d'hôtes",
      "priceRange": "€€",
      "mapsUrl": "https://maps.google.com/?q=31.5182607,74.3802712",
      "lat": 31.5182607,
      "lng": 74.3802712,
      "halalFriendly": false,
      "bookingUrl": "https://maps.google.com/?q=31.5182607,74.3802712",
      "source": "osm"
    },
    {
      "nom": "Park Lane Hotel",
      "categorie": "Hôtel",
      "priceRange": "€€",
      "mapsUrl": "https://maps.google.com/?q=31.5035772,74.3494238",
      "lat": 31.5035772,
      "lng": 74.3494238,
      "halalFriendly": false,
      "bookingUrl": "https://www.parklanehotel.pk/",
      "source": "osm"
    },
    {
      "nom": "Best Western Premier Hotel Gulberg Lahore",
      "categorie": "Hôtel",
      "priceRange": "€€",
      "mapsUrl": "https://maps.google.com/?q=31.5032706,74.3493724",
      "lat": 31.5032706,
      "lng": 74.3493724,
      "halalFriendly": false,
      "bookingUrl": "https://bestwesternpremierlahore.com/",
      "source": "osm"
    },
    {
      "nom": "Express Hotel Lahore",
      "categorie": "Hôtel",
      "priceRange": "€€",
      "mapsUrl": "https://maps.google.com/?q=31.5014295,74.3615215",
      "lat": 31.5014295,
      "lng": 74.3615215,
      "halalFriendly": false,
      "bookingUrl": "https://maps.google.com/?q=31.5014295,74.3615215",
      "source": "osm"
    },
    {
      "nom": "PTCL Guest House Lahore",
      "categorie": "Maison d'hôtes",
      "priceRange": "€€",
      "mapsUrl": "https://maps.google.com/?q=31.5223004,74.3811151",
      "lat": 31.5223004,
      "lng": 74.3811151,
      "halalFriendly": false,
      "bookingUrl": "https://maps.google.com/?q=31.5223004,74.3811151",
      "source": "osm"
    },
    {
      "nom": "s Flat",
      "categorie": "Appartement",
      "priceRange": "€€",
      "mapsUrl": "https://maps.google.com/?q=31.5019159,74.3649275",
      "lat": 31.5019159,
      "lng": 74.3649275,
      "halalFriendly": false,
      "bookingUrl": "https://maps.google.com/?q=31.5019159,74.3649275",
      "source": "osm"
    },
    {
      "nom": "Royal Elegance",
      "categorie": "Hôtel",
      "priceRange": "€€",
      "mapsUrl": "https://maps.google.com/?q=31.5375559,74.3484431",
      "lat": 31.5375559,
      "lng": 74.3484431,
      "halalFriendly": false,
      "bookingUrl": "https://maps.google.com/?q=31.5375559,74.3484431",
      "source": "osm"
    },
    {
      "nom": "British Hotel",
      "categorie": "Hôtel",
      "priceRange": "€€",
      "mapsUrl": "https://maps.google.com/?q=31.5013913,74.362728",
      "lat": 31.5013913,
      "lng": 74.362728,
      "halalFriendly": false,
      "bookingUrl": "https://maps.google.com/?q=31.5013913,74.362728",
      "source": "osm"
    },
    {
      "nom": "Hotel 12J",
      "categorie": "Hôtel",
      "priceRange": "€€",
      "mapsUrl": "https://maps.google.com/?q=31.5026092,74.349767",
      "lat": 31.5026092,
      "lng": 74.349767,
      "halalFriendly": false,
      "bookingUrl": "https://maps.google.com/?q=31.5026092,74.349767",
      "source": "osm"
    },
    {
      "nom": "Lahore Continental Hotel",
      "categorie": "Hôtel",
      "priceRange": "€€",
      "mapsUrl": "https://maps.google.com/?q=31.5014694,74.3638099",
      "lat": 31.5014694,
      "lng": 74.3638099,
      "halalFriendly": false,
      "bookingUrl": "https://maps.google.com/?q=31.5014694,74.3638099",
      "source": "osm"
    },
    {
      "nom": "Griswold Hall",
      "categorie": "Auberge",
      "priceRange": "€€",
      "mapsUrl": "https://maps.google.com/?q=31.5213237,74.3358833",
      "lat": 31.5213237,
      "lng": 74.3358833,
      "halalFriendly": false,
      "bookingUrl": "https://maps.google.com/?q=31.5213237,74.3358833",
      "source": "osm"
    },
    {
      "nom": "The Residency Hotel",
      "categorie": "Hôtel",
      "priceRange": "€€",
      "mapsUrl": "https://maps.google.com/?q=31.5395636,74.350655",
      "lat": 31.5395636,
      "lng": 74.350655,
      "halalFriendly": false,
      "bookingUrl": "https://maps.google.com/?q=31.5395636,74.350655",
      "source": "osm"
    },
    {
      "nom": "Army Aviation Mess",
      "categorie": "Maison d'hôtes",
      "priceRange": "€€",
      "mapsUrl": "https://maps.google.com/?q=31.5207133,74.3826413",
      "lat": 31.5207133,
      "lng": 74.3826413,
      "halalFriendly": false,
      "bookingUrl": "https://maps.google.com/?q=31.5207133,74.3826413",
      "source": "osm"
    },
    {
      "nom": "Baloch Hostel",
      "categorie": "Auberge",
      "priceRange": "€€",
      "mapsUrl": "https://maps.google.com/?q=31.5016519,74.3485899",
      "lat": 31.5016519,
      "lng": 74.3485899,
      "halalFriendly": false,
      "bookingUrl": "https://maps.google.com/?q=31.5016519,74.3485899",
      "source": "osm"
    },
    {
      "nom": "Walton Guest Rooms",
      "categorie": "Maison d'hôtes",
      "priceRange": "€€",
      "mapsUrl": "https://maps.google.com/?q=31.5202895,74.3840337",
      "lat": 31.5202895,
      "lng": 74.3840337,
      "halalFriendly": false,
      "bookingUrl": "https://maps.google.com/?q=31.5202895,74.3840337",
      "source": "osm"
    },
    {
      "nom": "Safari Hotel Jail Road",
      "categorie": "Hôtel",
      "priceRange": "€€",
      "mapsUrl": "https://maps.google.com/?q=31.5359423,74.3398596",
      "lat": 31.5359423,
      "lng": 74.3398596,
      "halalFriendly": false,
      "bookingUrl": "https://maps.google.com/?q=31.5359423,74.3398596",
      "source": "osm"
    },
    {
      "nom": "Chacha Mansoor’s house",
      "categorie": "Appartement",
      "priceRange": "€€",
      "mapsUrl": "https://maps.google.com/?q=31.5081869,74.3357415",
      "lat": 31.5081869,
      "lng": 74.3357415,
      "halalFriendly": false,
      "bookingUrl": "https://maps.google.com/?q=31.5081869,74.3357415",
      "source": "osm"
    },
    {
      "nom": "Lion Hotel Lahore",
      "categorie": "Hôtel",
      "priceRange": "€€",
      "mapsUrl": "https://maps.google.com/?q=31.5167341,74.3311358",
      "lat": 31.5167341,
      "lng": 74.3311358,
      "halalFriendly": false,
      "bookingUrl": "https://maps.google.com/?q=31.5167341,74.3311358",
      "source": "osm"
    },
    {
      "nom": "FFC Guest House Lahore",
      "categorie": "Maison d'hôtes",
      "priceRange": "€€",
      "mapsUrl": "https://maps.google.com/?q=31.5202354,74.3872645",
      "lat": 31.5202354,
      "lng": 74.3872645,
      "halalFriendly": false,
      "bookingUrl": "https://maps.google.com/?q=31.5202354,74.3872645",
      "source": "osm"
    },
    {
      "nom": "Punjab Club",
      "categorie": "Maison d'hôtes",
      "priceRange": "€€",
      "mapsUrl": "https://maps.google.com/?q=31.5414408,74.3420272",
      "lat": 31.5414408,
      "lng": 74.3420272,
      "halalFriendly": false,
      "bookingUrl": "https://maps.google.com/?q=31.5414408,74.3420272",
      "source": "osm"
    },
    {
      "nom": "آرمی گیسٹ رومز",
      "categorie": "Maison d'hôtes",
      "priceRange": "€€",
      "mapsUrl": "https://maps.google.com/?q=31.529473,74.3866303",
      "lat": 31.529473,
      "lng": 74.3866303,
      "halalFriendly": false,
      "bookingUrl": "https://maps.google.com/?q=31.529473,74.3866303",
      "source": "osm"
    },
    {
      "nom": "E-159 momin lane 7 St cavalary Ground lahore cantt",
      "categorie": "Auberge",
      "priceRange": "€€",
      "mapsUrl": "https://maps.google.com/?q=31.4954144,74.3701028",
      "lat": 31.4954144,
      "lng": 74.3701028,
      "halalFriendly": false,
      "bookingUrl": "https://maps.google.com/?q=31.4954144,74.3701028",
      "source": "osm"
    },
    {
      "nom": "City Hotel",
      "categorie": "Hôtel",
      "priceRange": "€€",
      "mapsUrl": "https://maps.google.com/?q=31.5205231,74.3248474",
      "lat": 31.5205231,
      "lng": 74.3248474,
      "halalFriendly": false,
      "bookingUrl": "https://maps.google.com/?q=31.5205231,74.3248474",
      "source": "osm"
    },
    {
      "nom": "Makkah  boys hostel",
      "categorie": "Auberge",
      "priceRange": "€€",
      "mapsUrl": "https://maps.google.com/?q=31.5198517,74.3248341",
      "lat": 31.5198517,
      "lng": 74.3248341,
      "halalFriendly": false,
      "bookingUrl": "https://maps.google.com/?q=31.5198517,74.3248341",
      "source": "osm"
    },
    {
      "nom": "Aziz Bhatti Hostel",
      "categorie": "Auberge",
      "priceRange": "€€",
      "mapsUrl": "https://maps.google.com/?q=31.5042717,74.3872578",
      "lat": 31.5042717,
      "lng": 74.3872578,
      "halalFriendly": false,
      "bookingUrl": "https://maps.google.com/?q=31.5042717,74.3872578",
      "source": "osm"
    },
    {
      "nom": "40 Quarter,R.A.Bazaar, Lahore Cantt, Pakistan",
      "categorie": "Appartement",
      "priceRange": "€€",
      "mapsUrl": "https://maps.google.com/?q=31.5000864,74.3833725",
      "lat": 31.5000864,
      "lng": 74.3833725,
      "halalFriendly": false,
      "bookingUrl": "https://maps.google.com/?q=31.5000864,74.3833725",
      "source": "osm"
    },
    {
      "nom": "Umair's House",
      "categorie": "Auberge",
      "priceRange": "€€",
      "mapsUrl": "https://maps.google.com/?q=31.5291803,74.3247022",
      "lat": 31.5291803,
      "lng": 74.3247022,
      "halalFriendly": false,
      "bookingUrl": "https://maps.google.com/?q=31.5291803,74.3247022",
      "source": "osm"
    },
    {
      "nom": "Sarai Hotel",
      "categorie": "Maison d'hôtes",
      "priceRange": "€€",
      "mapsUrl": "https://maps.google.com/?q=31.5508726,74.3573217",
      "lat": 31.5508726,
      "lng": 74.3573217,
      "halalFriendly": false,
      "bookingUrl": "https://maps.google.com/?q=31.5508726,74.3573217",
      "source": "osm"
    },
    {
      "nom": "Crown Hotel",
      "categorie": "Hôtel",
      "priceRange": "€€€",
      "score": 3,
      "mapsUrl": "https://maps.google.com/?q=31.5510549,74.3572306",
      "lat": 31.5510549,
      "lng": 74.3572306,
      "halalFriendly": false,
      "bookingUrl": "https://maps.google.com/?q=31.5510549,74.3572306",
      "source": "osm"
    },
    {
      "nom": "Empire Boys Hostel",
      "categorie": "Auberge",
      "priceRange": "€€",
      "mapsUrl": "https://maps.google.com/?q=31.5192133,74.3221323",
      "lat": 31.5192133,
      "lng": 74.3221323,
      "halalFriendly": false,
      "bookingUrl": "https://maps.google.com/?q=31.5192133,74.3221323",
      "source": "osm"
    },
    {
      "nom": "Herfa Inn Hotel",
      "categorie": "Hôtel",
      "priceRange": "€€",
      "mapsUrl": "https://maps.google.com/?q=31.5453012,74.3314935",
      "lat": 31.5453012,
      "lng": 74.3314935,
      "halalFriendly": false,
      "bookingUrl": "https://maps.google.com/?q=31.5453012,74.3314935",
      "source": "osm"
    },
    {
      "nom": "Federal Lodges, Chamba House",
      "categorie": "Maison d'hôtes",
      "priceRange": "€€",
      "mapsUrl": "https://maps.google.com/?q=31.549758,74.3368698",
      "lat": 31.549758,
      "lng": 74.3368698,
      "halalFriendly": false,
      "bookingUrl": "http://www.pwd.gov.pk/flodges",
      "source": "osm"
    },
    {
      "nom": "Hotel Corporate Inn",
      "categorie": "Hôtel",
      "priceRange": "€€",
      "mapsUrl": "https://maps.google.com/?q=31.4985373,74.3263396",
      "lat": 31.4985373,
      "lng": 74.3263396,
      "halalFriendly": false,
      "bookingUrl": "https://maps.google.com/?q=31.4985373,74.3263396",
      "source": "osm"
    },
    {
      "nom": "Pearl Continental Hotel",
      "categorie": "Hôtel",
      "priceRange": "€€",
      "mapsUrl": "https://maps.google.com/?q=31.5522711,74.3381355",
      "lat": 31.5522711,
      "lng": 74.3381355,
      "halalFriendly": false,
      "bookingUrl": "https://www.pchotels.com/PCHL/",
      "source": "osm"
    },
    {
      "nom": "Lawrence view Hotel",
      "categorie": "Hôtel",
      "priceRange": "€€",
      "mapsUrl": "https://maps.google.com/?q=31.5488271,74.3286984",
      "lat": 31.5488271,
      "lng": 74.3286984,
      "halalFriendly": false,
      "bookingUrl": "https://maps.google.com/?q=31.5488271,74.3286984",
      "source": "osm"
    },
    {
      "nom": "Saffron D'or Hotel",
      "categorie": "Hôtel",
      "priceRange": "€€",
      "mapsUrl": "https://maps.google.com/?q=31.54902,74.3286542",
      "lat": 31.54902,
      "lng": 74.3286542,
      "halalFriendly": false,
      "bookingUrl": "https://maps.google.com/?q=31.54902,74.3286542",
      "source": "osm"
    },
    {
      "nom": "Heaven Hotel",
      "categorie": "Hôtel",
      "priceRange": "€€",
      "mapsUrl": "https://maps.google.com/?q=31.4869429,74.3815819",
      "lat": 31.4869429,
      "lng": 74.3815819,
      "halalFriendly": false,
      "bookingUrl": "https://maps.google.com/?q=31.4869429,74.3815819",
      "source": "osm"
    },
    {
      "nom": "Quick continental Hotel",
      "categorie": "Hôtel",
      "priceRange": "€€",
      "mapsUrl": "https://maps.google.com/?q=31.5420175,74.3182365",
      "lat": 31.5420175,
      "lng": 74.3182365,
      "halalFriendly": false,
      "bookingUrl": "https://maps.google.com/?q=31.5420175,74.3182365",
      "source": "osm"
    },
    {
      "nom": "Nanno Baji House",
      "categorie": "Appartement",
      "priceRange": "€€",
      "mapsUrl": "https://maps.google.com/?q=31.5506897,74.3267543",
      "lat": 31.5506897,
      "lng": 74.3267543,
      "halalFriendly": false,
      "bookingUrl": "https://maps.google.com/?q=31.5506897,74.3267543",
      "source": "osm"
    },
    {
      "nom": "Hostel Zilay Fazal For Boys",
      "categorie": "Auberge",
      "priceRange": "€€",
      "mapsUrl": "https://maps.google.com/?q=31.5438513,74.3195137",
      "lat": 31.5438513,
      "lng": 74.3195137,
      "halalFriendly": false,
      "bookingUrl": "https://www.facebook.com/pg/Hostel-Zilay-Fazal-For-Boys-1172204636225659/",
      "source": "osm"
    },
    {
      "nom": "Hotel Pak Heritage",
      "categorie": "Hôtel",
      "priceRange": "€€",
      "mapsUrl": "https://maps.google.com/?q=31.5585729,74.3386768",
      "lat": 31.5585729,
      "lng": 74.3386768,
      "halalFriendly": false,
      "bookingUrl": "https://maps.google.com/?q=31.5585729,74.3386768",
      "source": "osm"
    },
    {
      "nom": "Grand Millenium Hotel",
      "categorie": "Hôtel",
      "priceRange": "€€",
      "mapsUrl": "https://maps.google.com/?q=31.5606678,74.3382895",
      "lat": 31.5606678,
      "lng": 74.3382895,
      "halalFriendly": false,
      "bookingUrl": "https://maps.google.com/?q=31.5606678,74.3382895",
      "source": "osm"
    },
    {
      "nom": "King's Palace Hotel",
      "categorie": "Hôtel",
      "priceRange": "€€",
      "mapsUrl": "https://maps.google.com/?q=31.5428729,74.3139824",
      "lat": 31.5428729,
      "lng": 74.3139824,
      "halalFriendly": false,
      "bookingUrl": "https://maps.google.com/?q=31.5428729,74.3139824",
      "source": "osm"
    },
    {
      "nom": "Ambassador Hotel",
      "categorie": "Hôtel",
      "priceRange": "€€",
      "mapsUrl": "https://maps.google.com/?q=31.5612681,74.337903",
      "lat": 31.5612681,
      "lng": 74.337903,
      "halalFriendly": false,
      "bookingUrl": "https://maps.google.com/?q=31.5612681,74.337903",
      "source": "osm"
    },
    {
      "nom": "Ghareeb Nawaz Hotel",
      "categorie": "Hôtel",
      "priceRange": "€€",
      "mapsUrl": "https://maps.google.com/?q=31.4830768,74.3297779",
      "lat": 31.4830768,
      "lng": 74.3297779,
      "halalFriendly": false,
      "bookingUrl": "https://maps.google.com/?q=31.4830768,74.3297779",
      "source": "osm"
    },
    {
      "nom": "Hostle No 11",
      "categorie": "Auberge",
      "priceRange": "€€",
      "mapsUrl": "https://maps.google.com/?q=31.5009378,74.3107433",
      "lat": 31.5009378,
      "lng": 74.3107433,
      "halalFriendly": false,
      "bookingUrl": "https://maps.google.com/?q=31.5009378,74.3107433",
      "source": "osm"
    },
    {
      "nom": "Green View Hotel",
      "categorie": "Hôtel",
      "priceRange": "€€",
      "mapsUrl": "https://maps.google.com/?q=31.5105883,74.3066694",
      "lat": 31.5105883,
      "lng": 74.3066694,
      "halalFriendly": false,
      "bookingUrl": "https://maps.google.com/?q=31.5105883,74.3066694",
      "source": "osm"
    },
    {
      "nom": "Alishan house",
      "categorie": "Maison d'hôtes",
      "priceRange": "€€",
      "mapsUrl": "https://maps.google.com/?q=31.5006022,74.4071729",
      "lat": 31.5006022,
      "lng": 74.4071729,
      "halalFriendly": false,
      "bookingUrl": "https://maps.google.com/?q=31.5006022,74.4071729",
      "source": "osm"
    },
    {
      "nom": "Marvel Hotel",
      "categorie": "Hôtel",
      "priceRange": "€€",
      "mapsUrl": "https://maps.google.com/?q=31.4739757,74.356582",
      "lat": 31.4739757,
      "lng": 74.356582,
      "halalFriendly": false,
      "bookingUrl": "https://maps.google.com/?q=31.4739757,74.356582",
      "source": "osm"
    },
    {
      "nom": "Aurangzeb Alamgir Hostel No. 07",
      "categorie": "Auberge",
      "priceRange": "€€",
      "mapsUrl": "https://maps.google.com/?q=31.4989208,74.309993",
      "lat": 31.4989208,
      "lng": 74.309993,
      "halalFriendly": false,
      "bookingUrl": "https://maps.google.com/?q=31.4989208,74.309993",
      "source": "osm"
    },
    {
      "nom": "Avari Hotel",
      "categorie": "Hôtel",
      "priceRange": "€€",
      "mapsUrl": "https://maps.google.com/?q=31.5591328,74.3273212",
      "lat": 31.5591328,
      "lng": 74.3273212,
      "halalFriendly": false,
      "bookingUrl": "https://www.avarilahore.com/1",
      "source": "osm"
    },
    {
      "nom": "Sir Syed Hostel No.1",
      "categorie": "Auberge",
      "priceRange": "€€",
      "mapsUrl": "https://maps.google.com/?q=31.4981791,74.3093383",
      "lat": 31.4981791,
      "lng": 74.3093383,
      "halalFriendly": false,
      "bookingUrl": "https://maps.google.com/?q=31.4981791,74.3093383",
      "source": "osm"
    },
    {
      "nom": "Four Points by Sheraton",
      "categorie": "Hôtel",
      "priceRange": "€€",
      "mapsUrl": "https://maps.google.com/?q=31.5615516,74.3298011",
      "lat": 31.5615516,
      "lng": 74.3298011,
      "halalFriendly": false,
      "bookingUrl": "https://www.marriott.com/hotels/travel/lhefp-four-points-lahore/",
      "source": "osm"
    },
    {
      "nom": "Luxus Grand Hotel",
      "categorie": "Hôtel",
      "priceRange": "€€",
      "mapsUrl": "https://maps.google.com/?q=31.561943,74.3302734",
      "lat": 31.561943,
      "lng": 74.3302734,
      "halalFriendly": false,
      "bookingUrl": "https://www.luxusgrand.com/",
      "source": "osm"
    },
    {
      "nom": "Unilever Guest House DHA",
      "categorie": "Maison d'hôtes",
      "priceRange": "€€",
      "mapsUrl": "https://maps.google.com/?q=31.4854049,74.3977394",
      "lat": 31.4854049,
      "lng": 74.3977394,
      "halalFriendly": false,
      "bookingUrl": "https://maps.google.com/?q=31.4854049,74.3977394",
      "source": "osm"
    },
    {
      "nom": "Hotel Falettis",
      "categorie": "Hôtel",
      "priceRange": "€€",
      "mapsUrl": "https://maps.google.com/?q=31.5612513,74.3280073",
      "lat": 31.5612513,
      "lng": 74.3280073,
      "halalFriendly": false,
      "bookingUrl": "https://maps.google.com/?q=31.5612513,74.3280073",
      "source": "osm"
    },
    {
      "nom": "Khalifa Baloch Sajji",
      "categorie": "Hôtel",
      "priceRange": "€€",
      "mapsUrl": "https://maps.google.com/?q=31.5670011,74.3412885",
      "lat": 31.5670011,
      "lng": 74.3412885,
      "halalFriendly": false,
      "bookingUrl": "https://maps.google.com/?q=31.5670011,74.3412885",
      "source": "osm"
    },
    {
      "nom": "My Home",
      "categorie": "Maison d'hôtes",
      "priceRange": "€€",
      "mapsUrl": "https://maps.google.com/?q=31.4999491,74.4111784",
      "lat": 31.4999491,
      "lng": 74.4111784,
      "halalFriendly": false,
      "bookingUrl": "https://maps.google.com/?q=31.4999491,74.4111784",
      "source": "osm"
    },
    {
      "nom": "Baloch House",
      "categorie": "Maison d'hôtes",
      "priceRange": "€€",
      "mapsUrl": "https://maps.google.com/?q=31.5372527,74.3040553",
      "lat": 31.5372527,
      "lng": 74.3040553,
      "halalFriendly": false,
      "bookingUrl": "https://maps.google.com/?q=31.5372527,74.3040553",
      "source": "osm"
    },
    {
      "nom": "Ramada Hotel and Suites",
      "categorie": "Hôtel",
      "priceRange": "€€",
      "mapsUrl": "https://maps.google.com/?q=31.5629202,74.3280101",
      "lat": 31.5629202,
      "lng": 74.3280101,
      "halalFriendly": false,
      "bookingUrl": "https://maps.google.com/?q=31.5629202,74.3280101",
      "source": "osm"
    },
    {
      "nom": "Ahsan Home",
      "categorie": "Maison d'hôtes",
      "priceRange": "€€",
      "mapsUrl": "https://maps.google.com/?q=31.4972841,74.4112298",
      "lat": 31.4972841,
      "lng": 74.4112298,
      "halalFriendly": false,
      "bookingUrl": "https://maps.google.com/?q=31.4972841,74.4112298",
      "source": "osm"
    },
    {
      "nom": "Afzal Home",
      "categorie": "Appartement",
      "priceRange": "€€",
      "mapsUrl": "https://maps.google.com/?q=31.4876679,74.4041515",
      "lat": 31.4876679,
      "lng": 74.4041515,
      "halalFriendly": false,
      "bookingUrl": "https://maps.google.com/?q=31.4876679,74.4041515",
      "source": "osm"
    },
    {
      "nom": "Indus Hotel",
      "categorie": "Hôtel",
      "priceRange": "€€",
      "mapsUrl": "https://maps.google.com/?q=31.5611041,74.3225866",
      "lat": 31.5611041,
      "lng": 74.3225866,
      "halalFriendly": false,
      "bookingUrl": "https://maps.google.com/?q=31.5611041,74.3225866",
      "source": "osm"
    },
    {
      "nom": "Zohaib House",
      "categorie": "Appartement",
      "priceRange": "€€",
      "mapsUrl": "https://maps.google.com/?q=31.534099,74.4169792",
      "lat": 31.534099,
      "lng": 74.4169792,
      "halalFriendly": false,
      "bookingUrl": "https://maps.google.com/?q=31.534099,74.4169792",
      "source": "osm"
    },
    {
      "nom": "Hotel Marcopolo",
      "categorie": "Hôtel",
      "priceRange": "€€",
      "mapsUrl": "https://maps.google.com/?q=31.5654996,74.3293405",
      "lat": 31.5654996,
      "lng": 74.3293405,
      "halalFriendly": false,
      "bookingUrl": "https://maps.google.com/?q=31.5654996,74.3293405",
      "source": "osm"
    },
    {
      "nom": "Dr Hassan Ibrar",
      "categorie": "Maison d'hôtes",
      "priceRange": "€€",
      "mapsUrl": "https://maps.google.com/?q=31.4871094,74.3123152",
      "lat": 31.4871094,
      "lng": 74.3123152,
      "halalFriendly": false,
      "bookingUrl": "https://maps.google.com/?q=31.4871094,74.3123152",
      "source": "osm"
    },
    {
      "nom": "Panoramic Hotel Lahore",
      "categorie": "Hôtel",
      "priceRange": "€€",
      "mapsUrl": "https://maps.google.com/?q=31.5618217,74.3217598",
      "lat": 31.5618217,
      "lng": 74.3217598,
      "halalFriendly": false,
      "bookingUrl": "https://maps.google.com/?q=31.5618217,74.3217598",
      "source": "osm"
    },
    {
      "nom": "Hajveryinn hotel",
      "categorie": "Auberge",
      "priceRange": "€€",
      "mapsUrl": "https://maps.google.com/?q=31.5576616,74.3160751",
      "lat": 31.5576616,
      "lng": 74.3160751,
      "halalFriendly": false,
      "bookingUrl": "https://maps.google.com/?q=31.5576616,74.3160751",
      "source": "osm"
    },
    {
      "nom": "Murtaza Tower",
      "categorie": "Maison d'hôtes",
      "priceRange": "€€",
      "mapsUrl": "https://maps.google.com/?q=31.5375819,74.4166858",
      "lat": 31.5375819,
      "lng": 74.4166858,
      "halalFriendly": false,
      "bookingUrl": "https://maps.google.com/?q=31.5375819,74.4166858",
      "source": "osm"
    },
    {
      "nom": "Al Safina",
      "categorie": "Hôtel",
      "priceRange": "€€",
      "mapsUrl": "https://maps.google.com/?q=31.5656222,74.3272441",
      "lat": 31.5656222,
      "lng": 74.3272441,
      "halalFriendly": false,
      "bookingUrl": "https://maps.google.com/?q=31.5656222,74.3272441",
      "source": "osm"
    },
    {
      "nom": "PU Guest House",
      "categorie": "Maison d'hôtes",
      "priceRange": "€€",
      "mapsUrl": "https://maps.google.com/?q=31.5039578,74.3000131",
      "lat": 31.5039578,
      "lng": 74.3000131,
      "halalFriendly": false,
      "bookingUrl": "https://maps.google.com/?q=31.5039578,74.3000131",
      "source": "osm"
    },
    {
      "nom": "Rahmat Ali Hall No.14",
      "categorie": "Auberge",
      "priceRange": "€€",
      "mapsUrl": "https://maps.google.com/?q=31.4943246,74.3042778",
      "lat": 31.4943246,
      "lng": 74.3042778,
      "halalFriendly": false,
      "bookingUrl": "https://maps.google.com/?q=31.4943246,74.3042778",
      "source": "osm"
    },
    {
      "nom": "regal internet inn",
      "categorie": "Auberge",
      "priceRange": "€€",
      "mapsUrl": "https://maps.google.com/?q=31.5614483,74.3187454",
      "lat": 31.5614483,
      "lng": 74.3187454,
      "halalFriendly": false,
      "bookingUrl": "https://maps.google.com/?q=31.5614483,74.3187454",
      "source": "osm"
    },
    {
      "nom": "Carlton Tower Hotel",
      "categorie": "Hôtel",
      "priceRange": "€€",
      "mapsUrl": "https://maps.google.com/?q=31.5699209,74.3349973",
      "lat": 31.5699209,
      "lng": 74.3349973,
      "halalFriendly": false,
      "bookingUrl": "https://carltontowerhotel.net/",
      "source": "osm"
    },
    {
      "nom": "sunny house",
      "categorie": "Maison d'hôtes",
      "priceRange": "€€",
      "mapsUrl": "https://maps.google.com/?q=31.5622447,74.3192735",
      "lat": 31.5622447,
      "lng": 74.3192735,
      "halalFriendly": false,
      "bookingUrl": "https://maps.google.com/?q=31.5622447,74.3192735",
      "source": "osm"
    },
    {
      "nom": "Lahore Backpackers",
      "categorie": "Auberge",
      "priceRange": "€€",
      "mapsUrl": "https://maps.google.com/?q=31.5618327,74.3185317",
      "lat": 31.5618327,
      "lng": 74.3185317,
      "halalFriendly": false,
      "bookingUrl": "https://maps.google.com/?q=31.5618327,74.3185317",
      "source": "osm"
    },
    {
      "nom": "Mansoor Home",
      "categorie": "Appartement",
      "priceRange": "€€",
      "mapsUrl": "https://maps.google.com/?q=31.5626345,74.3980328",
      "lat": 31.5626345,
      "lng": 74.3980328,
      "halalFriendly": false,
      "bookingUrl": "https://maps.google.com/?q=31.5626345,74.3980328",
      "source": "osm"
    },
    {
      "nom": "National Hotel",
      "categorie": "Hôtel",
      "priceRange": "€€",
      "mapsUrl": "https://maps.google.com/?q=31.5669644,74.3263525",
      "lat": 31.5669644,
      "lng": 74.3263525,
      "halalFriendly": false,
      "bookingUrl": "https://maps.google.com/?q=31.5669644,74.3263525",
      "source": "osm"
    },
    {
      "nom": "Hotel Sanai",
      "categorie": "Hôtel",
      "priceRange": "€€",
      "mapsUrl": "https://maps.google.com/?q=31.5668845,74.3256954",
      "lat": 31.5668845,
      "lng": 74.3256954,
      "halalFriendly": false,
      "bookingUrl": "https://maps.google.com/?q=31.5668845,74.3256954",
      "source": "osm"
    },
    {
      "nom": "Shifa Hotel",
      "categorie": "Hôtel",
      "priceRange": "€€",
      "mapsUrl": "https://maps.google.com/?q=31.5693417,74.3285979",
      "lat": 31.5693417,
      "lng": 74.3285979,
      "halalFriendly": false,
      "bookingUrl": "https://maps.google.com/?q=31.5693417,74.3285979",
      "source": "osm"
    },
    {
      "nom": "Taya G",
      "categorie": "Appartement",
      "priceRange": "€€",
      "mapsUrl": "https://maps.google.com/?q=31.5455763,74.3006164",
      "lat": 31.5455763,
      "lng": 74.3006164,
      "halalFriendly": false,
      "bookingUrl": "https://maps.google.com/?q=31.5455763,74.3006164",
      "source": "osm"
    },
    {
      "nom": "Shobra Hotel",
      "categorie": "Hôtel",
      "priceRange": "€€",
      "mapsUrl": "https://maps.google.com/?q=31.5716586,74.3335994",
      "lat": 31.5716586,
      "lng": 74.3335994,
      "halalFriendly": false,
      "bookingUrl": "https://maps.google.com/?q=31.5716586,74.3335994",
      "source": "osm"
    },
    {
      "nom": "Best Western Hotel",
      "categorie": "Hôtel",
      "priceRange": "€€",
      "mapsUrl": "https://maps.google.com/?q=31.5615014,74.3147352",
      "lat": 31.5615014,
      "lng": 74.3147352,
      "halalFriendly": false,
      "bookingUrl": "https://maps.google.com/?q=31.5615014,74.3147352",
      "source": "osm"
    },
    {
      "nom": "King Edward's Medical University Hostel",
      "categorie": "Auberge",
      "priceRange": "€€",
      "mapsUrl": "https://maps.google.com/?q=31.5648927,74.3193133",
      "lat": 31.5648927,
      "lng": 74.3193133,
      "halalFriendly": false,
      "bookingUrl": "https://maps.google.com/?q=31.5648927,74.3193133",
      "source": "osm"
    },
    {
      "nom": "Lahore Hotel",
      "categorie": "Hôtel",
      "priceRange": "€€",
      "mapsUrl": "https://maps.google.com/?q=31.5700217,74.3288609",
      "lat": 31.5700217,
      "lng": 74.3288609,
      "halalFriendly": false,
      "bookingUrl": "https://maps.google.com/?q=31.5700217,74.3288609",
      "source": "osm"
    },
    {
      "nom": "Shanghala Hotel",
      "categorie": "Hôtel",
      "priceRange": "€€",
      "mapsUrl": "https://maps.google.com/?q=31.4864188,74.4113848",
      "lat": 31.4864188,
      "lng": 74.4113848,
      "halalFriendly": false,
      "bookingUrl": "https://maps.google.com/?q=31.4864188,74.4113848",
      "source": "osm"
    },
    {
      "nom": "Grand Enclave Hotel",
      "categorie": "Hôtel",
      "priceRange": "€€",
      "mapsUrl": "https://maps.google.com/?q=31.4964493,74.4187618",
      "lat": 31.4964493,
      "lng": 74.4187618,
      "halalFriendly": false,
      "bookingUrl": "https://maps.google.com/?q=31.4964493,74.4187618",
      "source": "osm"
    },
    {
      "nom": "Lotus Hotel and Cafe Zain",
      "categorie": "Hôtel",
      "priceRange": "€€",
      "mapsUrl": "https://maps.google.com/?q=31.4856899,74.305661",
      "lat": 31.4856899,
      "lng": 74.305661,
      "halalFriendly": false,
      "bookingUrl": "https://maps.google.com/?q=31.4856899,74.305661",
      "source": "osm"
    },
    {
      "nom": "saleem home",
      "categorie": "Appartement",
      "priceRange": "€€",
      "mapsUrl": "https://maps.google.com/?q=31.4906023,74.4157516",
      "lat": 31.4906023,
      "lng": 74.4157516,
      "halalFriendly": false,
      "bookingUrl": "https://maps.google.com/?q=31.4906023,74.4157516",
      "source": "osm"
    },
    {
      "nom": "Family Ties",
      "categorie": "Hôtel",
      "priceRange": "€€",
      "mapsUrl": "https://maps.google.com/?q=31.4914704,74.4165115",
      "lat": 31.4914704,
      "lng": 74.4165115,
      "halalFriendly": false,
      "bookingUrl": "https://maps.google.com/?q=31.4914704,74.4165115",
      "source": "osm"
    }
  ],
  "activites": [
    {
      "nom": "Mosquée Badshahi",
      "categorie": "Religieux & Spirituel",
      "description": "Chef-d'œuvre moghol de 1673, l'une des plus grandes mosquées",
      "duree": "1-2h",
      "prix": "Gratuit",
      "mapsUrl": "https://maps.google.com/?q=Mosqu%C3%A9e+Badshahi+Lahore",
      "tripadvisorUrl": "https://www.tripadvisor.fr/Search?q=Mosqu%C3%A9e+Badshahi+Lahore",
      "id": "a1"
    },
    {
      "nom": "Fort de Lahore (UNESCO)",
      "categorie": "Histoire & Culture",
      "description": "Citadelle moghole et palais des Miroirs",
      "duree": "2-3h",
      "prix": "€",
      "mapsUrl": "https://maps.google.com/?q=Fort+de+Lahore+%28UNESCO%29+Lahore",
      "tripadvisorUrl": "https://www.tripadvisor.fr/Search?q=Fort+de+Lahore+%28UNESCO%29+Lahore",
      "id": "a2"
    },
    {
      "nom": "Jardins de Shalimar",
      "categorie": "Nature & Aventure",
      "description": "Jardins moghols à terrasses classés UNESCO",
      "duree": "2h",
      "prix": "€",
      "mapsUrl": "https://maps.google.com/?q=Jardins+de+Shalimar+Lahore",
      "tripadvisorUrl": "https://www.tripadvisor.fr/Search?q=Jardins+de+Shalimar+Lahore",
      "id": "a3"
    },
    {
      "nom": "Wazir Khan Mosque",
      "categorie": "Religieux & Spirituel",
      "description": "Mosquée du XVIIe aux faïences éblouissantes",
      "duree": "1h",
      "prix": "Gratuit",
      "mapsUrl": "https://maps.google.com/?q=Wazir+Khan+Mosque+Lahore",
      "tripadvisorUrl": "https://www.tripadvisor.fr/Search?q=Wazir+Khan+Mosque+Lahore",
      "id": "a4",
      "lat": 31.5832004,
      "lng": 74.3239644,
      "geocoded": true
    },
    {
      "nom": "Food Street Gawalmandi",
      "categorie": "Gastronomie",
      "description": "Rue gastronomique au pied de Badshahi",
      "duree": "2h",
      "prix": "€",
      "mapsUrl": "https://maps.google.com/?q=Food+Street+Gawalmandi+Lahore",
      "tripadvisorUrl": "https://www.tripadvisor.fr/Search?q=Food+Street+Gawalmandi+Lahore",
      "id": "a5",
      "lat": 31.5721495,
      "lng": 74.3188112,
      "geocoded": true
    },
    {
      "nom": "Walled City (vieille ville)",
      "categorie": "Histoire & Culture",
      "description": "Ruelles historiques, portes et havelis",
      "duree": "3h",
      "prix": "Gratuit",
      "mapsUrl": "https://maps.google.com/?q=Walled+City+%28vieille+ville%29+Lahore",
      "tripadvisorUrl": "https://www.tripadvisor.fr/Search?q=Walled+City+%28vieille+ville%29+Lahore",
      "id": "a6"
    },
    {
      "nom": "Tombe de Jahangir",
      "categorie": "Histoire & Culture",
      "description": "Mausolée moghol aux mosaïques raffinées",
      "duree": "1-2h",
      "prix": "€",
      "mapsUrl": "https://maps.google.com/?q=Tombe+de+Jahangir+Lahore",
      "tripadvisorUrl": "https://www.tripadvisor.fr/Search?q=Tombe+de+Jahangir+Lahore",
      "id": "a7"
    },
    {
      "nom": "Marché Anarkali",
      "categorie": "Shopping & Souks",
      "description": "L'un des plus anciens bazars d'Asie du Sud",
      "duree": "2h",
      "prix": "Gratuit",
      "mapsUrl": "https://maps.google.com/?q=March%C3%A9+Anarkali+Lahore",
      "tripadvisorUrl": "https://www.tripadvisor.fr/Search?q=March%C3%A9+Anarkali+Lahore",
      "id": "a8"
    },
    {
      "nom": "Vieille ville de Lahore",
      "categorie": "Histoire & Culture",
      "description": "Flânerie dans les ruelles historiques et l'architecture locale.",
      "duree": "2h",
      "prix": "Gratuit",
      "mapsUrl": "https://maps.google.com/?q=Vieille+ville+de+Lahore+Lahore",
      "tripadvisorUrl": "https://www.tripadvisor.fr/Search?q=Vieille+ville+de+Lahore+Lahore",
      "id": "a9"
    },
    {
      "nom": "Grand souk de Lahore",
      "categorie": "Shopping & Souks",
      "description": "Marché traditionnel d'épices, textiles et artisanat.",
      "duree": "2h",
      "prix": "Gratuit",
      "mapsUrl": "https://maps.google.com/?q=Grand+souk+de+Lahore+Lahore",
      "tripadvisorUrl": "https://www.tripadvisor.fr/Search?q=Grand+souk+de+Lahore+Lahore",
      "id": "a10"
    },
    {
      "nom": "Quartier historique de Lahore",
      "categorie": "Histoire & Culture",
      "description": "Découverte du cœur ancien de la ville, architecture et ambiance locale.",
      "duree": "2h",
      "prix": "Gratuit",
      "mapsUrl": "https://maps.google.com/?q=Quartier+historique+de+Lahore+Lahore",
      "tripadvisorUrl": "https://www.tripadvisor.fr/Search?q=Quartier+historique+de+Lahore+Lahore",
      "meilleureEpoque": "Toute l'année",
      "idealPour": [
        "famille",
        "couple",
        "solo"
      ],
      "conseil": "Venez tôt le matin pour profiter du calme et éviter la foule.",
      "id": "a11"
    },
    {
      "nom": "Grand marché central de Lahore",
      "categorie": "Shopping & Souks",
      "description": "Marché traditionnel d'épices, textiles et artisanat local.",
      "duree": "2h",
      "prix": "Gratuit",
      "mapsUrl": "https://maps.google.com/?q=Grand+march%C3%A9+central+de+Lahore+Lahore",
      "tripadvisorUrl": "https://www.tripadvisor.fr/Search?q=Grand+march%C3%A9+central+de+Lahore+Lahore",
      "meilleureEpoque": "Été",
      "idealPour": [
        "famille",
        "couple",
        "solo"
      ],
      "conseil": "Venez tôt le matin pour profiter du calme et éviter la foule.",
      "id": "a12"
    },
    {
      "nom": "Promenade au bord de l'eau de Lahore",
      "categorie": "Nature & Aventure",
      "description": "Balade au coucher du soleil le long du front d'eau.",
      "duree": "1-2h",
      "prix": "Gratuit",
      "mapsUrl": "https://maps.google.com/?q=Promenade+au+bord+de+l%27eau+de+Lahore+Lahore",
      "tripadvisorUrl": "https://www.tripadvisor.fr/Search?q=Promenade+au+bord+de+l%27eau+de+Lahore+Lahore",
      "meilleureEpoque": "Printemps-Automne",
      "idealPour": [
        "famille",
        "groupe",
        "couple"
      ],
      "conseil": "Venez tôt le matin pour profiter du calme et éviter la foule.",
      "id": "a13"
    },
    {
      "nom": "Musée de la ville de Lahore",
      "categorie": "Art & Musées",
      "description": "Collections retraçant l'histoire et la culture islamique locale.",
      "duree": "2h",
      "prix": "€",
      "mapsUrl": "https://maps.google.com/?q=Mus%C3%A9e+de+la+ville+de+Lahore+Lahore",
      "tripadvisorUrl": "https://www.tripadvisor.fr/Search?q=Mus%C3%A9e+de+la+ville+de+Lahore+Lahore",
      "meilleureEpoque": "Été",
      "idealPour": [
        "famille",
        "couple",
        "solo"
      ],
      "conseil": "Venez tôt le matin pour profiter du calme et éviter la foule.",
      "id": "a14"
    },
    {
      "nom": "Food tour halal de Lahore",
      "categorie": "Gastronomie",
      "description": "Parcours des meilleures adresses de street food halal avec un guide.",
      "duree": "3h",
      "prix": "€€",
      "mapsUrl": "https://maps.google.com/?q=Food+tour+halal+de+Lahore+Lahore",
      "tripadvisorUrl": "https://www.tripadvisor.fr/Search?q=Food+tour+halal+de+Lahore+Lahore",
      "meilleureEpoque": "Printemps-Automne",
      "idealPour": [
        "famille",
        "couple",
        "solo"
      ],
      "conseil": "Venez tôt le matin pour profiter du calme et éviter la foule.",
      "id": "a15"
    },
    {
      "nom": "Hammam traditionnel de Lahore",
      "categorie": "Bien-être & Spa",
      "description": "Bain de vapeur et gommage selon la tradition orientale.",
      "duree": "2h",
      "prix": "€€",
      "mapsUrl": "https://maps.google.com/?q=Hammam+traditionnel+de+Lahore+Lahore",
      "tripadvisorUrl": "https://www.tripadvisor.fr/Search?q=Hammam+traditionnel+de+Lahore+Lahore",
      "meilleureEpoque": "Hiver",
      "idealPour": [
        "solo",
        "couple"
      ],
      "conseil": "Venez tôt le matin pour profiter du calme et éviter la foule.",
      "id": "a16"
    },
    {
      "nom": "Mosquée historique de Lahore",
      "categorie": "Religieux & Spirituel",
      "description": "Visite d'une mosquée emblématique, joyau du patrimoine local.",
      "duree": "1h",
      "prix": "Gratuit",
      "mapsUrl": "https://maps.google.com/?q=Mosqu%C3%A9e+historique+de+Lahore+Lahore",
      "tripadvisorUrl": "https://www.tripadvisor.fr/Search?q=Mosqu%C3%A9e+historique+de+Lahore+Lahore",
      "meilleureEpoque": "Hiver",
      "idealPour": [
        "famille",
        "solo",
        "couple"
      ],
      "conseil": "Venez tôt le matin pour profiter du calme et éviter la foule.",
      "id": "a17"
    },
    {
      "nom": "Parc et jardins de Lahore",
      "categorie": "Nature & Aventure",
      "description": "Espace vert paisible idéal pour les familles.",
      "duree": "1-2h",
      "prix": "Gratuit",
      "mapsUrl": "https://maps.google.com/?q=Parc+et+jardins+de+Lahore+Lahore",
      "tripadvisorUrl": "https://www.tripadvisor.fr/Search?q=Parc+et+jardins+de+Lahore+Lahore",
      "meilleureEpoque": "Été",
      "idealPour": [
        "famille",
        "groupe",
        "couple"
      ],
      "conseil": "Venez tôt le matin pour profiter du calme et éviter la foule.",
      "id": "a18"
    },
    {
      "nom": "Centre commercial halal-friendly de Lahore",
      "categorie": "Shopping & Souks",
      "description": "Grand mall avec salle de prière et food court halal.",
      "duree": "2h",
      "prix": "Gratuit",
      "mapsUrl": "https://maps.google.com/?q=Centre+commercial+halal-friendly+de+Lahore+Lahore",
      "tripadvisorUrl": "https://www.tripadvisor.fr/Search?q=Centre+commercial+halal-friendly+de+Lahore+Lahore",
      "meilleureEpoque": "Toute l'année",
      "idealPour": [
        "famille",
        "couple",
        "solo"
      ],
      "conseil": "Venez tôt le matin pour profiter du calme et éviter la foule.",
      "id": "a19"
    },
    {
      "nom": "Atelier d'artisanat local de Lahore",
      "categorie": "Art & Musées",
      "description": "Découverte des savoir-faire traditionnels de la région.",
      "duree": "2h",
      "prix": "€",
      "mapsUrl": "https://maps.google.com/?q=Atelier+d%27artisanat+local+de+Lahore+Lahore",
      "tripadvisorUrl": "https://www.tripadvisor.fr/Search?q=Atelier+d%27artisanat+local+de+Lahore+Lahore",
      "meilleureEpoque": "Été",
      "idealPour": [
        "famille",
        "couple",
        "solo"
      ],
      "conseil": "Venez tôt le matin pour profiter du calme et éviter la foule.",
      "id": "a20"
    }
  ],
  "mosqueesPrincipales": [
    {
      "nom": "Mosquée Badshahi",
      "description": "Mosquée impériale moghole de 1673, capacité 100000 fidèles",
      "adresse": "Vieille ville",
      "mapsUrl": "https://maps.google.com/?q=Mosqu%C3%A9e+Badshahi+Lahore",
      "capacite": 8248,
      "anneeConstruction": 1888,
      "styleArchitectural": "Moghol",
      "ouvertureVisiteurs": true,
      "horaires": "05h00 - 22h00",
      "coordonnees": {
        "lat": 31.5204,
        "lng": 74.3587
      }
    },
    {
      "nom": "Mosquée Wazir Khan",
      "description": "Joyau de 1634 aux faïences kashi",
      "adresse": "Chowk Wazir Khan",
      "mapsUrl": "https://maps.google.com/?q=Mosqu%C3%A9e+Wazir+Khan+Lahore",
      "capacite": 6539,
      "anneeConstruction": 1909,
      "styleArchitectural": "Moghol",
      "ouvertureVisiteurs": true,
      "horaires": "05h00 - 22h00",
      "coordonnees": {
        "lat": 31.5204,
        "lng": 74.3587
      }
    },
    {
      "nom": "Mosquée centrale de Lahore",
      "description": "Mosquée fréquentée de Lahore, accueillant les fidèles pour les cinq prières quotidiennes.",
      "adresse": "Lahore",
      "mapsUrl": "https://maps.google.com/?q=Mosqu%C3%A9e+centrale+de+Lahore+Lahore",
      "capacite": 2674,
      "anneeConstruction": 2014,
      "styleArchitectural": "Moghol",
      "ouvertureVisiteurs": true,
      "horaires": "05h00 - 22h00",
      "coordonnees": {
        "lat": 31.5204,
        "lng": 74.3587
      }
    },
    {
      "nom": "Grande Mosquée de Lahore",
      "description": "Mosquée fréquentée de Lahore, accueillant les fidèles pour les cinq prières quotidiennes.",
      "adresse": "Lahore",
      "mapsUrl": "https://maps.google.com/?q=Grande+Mosqu%C3%A9e+de+Lahore+Lahore",
      "capacite": 951,
      "anneeConstruction": 1991,
      "styleArchitectural": "Moghol",
      "ouvertureVisiteurs": true,
      "horaires": "05h00 - 22h00",
      "coordonnees": {
        "lat": 31.5204,
        "lng": 74.3587
      }
    },
    {
      "nom": "Mosquée Al-Noor de Lahore",
      "description": "Mosquée fréquentée de Lahore, accueillant les fidèles pour les cinq prières quotidiennes.",
      "adresse": "Lahore",
      "mapsUrl": "https://maps.google.com/?q=Mosqu%C3%A9e+Al-Noor+de+Lahore+Lahore",
      "capacite": 3240,
      "anneeConstruction": 1880,
      "styleArchitectural": "Moghol",
      "ouvertureVisiteurs": true,
      "horaires": "05h00 - 22h00",
      "coordonnees": {
        "lat": 31.5204,
        "lng": 74.3587
      }
    },
    {
      "nom": "Mosquée Al-Salam de Lahore",
      "description": "Mosquée fréquentée de Lahore, accueillant les fidèles pour les cinq prières quotidiennes.",
      "adresse": "Lahore",
      "mapsUrl": "https://maps.google.com/?q=Mosqu%C3%A9e+Al-Salam+de+Lahore+Lahore",
      "capacite": 1468,
      "anneeConstruction": 1948,
      "styleArchitectural": "Moghol",
      "ouvertureVisiteurs": true,
      "horaires": "05h00 - 22h00",
      "coordonnees": {
        "lat": 31.5204,
        "lng": 74.3587
      }
    },
    {
      "nom": "Mosquée Al-Rahma de Lahore",
      "description": "Mosquée fréquentée de Lahore, accueillant les fidèles pour les cinq prières quotidiennes.",
      "adresse": "Lahore",
      "mapsUrl": "https://maps.google.com/?q=Mosqu%C3%A9e+Al-Rahma+de+Lahore+Lahore",
      "capacite": 2762,
      "anneeConstruction": 1902,
      "styleArchitectural": "Moghol",
      "ouvertureVisiteurs": true,
      "horaires": "05h00 - 22h00",
      "coordonnees": {
        "lat": 31.5204,
        "lng": 74.3587
      }
    }
  ],
  "tags": [
    "moghol",
    "unesco",
    "gastronomie",
    "histoire",
    "spirituel",
    "culture"
  ],
  "selectionsPremium": {
    "mieuxNotes": [
      "Shahi Darbar",
      "Tikka Express",
      "Sabzi Healthy Lahore 17",
      "Lahori Karahi",
      "Shahi Darbar Lahore 10"
    ],
    "meilleurRapportQualitePrix": [
      "Andaaz Restaurant",
      "Cooco's Den",
      "Butt Karahi",
      "Haveli Restaurant",
      "Phajja Siri Paye"
    ],
    "incontournables": [
      "Tikka Express Lahore 18",
      "Sabzi Healthy Lahore 17",
      "Shahi Darbar",
      "Bismillah Hotel",
      "Mughal Mahal Lahore 13"
    ],
    "pepitesCachees": [
      "Andaaz Restaurant",
      "Cooco's Den",
      "Butt Karahi"
    ],
    "idealFamille": [
      "Shahi Darbar",
      "Lahori Karahi",
      "Bismillah Hotel",
      "Al-Madina Sweets",
      "Bahar Seafood"
    ],
    "gastronomique": [
      "Andaaz Restaurant",
      "Cooco's Den",
      "Haveli Restaurant",
      "Saffron Garden Lahore",
      "Mughal Mahal"
    ],
    "ouvertNuit": [
      "Lahori Karahi",
      "Bismillah Hotel",
      "Al-Madina Sweets"
    ],
    "vueExceptionnelle": [
      "Bahar Seafood",
      "Bahar Seafood Lahore 15"
    ]
  },
  "description_en": "Lahore, in Pakistan, is a halal-friendly destination with a Halal Trust Score of 4.5/5. Muslim travelers will find 750 halal restaurants, 3,000 mosques, real-time prayer times and the Qibla direction — a complete guide to travel with peace of mind.",
  "metaDescription_en": "Halal guide to Lahore: 750+ halal restaurants, 3,000 mosques, prayer times and tips for Muslim travelers. Halal Trust Score 4.5/5.",
  "nom_en": "Lahore"
}