{
 "slug": "lisbonne",
 "nom": "Lisbonne",
 "pays": "Portugal",
 "pays_slug": "portugal",
 "continent": "Europe",
 "region": "Europe du Sud",
 "coordonnees": {
  "lat": 38.7223,
  "lng": -9.1393
 },
 "codeISO": "",
 "score_halal": 4.3,
 "halalScore": 8.6,
 "description": "Capitale portugaise aux racines mauresques, Lisbonne charme par son quartier d'Alfama (ancienne médina) et sa Mosquée Centrale.",
 "image": "https://upload.wikimedia.org/wikipedia/commons/7/79/Lisbonne_%28Portugal%29_%285493354099%29.jpg",
 "image_hero": "https://upload.wikimedia.org/wikipedia/commons/7/79/Lisbonne_%28Portugal%29_%285493354099%29.jpg",
 "metaDescription": "Capitale portugaise aux racines mauresques, Lisbonne charme par son quartier d'Alfama (ancienne médina) et sa Mosquée Centrale.",
 "statistiques": {
  "restaurants_halal": 60,
  "mosquees": 1,
  "hotels": 30
 },
 "infoPratique": {
  "transport": "Accessible par avion / transports locaux.",
  "meilleureEpoque": "Printemps et automne."
 },
 "tags": [
  "halal"
 ],
 "restaurants": [
  {
   "nom": "Tasty Hut Halal food",
   "type": "indian, pakistani",
   "priceRange": "€€",
   "mapsUrl": "https://maps.google.com/?q=38.7187804,-9.1350633",
   "lat": 38.7187804,
   "lng": -9.1350633,
   "halalConfidence": "yes",
   "source": "osm"
  },
  {
   "nom": "Olá Népal",
   "type": "indian, nepalese",
   "priceRange": "€€",
   "mapsUrl": "https://maps.google.com/?q=38.7254322,-9.1459256",
   "lat": 38.7254322,
   "lng": -9.1459256,
   "halalConfidence": "yes",
   "source": "osm"
  },
  {
   "nom": "Café Ni'lin",
   "type": "palestinian",
   "priceRange": "€€",
   "mapsUrl": "https://maps.google.com/?q=38.7185001,-9.1322987",
   "lat": 38.7185001,
   "lng": -9.1322987,
   "halalConfidence": "yes",
   "source": "osm"
  },
  {
   "nom": "Zaafran",
   "type": "indian",
   "priceRange": "€€",
   "mapsUrl": "https://maps.google.com/?q=38.7318172,-9.1411663",
   "lat": 38.7318172,
   "lng": -9.1411663,
   "halalConfidence": "yes",
   "source": "osm"
  },
  {
   "nom": "Dawat Indian & Grill Restaurant",
   "type": "indian, nepalese, asian",
   "priceRange": "€€",
   "mapsUrl": "https://maps.google.com/?q=38.7324841,-9.1323454",
   "lat": 38.7324841,
   "lng": -9.1323454,
   "halalConfidence": "yes",
   "source": "osm"
  },
  {
   "nom": "Ola Nepal House",
   "type": "indian, nepalese",
   "priceRange": "€€",
   "mapsUrl": "https://maps.google.com/?q=38.735119,-9.1342042",
   "lat": 38.735119,
   "lng": -9.1342042,
   "halalConfidence": "yes",
   "source": "osm"
  },
  {
   "nom": "Mezze",
   "type": "syrian, lebanese",
   "priceRange": "€€",
   "mapsUrl": "https://maps.google.com/?q=38.7349501,-9.1326583",
   "lat": 38.7349501,
   "lng": -9.1326583,
   "halalConfidence": "yes",
   "source": "osm"
  },
  {
   "nom": "Sala de Refeiçoês da Mesquita",
   "type": "indian, portuguese",
   "priceRange": "€€",
   "mapsUrl": "https://maps.google.com/?q=38.7355843,-9.1581383",
   "lat": 38.7355843,
   "lng": -9.1581383,
   "halalConfidence": "only",
   "source": "osm"
  },
  {
   "nom": "Sunbird Cafe",
   "type": "Restaurant halal",
   "priceRange": "€€",
   "mapsUrl": "https://maps.google.com/?q=38.7202789,-9.1650513",
   "lat": 38.7202789,
   "lng": -9.1650513,
   "halalConfidence": "yes",
   "source": "osm"
  },
  {
   "nom": "Zahir Kebab",
   "type": "kebab, dessert, salad, coffee shop",
   "priceRange": "€€",
   "mapsUrl": "https://maps.google.com/?q=38.7426659,-9.1381269",
   "lat": 38.7426659,
   "lng": -9.1381269,
   "halalConfidence": "yes",
   "source": "osm"
  },
  {
   "nom": "1001 Nights",
   "type": "persian",
   "priceRange": "€€",
   "mapsUrl": "https://maps.google.com/?q=38.7451033,-9.1405396",
   "lat": 38.7451033,
   "lng": -9.1405396,
   "halalConfidence": "yes",
   "source": "osm"
  },
  {
   "nom": "Café Anatolia",
   "type": "portuguese, middle eastern",
   "priceRange": "€€",
   "mapsUrl": "https://maps.google.com/?q=38.7042365,-9.1760088",
   "lat": 38.7042365,
   "lng": -9.1760088,
   "halalConfidence": "yes",
   "source": "osm"
  },
  {
   "nom": "DOM KEBAB GRILL",
   "type": "international, kebab, grill, pizza, hamburger, salad",
   "priceRange": "€€",
   "mapsUrl": "https://maps.google.com/?q=38.7772593,-9.094501",
   "lat": 38.7772593,
   "lng": -9.094501,
   "halalConfidence": "yes",
   "source": "osm"
  },
  {
   "nom": "Tikka Boti Halal Restaurant",
   "type": "indian",
   "priceRange": "€€",
   "mapsUrl": "https://maps.google.com/?q=38.7878833,-9.176919",
   "lat": 38.7878833,
   "lng": -9.176919,
   "halalConfidence": "yes",
   "source": "osm"
  },
  {
   "nom": "Zahir Kebab",
   "type": "kebab",
   "priceRange": "€€",
   "mapsUrl": "https://maps.google.com/?q=38.7224268,-9.1391496",
   "lat": 38.7224268,
   "lng": -9.1391496,
   "halalConfidence": "likely",
   "source": "osm"
  },
  {
   "nom": "Sajna",
   "type": "ethiopian, lebanese",
   "priceRange": "€€",
   "mapsUrl": "https://maps.google.com/?q=38.7245085,-9.1360892",
   "lat": 38.7245085,
   "lng": -9.1360892,
   "halalConfidence": "likely",
   "source": "osm"
  },
  {
   "nom": "Jahan Kebab-Pizza",
   "type": "pizza, kebab",
   "priceRange": "€€",
   "mapsUrl": "https://maps.google.com/?q=38.7189219,-9.1368296",
   "lat": 38.7189219,
   "lng": -9.1368296,
   "halalConfidence": "likely",
   "source": "osm"
  },
  {
   "nom": "Kebabish",
   "type": "kebab",
   "priceRange": "€€",
   "mapsUrl": "https://maps.google.com/?q=38.7193708,-9.1353657",
   "lat": 38.7193708,
   "lng": -9.1353657,
   "halalConfidence": "likely",
   "source": "osm"
  },
  {
   "nom": "Tuz Good Food",
   "type": "falafel, kebab",
   "priceRange": "€€",
   "mapsUrl": "https://maps.google.com/?q=38.7249483,-9.1348157",
   "lat": 38.7249483,
   "lng": -9.1348157,
   "halalConfidence": "likely",
   "source": "osm"
  },
  {
   "nom": "Turkish Kebab House",
   "type": "kebab",
   "priceRange": "€€",
   "mapsUrl": "https://maps.google.com/?q=38.7250446,-9.1348472",
   "lat": 38.7250446,
   "lng": -9.1348472,
   "halalConfidence": "likely",
   "source": "osm"
  },
  {
   "nom": "Istanbul Kebab",
   "type": "kebab",
   "priceRange": "€€",
   "mapsUrl": "https://maps.google.com/?q=38.7189117,-9.143079",
   "lat": 38.7189117,
   "lng": -9.143079,
   "halalConfidence": "likely",
   "source": "osm"
  },
  {
   "nom": "Al Baik Kebab",
   "type": "kebab",
   "priceRange": "€€",
   "mapsUrl": "https://maps.google.com/?q=38.7181257,-9.1360017",
   "lat": 38.7181257,
   "lng": -9.1360017,
   "halalConfidence": "likely",
   "source": "osm"
  },
  {
   "nom": "Kumar",
   "type": "kebab, pizza",
   "priceRange": "€€",
   "mapsUrl": "https://maps.google.com/?q=38.7269875,-9.1366741",
   "lat": 38.7269875,
   "lng": -9.1366741,
   "halalConfidence": "likely",
   "source": "osm"
  },
  {
   "nom": "Fenícios",
   "type": "lebanese",
   "priceRange": "€€",
   "mapsUrl": "https://maps.google.com/?q=38.7249987,-9.1459329",
   "lat": 38.7249987,
   "lng": -9.1459329,
   "halalConfidence": "likely",
   "source": "osm"
  },
  {
   "nom": "Kebabish",
   "type": "kebab",
   "priceRange": "€€",
   "mapsUrl": "https://maps.google.com/?q=38.7254353,-9.1462481",
   "lat": 38.7254353,
   "lng": -9.1462481,
   "halalConfidence": "likely",
   "source": "osm"
  },
  {
   "nom": "Casa dos Cedros",
   "type": "lebanese",
   "priceRange": "€€",
   "mapsUrl": "https://maps.google.com/?q=38.7290239,-9.1437424",
   "lat": 38.7290239,
   "lng": -9.1437424,
   "halalConfidence": "likely",
   "source": "osm"
  },
  {
   "nom": "Sumaya",
   "type": "lebanese",
   "priceRange": "€€",
   "mapsUrl": "https://maps.google.com/?q=38.7173899,-9.1499381",
   "lat": 38.7173899,
   "lng": -9.1499381,
   "halalConfidence": "likely",
   "source": "osm"
  },
  {
   "nom": "Zaataria Lebanese Eats",
   "type": "lebanese",
   "priceRange": "€€",
   "mapsUrl": "https://maps.google.com/?q=38.7318591,-9.1413254",
   "lat": 38.7318591,
   "lng": -9.1413254,
   "halalConfidence": "likely",
   "source": "osm"
  },
  {
   "nom": "LKS Lisboa Kebab Station",
   "type": "kebab",
   "priceRange": "€€",
   "mapsUrl": "https://maps.google.com/?q=38.7131226,-9.1451161",
   "lat": 38.7131226,
   "lng": -9.1451161,
   "halalConfidence": "likely",
   "source": "osm"
  },
  {
   "nom": "Castle Kebab",
   "type": "kebab",
   "priceRange": "€€",
   "mapsUrl": "https://maps.google.com/?q=38.7144644,-9.1307421",
   "lat": 38.7144644,
   "lng": -9.1307421,
   "halalConfidence": "likely",
   "source": "osm"
  },
  {
   "nom": "La Kebaberie (closed)",
   "type": "kebab",
   "priceRange": "€€",
   "mapsUrl": "https://maps.google.com/?q=38.7323839,-9.142182",
   "lat": 38.7323839,
   "lng": -9.142182,
   "halalConfidence": "likely",
   "source": "osm"
  },
  {
   "nom": "Khayyam",
   "type": "persian",
   "priceRange": "€€",
   "mapsUrl": "https://maps.google.com/?q=38.7151466,-9.1493363",
   "lat": 38.7151466,
   "lng": -9.1493363,
   "halalConfidence": "likely",
   "source": "osm"
  },
  {
   "nom": "Hunger Station",
   "type": "pizza, burger, kebab",
   "priceRange": "€€",
   "mapsUrl": "https://maps.google.com/?q=38.7126296,-9.1449586",
   "lat": 38.7126296,
   "lng": -9.1449586,
   "halalConfidence": "likely",
   "source": "osm"
  },
  {
   "nom": "Döner Bar",
   "type": "kebab, noodle",
   "priceRange": "€€",
   "mapsUrl": "https://maps.google.com/?q=38.7326599,-9.1341145",
   "lat": 38.7326599,
   "lng": -9.1341145,
   "halalConfidence": "likely",
   "source": "osm"
  },
  {
   "nom": "Kebab House",
   "type": "kebab",
   "priceRange": "€€",
   "mapsUrl": "https://maps.google.com/?q=38.7334102,-9.1349514",
   "lat": 38.7334102,
   "lng": -9.1349514,
   "halalConfidence": "likely",
   "source": "osm"
  },
  {
   "nom": "Original Kebab",
   "type": "kebab",
   "priceRange": "€€",
   "mapsUrl": "https://maps.google.com/?q=38.7330331,-9.1450664",
   "lat": 38.7330331,
   "lng": -9.1450664,
   "halalConfidence": "likely",
   "source": "osm"
  },
  {
   "nom": "Atlantic Kebab",
   "type": "kebab",
   "priceRange": "€€",
   "mapsUrl": "https://maps.google.com/?q=38.7112023,-9.1441927",
   "lat": 38.7112023,
   "lng": -9.1441927,
   "halalConfidence": "likely",
   "source": "osm"
  },
  {
   "nom": "Pali Baba Kebab and Pizza House",
   "type": "kebab, pizza",
   "priceRange": "€€",
   "mapsUrl": "https://maps.google.com/?q=38.7332779,-9.133174",
   "lat": 38.7332779,
   "lng": -9.133174,
   "halalConfidence": "likely",
   "source": "osm"
  },
  {
   "nom": "Lebabese corner",
   "type": "lebanese",
   "priceRange": "€€",
   "mapsUrl": "https://maps.google.com/?q=38.7204701,-9.1545232",
   "lat": 38.7204701,
   "lng": -9.1545232,
   "halalConfidence": "likely",
   "source": "osm"
  },
  {
   "nom": "Cafeh Tehran",
   "type": "persian",
   "priceRange": "€€",
   "mapsUrl": "https://maps.google.com/?q=38.7151652,-9.1519342",
   "lat": 38.7151652,
   "lng": -9.1519342,
   "halalConfidence": "likely",
   "source": "osm"
  },
  {
   "nom": "Ali Baba",
   "type": "kebab",
   "priceRange": "€€",
   "mapsUrl": "https://maps.google.com/?q=38.7325883,-9.1305003",
   "lat": 38.7325883,
   "lng": -9.1305003,
   "halalConfidence": "likely",
   "source": "osm"
  },
  {
   "nom": "Zahir",
   "type": "kebab",
   "priceRange": "€€",
   "mapsUrl": "https://maps.google.com/?q=38.7323726,-9.1296377",
   "lat": 38.7323726,
   "lng": -9.1296377,
   "halalConfidence": "likely",
   "source": "osm"
  },
  {
   "nom": "Citron",
   "type": "lebanese",
   "priceRange": "€€",
   "mapsUrl": "https://maps.google.com/?q=38.7096823,-9.1344338",
   "lat": 38.7096823,
   "lng": -9.1344338,
   "halalConfidence": "likely",
   "source": "osm"
  },
  {
   "nom": "Zaytouna",
   "type": "arab",
   "priceRange": "€€",
   "mapsUrl": "https://maps.google.com/?q=38.7352281,-9.1322798",
   "lat": 38.7352281,
   "lng": -9.1322798,
   "halalConfidence": "likely",
   "source": "osm"
  },
  {
   "nom": "Alfama Kebabish",
   "type": "turkish",
   "priceRange": "€€",
   "mapsUrl": "https://maps.google.com/?q=38.7122828,-9.1257311",
   "lat": 38.7122828,
   "lng": -9.1257311,
   "halalConfidence": "likely",
   "source": "osm"
  },
  {
   "nom": "Halal Kumar Kebab House",
   "type": "kebab",
   "priceRange": "€€",
   "mapsUrl": "https://maps.google.com/?q=38.7135573,-9.1240528",
   "lat": 38.7135573,
   "lng": -9.1240528,
   "halalConfidence": "likely",
   "source": "osm"
  },
  {
   "nom": "Alameda Kebab e Pizzaria",
   "type": "kebab, noodle, pizza",
   "priceRange": "€€",
   "mapsUrl": "https://maps.google.com/?q=38.7364403,-9.1322862",
   "lat": 38.7364403,
   "lng": -9.1322862,
   "halalConfidence": "likely",
   "source": "osm"
  },
  {
   "nom": "Bairrices",
   "type": "lebanese",
   "priceRange": "€€",
   "mapsUrl": "https://maps.google.com/?q=38.707817,-9.1462223",
   "lat": 38.707817,
   "lng": -9.1462223,
   "halalConfidence": "likely",
   "source": "osm"
  },
  {
   "nom": "Mankooche",
   "type": "lebanese",
   "priceRange": "€€",
   "mapsUrl": "https://maps.google.com/?q=38.7078767,-9.1464612",
   "lat": 38.7078767,
   "lng": -9.1464612,
   "halalConfidence": "likely",
   "source": "osm"
  },
  {
   "nom": "Ali Baba",
   "type": "kebab",
   "priceRange": "€€",
   "mapsUrl": "https://maps.google.com/?q=38.7069297,-9.1422477",
   "lat": 38.7069297,
   "lng": -9.1422477,
   "halalConfidence": "likely",
   "source": "osm"
  },
  {
   "nom": "Taza Sandwiches",
   "type": "sandwich, lebanese",
   "priceRange": "€€",
   "mapsUrl": "https://maps.google.com/?q=38.707941,-9.146922",
   "lat": 38.707941,
   "lng": -9.146922,
   "halalConfidence": "likely",
   "source": "osm"
  },
  {
   "nom": "Hunger Station",
   "type": "kebab, pizza, burger",
   "priceRange": "€€",
   "mapsUrl": "https://maps.google.com/?q=38.7070109,-9.1441694",
   "lat": 38.7070109,
   "lng": -9.1441694,
   "halalConfidence": "likely",
   "source": "osm"
  },
  {
   "nom": "Sabores de Freire",
   "type": "burger, coffee shop, kebab",
   "priceRange": "€€",
   "mapsUrl": "https://maps.google.com/?q=38.7271145,-9.1199921",
   "lat": 38.7271145,
   "lng": -9.1199921,
   "halalConfidence": "likely",
   "source": "osm"
  },
  {
   "nom": "Palácio do Kebab",
   "type": "kebab",
   "priceRange": "€€",
   "mapsUrl": "https://maps.google.com/?q=38.7076511,-9.1477428",
   "lat": 38.7076511,
   "lng": -9.1477428,
   "halalConfidence": "likely",
   "source": "osm"
  },
  {
   "nom": "Zahir Kebab",
   "type": "kebab",
   "priceRange": "€€",
   "mapsUrl": "https://maps.google.com/?q=38.7371345,-9.1496984",
   "lat": 38.7371345,
   "lng": -9.1496984,
   "halalConfidence": "likely",
   "source": "osm"
  },
  {
   "nom": "I Love Kebab",
   "type": "kebab",
   "priceRange": "€€",
   "mapsUrl": "https://maps.google.com/?q=38.737245,-9.1509907",
   "lat": 38.737245,
   "lng": -9.1509907,
   "halalConfidence": "likely",
   "source": "osm"
  },
  {
   "nom": "Zam Zam Kebab",
   "type": "kebab",
   "priceRange": "€€",
   "mapsUrl": "https://maps.google.com/?q=38.7413209,-9.133592",
   "lat": 38.7413209,
   "lng": -9.133592,
   "halalConfidence": "likely",
   "source": "osm"
  },
  {
   "nom": "Liton's Turkish Grill",
   "type": "turkish",
   "priceRange": "€€",
   "mapsUrl": "https://maps.google.com/?q=38.7424326,-9.1343137",
   "lat": 38.7424326,
   "lng": -9.1343137,
   "halalConfidence": "likely",
   "source": "osm"
  },
  {
   "nom": "Derviche - Restaurante Turco",
   "type": "turkish",
   "priceRange": "€€",
   "mapsUrl": "https://maps.google.com/?q=38.7049619,-9.1595518",
   "lat": 38.7049619,
   "lng": -9.1595518,
   "halalConfidence": "likely",
   "source": "osm"
  },
  {
   "nom": "Liton's Turkish Grill",
   "type": "turkish",
   "priceRange": "€€",
   "mapsUrl": "https://maps.google.com/?q=38.7460602,-9.1411074",
   "lat": 38.7460602,
   "lng": -9.1411074,
   "halalConfidence": "likely",
   "source": "osm"
  }
 ],
 "hotels": [
  {
   "nom": "Thirtyhome",
   "categorie": "Maison d'hôtes",
   "priceRange": "€€",
   "mapsUrl": "https://maps.google.com/?q=38.7227483,-9.1383144",
   "lat": 38.7227483,
   "lng": -9.1383144,
   "halalFriendly": false,
   "bookingUrl": "https://maps.google.com/?q=38.7227483,-9.1383144",
   "source": "osm"
  },
  {
   "nom": "Lisboa Garden Hostel",
   "categorie": "Hôtel",
   "priceRange": "€€",
   "mapsUrl": "https://maps.google.com/?q=38.7207659,-9.1392906",
   "lat": 38.7207659,
   "lng": -9.1392906,
   "halalFriendly": false,
   "bookingUrl": "https://maps.google.com/?q=38.7207659,-9.1392906",
   "source": "osm"
  },
  {
   "nom": "We Hate F Tourists",
   "categorie": "Auberge",
   "priceRange": "€€",
   "mapsUrl": "https://maps.google.com/?q=38.7222238,-9.1365896",
   "lat": 38.7222238,
   "lng": -9.1365896,
   "halalFriendly": false,
   "bookingUrl": "https://www.wehateftourists.com/",
   "source": "osm"
  },
  {
   "nom": "Casa do Conde",
   "categorie": "Maison d'hôtes",
   "priceRange": "€€",
   "mapsUrl": "https://maps.google.com/?q=38.7232937,-9.1366327",
   "lat": 38.7232937,
   "lng": -9.1366327,
   "halalFriendly": false,
   "bookingUrl": "https://maps.google.com/?q=38.7232937,-9.1366327",
   "source": "osm"
  },
  {
   "nom": "Hostel 15",
   "categorie": "Auberge",
   "priceRange": "€€",
   "mapsUrl": "https://maps.google.com/?q=38.7216473,-9.1355653",
   "lat": 38.7216473,
   "lng": -9.1355653,
   "halalFriendly": false,
   "bookingUrl": "https://maps.google.com/?q=38.7216473,-9.1355653",
   "source": "osm"
  },
  {
   "nom": "Pouso dos Anjos",
   "categorie": "Hôtel",
   "priceRange": "€€",
   "mapsUrl": "https://maps.google.com/?q=38.7236765,-9.1358861",
   "lat": 38.7236765,
   "lng": -9.1358861,
   "halalFriendly": false,
   "bookingUrl": "https://pousodosanjos.com/frames/anjos/photos-en.html",
   "source": "osm"
  },
  {
   "nom": "Be Lisbon",
   "categorie": "Auberge",
   "priceRange": "€€",
   "mapsUrl": "https://maps.google.com/?q=38.7214416,-9.1352454",
   "lat": 38.7214416,
   "lng": -9.1352454,
   "halalFriendly": false,
   "bookingUrl": "https://maps.google.com/?q=38.7214416,-9.1352454",
   "source": "osm"
  },
  {
   "nom": "WC Beautique Hotel Collection",
   "categorie": "Hôtel",
   "priceRange": "€€",
   "mapsUrl": "https://maps.google.com/?q=38.7235887,-9.1353451",
   "lat": 38.7235887,
   "lng": -9.1353451,
   "halalFriendly": false,
   "bookingUrl": "https://www.thebeautiquehotels.com/en/wc/",
   "source": "osm"
  },
  {
   "nom": "Portugal Ways Culture Guest House",
   "categorie": "Auberge",
   "priceRange": "€€",
   "mapsUrl": "https://maps.google.com/?q=38.7210477,-9.1352475",
   "lat": 38.7210477,
   "lng": -9.1352475,
   "halalFriendly": false,
   "bookingUrl": "https://www.portugalways.com/",
   "source": "osm"
  },
  {
   "nom": "Lisbon Chillout Hostel",
   "categorie": "Auberge",
   "priceRange": "€€",
   "mapsUrl": "https://maps.google.com/?q=38.7236092,-9.1433577",
   "lat": 38.7236092,
   "lng": -9.1433577,
   "halalFriendly": false,
   "bookingUrl": "https://maps.google.com/?q=38.7236092,-9.1433577",
   "source": "osm"
  },
  {
   "nom": "Next Hostel",
   "categorie": "Auberge",
   "priceRange": "€€",
   "mapsUrl": "https://maps.google.com/?q=38.7208117,-9.1353205",
   "lat": 38.7208117,
   "lng": -9.1353205,
   "halalFriendly": false,
   "bookingUrl": "https://maps.google.com/?q=38.7208117,-9.1353205",
   "source": "osm"
  },
  {
   "nom": "Estrela dos Anjos",
   "categorie": "Hôtel",
   "priceRange": "€€",
   "mapsUrl": "https://maps.google.com/?q=38.724763,-9.1360083",
   "lat": 38.724763,
   "lng": -9.1360083,
   "halalFriendly": false,
   "bookingUrl": "https://maps.google.com/?q=38.724763,-9.1360083",
   "source": "osm"
  },
  {
   "nom": "Upon Angels",
   "categorie": "Hôtel",
   "priceRange": "€€",
   "mapsUrl": "https://maps.google.com/?q=38.7217928,-9.134668",
   "lat": 38.7217928,
   "lng": -9.134668,
   "halalFriendly": false,
   "bookingUrl": "https://stayupon.com",
   "source": "osm"
  },
  {
   "nom": "Coutinho Apt",
   "categorie": "Maison d'hôtes",
   "priceRange": "€€",
   "mapsUrl": "https://maps.google.com/?q=38.7246939,-9.1353023",
   "lat": 38.7246939,
   "lng": -9.1353023,
   "halalFriendly": false,
   "bookingUrl": "https://maps.google.com/?q=38.7246939,-9.1353023",
   "source": "osm"
  },
  {
   "nom": "Lisbon City Hotel",
   "categorie": "Hôtel",
   "priceRange": "€€€",
   "score": 3,
   "mapsUrl": "https://maps.google.com/?q=38.7247381,-9.1353104",
   "lat": 38.7247381,
   "lng": -9.1353104,
   "halalFriendly": false,
   "bookingUrl": "http://www.lisboncityhotel.com/",
   "source": "osm"
  },
  {
   "nom": "Intendente 1865",
   "categorie": "Maison d'hôtes",
   "priceRange": "€€",
   "mapsUrl": "https://maps.google.com/?q=38.7213584,-9.1342724",
   "lat": 38.7213584,
   "lng": -9.1342724,
   "halalFriendly": false,
   "bookingUrl": "http://intendente1865.pt",
   "source": "osm"
  },
  {
   "nom": "Palácio de São João",
   "categorie": "Hôtel",
   "priceRange": "€€",
   "mapsUrl": "https://maps.google.com/?q=38.7224134,-9.14469",
   "lat": 38.7224134,
   "lng": -9.14469,
   "halalFriendly": false,
   "bookingUrl": "https://maps.google.com/?q=38.7224134,-9.14469",
   "source": "osm"
  },
  {
   "nom": "Airbnb",
   "categorie": "Maison d'hôtes",
   "priceRange": "€€",
   "mapsUrl": "https://maps.google.com/?q=38.7198736,-9.1437228",
   "lat": 38.7198736,
   "lng": -9.1437228,
   "halalFriendly": false,
   "bookingUrl": "https://maps.google.com/?q=38.7198736,-9.1437228",
   "source": "osm"
  },
  {
   "nom": "Stay Hotel Lisboa",
   "categorie": "Hôtel",
   "priceRange": "€€",
   "score": 2,
   "mapsUrl": "https://maps.google.com/?q=38.7263295,-9.1409422",
   "lat": 38.7263295,
   "lng": -9.1409422,
   "halalFriendly": false,
   "bookingUrl": "https://www.princesahotel.pt/",
   "source": "osm"
  },
  {
   "nom": "Lisbon Style Guesthouse",
   "categorie": "Maison d'hôtes",
   "priceRange": "€€",
   "mapsUrl": "https://maps.google.com/?q=38.7251428,-9.1352772",
   "lat": 38.7251428,
   "lng": -9.1352772,
   "halalFriendly": false,
   "bookingUrl": "https://maps.google.com/?q=38.7251428,-9.1352772",
   "source": "osm"
  },
  {
   "nom": "Lisbon Serviced Apartments - Benformoso",
   "categorie": "Appartement",
   "priceRange": "€€",
   "mapsUrl": "https://maps.google.com/?q=38.7196237,-9.1350896",
   "lat": 38.7196237,
   "lng": -9.1350896,
   "halalFriendly": false,
   "bookingUrl": "https://lisbonservicedapartments.com/apartments/benformoso/",
   "source": "osm"
  },
  {
   "nom": "Fenicius Charme Hotel",
   "categorie": "Hôtel",
   "priceRange": "€€€",
   "score": 3,
   "mapsUrl": "https://maps.google.com/?q=38.7224568,-9.1338711",
   "lat": 38.7224568,
   "lng": -9.1338711,
   "halalFriendly": false,
   "bookingUrl": "https://www.hotelfenicius.pt/",
   "source": "osm"
  },
  {
   "nom": "Residencial Aleluia",
   "categorie": "Maison d'hôtes",
   "priceRange": "€€",
   "mapsUrl": "https://maps.google.com/?q=38.7247948,-9.1436994",
   "lat": 38.7247948,
   "lng": -9.1436994,
   "halalFriendly": false,
   "bookingUrl": "https://maps.google.com/?q=38.7247948,-9.1436994",
   "source": "osm"
  },
  {
   "nom": "Flag house",
   "categorie": "Auberge",
   "priceRange": "€€",
   "mapsUrl": "https://maps.google.com/?q=38.7239727,-9.134248",
   "lat": 38.7239727,
   "lng": -9.134248,
   "halalFriendly": false,
   "bookingUrl": "http://www.flaghostel.com/",
   "source": "osm"
  },
  {
   "nom": "Hotel Anjos",
   "categorie": "Maison d'hôtes",
   "priceRange": "€€€",
   "score": 3,
   "mapsUrl": "https://maps.google.com/?q=38.7226272,-9.1337866",
   "lat": 38.7226272,
   "lng": -9.1337866,
   "halalFriendly": false,
   "bookingUrl": "https://www.anjoshotel.com/",
   "source": "osm"
  },
  {
   "nom": "Casa del Limonero",
   "categorie": "Hôtel",
   "priceRange": "€€",
   "mapsUrl": "https://maps.google.com/?q=38.7179233,-9.1394856",
   "lat": 38.7179233,
   "lng": -9.1394856,
   "halalFriendly": false,
   "bookingUrl": "https://airbnb.com/",
   "source": "osm"
  },
  {
   "nom": "room00 Lisboa Hostel",
   "categorie": "Hôtel",
   "priceRange": "€€",
   "mapsUrl": "https://maps.google.com/?q=38.7208343,-9.1445938",
   "lat": 38.7208343,
   "lng": -9.1445938,
   "halalFriendly": false,
   "bookingUrl": "https://www.room00hostel.com/",
   "source": "osm"
  },
  {
   "nom": "Istanbul Hostel",
   "categorie": "Maison d'hôtes",
   "priceRange": "€€",
   "mapsUrl": "https://maps.google.com/?q=38.7249797,-9.134824",
   "lat": 38.7249797,
   "lng": -9.134824,
   "halalFriendly": false,
   "bookingUrl": "https://maps.google.com/?q=38.7249797,-9.134824",
   "source": "osm"
  },
  {
   "nom": "room00 Lisboa Hostel",
   "categorie": "Auberge",
   "priceRange": "€€",
   "mapsUrl": "https://maps.google.com/?q=38.7207993,-9.1446109",
   "lat": 38.7207993,
   "lng": -9.1446109,
   "halalFriendly": false,
   "bookingUrl": "https://www.room00hostels.com/en/lisboa/",
   "source": "osm"
  },
  {
   "nom": "Hapimag",
   "categorie": "Hôtel",
   "priceRange": "€€",
   "mapsUrl": "https://maps.google.com/?q=38.7187861,-9.1427729",
   "lat": 38.7187861,
   "lng": -9.1427729,
   "halalFriendly": false,
   "bookingUrl": "https://maps.google.com/?q=38.7187861,-9.1427729",
   "source": "osm"
  }
 ],
 "mosqueesPrincipales": [
  {
   "id": "m1",
   "nom": "Grande Mosquée de Lisbonne",
   "type": "Mosquée",
   "adresse": "Centre-ville, Lisbonne",
   "description": "Mosquée principale de la ville.",
   "note": 5,
   "acces_non_musulmans": false,
   "mapsUrl": "https://maps.google.com/?q=Mosque%20Lisbonne%20Lisbonne"
  }
 ],
 "activites": [
  {
   "id": "a1",
   "nom": "Quartier d'Alfama",
   "categorie": "Culture",
   "description": "Dédale de ruelles hérité de la médina maure.",
   "prix": "Gratuit",
   "duree": "",
   "mapsUrl": "https://maps.google.com/?q=Quartier%20d%27Alfama%20Lisbonne"
  },
  {
   "id": "a2",
   "nom": "Château São Jorge",
   "categorie": "Histoire",
   "description": "Forteresse mauresque dominant la ville.",
   "prix": "Payant",
   "duree": "",
   "mapsUrl": "https://maps.google.com/?q=Ch%C3%A2teau%20S%C3%A3o%20Jorge%20Lisbonne"
  },
  {
   "id": "a3",
   "nom": "Mosquée Centrale de Lisbonne",
   "categorie": "Spirituel",
   "description": "Principale mosquée de la capitale.",
   "prix": "Gratuit",
   "duree": "",
   "mapsUrl": "https://maps.google.com/?q=Mosqu%C3%A9e%20Centrale%20de%20Lisbonne%20Lisbonne"
  }
 ],
 "imageCredit": "Wikimedia Commons",
 "osmEnriched": true,
 "osmEnrichedAt": "2026-06-30"
}
