{
 "slug": "lisbonne",
 "nom": "Lisbonne",
 "pays": "Portugal",
 "pays_slug": "portugal",
 "continent": "Europe",
 "region": "Europe du Sud",
 "coordonnees": {
  "lat": 38.7223,
  "lng": -9.1393
 },
 "codeISO": "",
 "score_halal": 4.3,
 "halalScore": 8.6,
 "description": "Capitale portugaise aux racines mauresques, Lisbonne charme par son quartier d'Alfama (ancienne médina) et sa Mosquée Centrale.",
 "image": "https://upload.wikimedia.org/wikipedia/commons/7/79/Lisbonne_%28Portugal%29_%285493354099%29.jpg",
 "image_hero": "https://upload.wikimedia.org/wikipedia/commons/7/79/Lisbonne_%28Portugal%29_%285493354099%29.jpg",
 "metaDescription": "Capitale portugaise aux racines mauresques, Lisbonne charme par son quartier d'Alfama (ancienne médina) et sa Mosquée Centrale.",
 "statistiques": {
  "restaurants_halal": 150,
  "mosquees": 5,
  "hotels": 119
 },
 "infoPratique": {
  "transport": "Accessible par avion / transports locaux.",
  "meilleureEpoque": "Printemps et automne."
 },
 "tags": [
  "halal"
 ],
 "restaurants": [
  {
   "nom": "Tasty Hut Halal food",
   "type": "indian, pakistani",
   "priceRange": "€€",
   "mapsUrl": "https://maps.google.com/?q=38.7187804,-9.1350633",
   "lat": 38.7187804,
   "lng": -9.1350633,
   "halalConfidence": "yes",
   "source": "osm"
  },
  {
   "nom": "Olá Népal",
   "type": "indian, nepalese",
   "priceRange": "€€",
   "mapsUrl": "https://maps.google.com/?q=38.7254322,-9.1459256",
   "lat": 38.7254322,
   "lng": -9.1459256,
   "halalConfidence": "yes",
   "source": "osm"
  },
  {
   "nom": "Café Ni'lin",
   "type": "palestinian",
   "priceRange": "€€",
   "mapsUrl": "https://maps.google.com/?q=38.7185001,-9.1322987",
   "lat": 38.7185001,
   "lng": -9.1322987,
   "halalConfidence": "yes",
   "source": "osm"
  },
  {
   "nom": "Zaafran",
   "type": "indian",
   "priceRange": "€€",
   "mapsUrl": "https://maps.google.com/?q=38.7318172,-9.1411663",
   "lat": 38.7318172,
   "lng": -9.1411663,
   "halalConfidence": "yes",
   "source": "osm"
  },
  {
   "nom": "Dawat Indian & Grill Restaurant",
   "type": "indian, nepalese, asian",
   "priceRange": "€€",
   "mapsUrl": "https://maps.google.com/?q=38.7324841,-9.1323454",
   "lat": 38.7324841,
   "lng": -9.1323454,
   "halalConfidence": "yes",
   "source": "osm"
  },
  {
   "nom": "Ola Nepal House",
   "type": "indian, nepalese",
   "priceRange": "€€",
   "mapsUrl": "https://maps.google.com/?q=38.735119,-9.1342042",
   "lat": 38.735119,
   "lng": -9.1342042,
   "halalConfidence": "yes",
   "source": "osm"
  },
  {
   "nom": "Mezze",
   "type": "syrian, lebanese",
   "priceRange": "€€",
   "mapsUrl": "https://maps.google.com/?q=38.7349501,-9.1326583",
   "lat": 38.7349501,
   "lng": -9.1326583,
   "halalConfidence": "yes",
   "source": "osm"
  },
  {
   "nom": "Sala de Refeiçoês da Mesquita",
   "type": "indian, portuguese",
   "priceRange": "€€",
   "mapsUrl": "https://maps.google.com/?q=38.7355843,-9.1581383",
   "lat": 38.7355843,
   "lng": -9.1581383,
   "halalConfidence": "only",
   "source": "osm"
  },
  {
   "nom": "Sunbird Cafe",
   "type": "Restaurant halal",
   "priceRange": "€€",
   "mapsUrl": "https://maps.google.com/?q=38.7202789,-9.1650513",
   "lat": 38.7202789,
   "lng": -9.1650513,
   "halalConfidence": "yes",
   "source": "osm"
  },
  {
   "nom": "Zahir Kebab",
   "type": "kebab, dessert, salad, coffee shop",
   "priceRange": "€€",
   "mapsUrl": "https://maps.google.com/?q=38.7426659,-9.1381269",
   "lat": 38.7426659,
   "lng": -9.1381269,
   "halalConfidence": "yes",
   "source": "osm"
  },
  {
   "nom": "1001 Nights",
   "type": "persian",
   "priceRange": "€€",
   "mapsUrl": "https://maps.google.com/?q=38.7451033,-9.1405396",
   "lat": 38.7451033,
   "lng": -9.1405396,
   "halalConfidence": "yes",
   "source": "osm"
  },
  {
   "nom": "Café Anatolia",
   "type": "portuguese, middle eastern",
   "priceRange": "€€",
   "mapsUrl": "https://maps.google.com/?q=38.7042365,-9.1760088",
   "lat": 38.7042365,
   "lng": -9.1760088,
   "halalConfidence": "yes",
   "source": "osm"
  },
  {
   "nom": "DOM KEBAB GRILL",
   "type": "international, kebab, grill, pizza, hamburger, salad",
   "priceRange": "€€",
   "mapsUrl": "https://maps.google.com/?q=38.7772593,-9.094501",
   "lat": 38.7772593,
   "lng": -9.094501,
   "halalConfidence": "yes",
   "source": "osm"
  },
  {
   "nom": "Tikka Boti Halal Restaurant",
   "type": "indian",
   "priceRange": "€€",
   "mapsUrl": "https://maps.google.com/?q=38.7878833,-9.176919",
   "lat": 38.7878833,
   "lng": -9.176919,
   "halalConfidence": "yes",
   "source": "osm"
  },
  {
   "nom": "Sajna",
   "type": "ethiopian, lebanese",
   "priceRange": "€€",
   "mapsUrl": "https://maps.google.com/?q=38.7245085,-9.1360892",
   "lat": 38.7245085,
   "lng": -9.1360892,
   "halalConfidence": "likely",
   "source": "osm"
  },
  {
   "nom": "Jahan Kebab-Pizza",
   "type": "pizza, kebab",
   "priceRange": "€€",
   "mapsUrl": "https://maps.google.com/?q=38.7189219,-9.1368296",
   "lat": 38.7189219,
   "lng": -9.1368296,
   "halalConfidence": "likely",
   "source": "osm"
  },
  {
   "nom": "Kebabish",
   "type": "kebab",
   "priceRange": "€€",
   "mapsUrl": "https://maps.google.com/?q=38.7193708,-9.1353657",
   "lat": 38.7193708,
   "lng": -9.1353657,
   "halalConfidence": "likely",
   "source": "osm"
  },
  {
   "nom": "Tuz Good Food",
   "type": "falafel, kebab",
   "priceRange": "€€",
   "mapsUrl": "https://maps.google.com/?q=38.7249483,-9.1348157",
   "lat": 38.7249483,
   "lng": -9.1348157,
   "halalConfidence": "likely",
   "source": "osm"
  },
  {
   "nom": "Turkish Kebab House",
   "type": "kebab",
   "priceRange": "€€",
   "mapsUrl": "https://maps.google.com/?q=38.7250446,-9.1348472",
   "lat": 38.7250446,
   "lng": -9.1348472,
   "halalConfidence": "likely",
   "source": "osm"
  },
  {
   "nom": "Istanbul Kebab",
   "type": "kebab",
   "priceRange": "€€",
   "mapsUrl": "https://maps.google.com/?q=38.7189117,-9.143079",
   "lat": 38.7189117,
   "lng": -9.143079,
   "halalConfidence": "likely",
   "source": "osm"
  },
  {
   "nom": "Al Baik Kebab",
   "type": "kebab",
   "priceRange": "€€",
   "mapsUrl": "https://maps.google.com/?q=38.7181257,-9.1360017",
   "lat": 38.7181257,
   "lng": -9.1360017,
   "halalConfidence": "likely",
   "source": "osm"
  },
  {
   "nom": "Kumar",
   "type": "kebab, pizza",
   "priceRange": "€€",
   "mapsUrl": "https://maps.google.com/?q=38.7269875,-9.1366741",
   "lat": 38.7269875,
   "lng": -9.1366741,
   "halalConfidence": "likely",
   "source": "osm"
  },
  {
   "nom": "Fenícios",
   "type": "lebanese",
   "priceRange": "€€",
   "mapsUrl": "https://maps.google.com/?q=38.7249987,-9.1459329",
   "lat": 38.7249987,
   "lng": -9.1459329,
   "halalConfidence": "likely",
   "source": "osm"
  },
  {
   "nom": "Casa dos Cedros",
   "type": "lebanese",
   "priceRange": "€€",
   "mapsUrl": "https://maps.google.com/?q=38.7290239,-9.1437424",
   "lat": 38.7290239,
   "lng": -9.1437424,
   "halalConfidence": "likely",
   "source": "osm"
  },
  {
   "nom": "Sumaya",
   "type": "lebanese",
   "priceRange": "€€",
   "mapsUrl": "https://maps.google.com/?q=38.7173899,-9.1499381",
   "lat": 38.7173899,
   "lng": -9.1499381,
   "halalConfidence": "likely",
   "source": "osm"
  },
  {
   "nom": "Zaataria Lebanese Eats",
   "type": "lebanese",
   "priceRange": "€€",
   "mapsUrl": "https://maps.google.com/?q=38.7318591,-9.1413254",
   "lat": 38.7318591,
   "lng": -9.1413254,
   "halalConfidence": "likely",
   "source": "osm"
  },
  {
   "nom": "LKS Lisboa Kebab Station",
   "type": "kebab",
   "priceRange": "€€",
   "mapsUrl": "https://maps.google.com/?q=38.7131226,-9.1451161",
   "lat": 38.7131226,
   "lng": -9.1451161,
   "halalConfidence": "likely",
   "source": "osm"
  },
  {
   "nom": "Castle Kebab",
   "type": "kebab",
   "priceRange": "€€",
   "mapsUrl": "https://maps.google.com/?q=38.7144644,-9.1307421",
   "lat": 38.7144644,
   "lng": -9.1307421,
   "halalConfidence": "likely",
   "source": "osm"
  },
  {
   "nom": "La Kebaberie (closed)",
   "type": "kebab",
   "priceRange": "€€",
   "mapsUrl": "https://maps.google.com/?q=38.7323839,-9.142182",
   "lat": 38.7323839,
   "lng": -9.142182,
   "halalConfidence": "likely",
   "source": "osm"
  },
  {
   "nom": "Khayyam",
   "type": "persian",
   "priceRange": "€€",
   "mapsUrl": "https://maps.google.com/?q=38.7151466,-9.1493363",
   "lat": 38.7151466,
   "lng": -9.1493363,
   "halalConfidence": "likely",
   "source": "osm"
  },
  {
   "nom": "Hunger Station",
   "type": "pizza, burger, kebab",
   "priceRange": "€€",
   "mapsUrl": "https://maps.google.com/?q=38.7126296,-9.1449586",
   "lat": 38.7126296,
   "lng": -9.1449586,
   "halalConfidence": "likely",
   "source": "osm"
  },
  {
   "nom": "Döner Bar",
   "type": "kebab, noodle",
   "priceRange": "€€",
   "mapsUrl": "https://maps.google.com/?q=38.7326599,-9.1341145",
   "lat": 38.7326599,
   "lng": -9.1341145,
   "halalConfidence": "likely",
   "source": "osm"
  },
  {
   "nom": "Kebab House",
   "type": "kebab",
   "priceRange": "€€",
   "mapsUrl": "https://maps.google.com/?q=38.7334102,-9.1349514",
   "lat": 38.7334102,
   "lng": -9.1349514,
   "halalConfidence": "likely",
   "source": "osm"
  },
  {
   "nom": "Original Kebab",
   "type": "kebab",
   "priceRange": "€€",
   "mapsUrl": "https://maps.google.com/?q=38.7330331,-9.1450664",
   "lat": 38.7330331,
   "lng": -9.1450664,
   "halalConfidence": "likely",
   "source": "osm"
  },
  {
   "nom": "Atlantic Kebab",
   "type": "kebab",
   "priceRange": "€€",
   "mapsUrl": "https://maps.google.com/?q=38.7112023,-9.1441927",
   "lat": 38.7112023,
   "lng": -9.1441927,
   "halalConfidence": "likely",
   "source": "osm"
  },
  {
   "nom": "Pali Baba Kebab and Pizza House",
   "type": "kebab, pizza",
   "priceRange": "€€",
   "mapsUrl": "https://maps.google.com/?q=38.7332779,-9.133174",
   "lat": 38.7332779,
   "lng": -9.133174,
   "halalConfidence": "likely",
   "source": "osm"
  },
  {
   "nom": "Lebabese corner",
   "type": "lebanese",
   "priceRange": "€€",
   "mapsUrl": "https://maps.google.com/?q=38.7204701,-9.1545232",
   "lat": 38.7204701,
   "lng": -9.1545232,
   "halalConfidence": "likely",
   "source": "osm"
  },
  {
   "nom": "Cafeh Tehran",
   "type": "persian",
   "priceRange": "€€",
   "mapsUrl": "https://maps.google.com/?q=38.7151652,-9.1519342",
   "lat": 38.7151652,
   "lng": -9.1519342,
   "halalConfidence": "likely",
   "source": "osm"
  },
  {
   "nom": "Ali Baba",
   "type": "kebab",
   "priceRange": "€€",
   "mapsUrl": "https://maps.google.com/?q=38.7325883,-9.1305003",
   "lat": 38.7325883,
   "lng": -9.1305003,
   "halalConfidence": "likely",
   "source": "osm"
  },
  {
   "nom": "Zahir",
   "type": "kebab",
   "priceRange": "€€",
   "mapsUrl": "https://maps.google.com/?q=38.7323726,-9.1296377",
   "lat": 38.7323726,
   "lng": -9.1296377,
   "halalConfidence": "likely",
   "source": "osm"
  },
  {
   "nom": "Citron",
   "type": "lebanese",
   "priceRange": "€€",
   "mapsUrl": "https://maps.google.com/?q=38.7096823,-9.1344338",
   "lat": 38.7096823,
   "lng": -9.1344338,
   "halalConfidence": "likely",
   "source": "osm"
  },
  {
   "nom": "Zaytouna",
   "type": "arab",
   "priceRange": "€€",
   "mapsUrl": "https://maps.google.com/?q=38.7352281,-9.1322798",
   "lat": 38.7352281,
   "lng": -9.1322798,
   "halalConfidence": "likely",
   "source": "osm"
  },
  {
   "nom": "Alfama Kebabish",
   "type": "turkish",
   "priceRange": "€€",
   "mapsUrl": "https://maps.google.com/?q=38.7122828,-9.1257311",
   "lat": 38.7122828,
   "lng": -9.1257311,
   "halalConfidence": "likely",
   "source": "osm"
  },
  {
   "nom": "Halal Kumar Kebab House",
   "type": "kebab",
   "priceRange": "€€",
   "mapsUrl": "https://maps.google.com/?q=38.7135573,-9.1240528",
   "lat": 38.7135573,
   "lng": -9.1240528,
   "halalConfidence": "likely",
   "source": "osm"
  },
  {
   "nom": "Alameda Kebab e Pizzaria",
   "type": "kebab, noodle, pizza",
   "priceRange": "€€",
   "mapsUrl": "https://maps.google.com/?q=38.7364403,-9.1322862",
   "lat": 38.7364403,
   "lng": -9.1322862,
   "halalConfidence": "likely",
   "source": "osm"
  },
  {
   "nom": "Bairrices",
   "type": "lebanese",
   "priceRange": "€€",
   "mapsUrl": "https://maps.google.com/?q=38.707817,-9.1462223",
   "lat": 38.707817,
   "lng": -9.1462223,
   "halalConfidence": "likely",
   "source": "osm"
  },
  {
   "nom": "Mankooche",
   "type": "lebanese",
   "priceRange": "€€",
   "mapsUrl": "https://maps.google.com/?q=38.7078767,-9.1464612",
   "lat": 38.7078767,
   "lng": -9.1464612,
   "halalConfidence": "likely",
   "source": "osm"
  },
  {
   "nom": "Taza Sandwiches",
   "type": "sandwich, lebanese",
   "priceRange": "€€",
   "mapsUrl": "https://maps.google.com/?q=38.707941,-9.146922",
   "lat": 38.707941,
   "lng": -9.146922,
   "halalConfidence": "likely",
   "source": "osm"
  },
  {
   "nom": "Sabores de Freire",
   "type": "burger, coffee shop, kebab",
   "priceRange": "€€",
   "mapsUrl": "https://maps.google.com/?q=38.7271145,-9.1199921",
   "lat": 38.7271145,
   "lng": -9.1199921,
   "halalConfidence": "likely",
   "source": "osm"
  },
  {
   "nom": "Palácio do Kebab",
   "type": "kebab",
   "priceRange": "€€",
   "mapsUrl": "https://maps.google.com/?q=38.7076511,-9.1477428",
   "lat": 38.7076511,
   "lng": -9.1477428,
   "halalConfidence": "likely",
   "source": "osm"
  },
  {
   "nom": "I Love Kebab",
   "type": "kebab",
   "priceRange": "€€",
   "mapsUrl": "https://maps.google.com/?q=38.737245,-9.1509907",
   "lat": 38.737245,
   "lng": -9.1509907,
   "halalConfidence": "likely",
   "source": "osm"
  },
  {
   "nom": "Zam Zam Kebab",
   "type": "kebab",
   "priceRange": "€€",
   "mapsUrl": "https://maps.google.com/?q=38.7413209,-9.133592",
   "lat": 38.7413209,
   "lng": -9.133592,
   "halalConfidence": "likely",
   "source": "osm"
  },
  {
   "nom": "Liton's Turkish Grill",
   "type": "turkish",
   "priceRange": "€€",
   "mapsUrl": "https://maps.google.com/?q=38.7424326,-9.1343137",
   "lat": 38.7424326,
   "lng": -9.1343137,
   "halalConfidence": "likely",
   "source": "osm"
  },
  {
   "nom": "Derviche - Restaurante Turco",
   "type": "turkish",
   "priceRange": "€€",
   "mapsUrl": "https://maps.google.com/?q=38.7049619,-9.1595518",
   "lat": 38.7049619,
   "lng": -9.1595518,
   "halalConfidence": "likely",
   "source": "osm"
  },
  {
   "nom": "Bosphorus",
   "type": "kebab",
   "priceRange": "€€",
   "mapsUrl": "https://maps.google.com/?q=38.7466039,-9.1534153",
   "lat": 38.7466039,
   "lng": -9.1534153,
   "halalConfidence": "likely",
   "source": "osm"
  },
  {
   "nom": "Juicy Kebab e Pizza",
   "type": "kebab, pizza",
   "priceRange": "€€",
   "mapsUrl": "https://maps.google.com/?q=38.7486031,-9.1322845",
   "lat": 38.7486031,
   "lng": -9.1322845,
   "halalConfidence": "likely",
   "source": "osm"
  },
  {
   "nom": "Kebabway",
   "type": "kebab",
   "priceRange": "€€",
   "mapsUrl": "https://maps.google.com/?q=38.7447598,-9.1583576",
   "lat": 38.7447598,
   "lng": -9.1583576,
   "halalConfidence": "likely",
   "source": "osm"
  },
  {
   "nom": "Lisbon Persian Homemade Food",
   "type": "iranian, meatlovers",
   "priceRange": "€€",
   "mapsUrl": "https://maps.google.com/?q=38.7529054,-9.1261024",
   "lat": 38.7529054,
   "lng": -9.1261024,
   "halalConfidence": "likely",
   "source": "osm"
  },
  {
   "nom": "Tika Kebab",
   "type": "kebab",
   "priceRange": "€€",
   "mapsUrl": "https://maps.google.com/?q=38.742499,-9.17266",
   "lat": 38.742499,
   "lng": -9.17266,
   "halalConfidence": "likely",
   "source": "osm"
  },
  {
   "nom": "Big Kebab House",
   "type": "kebab",
   "priceRange": "€€",
   "mapsUrl": "https://maps.google.com/?q=38.7470128,-9.1679048",
   "lat": 38.7470128,
   "lng": -9.1679048,
   "halalConfidence": "likely",
   "source": "osm"
  },
  {
   "nom": "Pizza Club Restaurant and Bar",
   "type": "pizza, kebab",
   "priceRange": "€€",
   "mapsUrl": "https://maps.google.com/?q=38.7429706,-9.1782302",
   "lat": 38.7429706,
   "lng": -9.1782302,
   "halalConfidence": "likely",
   "source": "osm"
  },
  {
   "nom": "Meza Libaneza",
   "type": "lebanese",
   "priceRange": "€€",
   "mapsUrl": "https://maps.google.com/?q=38.70304,-9.1816738",
   "lat": 38.70304,
   "lng": -9.1816738,
   "halalConfidence": "likely",
   "source": "osm"
  },
  {
   "nom": "Casa dos Sabores",
   "type": "turkish",
   "priceRange": "€€",
   "mapsUrl": "https://maps.google.com/?q=38.6821389,-9.1591599",
   "lat": 38.6821389,
   "lng": -9.1591599,
   "halalConfidence": "likely",
   "source": "osm"
  },
  {
   "nom": "Joshua's Shoarma Grill",
   "type": "kebab",
   "priceRange": "€€",
   "mapsUrl": "https://maps.google.com/?q=38.762249,-9.1141539",
   "lat": 38.762249,
   "lng": -9.1141539,
   "halalConfidence": "likely",
   "source": "osm"
  },
  {
   "nom": "Justin Bite Pizza Kebab",
   "type": "kebab",
   "priceRange": "€€",
   "mapsUrl": "https://maps.google.com/?q=38.703491,-9.1916502",
   "lat": 38.703491,
   "lng": -9.1916502,
   "halalConfidence": "likely",
   "source": "osm"
  },
  {
   "nom": "Ali Donner Kebab",
   "type": "kebab, pizza",
   "priceRange": "€€",
   "mapsUrl": "https://maps.google.com/?q=38.6777328,-9.1584789",
   "lat": 38.6777328,
   "lng": -9.1584789,
   "halalConfidence": "likely",
   "source": "osm"
  },
  {
   "nom": "Black Lotus",
   "type": "kebab, grill",
   "priceRange": "€€",
   "mapsUrl": "https://maps.google.com/?q=38.6782864,-9.1653067",
   "lat": 38.6782864,
   "lng": -9.1653067,
   "halalConfidence": "likely",
   "source": "osm"
  },
  {
   "nom": "La Cucina Pizza & Kebab",
   "type": "kebab, pizza",
   "priceRange": "€€",
   "mapsUrl": "https://maps.google.com/?q=38.6749613,-9.1610018",
   "lat": 38.6749613,
   "lng": -9.1610018,
   "halalConfidence": "likely",
   "source": "osm"
  },
  {
   "nom": "Kebab Turka & Pizza",
   "type": "kebab",
   "priceRange": "€€",
   "mapsUrl": "https://maps.google.com/?q=38.7502768,-9.1958174",
   "lat": 38.7502768,
   "lng": -9.1958174,
   "halalConfidence": "likely",
   "source": "osm"
  },
  {
   "nom": "Kebab da Lumiar",
   "type": "kebab",
   "priceRange": "€€",
   "mapsUrl": "https://maps.google.com/?q=38.7735065,-9.1531762",
   "lat": 38.7735065,
   "lng": -9.1531762,
   "halalConfidence": "likely",
   "source": "osm"
  },
  {
   "nom": "Super Donner Kebab",
   "type": "kebab",
   "priceRange": "€€",
   "mapsUrl": "https://maps.google.com/?q=38.6708508,-9.1586501",
   "lat": 38.6708508,
   "lng": -9.1586501,
   "halalConfidence": "likely",
   "source": "osm"
  },
  {
   "nom": "Joshua’s Shoarma",
   "type": "kebab, middle eastern",
   "priceRange": "€€",
   "mapsUrl": "https://maps.google.com/?q=38.7674754,-9.0962111",
   "lat": 38.7674754,
   "lng": -9.0962111,
   "halalConfidence": "likely",
   "source": "osm"
  },
  {
   "nom": "BELEM KEBAB & PIZZARIA",
   "type": "pizza, kebab",
   "priceRange": "€€",
   "mapsUrl": "https://maps.google.com/?q=38.6992775,-9.2054078",
   "lat": 38.6992775,
   "lng": -9.2054078,
   "halalConfidence": "likely",
   "source": "osm"
  },
  {
   "nom": "Chez Nous",
   "type": "kebab, italian",
   "priceRange": "€€",
   "mapsUrl": "https://maps.google.com/?q=38.754572,-9.2011627",
   "lat": 38.754572,
   "lng": -9.2011627,
   "halalConfidence": "likely",
   "source": "osm"
  },
  {
   "nom": "Churrasqueira Delicias do Mercado de Benfica",
   "type": "kebab",
   "priceRange": "€€",
   "mapsUrl": "https://maps.google.com/?q=38.7505878,-9.2063065",
   "lat": 38.7505878,
   "lng": -9.2063065,
   "halalConfidence": "likely",
   "source": "osm"
  },
  {
   "nom": "Oni's Kebab & Burger",
   "type": "kebab, burger",
   "priceRange": "€€",
   "mapsUrl": "https://maps.google.com/?q=38.7783406,-9.1022138",
   "lat": 38.7783406,
   "lng": -9.1022138,
   "halalConfidence": "likely",
   "source": "osm"
  },
  {
   "nom": "Multi Foods",
   "type": "indian, kebab, portuguese",
   "priceRange": "€€",
   "mapsUrl": "https://maps.google.com/?q=38.7772717,-9.0933962",
   "lat": 38.7772717,
   "lng": -9.0933962,
   "halalConfidence": "likely",
   "source": "osm"
  },
  {
   "nom": "Kebab Center",
   "type": "kebab",
   "priceRange": "€€",
   "mapsUrl": "https://maps.google.com/?q=38.6544507,-9.1525028",
   "lat": 38.6544507,
   "lng": -9.1525028,
   "halalConfidence": "likely",
   "source": "osm"
  },
  {
   "nom": "The Kebab House",
   "type": "kebab",
   "priceRange": "€€",
   "mapsUrl": "https://maps.google.com/?q=38.653558,-9.1543864",
   "lat": 38.653558,
   "lng": -9.1543864,
   "halalConfidence": "likely",
   "source": "osm"
  },
  {
   "nom": "Ali Baba Kebab Haus",
   "type": "kebab",
   "priceRange": "€€",
   "mapsUrl": "https://maps.google.com/?q=38.6990911,-9.2278958",
   "lat": 38.6990911,
   "lng": -9.2278958,
   "halalConfidence": "likely",
   "source": "osm"
  },
  {
   "nom": "Ravi's Friends Kebab & Pizzas House",
   "type": "kebab, pizza",
   "priceRange": "€€",
   "mapsUrl": "https://maps.google.com/?q=38.7915316,-9.1750465",
   "lat": 38.7915316,
   "lng": -9.1750465,
   "halalConfidence": "likely",
   "source": "osm"
  },
  {
   "nom": "Fomix",
   "type": "burger, kebab",
   "priceRange": "€€",
   "mapsUrl": "https://maps.google.com/?q=38.7924974,-9.1065272",
   "lat": 38.7924974,
   "lng": -9.1065272,
   "halalConfidence": "likely",
   "source": "osm"
  },
  {
   "nom": "Epiicfantasy, LDA",
   "type": "kebab",
   "priceRange": "€€",
   "mapsUrl": "https://maps.google.com/?q=38.7581209,-9.2265005",
   "lat": 38.7581209,
   "lng": -9.2265005,
   "halalConfidence": "likely",
   "source": "osm"
  },
  {
   "nom": "Arabiata",
   "type": "kebab",
   "priceRange": "€€",
   "mapsUrl": "https://maps.google.com/?q=38.6624649,-9.0734571",
   "lat": 38.6624649,
   "lng": -9.0734571,
   "halalConfidence": "likely",
   "source": "osm"
  },
  {
   "nom": "AL feruz",
   "type": "burger, friture, arab, oriental, sandwich, pizza, kebab, coffee shop, tea, crepe",
   "priceRange": "€€",
   "mapsUrl": "https://maps.google.com/?q=38.7620282,-9.2271608",
   "lat": 38.7620282,
   "lng": -9.2271608,
   "halalConfidence": "likely",
   "source": "osm"
  },
  {
   "nom": "Barakah Kebab",
   "type": "kebab",
   "priceRange": "€€",
   "mapsUrl": "https://maps.google.com/?q=38.6605369,-9.0740196",
   "lat": 38.6605369,
   "lng": -9.0740196,
   "halalConfidence": "likely",
   "source": "osm"
  },
  {
   "nom": "2660 Sabores",
   "type": "burger, kebab",
   "priceRange": "€€",
   "mapsUrl": "https://maps.google.com/?q=38.8140052,-9.1674167",
   "lat": 38.8140052,
   "lng": -9.1674167,
   "halalConfidence": "likely",
   "source": "osm"
  },
  {
   "nom": "Comidamos",
   "type": "burger, kebab",
   "priceRange": "€€",
   "mapsUrl": "https://maps.google.com/?q=38.7578161,-9.2542656",
   "lat": 38.7578161,
   "lng": -9.2542656,
   "halalConfidence": "likely",
   "source": "osm"
  },
  {
   "nom": "Casa de Kebab",
   "type": "kebab",
   "priceRange": "€€",
   "mapsUrl": "https://maps.google.com/?q=38.7614859,-9.2563831",
   "lat": 38.7614859,
   "lng": -9.2563831,
   "halalConfidence": "likely",
   "source": "osm"
  },
  {
   "nom": "Al Sultão",
   "type": "kebab",
   "priceRange": "€€",
   "mapsUrl": "https://maps.google.com/?q=38.8186492,-9.1760032",
   "lat": 38.8186492,
   "lng": -9.1760032,
   "halalConfidence": "likely",
   "source": "osm"
  },
  {
   "nom": "King's Pizza & Kebab",
   "type": "kebab",
   "priceRange": "€€",
   "mapsUrl": "https://maps.google.com/?q=38.6446769,-9.0569305",
   "lat": 38.6446769,
   "lng": -9.0569305,
   "halalConfidence": "likely",
   "source": "osm"
  },
  {
   "nom": "Rei da Índia",
   "lat": 38.7217697,
   "lng": -9.1355814,
   "type": "indian",
   "halalConfidence": "likely",
   "mapsUrl": "https://maps.google.com/?q=38.7217697,-9.1355814",
   "source": "osm"
  },
  {
   "nom": "Maharaja",
   "lat": 38.7197683,
   "lng": -9.1433328,
   "type": "indian",
   "halalConfidence": "likely",
   "mapsUrl": "https://maps.google.com/?q=38.7197683,-9.1433328",
   "source": "osm"
  },
  {
   "nom": "O Sitar",
   "lat": 38.7167688,
   "lng": -9.1411558,
   "type": "indian",
   "halalConfidence": "likely",
   "mapsUrl": "https://maps.google.com/?q=38.7167688,-9.1411558",
   "source": "osm"
  },
  {
   "nom": "Taste of Everest",
   "lat": 38.7278154,
   "lng": -9.1428485,
   "type": "nepalese, indian",
   "halalConfidence": "likely",
   "mapsUrl": "https://maps.google.com/?q=38.7278154,-9.1428485",
   "source": "osm"
  },
  {
   "nom": "Annapurna",
   "lat": 38.7230483,
   "lng": -9.1313967,
   "type": "indian",
   "halalConfidence": "likely",
   "mapsUrl": "https://maps.google.com/?q=38.7230483,-9.1313967",
   "source": "osm"
  },
  {
   "nom": "Sabores de Goa",
   "lat": 38.7272065,
   "lng": -9.1339806,
   "type": "indian",
   "halalConfidence": "likely",
   "mapsUrl": "https://maps.google.com/?q=38.7272065,-9.1339806",
   "source": "osm"
  },
  {
   "nom": "Catmandoo",
   "lat": 38.7159704,
   "lng": -9.1375832,
   "type": "indian, nepalese",
   "halalConfidence": "likely",
   "mapsUrl": "https://maps.google.com/?q=38.7159704,-9.1375832",
   "source": "osm"
  },
  {
   "nom": "Tamarind",
   "lat": 38.7167174,
   "lng": -9.1441657,
   "type": "indian, italian",
   "halalConfidence": "likely",
   "mapsUrl": "https://maps.google.com/?q=38.7167174,-9.1441657",
   "source": "osm"
  },
  {
   "nom": "Bengal Tandoori",
   "lat": 38.7176089,
   "lng": -9.1462335,
   "type": "indian",
   "halalConfidence": "likely",
   "mapsUrl": "https://maps.google.com/?q=38.7176089,-9.1462335",
   "source": "osm"
  },
  {
   "nom": "Haweli Tandoori",
   "lat": 38.7186655,
   "lng": -9.1302925,
   "type": "indian",
   "halalConfidence": "likely",
   "mapsUrl": "https://maps.google.com/?q=38.7186655,-9.1302925",
   "source": "osm"
  },
  {
   "nom": "Taste of Pakistan",
   "lat": 38.7145701,
   "lng": -9.1359799,
   "type": "indian",
   "halalConfidence": "likely",
   "mapsUrl": "https://maps.google.com/?q=38.7145701,-9.1359799",
   "source": "osm"
  },
  {
   "nom": "Ghandi Palace",
   "lat": 38.7133462,
   "lng": -9.1368867,
   "type": "indian",
   "halalConfidence": "likely",
   "mapsUrl": "https://maps.google.com/?q=38.7133462,-9.1368867",
   "source": "osm"
  },
  {
   "nom": "new york",
   "lat": 38.7288068,
   "lng": -9.1309975,
   "type": "italian pizza, indian",
   "halalConfidence": "likely",
   "mapsUrl": "https://maps.google.com/?q=38.7288068,-9.1309975",
   "source": "osm"
  },
  {
   "nom": "Atithi",
   "lat": 38.7315023,
   "lng": -9.1395663,
   "type": "indian",
   "halalConfidence": "likely",
   "mapsUrl": "https://maps.google.com/?q=38.7315023,-9.1395663",
   "source": "osm"
  },
  {
   "nom": "Restaurante yak and yeti",
   "lat": 38.7149595,
   "lng": -9.1315787,
   "type": "indian, curry, asian, nepalese",
   "halalConfidence": "likely",
   "mapsUrl": "https://maps.google.com/?q=38.7149595,-9.1315787",
   "source": "osm"
  },
  {
   "nom": "Everest Junction",
   "lat": 38.7314413,
   "lng": -9.1346128,
   "type": "portuguese, indian, nepalese",
   "halalConfidence": "likely",
   "mapsUrl": "https://maps.google.com/?q=38.7314413,-9.1346128",
   "source": "osm"
  },
  {
   "nom": "Natraj",
   "lat": 38.711912,
   "lng": -9.1386733,
   "type": "indian",
   "halalConfidence": "likely",
   "mapsUrl": "https://maps.google.com/?q=38.711912,-9.1386733",
   "source": "osm"
  },
  {
   "nom": "Kathmandu",
   "lat": 38.7328418,
   "lng": -9.1387248,
   "type": "indian",
   "halalConfidence": "likely",
   "mapsUrl": "https://maps.google.com/?q=38.7328418,-9.1387248",
   "source": "osm"
  },
  {
   "nom": "Restaurante Internacional",
   "lat": 38.7117931,
   "lng": -9.1410239,
   "type": "continental, portuguese, indian, italian",
   "halalConfidence": "likely",
   "mapsUrl": "https://maps.google.com/?q=38.7117931,-9.1410239",
   "source": "osm"
  },
  {
   "nom": "Namaste Restaurante",
   "lat": 38.7320396,
   "lng": -9.1333392,
   "type": "indian, nepalese, regional",
   "halalConfidence": "likely",
   "mapsUrl": "https://maps.google.com/?q=38.7320396,-9.1333392",
   "source": "osm"
  },
  {
   "nom": "Twist Hub",
   "lat": 38.7299248,
   "lng": -9.1294406,
   "type": "indian, pizza, ramen",
   "halalConfidence": "likely",
   "mapsUrl": "https://maps.google.com/?q=38.7299248,-9.1294406",
   "source": "osm"
  },
  {
   "nom": "Swaagat",
   "lat": 38.7114855,
   "lng": -9.1375048,
   "type": "indian",
   "halalConfidence": "likely",
   "mapsUrl": "https://maps.google.com/?q=38.7114855,-9.1375048",
   "source": "osm"
  },
  {
   "nom": "Chutnify Princpe Real",
   "lat": 38.7144381,
   "lng": -9.1500946,
   "type": "indian",
   "halalConfidence": "likely",
   "mapsUrl": "https://maps.google.com/?q=38.7144381,-9.1500946",
   "source": "osm"
  },
  {
   "nom": "Passage to India",
   "lat": 38.7338128,
   "lng": -9.143656,
   "type": "indian",
   "halalConfidence": "likely",
   "mapsUrl": "https://maps.google.com/?q=38.7338128,-9.143656",
   "source": "osm"
  },
  {
   "nom": "Sabores",
   "lat": 38.733174,
   "lng": -9.1478421,
   "type": "indian, portuguese",
   "halalConfidence": "likely",
   "mapsUrl": "https://maps.google.com/?q=38.733174,-9.1478421",
   "source": "osm"
  },
  {
   "nom": "Shree Ram",
   "lat": 38.7350954,
   "lng": -9.1407542,
   "type": "indian",
   "halalConfidence": "likely",
   "mapsUrl": "https://maps.google.com/?q=38.7350954,-9.1407542",
   "source": "osm"
  },
  {
   "nom": "Sanskar Nepal",
   "lat": 38.710205,
   "lng": -9.1453687,
   "type": "indian",
   "halalConfidence": "likely",
   "mapsUrl": "https://maps.google.com/?q=38.710205,-9.1453687",
   "source": "osm"
  },
  {
   "nom": "Bollywood Lisboa",
   "lat": 38.732945,
   "lng": -9.1492745,
   "type": "indian",
   "halalConfidence": "likely",
   "mapsUrl": "https://maps.google.com/?q=38.732945,-9.1492745",
   "source": "osm"
  },
  {
   "nom": "Gurkha",
   "lat": 38.7144471,
   "lng": -9.1535714,
   "type": "indian",
   "halalConfidence": "likely",
   "mapsUrl": "https://maps.google.com/?q=38.7144471,-9.1535714",
   "source": "osm"
  },
  {
   "nom": "Natraj Tandoori",
   "lat": 38.7197597,
   "lng": -9.1575139,
   "type": "indian",
   "halalConfidence": "likely",
   "mapsUrl": "https://maps.google.com/?q=38.7197597,-9.1575139",
   "source": "osm"
  },
  {
   "nom": "Alameda Restaurant",
   "lat": 38.7367036,
   "lng": -9.1307816,
   "type": "indian, portuguese",
   "halalConfidence": "likely",
   "mapsUrl": "https://maps.google.com/?q=38.7367036,-9.1307816",
   "source": "osm"
  },
  {
   "nom": "\"Cinnamon\"",
   "lat": 38.7260698,
   "lng": -9.1186878,
   "type": "indian",
   "halalConfidence": "likely",
   "mapsUrl": "https://maps.google.com/?q=38.7260698,-9.1186878",
   "source": "osm"
  },
  {
   "nom": "Lumbini",
   "lat": 38.7085215,
   "lng": -9.1541758,
   "type": "indian",
   "halalConfidence": "likely",
   "mapsUrl": "https://maps.google.com/?q=38.7085215,-9.1541758",
   "source": "osm"
  },
  {
   "nom": "Casa Nepalesa",
   "lat": 38.738614,
   "lng": -9.151535,
   "type": "indian, nepalese",
   "halalConfidence": "likely",
   "mapsUrl": "https://maps.google.com/?q=38.738614,-9.151535",
   "source": "osm"
  },
  {
   "nom": "Zuari",
   "lat": 38.7075524,
   "lng": -9.1584783,
   "type": "indian",
   "halalConfidence": "likely",
   "mapsUrl": "https://maps.google.com/?q=38.7075524,-9.1584783",
   "source": "osm"
  },
  {
   "nom": "Aradhana",
   "lat": 38.7459348,
   "lng": -9.1434555,
   "type": "indian",
   "halalConfidence": "likely",
   "mapsUrl": "https://maps.google.com/?q=38.7459348,-9.1434555",
   "source": "osm"
  },
  {
   "nom": "Wataan Cousine Asian & European",
   "lat": 38.7489283,
   "lng": -9.1507657,
   "type": "asian, indian, european",
   "halalConfidence": "likely",
   "mapsUrl": "https://maps.google.com/?q=38.7489283,-9.1507657",
   "source": "osm"
  },
  {
   "nom": "Delhi Darbar | Indian Restaurant",
   "lat": 38.7510582,
   "lng": -9.1431642,
   "type": "indian",
   "halalConfidence": "likely",
   "mapsUrl": "https://maps.google.com/?q=38.7510582,-9.1431642",
   "source": "osm"
  },
  {
   "nom": "Restaurante da Casa de Goa",
   "lat": 38.7064423,
   "lng": -9.1724895,
   "type": "indian",
   "halalConfidence": "likely",
   "mapsUrl": "https://maps.google.com/?q=38.7064423,-9.1724895",
   "source": "osm"
  },
  {
   "nom": "Yak and Yeti",
   "lat": 38.7056002,
   "lng": -9.1734264,
   "type": "nepalese, indian",
   "halalConfidence": "likely",
   "mapsUrl": "https://maps.google.com/?q=38.7056002,-9.1734264",
   "source": "osm"
  },
  {
   "nom": "Gusto Taberu",
   "lat": 38.70619,
   "lng": -9.1749159,
   "type": "thai, indian, nepalese, sushi",
   "halalConfidence": "likely",
   "mapsUrl": "https://maps.google.com/?q=38.70619,-9.1749159",
   "source": "osm"
  },
  {
   "nom": "Everest Montanha",
   "lat": 38.7553441,
   "lng": -9.1382209,
   "type": "indian",
   "halalConfidence": "likely",
   "mapsUrl": "https://maps.google.com/?q=38.7553441,-9.1382209",
   "source": "osm"
  },
  {
   "nom": "Apna",
   "lat": 38.686296,
   "lng": -9.1489521,
   "type": "indian",
   "halalConfidence": "likely",
   "mapsUrl": "https://maps.google.com/?q=38.686296,-9.1489521",
   "source": "osm"
  },
  {
   "nom": "Shiva Palace",
   "lat": 38.7022765,
   "lng": -9.1808439,
   "type": "indian",
   "halalConfidence": "likely",
   "mapsUrl": "https://maps.google.com/?q=38.7022765,-9.1808439",
   "source": "osm"
  },
  {
   "nom": "Café Lelena",
   "lat": 38.7616802,
   "lng": -9.1571709,
   "type": "coffee shop, kebab, petiscos",
   "halalConfidence": "likely",
   "mapsUrl": "https://maps.google.com/?q=38.7616802,-9.1571709",
   "source": "osm"
  },
  {
   "nom": "The Darjeeling Express",
   "lat": 38.7516243,
   "lng": -9.18052,
   "type": "indian",
   "halalConfidence": "likely",
   "mapsUrl": "https://maps.google.com/?q=38.7516243,-9.18052",
   "source": "osm"
  },
  {
   "nom": "Mr. Masala",
   "lat": 38.6808993,
   "lng": -9.160045,
   "type": "indian,  nepalese",
   "halalConfidence": "likely",
   "mapsUrl": "https://maps.google.com/?q=38.6808993,-9.160045",
   "source": "osm"
  },
  {
   "nom": "Restaurante Cocina Indiana Italana",
   "lat": 38.6975582,
   "lng": -9.1943004,
   "type": "indian",
   "halalConfidence": "likely",
   "mapsUrl": "https://maps.google.com/?q=38.6975582,-9.1943004",
   "source": "osm"
  },
  {
   "nom": "Curry hut",
   "lat": 38.7648383,
   "lng": -9.1810158,
   "type": "indian",
   "halalConfidence": "likely",
   "mapsUrl": "https://maps.google.com/?q=38.7648383,-9.1810158",
   "source": "osm"
  },
  {
   "nom": "Cantina Indiana",
   "lat": 38.7697346,
   "lng": -9.1750882,
   "type": "indian",
   "halalConfidence": "likely",
   "mapsUrl": "https://maps.google.com/?q=38.7697346,-9.1750882",
   "source": "osm"
  },
  {
   "nom": "Indian Dreams Restaurante",
   "lat": 38.7500602,
   "lng": -9.2054117,
   "type": "indian",
   "halalConfidence": "likely",
   "mapsUrl": "https://maps.google.com/?q=38.7500602,-9.2054117",
   "source": "osm"
  },
  {
   "nom": "Gandhi Palace",
   "lat": 38.7115758,
   "lng": -9.21327,
   "type": "indian",
   "halalConfidence": "likely",
   "mapsUrl": "https://maps.google.com/?q=38.7115758,-9.21327",
   "source": "osm"
  },
  {
   "nom": "Caxemira",
   "lat": 38.7715677,
   "lng": -9.0962283,
   "type": "indian",
   "halalConfidence": "likely",
   "mapsUrl": "https://maps.google.com/?q=38.7715677,-9.0962283",
   "source": "osm"
  },
  {
   "nom": "Kohima",
   "lat": 38.7757751,
   "lng": -9.0965437,
   "type": "indian",
   "halalConfidence": "likely",
   "mapsUrl": "https://maps.google.com/?q=38.7757751,-9.0965437",
   "source": "osm"
  },
  {
   "nom": "Café Seasons",
   "lat": 38.7473537,
   "lng": -9.2151407,
   "type": "kebab, burger",
   "halalConfidence": "likely",
   "mapsUrl": "https://maps.google.com/?q=38.7473537,-9.2151407",
   "source": "osm"
  },
  {
   "nom": "A Taça Café",
   "lat": 38.775693,
   "lng": -9.0925647,
   "type": "moroccan, portuguese",
   "halalConfidence": "likely",
   "mapsUrl": "https://maps.google.com/?q=38.775693,-9.0925647",
   "source": "osm"
  },
  {
   "nom": "Sirijana",
   "lat": 38.7774755,
   "lng": -9.0954742,
   "type": "indian",
   "halalConfidence": "likely",
   "mapsUrl": "https://maps.google.com/?q=38.7774755,-9.0954742",
   "source": "osm"
  },
  {
   "nom": "JOGI",
   "lat": 38.6576698,
   "lng": -9.1549475,
   "type": "italian, indian",
   "halalConfidence": "likely",
   "mapsUrl": "https://maps.google.com/?q=38.6576698,-9.1549475",
   "source": "osm"
  },
  {
   "nom": "Taste Indian Restaurant",
   "lat": 38.7829596,
   "lng": -9.0947081,
   "type": "indian",
   "halalConfidence": "likely",
   "mapsUrl": "https://maps.google.com/?q=38.7829596,-9.0947081",
   "source": "osm"
  }
 ],
 "hotels": [
  {
   "nom": "Thirtyhome",
   "categorie": "Maison d'hôtes",
   "priceRange": "€€",
   "mapsUrl": "https://maps.google.com/?q=38.7227483,-9.1383144",
   "lat": 38.7227483,
   "lng": -9.1383144,
   "halalFriendly": false,
   "bookingUrl": "https://maps.google.com/?q=38.7227483,-9.1383144",
   "source": "osm"
  },
  {
   "nom": "Lisboa Garden Hostel",
   "categorie": "Hôtel",
   "priceRange": "€€",
   "mapsUrl": "https://maps.google.com/?q=38.7207659,-9.1392906",
   "lat": 38.7207659,
   "lng": -9.1392906,
   "halalFriendly": false,
   "bookingUrl": "https://maps.google.com/?q=38.7207659,-9.1392906",
   "source": "osm"
  },
  {
   "nom": "We Hate F Tourists",
   "categorie": "Auberge",
   "priceRange": "€€",
   "mapsUrl": "https://maps.google.com/?q=38.7222238,-9.1365896",
   "lat": 38.7222238,
   "lng": -9.1365896,
   "halalFriendly": false,
   "bookingUrl": "https://www.wehateftourists.com/",
   "source": "osm"
  },
  {
   "nom": "Casa do Conde",
   "categorie": "Maison d'hôtes",
   "priceRange": "€€",
   "mapsUrl": "https://maps.google.com/?q=38.7232937,-9.1366327",
   "lat": 38.7232937,
   "lng": -9.1366327,
   "halalFriendly": false,
   "bookingUrl": "https://maps.google.com/?q=38.7232937,-9.1366327",
   "source": "osm"
  },
  {
   "nom": "Hostel 15",
   "categorie": "Auberge",
   "priceRange": "€€",
   "mapsUrl": "https://maps.google.com/?q=38.7216473,-9.1355653",
   "lat": 38.7216473,
   "lng": -9.1355653,
   "halalFriendly": false,
   "bookingUrl": "https://maps.google.com/?q=38.7216473,-9.1355653",
   "source": "osm"
  },
  {
   "nom": "Pouso dos Anjos",
   "categorie": "Hôtel",
   "priceRange": "€€",
   "mapsUrl": "https://maps.google.com/?q=38.7236765,-9.1358861",
   "lat": 38.7236765,
   "lng": -9.1358861,
   "halalFriendly": false,
   "bookingUrl": "https://pousodosanjos.com/frames/anjos/photos-en.html",
   "source": "osm"
  },
  {
   "nom": "Be Lisbon",
   "categorie": "Auberge",
   "priceRange": "€€",
   "mapsUrl": "https://maps.google.com/?q=38.7214416,-9.1352454",
   "lat": 38.7214416,
   "lng": -9.1352454,
   "halalFriendly": false,
   "bookingUrl": "https://maps.google.com/?q=38.7214416,-9.1352454",
   "source": "osm"
  },
  {
   "nom": "WC Beautique Hotel Collection",
   "categorie": "Hôtel",
   "priceRange": "€€",
   "mapsUrl": "https://maps.google.com/?q=38.7235887,-9.1353451",
   "lat": 38.7235887,
   "lng": -9.1353451,
   "halalFriendly": false,
   "bookingUrl": "https://www.thebeautiquehotels.com/en/wc/",
   "source": "osm"
  },
  {
   "nom": "Portugal Ways Culture Guest House",
   "categorie": "Auberge",
   "priceRange": "€€",
   "mapsUrl": "https://maps.google.com/?q=38.7210477,-9.1352475",
   "lat": 38.7210477,
   "lng": -9.1352475,
   "halalFriendly": false,
   "bookingUrl": "https://www.portugalways.com/",
   "source": "osm"
  },
  {
   "nom": "Lisbon Chillout Hostel",
   "categorie": "Auberge",
   "priceRange": "€€",
   "mapsUrl": "https://maps.google.com/?q=38.7236092,-9.1433577",
   "lat": 38.7236092,
   "lng": -9.1433577,
   "halalFriendly": false,
   "bookingUrl": "https://maps.google.com/?q=38.7236092,-9.1433577",
   "source": "osm"
  },
  {
   "nom": "Next Hostel",
   "categorie": "Auberge",
   "priceRange": "€€",
   "mapsUrl": "https://maps.google.com/?q=38.7208117,-9.1353205",
   "lat": 38.7208117,
   "lng": -9.1353205,
   "halalFriendly": false,
   "bookingUrl": "https://maps.google.com/?q=38.7208117,-9.1353205",
   "source": "osm"
  },
  {
   "nom": "Estrela dos Anjos",
   "categorie": "Hôtel",
   "priceRange": "€€",
   "mapsUrl": "https://maps.google.com/?q=38.724763,-9.1360083",
   "lat": 38.724763,
   "lng": -9.1360083,
   "halalFriendly": false,
   "bookingUrl": "https://maps.google.com/?q=38.724763,-9.1360083",
   "source": "osm"
  },
  {
   "nom": "Upon Angels",
   "categorie": "Hôtel",
   "priceRange": "€€",
   "mapsUrl": "https://maps.google.com/?q=38.7217928,-9.134668",
   "lat": 38.7217928,
   "lng": -9.134668,
   "halalFriendly": false,
   "bookingUrl": "https://stayupon.com",
   "source": "osm"
  },
  {
   "nom": "Coutinho Apt",
   "categorie": "Maison d'hôtes",
   "priceRange": "€€",
   "mapsUrl": "https://maps.google.com/?q=38.7246939,-9.1353023",
   "lat": 38.7246939,
   "lng": -9.1353023,
   "halalFriendly": false,
   "bookingUrl": "https://maps.google.com/?q=38.7246939,-9.1353023",
   "source": "osm"
  },
  {
   "nom": "Lisbon City Hotel",
   "categorie": "Hôtel",
   "priceRange": "€€€",
   "score": 3,
   "mapsUrl": "https://maps.google.com/?q=38.7247381,-9.1353104",
   "lat": 38.7247381,
   "lng": -9.1353104,
   "halalFriendly": false,
   "bookingUrl": "http://www.lisboncityhotel.com/",
   "source": "osm"
  },
  {
   "nom": "Intendente 1865",
   "categorie": "Maison d'hôtes",
   "priceRange": "€€",
   "mapsUrl": "https://maps.google.com/?q=38.7213584,-9.1342724",
   "lat": 38.7213584,
   "lng": -9.1342724,
   "halalFriendly": false,
   "bookingUrl": "http://intendente1865.pt",
   "source": "osm"
  },
  {
   "nom": "Palácio de São João",
   "categorie": "Hôtel",
   "priceRange": "€€",
   "mapsUrl": "https://maps.google.com/?q=38.7224134,-9.14469",
   "lat": 38.7224134,
   "lng": -9.14469,
   "halalFriendly": false,
   "bookingUrl": "https://maps.google.com/?q=38.7224134,-9.14469",
   "source": "osm"
  },
  {
   "nom": "Airbnb",
   "categorie": "Maison d'hôtes",
   "priceRange": "€€",
   "mapsUrl": "https://maps.google.com/?q=38.7198736,-9.1437228",
   "lat": 38.7198736,
   "lng": -9.1437228,
   "halalFriendly": false,
   "bookingUrl": "https://maps.google.com/?q=38.7198736,-9.1437228",
   "source": "osm"
  },
  {
   "nom": "Stay Hotel Lisboa",
   "categorie": "Hôtel",
   "priceRange": "€€",
   "score": 2,
   "mapsUrl": "https://maps.google.com/?q=38.7263295,-9.1409422",
   "lat": 38.7263295,
   "lng": -9.1409422,
   "halalFriendly": false,
   "bookingUrl": "https://www.princesahotel.pt/",
   "source": "osm"
  },
  {
   "nom": "Lisbon Style Guesthouse",
   "categorie": "Maison d'hôtes",
   "priceRange": "€€",
   "mapsUrl": "https://maps.google.com/?q=38.7251428,-9.1352772",
   "lat": 38.7251428,
   "lng": -9.1352772,
   "halalFriendly": false,
   "bookingUrl": "https://maps.google.com/?q=38.7251428,-9.1352772",
   "source": "osm"
  },
  {
   "nom": "Lisbon Serviced Apartments - Benformoso",
   "categorie": "Appartement",
   "priceRange": "€€",
   "mapsUrl": "https://maps.google.com/?q=38.7196237,-9.1350896",
   "lat": 38.7196237,
   "lng": -9.1350896,
   "halalFriendly": false,
   "bookingUrl": "https://lisbonservicedapartments.com/apartments/benformoso/",
   "source": "osm"
  },
  {
   "nom": "Fenicius Charme Hotel",
   "categorie": "Hôtel",
   "priceRange": "€€€",
   "score": 3,
   "mapsUrl": "https://maps.google.com/?q=38.7224568,-9.1338711",
   "lat": 38.7224568,
   "lng": -9.1338711,
   "halalFriendly": false,
   "bookingUrl": "https://www.hotelfenicius.pt/",
   "source": "osm"
  },
  {
   "nom": "Residencial Aleluia",
   "categorie": "Maison d'hôtes",
   "priceRange": "€€",
   "mapsUrl": "https://maps.google.com/?q=38.7247948,-9.1436994",
   "lat": 38.7247948,
   "lng": -9.1436994,
   "halalFriendly": false,
   "bookingUrl": "https://maps.google.com/?q=38.7247948,-9.1436994",
   "source": "osm"
  },
  {
   "nom": "Flag house",
   "categorie": "Auberge",
   "priceRange": "€€",
   "mapsUrl": "https://maps.google.com/?q=38.7239727,-9.134248",
   "lat": 38.7239727,
   "lng": -9.134248,
   "halalFriendly": false,
   "bookingUrl": "http://www.flaghostel.com/",
   "source": "osm"
  },
  {
   "nom": "Hotel Anjos",
   "categorie": "Maison d'hôtes",
   "priceRange": "€€€",
   "score": 3,
   "mapsUrl": "https://maps.google.com/?q=38.7226272,-9.1337866",
   "lat": 38.7226272,
   "lng": -9.1337866,
   "halalFriendly": false,
   "bookingUrl": "https://www.anjoshotel.com/",
   "source": "osm"
  },
  {
   "nom": "Casa del Limonero",
   "categorie": "Hôtel",
   "priceRange": "€€",
   "mapsUrl": "https://maps.google.com/?q=38.7179233,-9.1394856",
   "lat": 38.7179233,
   "lng": -9.1394856,
   "halalFriendly": false,
   "bookingUrl": "https://airbnb.com/",
   "source": "osm"
  },
  {
   "nom": "room00 Lisboa Hostel",
   "categorie": "Hôtel",
   "priceRange": "€€",
   "mapsUrl": "https://maps.google.com/?q=38.7208343,-9.1445938",
   "lat": 38.7208343,
   "lng": -9.1445938,
   "halalFriendly": false,
   "bookingUrl": "https://www.room00hostel.com/",
   "source": "osm"
  },
  {
   "nom": "Istanbul Hostel",
   "categorie": "Maison d'hôtes",
   "priceRange": "€€",
   "mapsUrl": "https://maps.google.com/?q=38.7249797,-9.134824",
   "lat": 38.7249797,
   "lng": -9.134824,
   "halalFriendly": false,
   "bookingUrl": "https://maps.google.com/?q=38.7249797,-9.134824",
   "source": "osm"
  },
  {
   "nom": "Hapimag",
   "categorie": "Hôtel",
   "priceRange": "€€",
   "mapsUrl": "https://maps.google.com/?q=38.7187861,-9.1427729",
   "lat": 38.7187861,
   "lng": -9.1427729,
   "halalFriendly": false,
   "bookingUrl": "https://maps.google.com/?q=38.7187861,-9.1427729",
   "source": "osm"
  },
  {
   "nom": "LX History Rooms - Hotel",
   "categorie": "Maison d'hôtes",
   "priceRange": "€€",
   "mapsUrl": "https://maps.google.com/?q=38.7249537,-9.1346907",
   "lat": 38.7249537,
   "lng": -9.1346907,
   "halalFriendly": false,
   "bookingUrl": "https://maps.google.com/?q=38.7249537,-9.1346907",
   "source": "osm"
  },
  {
   "nom": "NH Collection Lisboa Liberdade",
   "categorie": "Hôtel",
   "priceRange": "€€€€",
   "score": 4,
   "mapsUrl": "https://maps.google.com/?q=38.7203393,-9.1446604",
   "lat": 38.7203393,
   "lng": -9.1446604,
   "halalFriendly": false,
   "bookingUrl": "https://www.nh-hoteles.pt/hotel/nh-collection-lisboa-liberdade",
   "source": "osm"
  },
  {
   "nom": "Inspira Liberdade",
   "categorie": "Hôtel",
   "priceRange": "€€€€",
   "score": 4,
   "mapsUrl": "https://maps.google.com/?q=38.7231934,-9.1451903",
   "lat": 38.7231934,
   "lng": -9.1451903,
   "halalFriendly": false,
   "bookingUrl": "https://inspirahotels.com/inspira-liberdade/",
   "source": "osm"
  },
  {
   "nom": "Valverde Lisboa Hotel",
   "categorie": "Hôtel",
   "priceRange": "€€",
   "mapsUrl": "https://maps.google.com/?q=38.7197361,-9.1444859",
   "lat": 38.7197361,
   "lng": -9.1444859,
   "halalFriendly": false,
   "bookingUrl": "https://maps.google.com/?q=38.7197361,-9.1444859",
   "source": "osm"
  },
  {
   "nom": "Fontecruz Lisboa",
   "categorie": "Hôtel",
   "priceRange": "€€€€",
   "score": 5,
   "mapsUrl": "https://maps.google.com/?q=38.7191427,-9.1440108",
   "lat": 38.7191427,
   "lng": -9.1440108,
   "halalFriendly": false,
   "bookingUrl": "https://www.fontecruzhoteles.com/hotel-fontecruz-lisboa/",
   "source": "osm"
  },
  {
   "nom": "Sete Colinas",
   "categorie": "Maison d'hôtes",
   "priceRange": "€€",
   "score": 2,
   "mapsUrl": "https://maps.google.com/?q=38.7259952,-9.1351979",
   "lat": 38.7259952,
   "lng": -9.1351979,
   "halalFriendly": false,
   "bookingUrl": "https://www.setecolinas.com.pt/",
   "source": "osm"
  },
  {
   "nom": "Calçada de Santana 164",
   "categorie": "Appartement",
   "priceRange": "€€",
   "mapsUrl": "https://maps.google.com/?q=38.7174032,-9.1387288",
   "lat": 38.7174032,
   "lng": -9.1387288,
   "halalFriendly": false,
   "bookingUrl": "https://maps.google.com/?q=38.7174032,-9.1387288",
   "source": "osm"
  },
  {
   "nom": "Hotel Britania",
   "categorie": "Hôtel",
   "priceRange": "€€€€",
   "score": 4,
   "mapsUrl": "https://maps.google.com/?q=38.7215442,-9.1456015",
   "lat": 38.7215442,
   "lng": -9.1456015,
   "halalFriendly": false,
   "bookingUrl": "https://www.hotel-britania.com/",
   "source": "osm"
  },
  {
   "nom": "Downtown Boutique Duplex",
   "categorie": "Appartement",
   "priceRange": "€€",
   "mapsUrl": "https://maps.google.com/?q=38.7176589,-9.1416606",
   "lat": 38.7176589,
   "lng": -9.1416606,
   "halalFriendly": false,
   "bookingUrl": "https://maps.google.com/?q=38.7176589,-9.1416606",
   "source": "osm"
  },
  {
   "nom": "Alojamento Local Private Accommodation",
   "categorie": "Maison d'hôtes",
   "priceRange": "€€",
   "mapsUrl": "https://maps.google.com/?q=38.7235428,-9.1330758",
   "lat": 38.7235428,
   "lng": -9.1330758,
   "halalFriendly": false,
   "bookingUrl": "https://maps.google.com/?q=38.7235428,-9.1330758",
   "source": "osm"
  },
  {
   "nom": "Unique Lisbon Rooms",
   "categorie": "Maison d'hôtes",
   "priceRange": "€€",
   "mapsUrl": "https://maps.google.com/?q=38.7236968,-9.1331048",
   "lat": 38.7236968,
   "lng": -9.1331048,
   "halalFriendly": false,
   "bookingUrl": "https://maps.google.com/?q=38.7236968,-9.1331048",
   "source": "osm"
  },
  {
   "nom": "Hostel Green Heart",
   "categorie": "Auberge",
   "priceRange": "€€",
   "mapsUrl": "https://maps.google.com/?q=38.7234029,-9.1458196",
   "lat": 38.7234029,
   "lng": -9.1458196,
   "halalFriendly": false,
   "bookingUrl": "https://hgreenheart.com/",
   "source": "osm"
  },
  {
   "nom": "Tim ' s Place",
   "categorie": "Maison d'hôtes",
   "priceRange": "€€",
   "mapsUrl": "https://maps.google.com/?q=38.7259942,-9.1440505",
   "lat": 38.7259942,
   "lng": -9.1440505,
   "halalFriendly": false,
   "bookingUrl": "https://maps.google.com/?q=38.7259942,-9.1440505",
   "source": "osm"
  },
  {
   "nom": "Pensão Residencial Portuense",
   "categorie": "Hôtel",
   "priceRange": "€€",
   "mapsUrl": "https://maps.google.com/?q=38.7173604,-9.1415906",
   "lat": 38.7173604,
   "lng": -9.1415906,
   "halalFriendly": false,
   "bookingUrl": "https://maps.google.com/?q=38.7173604,-9.1415906",
   "source": "osm"
  },
  {
   "nom": "Feels Like Home Welcome Center",
   "categorie": "Hôtel",
   "priceRange": "€€",
   "mapsUrl": "https://maps.google.com/?q=38.7177691,-9.1427811",
   "lat": 38.7177691,
   "lng": -9.1427811,
   "halalFriendly": false,
   "bookingUrl": "https://www.feelslikehome.pt/",
   "source": "osm"
  },
  {
   "nom": "Heritage Avenida Liberdade",
   "categorie": "Hôtel",
   "priceRange": "€€€€",
   "score": 4,
   "mapsUrl": "https://maps.google.com/?q=38.717682,-9.1426031",
   "lat": 38.717682,
   "lng": -9.1426031,
   "halalFriendly": false,
   "bookingUrl": "https://www.heritageavliberdade.com/",
   "source": "osm"
  },
  {
   "nom": "Hotel Dom Sancho I",
   "categorie": "Hôtel",
   "priceRange": "€€",
   "score": 2,
   "mapsUrl": "https://maps.google.com/?q=38.721592,-9.1460229",
   "lat": 38.721592,
   "lng": -9.1460229,
   "halalFriendly": false,
   "bookingUrl": "https://www.domsancho.com",
   "source": "osm"
  },
  {
   "nom": "guest house",
   "categorie": "Maison d'hôtes",
   "priceRange": "€€",
   "mapsUrl": "https://maps.google.com/?q=38.7173809,-9.1364209",
   "lat": 38.7173809,
   "lng": -9.1364209,
   "halalFriendly": false,
   "bookingUrl": "https://maps.google.com/?q=38.7173809,-9.1364209",
   "source": "osm"
  },
  {
   "nom": "New Lisbon Concept Hostel",
   "categorie": "Auberge",
   "priceRange": "€€",
   "mapsUrl": "https://maps.google.com/?q=38.7217877,-9.1462019",
   "lat": 38.7217877,
   "lng": -9.1462019,
   "halalFriendly": false,
   "bookingUrl": "http://www.nlchostel.com/",
   "source": "osm"
  },
  {
   "nom": "Universo Romântico",
   "categorie": "Maison d'hôtes",
   "priceRange": "€€",
   "mapsUrl": "https://maps.google.com/?q=38.7257825,-9.1446241",
   "lat": 38.7257825,
   "lng": -9.1446241,
   "halalFriendly": false,
   "bookingUrl": "https://maps.google.com/?q=38.7257825,-9.1446241",
   "source": "osm"
  },
  {
   "nom": "Residencial Mar dos Açores",
   "categorie": "Hôtel",
   "priceRange": "€€",
   "mapsUrl": "https://maps.google.com/?q=38.7271781,-9.1424044",
   "lat": 38.7271781,
   "lng": -9.1424044,
   "halalFriendly": false,
   "bookingUrl": "https://maps.google.com/?q=38.7271781,-9.1424044",
   "source": "osm"
  },
  {
   "nom": "Hotel Lisboa",
   "categorie": "Hôtel",
   "priceRange": "€€€€",
   "score": 4,
   "mapsUrl": "https://maps.google.com/?q=38.7222411,-9.1463048",
   "lat": 38.7222411,
   "lng": -9.1463048,
   "halalFriendly": false,
   "bookingUrl": "https://www.hotellisboa.com.pt/",
   "source": "osm"
  },
  {
   "nom": "Residencial Dublin",
   "categorie": "Maison d'hôtes",
   "priceRange": "€€",
   "mapsUrl": "https://maps.google.com/?q=38.7240265,-9.145969",
   "lat": 38.7240265,
   "lng": -9.145969,
   "halalFriendly": false,
   "bookingUrl": "https://residencialdublin.com/",
   "source": "osm"
  },
  {
   "nom": "Residencial João XXI",
   "categorie": "Maison d'hôtes",
   "priceRange": "€€",
   "mapsUrl": "https://maps.google.com/?q=38.727344,-9.1421645",
   "lat": 38.727344,
   "lng": -9.1421645,
   "halalFriendly": false,
   "bookingUrl": "https://www.joaoxxiresidencial.com",
   "source": "osm"
  },
  {
   "nom": "Shelter 10",
   "categorie": "Auberge",
   "priceRange": "€€",
   "mapsUrl": "https://maps.google.com/?q=38.7271474,-9.1426877",
   "lat": 38.7271474,
   "lng": -9.1426877,
   "halalFriendly": false,
   "bookingUrl": "https://maps.google.com/?q=38.7271474,-9.1426877",
   "source": "osm"
  },
  {
   "nom": "We Love Hostel",
   "categorie": "Auberge",
   "priceRange": "€€",
   "mapsUrl": "https://maps.google.com/?q=38.72617,-9.1341782",
   "lat": 38.72617,
   "lng": -9.1341782,
   "halalFriendly": false,
   "bookingUrl": "https://maps.google.com/?q=38.72617,-9.1341782",
   "source": "osm"
  },
  {
   "nom": "Shangi-la Hostel",
   "categorie": "Maison d'hôtes",
   "priceRange": "€€",
   "mapsUrl": "https://maps.google.com/?q=38.7275658,-9.1366975",
   "lat": 38.7275658,
   "lng": -9.1366975,
   "halalFriendly": false,
   "bookingUrl": "https://hoteis.com/",
   "source": "osm"
  },
  {
   "nom": "Sofitel Lisbon Liberdade",
   "categorie": "Hôtel",
   "priceRange": "€€€€",
   "score": 5,
   "mapsUrl": "https://maps.google.com/?q=38.7186203,-9.1448636",
   "lat": 38.7186203,
   "lng": -9.1448636,
   "halalFriendly": false,
   "bookingUrl": "http://www.sofitel.com/gb/hotel-1319-sofitel-lisbon-liberdade/index.shtml",
   "source": "osm"
  },
  {
   "nom": "Bed@Lisbon Graça",
   "categorie": "Appartement",
   "priceRange": "€€",
   "mapsUrl": "https://maps.google.com/?q=38.7201781,-9.1324554",
   "lat": 38.7201781,
   "lng": -9.1324554,
   "halalFriendly": false,
   "bookingUrl": "https://maps.google.com/?q=38.7201781,-9.1324554",
   "source": "osm"
  },
  {
   "nom": "Sant Jordi Hostels Lisbon",
   "categorie": "Auberge",
   "priceRange": "€€",
   "mapsUrl": "https://maps.google.com/?q=38.7238107,-9.1321902",
   "lat": 38.7238107,
   "lng": -9.1321902,
   "halalFriendly": false,
   "bookingUrl": "https://www.santjordihostels.com/lisbon/",
   "source": "osm"
  },
  {
   "nom": "Palácio do Visconde",
   "categorie": "Hôtel",
   "priceRange": "€€",
   "mapsUrl": "https://maps.google.com/?q=38.7232417,-9.1320143",
   "lat": 38.7232417,
   "lng": -9.1320143,
   "halalFriendly": false,
   "bookingUrl": "https://maps.google.com/?q=38.7232417,-9.1320143",
   "source": "osm"
  },
  {
   "nom": "The Leaf Boutique Hotel",
   "categorie": "Hôtel",
   "priceRange": "€€",
   "mapsUrl": "https://maps.google.com/?q=38.7275043,-9.1424987",
   "lat": 38.7275043,
   "lng": -9.1424987,
   "halalFriendly": false,
   "bookingUrl": "https://www.theleafboutiquehotel.com",
   "source": "osm"
  },
  {
   "nom": "Turim Boulevard Hotel",
   "categorie": "Hôtel",
   "priceRange": "€€",
   "mapsUrl": "https://maps.google.com/?q=38.719806,-9.1460092",
   "lat": 38.719806,
   "lng": -9.1460092,
   "halalFriendly": false,
   "bookingUrl": "https://maps.google.com/?q=38.719806,-9.1460092",
   "source": "osm"
  },
  {
   "nom": "House on the Hill",
   "categorie": "Appartement",
   "priceRange": "€€",
   "mapsUrl": "https://maps.google.com/?q=38.7202745,-9.1322795",
   "lat": 38.7202745,
   "lng": -9.1322795,
   "halalFriendly": false,
   "bookingUrl": "https://maps.google.com/?q=38.7202745,-9.1322795",
   "source": "osm"
  },
  {
   "nom": "Mouraria Apartments von Sergio",
   "categorie": "Maison d'hôtes",
   "priceRange": "€€",
   "mapsUrl": "https://maps.google.com/?q=38.7177936,-9.1345013",
   "lat": 38.7177936,
   "lng": -9.1345013,
   "halalFriendly": false,
   "bookingUrl": "https://maps.google.com/?q=38.7177936,-9.1345013",
   "source": "osm"
  },
  {
   "nom": "Empire Marquês Hotel",
   "categorie": "Hôtel",
   "priceRange": "€€",
   "mapsUrl": "https://maps.google.com/?q=38.7256202,-9.1456557",
   "lat": 38.7256202,
   "lng": -9.1456557,
   "halalFriendly": false,
   "bookingUrl": "https://www.empiremarqueshotel.com",
   "source": "osm"
  },
  {
   "nom": "Guest In Ninho",
   "categorie": "Appartement",
   "priceRange": "€€",
   "mapsUrl": "https://maps.google.com/?q=38.7218722,-9.1316335",
   "lat": 38.7218722,
   "lng": -9.1316335,
   "halalFriendly": false,
   "bookingUrl": "https://maps.google.com/?q=38.7218722,-9.1316335",
   "source": "osm"
  },
  {
   "nom": "Sunny Lisbon - Guest House And Residence",
   "categorie": "Appartement",
   "priceRange": "€€",
   "mapsUrl": "https://maps.google.com/?q=38.7217799,-9.131617",
   "lat": 38.7217799,
   "lng": -9.131617,
   "halalFriendly": false,
   "bookingUrl": "https://maps.google.com/?q=38.7217799,-9.131617",
   "source": "osm"
  },
  {
   "nom": "Lisbon Wine Hotel",
   "categorie": "Hôtel",
   "priceRange": "€€",
   "mapsUrl": "https://maps.google.com/?q=38.7163245,-9.1403677",
   "lat": 38.7163245,
   "lng": -9.1403677,
   "halalFriendly": false,
   "bookingUrl": "https://www.lisbonwinehotel.com",
   "source": "osm"
  },
  {
   "nom": "Discover Lisbon",
   "categorie": "Hôtel",
   "priceRange": "€€",
   "mapsUrl": "https://maps.google.com/?q=38.7177522,-9.1443816",
   "lat": 38.7177522,
   "lng": -9.1443816,
   "halalFriendly": false,
   "bookingUrl": "https://maps.google.com/?q=38.7177522,-9.1443816",
   "source": "osm"
  },
  {
   "nom": "Hotel Florescente",
   "categorie": "Hôtel",
   "priceRange": "€€",
   "mapsUrl": "https://maps.google.com/?q=38.7163703,-9.1407846",
   "lat": 38.7163703,
   "lng": -9.1407846,
   "halalFriendly": false,
   "bookingUrl": "https://www.hotelflorescente.com/",
   "source": "osm"
  },
  {
   "nom": "Lisboa Plaza",
   "categorie": "Hôtel",
   "priceRange": "€€€€",
   "score": 4,
   "mapsUrl": "https://maps.google.com/?q=38.7187151,-9.145552",
   "lat": 38.7187151,
   "lng": -9.145552,
   "halalFriendly": false,
   "bookingUrl": "https://www.lisbonplazahotel.com/",
   "source": "osm"
  },
  {
   "nom": "Hotel Travel Park",
   "categorie": "Hôtel",
   "priceRange": "€€€",
   "score": 3,
   "mapsUrl": "https://maps.google.com/?q=38.7271376,-9.1345937",
   "lat": 38.7271376,
   "lng": -9.1345937,
   "halalFriendly": false,
   "bookingUrl": "https://www.hoteltravelpark.com/",
   "source": "osm"
  },
  {
   "nom": "Lisbon Rooftops Guesthuose",
   "categorie": "Maison d'hôtes",
   "priceRange": "€€",
   "mapsUrl": "https://maps.google.com/?q=38.716311,-9.1379308",
   "lat": 38.716311,
   "lng": -9.1379308,
   "halalFriendly": false,
   "bookingUrl": "https://maps.google.com/?q=38.716311,-9.1379308",
   "source": "osm"
  },
  {
   "nom": "Lx Flowers Apartments",
   "categorie": "Appartement",
   "priceRange": "€€",
   "mapsUrl": "https://maps.google.com/?q=38.7162652,-9.1403109",
   "lat": 38.7162652,
   "lng": -9.1403109,
   "halalFriendly": false,
   "bookingUrl": "https://maps.google.com/?q=38.7162652,-9.1403109",
   "source": "osm"
  },
  {
   "nom": "Caravela",
   "categorie": "Maison d'hôtes",
   "priceRange": "€€",
   "mapsUrl": "https://maps.google.com/?q=38.7272478,-9.1438498",
   "lat": 38.7272478,
   "lng": -9.1438498,
   "halalFriendly": false,
   "bookingUrl": "https://maps.google.com/?q=38.7272478,-9.1438498",
   "source": "osm"
  },
  {
   "nom": "DuMont Lisbon Guesthouse",
   "categorie": "Hôtel",
   "priceRange": "€€",
   "mapsUrl": "https://maps.google.com/?q=38.7213785,-9.1315538",
   "lat": 38.7213785,
   "lng": -9.1315538,
   "halalFriendly": false,
   "bookingUrl": "https://maps.google.com/?q=38.7213785,-9.1315538",
   "source": "osm"
  },
  {
   "nom": "Room Select Liberdade",
   "categorie": "Hôtel",
   "priceRange": "€€",
   "mapsUrl": "https://maps.google.com/?q=38.7175491,-9.1442344",
   "lat": 38.7175491,
   "lng": -9.1442344,
   "halalFriendly": false,
   "bookingUrl": "https://roomselecthotels.com/lisboa/",
   "source": "osm"
  },
  {
   "nom": "easyHotel",
   "categorie": "Hôtel",
   "priceRange": "€€",
   "mapsUrl": "https://maps.google.com/?q=38.7250815,-9.1462929",
   "lat": 38.7250815,
   "lng": -9.1462929,
   "halalFriendly": false,
   "bookingUrl": "https://www.easyhotel.com/es/hotels/portugal",
   "source": "osm"
  },
  {
   "nom": "Turim Luxe Hotel",
   "categorie": "Hôtel",
   "priceRange": "€€€",
   "score": 3,
   "mapsUrl": "https://maps.google.com/?q=38.7280707,-9.1366289",
   "lat": 38.7280707,
   "lng": -9.1366289,
   "halalFriendly": false,
   "bookingUrl": "https://www.turim-hotels.com/hoteis/turim-luxe-hotel-133",
   "source": "osm"
  },
  {
   "nom": "Duplex Senhora Do Monte",
   "categorie": "Appartement",
   "priceRange": "€€",
   "mapsUrl": "https://maps.google.com/?q=38.7197954,-9.1321117",
   "lat": 38.7197954,
   "lng": -9.1321117,
   "halalFriendly": false,
   "bookingUrl": "https://maps.google.com/?q=38.7197954,-9.1321117",
   "source": "osm"
  },
  {
   "nom": "Seven Hills Hostel",
   "categorie": "Auberge",
   "priceRange": "€€",
   "mapsUrl": "https://maps.google.com/?q=38.7272636,-9.1346503",
   "lat": 38.7272636,
   "lng": -9.1346503,
   "halalFriendly": false,
   "bookingUrl": "http://www.hostelsevenhills.com",
   "source": "osm"
  },
  {
   "nom": "Era Uma Vez Em Lisboa",
   "categorie": "Maison d'hôtes",
   "priceRange": "€€",
   "mapsUrl": "https://maps.google.com/?q=38.7164161,-9.1369113",
   "lat": 38.7164161,
   "lng": -9.1369113,
   "halalFriendly": false,
   "bookingUrl": "http://facebook.com/eraumavezemlisboa/",
   "source": "osm"
  },
  {
   "nom": "Maxime Hotel",
   "categorie": "Hôtel",
   "priceRange": "€€",
   "mapsUrl": "https://maps.google.com/?q=38.718426,-9.1454704",
   "lat": 38.718426,
   "lng": -9.1454704,
   "halalFriendly": false,
   "bookingUrl": "https://maps.google.com/?q=38.718426,-9.1454704",
   "source": "osm"
  },
  {
   "nom": "Lisbon Poets Hostel",
   "categorie": "Auberge",
   "priceRange": "€€",
   "mapsUrl": "https://maps.google.com/?q=38.7237663,-9.1315623",
   "lat": 38.7237663,
   "lng": -9.1315623,
   "halalFriendly": false,
   "bookingUrl": "http://www.lisbonpoetshostel.com",
   "source": "osm"
  },
  {
   "nom": "Pax",
   "categorie": "Hôtel",
   "priceRange": "€",
   "score": 1,
   "mapsUrl": "https://maps.google.com/?q=38.7283386,-9.1374169",
   "lat": 38.7283386,
   "lng": -9.1374169,
   "halalFriendly": false,
   "bookingUrl": "https://maps.google.com/?q=38.7283386,-9.1374169",
   "source": "osm"
  },
  {
   "nom": "MASA Hotel Almirante",
   "categorie": "Hôtel",
   "priceRange": "€€",
   "mapsUrl": "https://maps.google.com/?q=38.7274159,-9.1345674",
   "lat": 38.7274159,
   "lng": -9.1345674,
   "halalFriendly": false,
   "bookingUrl": "https://maps.google.com/?q=38.7274159,-9.1345674",
   "source": "osm"
  },
  {
   "nom": "Urban Garden Hostel",
   "categorie": "Auberge",
   "priceRange": "€€",
   "mapsUrl": "https://maps.google.com/?q=38.7244933,-9.1469285",
   "lat": 38.7244933,
   "lng": -9.1469285,
   "halalFriendly": false,
   "bookingUrl": "http://www.urbangardenhostel.com",
   "source": "osm"
  },
  {
   "nom": "Hotel Hotel",
   "categorie": "Hôtel",
   "priceRange": "€€",
   "mapsUrl": "https://maps.google.com/?q=38.7171496,-9.1440512",
   "lat": 38.7171496,
   "lng": -9.1440512,
   "halalFriendly": false,
   "bookingUrl": "https://www.hotelhotel.pt/",
   "source": "osm"
  },
  {
   "nom": "BessaHotel Liberdade",
   "categorie": "Hôtel",
   "priceRange": "€€€€",
   "score": 4,
   "mapsUrl": "https://maps.google.com/?q=38.716916,-9.1436453",
   "lat": 38.716916,
   "lng": -9.1436453,
   "halalFriendly": false,
   "bookingUrl": "https://liberdade.bessahotel.com",
   "source": "osm"
  },
  {
   "nom": "Hotel 3K Madrid",
   "categorie": "Hôtel",
   "priceRange": "€€€€",
   "score": 4,
   "mapsUrl": "https://maps.google.com/?q=38.727123,-9.1446771",
   "lat": 38.727123,
   "lng": -9.1446771,
   "halalFriendly": false,
   "bookingUrl": "https://www.hotel3kmadrid.pt/",
   "source": "osm"
  },
  {
   "nom": "JNcQUOI House",
   "categorie": "Hôtel",
   "priceRange": "€€€",
   "score": 3,
   "mapsUrl": "https://maps.google.com/?q=38.7213925,-9.1474234",
   "lat": 38.7213925,
   "lng": -9.1474234,
   "halalFriendly": false,
   "bookingUrl": "https://maps.google.com/?q=38.7213925,-9.1474234",
   "source": "osm"
  },
  {
   "nom": "Next Level",
   "categorie": "Hôtel",
   "priceRange": "€€",
   "mapsUrl": "https://maps.google.com/?q=38.7275112,-9.1440693",
   "lat": 38.7275112,
   "lng": -9.1440693,
   "halalFriendly": false,
   "bookingUrl": "https://maps.google.com/?q=38.7275112,-9.1440693",
   "source": "osm"
  },
  {
   "nom": "Tagus Palace",
   "categorie": "Hôtel",
   "priceRange": "€€",
   "mapsUrl": "https://maps.google.com/?q=38.7241181,-9.1471737",
   "lat": 38.7241181,
   "lng": -9.1471737,
   "halalFriendly": false,
   "bookingUrl": "https://maps.google.com/?q=38.7241181,-9.1471737",
   "source": "osm"
  },
  {
   "nom": "Graça - Castle | Lisbon Cheese & Wine Apartments",
   "categorie": "Appartement",
   "priceRange": "€€",
   "mapsUrl": "https://maps.google.com/?q=38.7187388,-9.1324357",
   "lat": 38.7187388,
   "lng": -9.1324357,
   "halalFriendly": false,
   "bookingUrl": "https://maps.google.com/?q=38.7187388,-9.1324357",
   "source": "osm"
  },
  {
   "nom": "Escondidinho da Senhora do Monte",
   "categorie": "Appartement",
   "priceRange": "€€",
   "mapsUrl": "https://maps.google.com/?q=38.7198304,-9.131688",
   "lat": 38.7198304,
   "lng": -9.131688,
   "halalFriendly": false,
   "bookingUrl": "https://maps.google.com/?q=38.7198304,-9.131688",
   "source": "osm"
  },
  {
   "nom": "Tings Lisbon",
   "categorie": "Hôtel",
   "priceRange": "€€",
   "mapsUrl": "https://maps.google.com/?q=38.7191256,-9.1320648",
   "lat": 38.7191256,
   "lng": -9.1320648,
   "halalFriendly": false,
   "bookingUrl": "https://maps.google.com/?q=38.7191256,-9.1320648",
   "source": "osm"
  },
  {
   "nom": "Hotel Tivoli",
   "categorie": "Hôtel",
   "priceRange": "€€€€",
   "score": 5,
   "mapsUrl": "https://maps.google.com/?q=38.7209895,-9.1474657",
   "lat": 38.7209895,
   "lng": -9.1474657,
   "halalFriendly": false,
   "bookingUrl": "https://www.tivolihotels.com/pt/tivoli-avenida-liberdade-lisboa",
   "source": "osm"
  },
  {
   "nom": "Alegria Hotel",
   "categorie": "Hôtel",
   "priceRange": "€",
   "score": 1,
   "mapsUrl": "https://maps.google.com/?q=38.7174748,-9.1448956",
   "lat": 38.7174748,
   "lng": -9.1448956,
   "halalFriendly": false,
   "bookingUrl": "https://hotelalegria.pt/",
   "source": "osm"
  },
  {
   "nom": "Lisbonne Collection",
   "categorie": "Appartement",
   "priceRange": "€€",
   "mapsUrl": "https://maps.google.com/?q=38.7194151,-9.1317694",
   "lat": 38.7194151,
   "lng": -9.1317694,
   "halalFriendly": false,
   "bookingUrl": "https://maps.google.com/?q=38.7194151,-9.1317694",
   "source": "osm"
  },
  {
   "nom": "Living Graça",
   "categorie": "Appartement",
   "priceRange": "€€",
   "mapsUrl": "https://maps.google.com/?q=38.7198461,-9.1314822",
   "lat": 38.7198461,
   "lng": -9.1314822,
   "halalFriendly": false,
   "bookingUrl": "https://maps.google.com/?q=38.7198461,-9.1314822",
   "source": "osm"
  },
  {
   "nom": "The Sunset Nest",
   "categorie": "Appartement",
   "priceRange": "€€",
   "mapsUrl": "https://maps.google.com/?q=38.7204769,-9.1312001",
   "lat": 38.7204769,
   "lng": -9.1312001,
   "halalFriendly": false,
   "bookingUrl": "https://maps.google.com/?q=38.7204769,-9.1312001",
   "source": "osm"
  },
  {
   "nom": "Albergaria Senhora do Monte",
   "categorie": "Maison d'hôtes",
   "priceRange": "€€",
   "mapsUrl": "https://maps.google.com/?q=38.71863,-9.132256",
   "lat": 38.71863,
   "lng": -9.132256,
   "halalFriendly": false,
   "bookingUrl": "https://maps.google.com/?q=38.71863,-9.132256",
   "source": "osm"
  },
  {
   "nom": "Residencial Dom João",
   "categorie": "Maison d'hôtes",
   "priceRange": "€€",
   "mapsUrl": "https://maps.google.com/?q=38.7288047,-9.1377645",
   "lat": 38.7288047,
   "lng": -9.1377645,
   "halalFriendly": false,
   "bookingUrl": "https://www.residencialdomjoao.com",
   "source": "osm"
  },
  {
   "nom": "AVANI Avenida Liberdade Lisbon Hotel",
   "categorie": "Hôtel",
   "priceRange": "€€€€",
   "score": 4,
   "mapsUrl": "https://maps.google.com/?q=38.7203684,-9.1474315",
   "lat": 38.7203684,
   "lng": -9.1474315,
   "halalFriendly": false,
   "bookingUrl": "https://www.minorhotels.com/pt/avani/lisbon",
   "source": "osm"
  },
  {
   "nom": "Citi Flat",
   "categorie": "Hôtel",
   "priceRange": "€€",
   "mapsUrl": "https://maps.google.com/?q=38.7279603,-9.1437461",
   "lat": 38.7279603,
   "lng": -9.1437461,
   "halalFriendly": false,
   "bookingUrl": "https://maps.google.com/?q=38.7279603,-9.1437461",
   "source": "osm"
  },
  {
   "nom": "Lisbonaire",
   "categorie": "Auberge",
   "priceRange": "€€",
   "mapsUrl": "https://maps.google.com/?q=38.7165683,-9.1436273",
   "lat": 38.7165683,
   "lng": -9.1436273,
   "halalFriendly": false,
   "bookingUrl": "https://www.lisbonaire.com/",
   "source": "osm"
  },
  {
   "nom": "Good Morning Hostel",
   "categorie": "Auberge",
   "priceRange": "€€",
   "mapsUrl": "https://maps.google.com/?q=38.7157515,-9.1409573",
   "lat": 38.7157515,
   "lng": -9.1409573,
   "halalFriendly": false,
   "bookingUrl": "https://goodmorninghostel.com",
   "source": "osm"
  },
  {
   "nom": "Martim Moniz 28 Guest House",
   "categorie": "Maison d'hôtes",
   "priceRange": "€€",
   "mapsUrl": "https://maps.google.com/?q=38.7165675,-9.1348938",
   "lat": 38.7165675,
   "lng": -9.1348938,
   "halalFriendly": false,
   "bookingUrl": "https://www.booking.com/hotel/pt/guest-house-madhani",
   "source": "osm"
  },
  {
   "nom": "Rossio Garden Hotel",
   "categorie": "Hôtel",
   "priceRange": "€€",
   "mapsUrl": "https://maps.google.com/?q=38.7156281,-9.140487",
   "lat": 38.7156281,
   "lng": -9.140487,
   "halalFriendly": false,
   "bookingUrl": "https://maps.google.com/?q=38.7156281,-9.140487",
   "source": "osm"
  },
  {
   "nom": "House Bairro Estrela D`Ouro",
   "categorie": "Appartement",
   "priceRange": "€€",
   "mapsUrl": "https://maps.google.com/?q=38.7205206,-9.1309393",
   "lat": 38.7205206,
   "lng": -9.1309393,
   "halalFriendly": false,
   "bookingUrl": "https://maps.google.com/?q=38.7205206,-9.1309393",
   "source": "osm"
  },
  {
   "nom": "Airbnb - José",
   "categorie": "Hôtel",
   "priceRange": "€€",
   "mapsUrl": "https://maps.google.com/?q=38.7156084,-9.137796",
   "lat": 38.7156084,
   "lng": -9.137796,
   "halalFriendly": false,
   "bookingUrl": "https://maps.google.com/?q=38.7156084,-9.137796",
   "source": "osm"
  },
  {
   "nom": "Lisboa Central Hostel",
   "categorie": "Auberge",
   "priceRange": "€€",
   "mapsUrl": "https://maps.google.com/?q=38.7244745,-9.1476199",
   "lat": 38.7244745,
   "lng": -9.1476199,
   "halalFriendly": false,
   "bookingUrl": "https://www.lisboacentralhostel.com/index.html",
   "source": "osm"
  },
  {
   "nom": "Lisbon-Holiday-Apartments / Lissabon-Altstadt",
   "categorie": "Appartement",
   "priceRange": "€€",
   "mapsUrl": "https://maps.google.com/?q=38.7182711,-9.1321897",
   "lat": 38.7182711,
   "lng": -9.1321897,
   "halalFriendly": false,
   "bookingUrl": "https://maps.google.com/?q=38.7182711,-9.1321897",
   "source": "osm"
  },
  {
   "nom": "Restauradores 72 Apartment",
   "categorie": "Maison d'hôtes",
   "priceRange": "€€",
   "mapsUrl": "https://maps.google.com/?q=38.7154882,-9.140664",
   "lat": 38.7154882,
   "lng": -9.140664,
   "halalFriendly": false,
   "bookingUrl": "https://maps.google.com/?q=38.7154882,-9.140664",
   "source": "osm"
  },
  {
   "nom": "Nest@Lisbon",
   "categorie": "Appartement",
   "priceRange": "€€",
   "mapsUrl": "https://maps.google.com/?q=38.7184291,-9.1319732",
   "lat": 38.7184291,
   "lng": -9.1319732,
   "halalFriendly": false,
   "bookingUrl": "https://maps.google.com/?q=38.7184291,-9.1319732",
   "source": "osm"
  },
  {
   "nom": "Hotel Blue Liberdade",
   "categorie": "Hôtel",
   "priceRange": "€€",
   "mapsUrl": "https://maps.google.com/?q=38.715485,-9.1407911",
   "lat": 38.715485,
   "lng": -9.1407911,
   "halalFriendly": false,
   "bookingUrl": "https://www.blueliberdadehotel.com/",
   "source": "osm"
  },
  {
   "nom": "Casa de Hóspedes Modelo",
   "categorie": "Auberge",
   "priceRange": "€€",
   "mapsUrl": "https://maps.google.com/?q=38.7153691,-9.1396287",
   "lat": 38.7153691,
   "lng": -9.1396287,
   "halalFriendly": false,
   "bookingUrl": "https://www.pensaomodelo.com",
   "source": "osm"
  },
  {
   "nom": "Turim Restauradores Hotel",
   "categorie": "Hôtel",
   "priceRange": "€€€",
   "score": 3,
   "mapsUrl": "https://maps.google.com/?q=38.7160062,-9.143164",
   "lat": 38.7160062,
   "lng": -9.143164,
   "halalFriendly": false,
   "bookingUrl": "https://www.turim-hotels.com/hoteis/-110",
   "source": "osm"
  },
  {
   "nom": "Gat Rossio Hotel",
   "categorie": "Hôtel",
   "priceRange": "€€€",
   "score": 3,
   "mapsUrl": "https://maps.google.com/?q=38.7153832,-9.1404952",
   "lat": 38.7153832,
   "lng": -9.1404952,
   "halalFriendly": false,
   "bookingUrl": "https://hotelgatrossio.com/",
   "source": "osm"
  }
 ],
 "mosqueesPrincipales": [
  {
   "nom": "Masjid - Mesquita Hazrat Khadija (R.A.)",
   "lat": 38.725038,
   "lng": -9.1338772,
   "coordonnees": {
    "lat": 38.725038,
    "lng": -9.1338772
   },
   "adresse": "Rua Palmira",
   "mapsUrl": "https://maps.google.com/?q=38.725038,-9.1338772",
   "source": "osm"
  },
  {
   "nom": "Martim Moniz Jam-e Mosjid",
   "lat": 38.7174296,
   "lng": -9.1345975,
   "coordonnees": {
    "lat": 38.7174296,
    "lng": -9.1345975
   },
   "adresse": "Rua do Terreirinho, Lisboa",
   "mapsUrl": "https://maps.google.com/?q=38.7174296,-9.1345975",
   "source": "osm"
  },
  {
   "nom": "Comunidade Islâmica Masjid Al-Madinah",
   "lat": 38.6534692,
   "lng": -9.1487742,
   "coordonnees": {
    "lat": 38.6534692,
    "lng": -9.1487742
   },
   "adresse": "Rua Dom Duarte, Laranjeiro e Feijó",
   "mapsUrl": "https://maps.google.com/?q=38.6534692,-9.1487742",
   "source": "osm"
  },
  {
   "id": "osm-299010730",
   "nom": "Mesquita Masjid Aisha Siddika (R.A.)",
   "type": "mosquee",
   "adresse": "Avenida Professor Doutor Augusto Abreu Lopes, Odivelas",
   "lat": 38.7954576,
   "lng": -9.1817473,
   "mapsUrl": "https://maps.google.com/?q=38.7954576,-9.1817473",
   "source": "osm"
  },
  {
   "id": "osm-12687531",
   "nom": "Mesquita Central de Lisboa",
   "type": "mosquee",
   "adresse": "Rua da Mesquita",
   "lat": 38.7355932,
   "lng": -9.1585296,
   "mapsUrl": "https://maps.google.com/?q=38.7355932,-9.1585296",
   "source": "osm"
  }
 ],
 "activites": [
  {
   "nom": "Garcilaso de La Vega (El Inca)",
   "lat": 38.7221854,
   "lng": -9.1395428,
   "coordonnees": {
    "lat": 38.7221854,
    "lng": -9.1395428
   },
   "categorie": "Histoire",
   "mapsUrl": "https://maps.google.com/?q=38.7221854,-9.1395428",
   "source": "osm"
  },
  {
   "nom": "Mártires da Pátria (Março de 1994)",
   "lat": 38.7210671,
   "lng": -9.1402936,
   "coordonnees": {
    "lat": 38.7210671,
    "lng": -9.1402936
   },
   "categorie": "Histoire",
   "mapsUrl": "https://maps.google.com/?q=38.7210671,-9.1402936",
   "source": "osm"
  },
  {
   "nom": "Dona Catarina de Bragança",
   "lat": 38.7234785,
   "lng": -9.1380209,
   "coordonnees": {
    "lat": 38.7234785,
    "lng": -9.1380209
   },
   "categorie": "Histoire",
   "mapsUrl": "https://maps.google.com/?q=38.7234785,-9.1380209",
   "source": "osm"
  },
  {
   "nom": "Gaia",
   "lat": 38.7208658,
   "lng": -9.1381124,
   "coordonnees": {
    "lat": 38.7208658,
    "lng": -9.1381124
   },
   "categorie": "À voir",
   "mapsUrl": "https://maps.google.com/?q=38.7208658,-9.1381124",
   "source": "osm"
  },
  {
   "nom": "Memorial a Maria de Lourdes Pintasilgo: \"Eu e Nós\"",
   "lat": 38.7229937,
   "lng": -9.1418231,
   "coordonnees": {
    "lat": 38.7229937,
    "lng": -9.1418231
   },
   "categorie": "Histoire",
   "mapsUrl": "https://maps.google.com/?q=38.7229937,-9.1418231",
   "source": "osm"
  },
  {
   "nom": "Galeria Foco",
   "lat": 38.7226921,
   "lng": -9.1365234,
   "coordonnees": {
    "lat": 38.7226921,
    "lng": -9.1365234
   },
   "categorie": "Culture",
   "mapsUrl": "https://maps.google.com/?q=38.7226921,-9.1365234",
   "source": "osm"
  },
  {
   "nom": "Relógio de Sol de 1586",
   "lat": 38.7220715,
   "lng": -9.1425766,
   "coordonnees": {
    "lat": 38.7220715,
    "lng": -9.1425766
   },
   "categorie": "Histoire",
   "mapsUrl": "https://maps.google.com/?q=38.7220715,-9.1425766",
   "source": "osm"
  },
  {
   "nom": "Manuel Cordo Boullosa",
   "lat": 38.7195688,
   "lng": -9.1410927,
   "coordonnees": {
    "lat": 38.7195688,
    "lng": -9.1410927
   },
   "categorie": "Histoire",
   "mapsUrl": "https://maps.google.com/?q=38.7195688,-9.1410927",
   "source": "osm"
  },
  {
   "nom": "Madre Teresa de Saldanha",
   "lat": 38.7252049,
   "lng": -9.1405716,
   "coordonnees": {
    "lat": 38.7252049,
    "lng": -9.1405716
   },
   "categorie": "Histoire",
   "mapsUrl": "https://maps.google.com/?q=38.7252049,-9.1405716",
   "source": "osm"
  },
  {
   "nom": "Mural by Mariana Duarte Santos of a grocer in the 50s",
   "lat": 38.720137,
   "lng": -9.1361373,
   "coordonnees": {
    "lat": 38.720137,
    "lng": -9.1361373
   },
   "categorie": "À voir",
   "mapsUrl": "https://maps.google.com/?q=38.720137,-9.1361373",
   "source": "osm"
  },
  {
   "nom": "Kit Garden",
   "lat": 38.7208494,
   "lng": -9.1348872,
   "coordonnees": {
    "lat": 38.7208494,
    "lng": -9.1348872
   },
   "categorie": "À voir",
   "mapsUrl": "https://maps.google.com/?q=38.7208494,-9.1348872",
   "source": "osm"
  },
  {
   "nom": "Luís de Camões (1972-1974)",
   "lat": 38.7185165,
   "lng": -9.1394147,
   "coordonnees": {
    "lat": 38.7185165,
    "lng": -9.1394147
   },
   "categorie": "Histoire",
   "mapsUrl": "https://maps.google.com/?q=38.7185165,-9.1394147",
   "source": "osm"
  },
  {
   "nom": "Viana da Mota",
   "lat": 38.7187197,
   "lng": -9.1411843,
   "coordonnees": {
    "lat": 38.7187197,
    "lng": -9.1411843
   },
   "categorie": "Histoire",
   "mapsUrl": "https://maps.google.com/?q=38.7187197,-9.1411843",
   "source": "osm"
  },
  {
   "nom": "Altar de Nossa Senhora da Salvação",
   "lat": 38.7237357,
   "lng": -9.1445633,
   "coordonnees": {
    "lat": 38.7237357,
    "lng": -9.1445633
   },
   "categorie": "À voir",
   "mapsUrl": "https://maps.google.com/?q=38.7237357,-9.1445633",
   "source": "osm"
  },
  {
   "nom": "Bela-sombra",
   "lat": 38.7246347,
   "lng": -9.1342652,
   "coordonnees": {
    "lat": 38.7246347,
    "lng": -9.1342652
   },
   "categorie": "À voir",
   "mapsUrl": "https://maps.google.com/?q=38.7246347,-9.1342652",
   "source": "osm"
  },
  {
   "nom": "Chopin",
   "lat": 38.7199001,
   "lng": -9.1450337,
   "coordonnees": {
    "lat": 38.7199001,
    "lng": -9.1450337
   },
   "categorie": "Histoire",
   "mapsUrl": "https://maps.google.com/?q=38.7199001,-9.1450337",
   "source": "osm"
  },
  {
   "nom": "Bernardo O'Higgins",
   "lat": 38.7190126,
   "lng": -9.1442897,
   "coordonnees": {
    "lat": 38.7190126,
    "lng": -9.1442897
   },
   "categorie": "Histoire",
   "mapsUrl": "https://maps.google.com/?q=38.7190126,-9.1442897",
   "source": "osm"
  },
  {
   "nom": "Tejo",
   "lat": 38.7183164,
   "lng": -9.1436524,
   "coordonnees": {
    "lat": 38.7183164,
    "lng": -9.1436524
   },
   "categorie": "À voir",
   "mapsUrl": "https://maps.google.com/?q=38.7183164,-9.1436524",
   "source": "osm"
  },
  {
   "nom": "Maternidade",
   "lat": 38.7236396,
   "lng": -9.1458197,
   "coordonnees": {
    "lat": 38.7236396,
    "lng": -9.1458197
   },
   "categorie": "À voir",
   "mapsUrl": "https://maps.google.com/?q=38.7236396,-9.1458197",
   "source": "osm"
  },
  {
   "nom": "Casa onde faleceu Luiz de Camões segundo a tradição documental (10 de Junho de 1580)",
   "lat": 38.7169387,
   "lng": -9.138667,
   "coordonnees": {
    "lat": 38.7169387,
    "lng": -9.138667
   },
   "categorie": "Histoire",
   "mapsUrl": "https://maps.google.com/?q=38.7169387,-9.138667",
   "source": "osm"
  },
  {
   "nom": "Desassosego",
   "lat": 38.7192229,
   "lng": -9.1335441,
   "coordonnees": {
    "lat": 38.7192229,
    "lng": -9.1335441
   },
   "categorie": "À voir",
   "mapsUrl": "https://maps.google.com/?q=38.7192229,-9.1335441",
   "source": "osm"
  },
  {
   "nom": "Museu da Sociedade de Geografia de Lisboa",
   "lat": 38.7166264,
   "lng": -9.1407551,
   "coordonnees": {
    "lat": 38.7166264,
    "lng": -9.1407551
   },
   "categorie": "Culture",
   "mapsUrl": "https://maps.google.com/?q=38.7166264,-9.1407551",
   "source": "osm"
  },
  {
   "nom": "Pinheiro Chagas",
   "lat": 38.7170164,
   "lng": -9.1425185,
   "coordonnees": {
    "lat": 38.7170164,
    "lng": -9.1425185
   },
   "categorie": "Histoire",
   "mapsUrl": "https://maps.google.com/?q=38.7170164,-9.1425185",
   "source": "osm"
  },
  {
   "nom": "Fernando Pessoa",
   "lat": 38.7278295,
   "lng": -9.1367261,
   "coordonnees": {
    "lat": 38.7278295,
    "lng": -9.1367261
   },
   "categorie": "Histoire",
   "mapsUrl": "https://maps.google.com/?q=38.7278295,-9.1367261",
   "source": "osm"
  },
  {
   "nom": "Carlos Botelho (22 de Abril de 1999)",
   "lat": 38.7175076,
   "lng": -9.1438506,
   "coordonnees": {
    "lat": 38.7175076,
    "lng": -9.1438506
   },
   "categorie": "Histoire",
   "mapsUrl": "https://maps.google.com/?q=38.7175076,-9.1438506",
   "source": "osm"
  },
  {
   "nom": "When you close your eyes and nothing matters",
   "lat": 38.7262855,
   "lng": -9.1450953,
   "coordonnees": {
    "lat": 38.7262855,
    "lng": -9.1450953
   },
   "categorie": "À voir",
   "mapsUrl": "https://maps.google.com/?q=38.7262855,-9.1450953",
   "source": "osm"
  },
  {
   "nom": "Sou Como Tu",
   "lat": 38.7223822,
   "lng": -9.1471987,
   "coordonnees": {
    "lat": 38.7223822,
    "lng": -9.1471987
   },
   "categorie": "À voir",
   "mapsUrl": "https://maps.google.com/?q=38.7223822,-9.1471987",
   "source": "osm"
  },
  {
   "nom": "José Martí",
   "lat": 38.7180968,
   "lng": -9.1453,
   "coordonnees": {
    "lat": 38.7180968,
    "lng": -9.1453
   },
   "categorie": "À voir",
   "mapsUrl": "https://maps.google.com/?q=38.7180968,-9.1453",
   "source": "osm"
  },
  {
   "nom": "Jean Monnet",
   "lat": 38.7199236,
   "lng": -9.1470287,
   "coordonnees": {
    "lat": 38.7199236,
    "lng": -9.1470287
   },
   "categorie": "Histoire",
   "mapsUrl": "https://maps.google.com/?q=38.7199236,-9.1470287",
   "source": "osm"
  },
  {
   "nom": "DUPLEX AIR",
   "lat": 38.7218662,
   "lng": -9.1307992,
   "coordonnees": {
    "lat": 38.7218662,
    "lng": -9.1307992
   },
   "categorie": "Culture",
   "mapsUrl": "https://maps.google.com/?q=38.7218662,-9.1307992",
   "source": "osm"
  },
  {
   "nom": "Mouraria - Berço do Fado",
   "lat": 38.7163666,
   "lng": -9.135163,
   "coordonnees": {
    "lat": 38.7163666,
    "lng": -9.135163
   },
   "categorie": "Histoire",
   "mapsUrl": "https://maps.google.com/?q=38.7163666,-9.135163",
   "source": "osm"
  },
  {
   "nom": "Oliveira Martins",
   "lat": 38.7232789,
   "lng": -9.1479809,
   "coordonnees": {
    "lat": 38.7232789,
    "lng": -9.1479809
   },
   "categorie": "Histoire",
   "mapsUrl": "https://maps.google.com/?q=38.7232789,-9.1479809",
   "source": "osm"
  },
  {
   "nom": "Vitorino Nemésio (19 de Dezembro de 2001)",
   "lat": 38.726385,
   "lng": -9.1463806,
   "coordonnees": {
    "lat": 38.726385,
    "lng": -9.1463806
   },
   "categorie": "Histoire",
   "mapsUrl": "https://maps.google.com/?q=38.726385,-9.1463806",
   "source": "osm"
  },
  {
   "nom": "Placa Memorial do Martim Moniz",
   "lat": 38.7156009,
   "lng": -9.136528,
   "coordonnees": {
    "lat": 38.7156009,
    "lng": -9.136528
   },
   "categorie": "Histoire",
   "mapsUrl": "https://maps.google.com/?q=38.7156009,-9.136528",
   "source": "osm"
  },
  {
   "nom": "Museu Nacional do Desporto",
   "lat": 38.7155622,
   "lng": -9.142174,
   "coordonnees": {
    "lat": 38.7155622,
    "lng": -9.142174
   },
   "categorie": "Culture",
   "mapsUrl": "https://maps.google.com/?q=38.7155622,-9.142174",
   "source": "osm"
  },
  {
   "nom": "Miradouro do Monte Agudo",
   "lat": 38.7261283,
   "lng": -9.1315193,
   "coordonnees": {
    "lat": 38.7261283,
    "lng": -9.1315193
   },
   "categorie": "Panorama",
   "mapsUrl": "https://maps.google.com/?q=38.7261283,-9.1315193",
   "source": "osm"
  },
  {
   "nom": "Curva atelier",
   "lat": 38.7227784,
   "lng": -9.1300751,
   "coordonnees": {
    "lat": 38.7227784,
    "lng": -9.1300751
   },
   "categorie": "Culture",
   "mapsUrl": "https://maps.google.com/?q=38.7227784,-9.1300751",
   "source": "osm"
  },
  {
   "nom": "O Trabalho",
   "lat": 38.7285116,
   "lng": -9.1443633,
   "coordonnees": {
    "lat": 38.7285116,
    "lng": -9.1443633
   },
   "categorie": "À voir",
   "mapsUrl": "https://maps.google.com/?q=38.7285116,-9.1443633",
   "source": "osm"
  },
  {
   "nom": "Homenagem às Vítimas do Massacre dos Judeus em Lisboa (19 de Abril de 2008)",
   "lat": 38.714848,
   "lng": -9.139084,
   "coordonnees": {
    "lat": 38.714848,
    "lng": -9.139084
   },
   "categorie": "Histoire",
   "mapsUrl": "https://maps.google.com/?q=38.714848,-9.139084",
   "source": "osm"
  },
  {
   "nom": "Homenagem ao Calceteiro de Lisboa",
   "lat": 38.7149996,
   "lng": -9.1413513,
   "coordonnees": {
    "lat": 38.7149996,
    "lng": -9.1413513
   },
   "categorie": "Histoire",
   "mapsUrl": "https://maps.google.com/?q=38.7149996,-9.1413513",
   "source": "osm"
  },
  {
   "nom": "Made In Situ",
   "lat": 38.7171812,
   "lng": -9.1464232,
   "coordonnees": {
    "lat": 38.7171812,
    "lng": -9.1464232
   },
   "categorie": "Culture",
   "mapsUrl": "https://maps.google.com/?q=38.7171812,-9.1464232",
   "source": "osm"
  },
  {
   "nom": "WC/BD",
   "lat": 38.7253883,
   "lng": -9.1482477,
   "coordonnees": {
    "lat": 38.7253883,
    "lng": -9.1482477
   },
   "categorie": "Culture",
   "mapsUrl": "https://maps.google.com/?q=38.7253883,-9.1482477",
   "source": "osm"
  },
  {
   "nom": "Fernando Maurício",
   "lat": 38.7159321,
   "lng": -9.133806,
   "coordonnees": {
    "lat": 38.7159321,
    "lng": -9.133806
   },
   "categorie": "À voir",
   "mapsUrl": "https://maps.google.com/?q=38.7159321,-9.133806",
   "source": "osm"
  },
  {
   "nom": "Museu Medeiros e Almeida",
   "lat": 38.7216803,
   "lng": -9.149145,
   "coordonnees": {
    "lat": 38.7216803,
    "lng": -9.149145
   },
   "categorie": "Culture",
   "mapsUrl": "https://maps.google.com/?q=38.7216803,-9.149145",
   "source": "osm"
  },
  {
   "nom": "Peace Guardian",
   "lat": 38.7208337,
   "lng": -9.1295138,
   "coordonnees": {
    "lat": 38.7208337,
    "lng": -9.1295138
   },
   "categorie": "À voir",
   "mapsUrl": "https://maps.google.com/?q=38.7208337,-9.1295138",
   "source": "osm"
  },
  {
   "nom": "Miradouro de São Pedro de Alcântara",
   "lat": 38.7154373,
   "lng": -9.1440476,
   "coordonnees": {
    "lat": 38.7154373,
    "lng": -9.1440476
   },
   "categorie": "Panorama",
   "mapsUrl": "https://maps.google.com/?q=38.7154373,-9.1440476",
   "source": "osm"
  },
  {
   "nom": "Mercúrio",
   "lat": 38.7201887,
   "lng": -9.1491222,
   "coordonnees": {
    "lat": 38.7201887,
    "lng": -9.1491222
   },
   "categorie": "À voir",
   "mapsUrl": "https://maps.google.com/?q=38.7201887,-9.1491222",
   "source": "osm"
  },
  {
   "nom": "Street art",
   "lat": 38.7198333,
   "lng": -9.1295488,
   "coordonnees": {
    "lat": 38.7198333,
    "lng": -9.1295488
   },
   "categorie": "À voir",
   "mapsUrl": "https://maps.google.com/?q=38.7198333,-9.1295488",
   "source": "osm"
  },
  {
   "nom": "A Alma De Um Povo O Fado",
   "lat": 38.7143085,
   "lng": -9.1405985,
   "coordonnees": {
    "lat": 38.7143085,
    "lng": -9.1405985
   },
   "categorie": "À voir",
   "mapsUrl": "https://maps.google.com/?q=38.7143085,-9.1405985",
   "source": "osm"
  },
  {
   "nom": "José Fontana",
   "lat": 38.7296798,
   "lng": -9.1437174,
   "coordonnees": {
    "lat": 38.7296798,
    "lng": -9.1437174
   },
   "categorie": "Histoire",
   "mapsUrl": "https://maps.google.com/?q=38.7296798,-9.1437174",
   "source": "osm"
  },
  {
   "nom": "Hospital de Bonecas",
   "lat": 38.7141997,
   "lng": -9.1378357,
   "coordonnees": {
    "lat": 38.7141997,
    "lng": -9.1378357
   },
   "categorie": "Culture",
   "mapsUrl": "https://maps.google.com/?q=38.7141997,-9.1378357",
   "source": "osm"
  },
  {
   "nom": "Antes perdida por aqui algures, do que a caminho de nenhures",
   "lat": 38.7181688,
   "lng": -9.1302235,
   "coordonnees": {
    "lat": 38.7181688,
    "lng": -9.1302235
   },
   "categorie": "À voir",
   "mapsUrl": "https://maps.google.com/?q=38.7181688,-9.1302235",
   "source": "osm"
  },
  {
   "nom": "ZABRA",
   "lat": 38.7305625,
   "lng": -9.1388282,
   "coordonnees": {
    "lat": 38.7305625,
    "lng": -9.1388282
   },
   "categorie": "À voir",
   "mapsUrl": "https://maps.google.com/?q=38.7305625,-9.1388282",
   "source": "osm"
  },
  {
   "nom": "Sophia de Mello Breyner Andresen",
   "lat": 38.7166012,
   "lng": -9.1315462,
   "coordonnees": {
    "lat": 38.7166012,
    "lng": -9.1315462
   },
   "categorie": "Histoire",
   "mapsUrl": "https://maps.google.com/?q=38.7166012,-9.1315462",
   "source": "osm"
  },
  {
   "nom": "Afonso Lopes Vieira",
   "lat": 38.7143897,
   "lng": -9.1352198,
   "coordonnees": {
    "lat": 38.7143897,
    "lng": -9.1352198
   },
   "categorie": "Histoire",
   "mapsUrl": "https://maps.google.com/?q=38.7143897,-9.1352198",
   "source": "osm"
  },
  {
   "nom": "7ª Sétima Colina",
   "lat": 38.7164854,
   "lng": -9.1473353,
   "coordonnees": {
    "lat": 38.7164854,
    "lng": -9.1473353
   },
   "categorie": "À voir",
   "mapsUrl": "https://maps.google.com/?q=38.7164854,-9.1473353",
   "source": "osm"
  },
  {
   "nom": "Lisbon Gallery",
   "lat": 38.7309565,
   "lng": -9.1408853,
   "coordonnees": {
    "lat": 38.7309565,
    "lng": -9.1408853
   },
   "categorie": "Culture",
   "mapsUrl": "https://maps.google.com/?q=38.7309565,-9.1408853",
   "source": "osm"
  }
 ],
 "imageCredit": "Wikimedia Commons",
 "osmEnriched": true,
 "osmEnrichedAt": "2026-07-15",
 "description_en": "Lisbon, in Portugal, is a halal-friendly destination with a Halal Trust Score of 4.3/5. Muslim travelers will find 150 halal restaurants listed, 1 mosques, real-time prayer times and the Qibla direction — a complete guide to travel with peace of mind.",
 "metaDescription_en": "Halal guide to Lisbon: 150 halal restaurants listed, 1 mosques, prayer times and tips for Muslim travelers. Halal Trust Score 4.3/5.",
 "nom_en": "Lisbon",
 "boucheries": [],
 "sectionMangerHalal": "À Lisbonne, cap sur Martim Moniz et la Mouraria : cantines bangladaises et pakistanaises halal, épiceries, biryanis à prix doux, à dix minutes à pied de la Baixa. La Mosquée centrale (Praça de Espanha) est entourée d'adresses fiables, et le poisson grillé portugais reste votre allié partout — gare aux sauces au vin.",
 "sectionMangerHalal_en": "In Lisbon, head to Martim Moniz and Mouraria: Bangladeshi and Pakistani halal canteens, groceries and budget biryanis, ten minutes' walk from the Baixa. The Central Mosque (Praça de Espanha) is surrounded by reliable spots, and Portugal's grilled fish is your ally anywhere — watch the wine-based sauces.",
 "sectionOuPrier": "La Mesquita Central de Lisboa (Praça de Espanha) accueille les prières quotidiennes ; des salles existent aussi côté Martim Moniz. L'aéroport Humberto Delgado dispose d'un espace multiconfessionnel.",
 "sectionOuPrier_en": "The Lisbon Central Mosque (Praça de Espanha) hosts daily prayers; prayer spaces also exist around Martim Moniz. Humberto Delgado airport has a multi-faith room.",
 "dataPurgedAt": "2026-07-15"
}