{
 "slug": "lucknow",
 "nom": "Lucknow",
 "pays": "Inde",
 "pays_slug": "inde",
 "continent": "Asie",
 "region": "Inde",
 "coordonnees": {
  "lat": 26.8467,
  "lng": 80.9462
 },
 "codeISO": "",
 "score_halal": 4.5,
 "halalScore": 9,
 "description": "Capitale de la culture nawabi, Lucknow est réputée pour son raffinement, ses monuments moghols-awadhi et sa cuisine halal légendaire (kebabs, biryani).",
 "image": "https://upload.wikimedia.org/wikipedia/commons/6/67/Lucknowuniversity.jpg",
 "image_hero": "https://upload.wikimedia.org/wikipedia/commons/6/67/Lucknowuniversity.jpg",
 "metaDescription": "Capitale de la culture nawabi, Lucknow est réputée pour son raffinement, ses monuments moghols-awadhi et sa cuisine halal légendaire (kebabs, biryani).",
 "statistiques": {
  "restaurants_halal": 2,
  "mosquees": 1,
  "hotels": 30
 },
 "infoPratique": {
  "transport": "Accessible par avion / transports locaux.",
  "meilleureEpoque": "Printemps et automne."
 },
 "tags": [
  "halal"
 ],
 "restaurants": [
  {
   "nom": "Sahu Kathi Chicken Egg Roll Wala",
   "type": "indian, chicken, roll",
   "priceRange": "€€",
   "mapsUrl": "https://maps.google.com/?q=26.8847293,80.9956034",
   "lat": 26.8847293,
   "lng": 80.9956034,
   "halalConfidence": "yes",
   "source": "osm"
  },
  {
   "nom": "Gareeb Nawaz hotel",
   "type": "kebab",
   "priceRange": "€€",
   "mapsUrl": "https://maps.google.com/?q=26.8854688,81.0058951",
   "lat": 26.8854688,
   "lng": 81.0058951,
   "halalConfidence": "likely",
   "source": "osm"
  }
 ],
 "hotels": [
  {
   "nom": "Ram Krishna Guest House",
   "categorie": "Maison d'hôtes",
   "priceRange": "€€",
   "mapsUrl": "https://maps.google.com/?q=26.8450829,80.9482153",
   "lat": 26.8450829,
   "lng": 80.9482153,
   "halalFriendly": false,
   "bookingUrl": "https://maps.google.com/?q=26.8450829,80.9482153",
   "source": "osm"
  },
  {
   "nom": "Hotel Premier",
   "categorie": "Auberge",
   "priceRange": "€€",
   "mapsUrl": "https://maps.google.com/?q=26.8461219,80.9403018",
   "lat": 26.8461219,
   "lng": 80.9403018,
   "halalFriendly": false,
   "bookingUrl": "https://maps.google.com/?q=26.8461219,80.9403018",
   "source": "osm"
  },
  {
   "nom": "Elora",
   "categorie": "Hôtel",
   "priceRange": "€€",
   "mapsUrl": "https://maps.google.com/?q=26.848384,80.9403139",
   "lat": 26.848384,
   "lng": 80.9403139,
   "halalFriendly": false,
   "bookingUrl": "https://maps.google.com/?q=26.848384,80.9403139",
   "source": "osm"
  },
  {
   "nom": "Sarang Manor Apartment",
   "categorie": "Appartement",
   "priceRange": "€€",
   "mapsUrl": "https://maps.google.com/?q=26.852592,80.9453174",
   "lat": 26.852592,
   "lng": 80.9453174,
   "halalFriendly": false,
   "bookingUrl": "https://maps.google.com/?q=26.852592,80.9453174",
   "source": "osm"
  },
  {
   "nom": "Carlton",
   "categorie": "Hôtel",
   "priceRange": "€€",
   "mapsUrl": "https://maps.google.com/?q=26.8559683,80.9468813",
   "lat": 26.8559683,
   "lng": 80.9468813,
   "halalFriendly": false,
   "bookingUrl": "https://maps.google.com/?q=26.8559683,80.9468813",
   "source": "osm"
  },
  {
   "nom": "The Grand Radiant",
   "categorie": "Hôtel",
   "priceRange": "€€",
   "mapsUrl": "https://maps.google.com/?q=26.8420248,80.9368118",
   "lat": 26.8420248,
   "lng": 80.9368118,
   "halalFriendly": false,
   "bookingUrl": "https://www.thegrandradiant.com/",
   "source": "osm"
  },
  {
   "nom": "Radisson",
   "categorie": "Hôtel",
   "priceRange": "€€",
   "mapsUrl": "https://maps.google.com/?q=26.8456527,80.9353104",
   "lat": 26.8456527,
   "lng": 80.9353104,
   "halalFriendly": false,
   "bookingUrl": "https://maps.google.com/?q=26.8456527,80.9353104",
   "source": "osm"
  },
  {
   "nom": "Gemini Continental",
   "categorie": "Hôtel",
   "priceRange": "€€",
   "mapsUrl": "https://maps.google.com/?q=26.852589,80.936321",
   "lat": 26.852589,
   "lng": 80.936321,
   "halalFriendly": false,
   "bookingUrl": "https://maps.google.com/?q=26.852589,80.936321",
   "source": "osm"
  },
  {
   "nom": "Saraka",
   "categorie": "Hôtel",
   "priceRange": "€€",
   "mapsUrl": "https://maps.google.com/?q=26.8342112,80.9480796",
   "lat": 26.8342112,
   "lng": 80.9480796,
   "halalFriendly": false,
   "bookingUrl": "https://maps.google.com/?q=26.8342112,80.9480796",
   "source": "osm"
  },
  {
   "nom": "Clarks Avadh",
   "categorie": "Hôtel",
   "priceRange": "€€",
   "mapsUrl": "https://maps.google.com/?q=26.8563567,80.9356865",
   "lat": 26.8563567,
   "lng": 80.9356865,
   "halalFriendly": false,
   "bookingUrl": "https://maps.google.com/?q=26.8563567,80.9356865",
   "source": "osm"
  },
  {
   "nom": "Lucknow Homestay",
   "categorie": "Auberge",
   "priceRange": "€€",
   "mapsUrl": "https://maps.google.com/?q=26.8319807,80.9500145",
   "lat": 26.8319807,
   "lng": 80.9500145,
   "halalFriendly": false,
   "bookingUrl": "https://lucknowhomestay.wordpress.com/",
   "source": "osm"
  },
  {
   "nom": "Backpackers Den",
   "categorie": "Auberge",
   "priceRange": "€€",
   "mapsUrl": "https://maps.google.com/?q=26.831867,80.9497343",
   "lat": 26.831867,
   "lng": 80.9497343,
   "halalFriendly": false,
   "bookingUrl": "https://maps.google.com/?q=26.831867,80.9497343",
   "source": "osm"
  },
  {
   "nom": "Dolphin Hotel",
   "categorie": "Hôtel",
   "priceRange": "€€",
   "mapsUrl": "https://maps.google.com/?q=26.8516148,80.9287974",
   "lat": 26.8516148,
   "lng": 80.9287974,
   "halalFriendly": false,
   "bookingUrl": "https://maps.google.com/?q=26.8516148,80.9287974",
   "source": "osm"
  },
  {
   "nom": "Madhur Milan Guest House",
   "categorie": "Maison d'hôtes",
   "priceRange": "€€",
   "mapsUrl": "https://maps.google.com/?q=26.8471144,80.9272964",
   "lat": 26.8471144,
   "lng": 80.9272964,
   "halalFriendly": false,
   "bookingUrl": "https://maps.google.com/?q=26.8471144,80.9272964",
   "source": "osm"
  },
  {
   "nom": "Central Hotel",
   "categorie": "Hôtel",
   "priceRange": "€€",
   "mapsUrl": "https://maps.google.com/?q=26.8490973,80.9249952",
   "lat": 26.8490973,
   "lng": 80.9249952,
   "halalFriendly": false,
   "bookingUrl": "https://maps.google.com/?q=26.8490973,80.9249952",
   "source": "osm"
  },
  {
   "nom": "Hotel Simla Palace",
   "categorie": "Hôtel",
   "priceRange": "€€",
   "mapsUrl": "https://maps.google.com/?q=26.8400862,80.9255793",
   "lat": 26.8400862,
   "lng": 80.9255793,
   "halalFriendly": false,
   "bookingUrl": "https://maps.google.com/?q=26.8400862,80.9255793",
   "source": "osm"
  },
  {
   "nom": "Golden Sky",
   "categorie": "Hôtel",
   "priceRange": "€€",
   "mapsUrl": "https://maps.google.com/?q=26.8334596,80.9299811",
   "lat": 26.8334596,
   "lng": 80.9299811,
   "halalFriendly": false,
   "bookingUrl": "https://maps.google.com/?q=26.8334596,80.9299811",
   "source": "osm"
  },
  {
   "nom": "Hotel Saket Regency",
   "categorie": "Hôtel",
   "priceRange": "€€",
   "mapsUrl": "https://maps.google.com/?q=26.8399455,80.925464",
   "lat": 26.8399455,
   "lng": 80.925464,
   "halalFriendly": false,
   "bookingUrl": "https://maps.google.com/?q=26.8399455,80.925464",
   "source": "osm"
  },
  {
   "nom": "Viraj Heights",
   "categorie": "Hôtel",
   "priceRange": "€€",
   "mapsUrl": "https://maps.google.com/?q=26.8392949,80.9247753",
   "lat": 26.8392949,
   "lng": 80.9247753,
   "halalFriendly": false,
   "bookingUrl": "https://maps.google.com/?q=26.8392949,80.9247753",
   "source": "osm"
  },
  {
   "nom": "Hotel Di Di International",
   "categorie": "Hôtel",
   "priceRange": "€€",
   "mapsUrl": "https://maps.google.com/?q=26.8380733,80.9242704",
   "lat": 26.8380733,
   "lng": 80.9242704,
   "halalFriendly": false,
   "bookingUrl": "https://maps.google.com/?q=26.8380733,80.9242704",
   "source": "osm"
  },
  {
   "nom": "Hotel Nexus correction location",
   "categorie": "Hôtel",
   "priceRange": "€€",
   "mapsUrl": "https://maps.google.com/?q=26.8375615,80.9224218",
   "lat": 26.8375615,
   "lng": 80.9224218,
   "halalFriendly": false,
   "bookingUrl": "https://maps.google.com/?q=26.8375615,80.9224218",
   "source": "osm"
  },
  {
   "nom": "Hotel ANR",
   "categorie": "Hôtel",
   "priceRange": "€€",
   "mapsUrl": "https://maps.google.com/?q=26.8371877,80.9214561",
   "lat": 26.8371877,
   "lng": 80.9214561,
   "halalFriendly": false,
   "bookingUrl": "https://maps.google.com/?q=26.8371877,80.9214561",
   "source": "osm"
  },
  {
   "nom": "kanha inn",
   "categorie": "Hôtel",
   "priceRange": "€€",
   "mapsUrl": "https://maps.google.com/?q=26.8423254,80.9193821",
   "lat": 26.8423254,
   "lng": 80.9193821,
   "halalFriendly": false,
   "bookingUrl": "https://maps.google.com/?q=26.8423254,80.9193821",
   "source": "osm"
  },
  {
   "nom": "Renaissance Hotel",
   "categorie": "Hôtel",
   "priceRange": "€€",
   "mapsUrl": "https://maps.google.com/?q=26.8525168,80.9731692",
   "lat": 26.8525168,
   "lng": 80.9731692,
   "halalFriendly": false,
   "bookingUrl": "https://maps.google.com/?q=26.8525168,80.9731692",
   "source": "osm"
  },
  {
   "nom": "Best Western",
   "categorie": "Hôtel",
   "priceRange": "€€",
   "mapsUrl": "https://maps.google.com/?q=26.857139,80.9729424",
   "lat": 26.857139,
   "lng": 80.9729424,
   "halalFriendly": false,
   "bookingUrl": "https://maps.google.com/?q=26.857139,80.9729424",
   "source": "osm"
  },
  {
   "nom": "Moon Star",
   "categorie": "Hôtel",
   "priceRange": "€€",
   "mapsUrl": "https://maps.google.com/?q=26.8345519,80.9201968",
   "lat": 26.8345519,
   "lng": 80.9201968,
   "halalFriendly": false,
   "bookingUrl": "https://maps.google.com/?q=26.8345519,80.9201968",
   "source": "osm"
  },
  {
   "nom": "Taj Residency",
   "categorie": "Hôtel",
   "priceRange": "€€",
   "mapsUrl": "https://maps.google.com/?q=26.851312,80.9753465",
   "lat": 26.851312,
   "lng": 80.9753465,
   "halalFriendly": false,
   "bookingUrl": "https://maps.google.com/?q=26.851312,80.9753465",
   "source": "osm"
  },
  {
   "nom": "Kanaihyalal Dharmik Guesthouse",
   "categorie": "Maison d'hôtes",
   "priceRange": "€€",
   "mapsUrl": "https://maps.google.com/?q=26.8716167,80.9294146",
   "lat": 26.8716167,
   "lng": 80.9294146,
   "halalFriendly": false,
   "bookingUrl": "https://maps.google.com/?q=26.8716167,80.9294146",
   "source": "osm"
  },
  {
   "nom": "Royal Boys Hostel",
   "categorie": "Auberge",
   "priceRange": "€€",
   "mapsUrl": "https://maps.google.com/?q=26.8751582,80.9577468",
   "lat": 26.8751582,
   "lng": 80.9577468,
   "halalFriendly": false,
   "bookingUrl": "https://maps.google.com/?q=26.8751582,80.9577468",
   "source": "osm"
  },
  {
   "nom": "The Regnant",
   "categorie": "Hôtel",
   "priceRange": "€€",
   "mapsUrl": "https://maps.google.com/?q=26.8766124,80.9374338",
   "lat": 26.8766124,
   "lng": 80.9374338,
   "halalFriendly": false,
   "bookingUrl": "https://maps.google.com/?q=26.8766124,80.9374338",
   "source": "osm"
  }
 ],
 "mosqueesPrincipales": [
  {
   "id": "m1",
   "nom": "Grande Mosquée de Lucknow",
   "type": "Mosquée",
   "adresse": "Centre-ville, Lucknow",
   "description": "Mosquée principale de la ville.",
   "note": 5,
   "acces_non_musulmans": false,
   "mapsUrl": "https://maps.google.com/?q=Mosque%20Lucknow%20Lucknow"
  }
 ],
 "activites": [
  {
   "id": "a1",
   "nom": "Bara Imambara",
   "categorie": "Histoire",
   "description": "Complexe monumental au célèbre labyrinthe Bhul Bhulaiya.",
   "prix": "Payant",
   "duree": "",
   "mapsUrl": "https://maps.google.com/?q=Bara%20Imambara%20Lucknow"
  },
  {
   "id": "a2",
   "nom": "Rumi Darwaza",
   "categorie": "Histoire",
   "description": "Porte monumentale emblématique de la ville.",
   "prix": "Gratuit",
   "duree": "",
   "mapsUrl": "https://maps.google.com/?q=Rumi%20Darwaza%20Lucknow"
  },
  {
   "id": "a3",
   "nom": "Mosquée Asfi",
   "categorie": "Spirituel",
   "description": "Grande mosquée du complexe Imambara.",
   "prix": "Gratuit",
   "duree": "",
   "mapsUrl": "https://maps.google.com/?q=Mosqu%C3%A9e%20Asfi%20Lucknow"
  }
 ],
 "imageCredit": "Wikimedia Commons",
 "osmEnriched": true,
 "osmEnrichedAt": "2026-06-30"
}
