{
 "slug": "malmo",
 "nom": "Malmö",
 "pays": "Suède",
 "pays_slug": "suede",
 "continent": "Europe",
 "region": "Suède",
 "coordonnees": {
  "lat": 55.605,
  "lng": 13.0038
 },
 "codeISO": "SE",
 "score_halal": 3.2,
 "halalScore": 6.4,
 "description": "Malmö, Suède. Repérez les restaurants halal et les mosquées via l'application.",
 "metaDescription": "Malmö, Suède. Repérez les restaurants halal et les mosquées via l'application.",
 "image": "https://upload.wikimedia.org/wikipedia/commons/2/24/Malm%C3%B6_collage.PNG",
 "image_hero": "https://upload.wikimedia.org/wikipedia/commons/2/24/Malm%C3%B6_collage.PNG",
 "imageCredit": "Wikimedia Commons",
 "scoreIndicatif": true,
 "statistiques": {
  "restaurants_halal": 90,
  "mosquees": 7,
  "hotels": 39
 },
 "infoPratique": {
  "transport": "Accessible par avion et transports locaux.",
  "meilleureEpoque": "Selon la saison.",
  "conseilHalal": "Repérez restaurants halal et mosquées via l'application."
 },
 "tags": [
  "halal",
  "europe"
 ],
 "restaurants": [
  {
   "nom": "Vegegården",
   "type": "asian",
   "priceRange": "€€",
   "mapsUrl": "https://maps.google.com/?q=55.6040005,13.0083044",
   "lat": 55.6040005,
   "lng": 13.0083044,
   "halalConfidence": "yes",
   "source": "osm"
  },
  {
   "nom": "Shah's Halal Food",
   "type": "middle eastern",
   "priceRange": "€€",
   "mapsUrl": "https://maps.google.com/?q=55.6074113,13.0237307",
   "lat": 55.6074113,
   "lng": 13.0237307,
   "halalConfidence": "only",
   "source": "osm"
  },
  {
   "nom": "Occo",
   "type": "lebanese",
   "priceRange": "€€",
   "mapsUrl": "https://maps.google.com/?q=55.6056731,13.0031065",
   "lat": 55.6056731,
   "lng": 13.0031065,
   "halalConfidence": "likely",
   "source": "osm"
  },
  {
   "nom": "Laziza",
   "type": "lebanese",
   "priceRange": "€€",
   "mapsUrl": "https://maps.google.com/?q=55.6048152,13.0057733",
   "lat": 55.6048152,
   "lng": 13.0057733,
   "halalConfidence": "likely",
   "source": "osm"
  },
  {
   "nom": "Shwarma King",
   "type": "kebab",
   "priceRange": "€€",
   "mapsUrl": "https://maps.google.com/?q=55.605774,13.0006888",
   "lat": 55.605774,
   "lng": 13.0006888,
   "halalConfidence": "likely",
   "source": "osm"
  },
  {
   "nom": "Mahalle",
   "type": "lebanese",
   "priceRange": "€€",
   "mapsUrl": "https://maps.google.com/?q=55.6073001,13.0018951",
   "lat": 55.6073001,
   "lng": 13.0018951,
   "halalConfidence": "likely",
   "source": "osm"
  },
  {
   "nom": "German Doner Kebab",
   "type": "kebab",
   "priceRange": "€€",
   "mapsUrl": "https://maps.google.com/?q=55.6025638,13.001733",
   "lat": 55.6025638,
   "lng": 13.001733,
   "halalConfidence": "likely",
   "source": "osm"
  },
  {
   "nom": "FKS",
   "type": "kebab",
   "priceRange": "€€",
   "mapsUrl": "https://maps.google.com/?q=55.6021671,13.0034044",
   "lat": 55.6021671,
   "lng": 13.0034044,
   "halalConfidence": "likely",
   "source": "osm"
  },
  {
   "nom": "Sofra",
   "type": "kebab",
   "priceRange": "€€",
   "mapsUrl": "https://maps.google.com/?q=55.6092746,12.9998827",
   "lat": 55.6092746,
   "lng": 12.9998827,
   "halalConfidence": "likely",
   "source": "osm"
  },
  {
   "nom": "Alanya",
   "type": "kebab, pizza",
   "priceRange": "€€",
   "mapsUrl": "https://maps.google.com/?q=55.6080482,13.0114087",
   "lat": 55.6080482,
   "lng": 13.0114087,
   "halalConfidence": "likely",
   "source": "osm"
  },
  {
   "nom": "Falafel Mästaren Restaurang",
   "type": "kebab, falafel, lebanese",
   "priceRange": "€€",
   "mapsUrl": "https://maps.google.com/?q=55.6030734,12.9940853",
   "lat": 55.6030734,
   "lng": 12.9940853,
   "halalConfidence": "likely",
   "source": "osm"
  },
  {
   "nom": "Super Falafel",
   "type": "kebab, falafel",
   "priceRange": "€€",
   "mapsUrl": "https://maps.google.com/?q=55.6007232,12.9967266",
   "lat": 55.6007232,
   "lng": 12.9967266,
   "halalConfidence": "likely",
   "source": "osm"
  },
  {
   "nom": "Lera",
   "type": "middle eastern, syrian",
   "priceRange": "€€",
   "mapsUrl": "https://maps.google.com/?q=55.5981123,13.0009394",
   "lat": 55.5981123,
   "lng": 13.0009394,
   "halalConfidence": "likely",
   "source": "osm"
  },
  {
   "nom": "Berlin Döner Malmö",
   "type": "kebab, turkish",
   "priceRange": "€€",
   "mapsUrl": "https://maps.google.com/?q=55.6075164,13.0164263",
   "lat": 55.6075164,
   "lng": 13.0164263,
   "halalConfidence": "likely",
   "source": "osm"
  },
  {
   "nom": "Falafel Triangeln N.1",
   "type": "kebab",
   "priceRange": "€€",
   "mapsUrl": "https://maps.google.com/?q=55.5971746,13.0002898",
   "lat": 55.5971746,
   "lng": 13.0002898,
   "halalConfidence": "likely",
   "source": "osm"
  },
  {
   "nom": "Amanos",
   "type": "pizza, kebab, burger",
   "priceRange": "€€",
   "mapsUrl": "https://maps.google.com/?q=55.6070542,13.0181073",
   "lat": 55.6070542,
   "lng": 13.0181073,
   "halalConfidence": "likely",
   "source": "osm"
  },
  {
   "nom": "Al-Shami",
   "type": "syrian, arab:manakish",
   "priceRange": "€€",
   "mapsUrl": "https://maps.google.com/?q=55.5959858,13.0060639",
   "lat": 55.5959858,
   "lng": 13.0060639,
   "halalConfidence": "likely",
   "source": "osm"
  },
  {
   "nom": "Diba",
   "type": "persian",
   "priceRange": "€€",
   "mapsUrl": "https://maps.google.com/?q=55.6030507,13.0203255",
   "lat": 55.6030507,
   "lng": 13.0203255,
   "halalConfidence": "likely",
   "source": "osm"
  },
  {
   "nom": "Palats",
   "type": "kebab, pizza",
   "priceRange": "€€",
   "mapsUrl": "https://maps.google.com/?q=55.5957243,13.0092413",
   "lat": 55.5957243,
   "lng": 13.0092413,
   "halalConfidence": "likely",
   "source": "osm"
  },
  {
   "nom": "Kitchen 961",
   "type": "lebanese",
   "priceRange": "€€",
   "mapsUrl": "https://maps.google.com/?q=55.5948131,13.0011662",
   "lat": 55.5948131,
   "lng": 13.0011662,
   "halalConfidence": "likely",
   "source": "osm"
  },
  {
   "nom": "Babylon Grill",
   "type": "kebab, falafel",
   "priceRange": "€€",
   "mapsUrl": "https://maps.google.com/?q=55.5959266,13.0125693",
   "lat": 55.5959266,
   "lng": 13.0125693,
   "halalConfidence": "likely",
   "source": "osm"
  },
  {
   "nom": "Statsfalafel & Grill",
   "type": "falafel, kebab",
   "priceRange": "€€",
   "mapsUrl": "https://maps.google.com/?q=55.5953432,12.9968877",
   "lat": 55.5953432,
   "lng": 12.9968877,
   "halalConfidence": "likely",
   "source": "osm"
  },
  {
   "nom": "Falafel Beirut",
   "type": "kebab, falafel",
   "priceRange": "€€",
   "mapsUrl": "https://maps.google.com/?q=55.6057069,13.0232625",
   "lat": 55.6057069,
   "lng": 13.0232625,
   "halalConfidence": "likely",
   "source": "osm"
  },
  {
   "nom": "Palaza grill",
   "type": "pizza, burger, falafel, kebab",
   "priceRange": "€€",
   "mapsUrl": "https://maps.google.com/?q=55.605904,13.0239785",
   "lat": 55.605904,
   "lng": 13.0239785,
   "halalConfidence": "likely",
   "source": "osm"
  },
  {
   "nom": "Kebab Time",
   "type": "kebab",
   "priceRange": "€€",
   "mapsUrl": "https://maps.google.com/?q=55.5933343,13.0059733",
   "lat": 55.5933343,
   "lng": 13.0059733,
   "halalConfidence": "likely",
   "source": "osm"
  },
  {
   "nom": "Chaplin Grill",
   "type": "kebab, falafel",
   "priceRange": "€€",
   "mapsUrl": "https://maps.google.com/?q=55.6054757,13.0247434",
   "lat": 55.6054757,
   "lng": 13.0247434,
   "halalConfidence": "likely",
   "source": "osm"
  },
  {
   "nom": "Värnhems falafel",
   "type": "arab, kebab",
   "priceRange": "€€",
   "mapsUrl": "https://maps.google.com/?q=55.6057002,13.0247859",
   "lat": 55.6057002,
   "lng": 13.0247859,
   "halalConfidence": "likely",
   "source": "osm"
  },
  {
   "nom": "Arous Damascus",
   "type": "syrian, kebab, shawarma, fast food, falafel",
   "priceRange": "€€",
   "mapsUrl": "https://maps.google.com/?q=55.5928101,13.007358",
   "lat": 55.5928101,
   "lng": 13.007358,
   "halalConfidence": "likely",
   "source": "osm"
  },
  {
   "nom": "Grill House",
   "type": "turkish, arab, middle eastern, kebab",
   "priceRange": "€€",
   "mapsUrl": "https://maps.google.com/?q=55.5926789,13.0078386",
   "lat": 55.5926789,
   "lng": 13.0078386,
   "halalConfidence": "likely",
   "source": "osm"
  },
  {
   "nom": "Intergrill",
   "type": "arab, middle eastern, falafel, kebab",
   "priceRange": "€€",
   "mapsUrl": "https://maps.google.com/?q=55.592636,13.0078258",
   "lat": 55.592636,
   "lng": 13.0078258,
   "halalConfidence": "likely",
   "source": "osm"
  },
  {
   "nom": "Tandoor",
   "type": "middle eastern, arab, kebab",
   "priceRange": "€€",
   "mapsUrl": "https://maps.google.com/?q=55.5926177,13.0080471",
   "lat": 55.5926177,
   "lng": 13.0080471,
   "halalConfidence": "likely",
   "source": "osm"
  },
  {
   "nom": "Mezza Beirut",
   "type": "middle eastern, lebanese",
   "priceRange": "€€",
   "mapsUrl": "https://maps.google.com/?q=55.5919785,13.0057064",
   "lat": 55.5919785,
   "lng": 13.0057064,
   "halalConfidence": "likely",
   "source": "osm"
  },
  {
   "nom": "Pappa's Buffé",
   "type": "afghan, middle eastern",
   "priceRange": "€€",
   "mapsUrl": "https://maps.google.com/?q=55.591259,13.0064036",
   "lat": 55.591259,
   "lng": 13.0064036,
   "halalConfidence": "likely",
   "source": "osm"
  },
  {
   "nom": "Restaurang Shiraz",
   "type": "persian",
   "priceRange": "€€",
   "mapsUrl": "https://maps.google.com/?q=55.5912587,13.0077666",
   "lat": 55.5912587,
   "lng": 13.0077666,
   "halalConfidence": "likely",
   "source": "osm"
  },
  {
   "nom": "Bollen i rullen",
   "type": "kebab, falafel, pizza",
   "priceRange": "€€",
   "mapsUrl": "https://maps.google.com/?q=55.5934647,13.0183056",
   "lat": 55.5934647,
   "lng": 13.0183056,
   "halalConfidence": "likely",
   "source": "osm"
  },
  {
   "nom": "Möllans pizzeria",
   "type": "pizza, kebab",
   "priceRange": "€€",
   "mapsUrl": "https://maps.google.com/?q=55.5911957,13.0094018",
   "lat": 55.5911957,
   "lng": 13.0094018,
   "halalConfidence": "likely",
   "source": "osm"
  },
  {
   "nom": "Nobelfalafel",
   "type": "kebab",
   "priceRange": "€€",
   "mapsUrl": "https://maps.google.com/?q=55.5947865,13.0212223",
   "lat": 55.5947865,
   "lng": 13.0212223,
   "halalConfidence": "likely",
   "source": "osm"
  },
  {
   "nom": "Shawarma-specialisten",
   "type": "middle eastern, shawarma, kebab, falafel",
   "priceRange": "€€",
   "mapsUrl": "https://maps.google.com/?q=55.5911631,13.0096382",
   "lat": 55.5911631,
   "lng": 13.0096382,
   "halalConfidence": "likely",
   "source": "osm"
  },
  {
   "nom": "Habayeb",
   "type": "middle eastern, kebab, falafel",
   "priceRange": "€€",
   "mapsUrl": "https://maps.google.com/?q=55.5907393,13.0053614",
   "lat": 55.5907393,
   "lng": 13.0053614,
   "halalConfidence": "likely",
   "source": "osm"
  },
  {
   "nom": "Meyhane",
   "type": "turkish",
   "priceRange": "€€",
   "mapsUrl": "https://maps.google.com/?q=55.5984133,12.9808377",
   "lat": 55.5984133,
   "lng": 12.9808377,
   "halalConfidence": "likely",
   "source": "osm"
  },
  {
   "nom": "Anatolia Kolgrill",
   "type": "arab, balkan, barbecue, kebab, mediterranean, turkish",
   "priceRange": "€€",
   "mapsUrl": "https://maps.google.com/?q=55.5927569,13.0201973",
   "lat": 55.5927569,
   "lng": 13.0201973,
   "halalConfidence": "likely",
   "source": "osm"
  },
  {
   "nom": "Restaurant Khayyam",
   "type": "persian",
   "priceRange": "€€",
   "mapsUrl": "https://maps.google.com/?q=55.5903198,13.0125501",
   "lat": 55.5903198,
   "lng": 13.0125501,
   "halalConfidence": "likely",
   "source": "osm"
  },
  {
   "nom": "Popeye Grill",
   "type": "kebab",
   "priceRange": "€€",
   "mapsUrl": "https://maps.google.com/?q=55.5942131,13.0236394",
   "lat": 55.5942131,
   "lng": 13.0236394,
   "halalConfidence": "likely",
   "source": "osm"
  },
  {
   "nom": "Miss Wang",
   "type": "lebanese",
   "priceRange": "€€",
   "mapsUrl": "https://maps.google.com/?q=55.6144042,12.9816886",
   "lat": 55.6144042,
   "lng": 12.9816886,
   "halalConfidence": "likely",
   "source": "osm"
  },
  {
   "nom": "Pizzeria Da Mary",
   "type": "kebab, pizza",
   "priceRange": "€€",
   "mapsUrl": "https://maps.google.com/?q=55.5896222,13.0154538",
   "lat": 55.5896222,
   "lng": 13.0154538,
   "halalConfidence": "likely",
   "source": "osm"
  },
  {
   "nom": "Fahem & Lahem",
   "type": "arab",
   "priceRange": "€€",
   "mapsUrl": "https://maps.google.com/?q=55.5966907,13.0295021",
   "lat": 55.5966907,
   "lng": 13.0295021,
   "halalConfidence": "likely",
   "source": "osm"
  },
  {
   "nom": "Pizza House & Grill",
   "type": "kebab, falafel, pizza",
   "priceRange": "€€",
   "mapsUrl": "https://maps.google.com/?q=55.5914569,13.02161",
   "lat": 55.5914569,
   "lng": 13.02161,
   "halalConfidence": "likely",
   "source": "osm"
  },
  {
   "nom": "Ariana",
   "type": "indian, afghan, persian",
   "priceRange": "€€",
   "mapsUrl": "https://maps.google.com/?q=55.5893686,13.0150918",
   "lat": 55.5893686,
   "lng": 13.0150918,
   "halalConfidence": "likely",
   "source": "osm"
  },
  {
   "nom": "Kronborgs falafel",
   "type": "kebab",
   "priceRange": "€€",
   "mapsUrl": "https://maps.google.com/?q=55.5919502,12.9838844",
   "lat": 55.5919502,
   "lng": 12.9838844,
   "halalConfidence": "likely",
   "source": "osm"
  },
  {
   "nom": "Grillspecialisten",
   "type": "kebab",
   "priceRange": "€€",
   "mapsUrl": "https://maps.google.com/?q=55.5873649,13.006332",
   "lat": 55.5873649,
   "lng": 13.006332,
   "halalConfidence": "likely",
   "source": "osm"
  },
  {
   "nom": "Dukan Livs",
   "type": "syrian, middle eastern",
   "priceRange": "€€",
   "mapsUrl": "https://maps.google.com/?q=55.5898754,13.0205137",
   "lat": 55.5898754,
   "lng": 13.0205137,
   "halalConfidence": "likely",
   "source": "osm"
  },
  {
   "nom": "Chaplin kebab & falafel",
   "type": "kebab",
   "priceRange": "€€",
   "mapsUrl": "https://maps.google.com/?q=55.5926988,13.0270341",
   "lat": 55.5926988,
   "lng": 13.0270341,
   "halalConfidence": "likely",
   "source": "osm"
  },
  {
   "nom": "Milano Pizzeria",
   "type": "pizza, burger, kebab",
   "priceRange": "€€",
   "mapsUrl": "https://maps.google.com/?q=55.5882557,13.0155735",
   "lat": 55.5882557,
   "lng": 13.0155735,
   "halalConfidence": "likely",
   "source": "osm"
  },
  {
   "nom": "Malmö Kebab",
   "type": "kebab, turkish, falafel",
   "priceRange": "€€",
   "mapsUrl": "https://maps.google.com/?q=55.5907561,13.0254205",
   "lat": 55.5907561,
   "lng": 13.0254205,
   "halalConfidence": "likely",
   "source": "osm"
  },
  {
   "nom": "Nazar Restaurang Grill & Bar",
   "type": "pizza, turkish, kebab",
   "priceRange": "€€",
   "mapsUrl": "https://maps.google.com/?q=55.6093835,13.0369235",
   "lat": 55.6093835,
   "lng": 13.0369235,
   "halalConfidence": "likely",
   "source": "osm"
  },
  {
   "nom": "Manto",
   "type": "afghan, dumplings",
   "priceRange": "€€",
   "mapsUrl": "https://maps.google.com/?q=55.5849885,13.0076243",
   "lat": 55.5849885,
   "lng": 13.0076243,
   "halalConfidence": "likely",
   "source": "osm"
  },
  {
   "nom": "Aras",
   "type": "persian",
   "priceRange": "€€",
   "mapsUrl": "https://maps.google.com/?q=55.5858129,13.0149932",
   "lat": 55.5858129,
   "lng": 13.0149932,
   "halalConfidence": "likely",
   "source": "osm"
  },
  {
   "nom": "Urfa sofrasi",
   "type": "turkish",
   "priceRange": "€€",
   "mapsUrl": "https://maps.google.com/?q=55.595934,13.0372718",
   "lat": 55.595934,
   "lng": 13.0372718,
   "halalConfidence": "likely",
   "source": "osm"
  },
  {
   "nom": "Bellevue Kebab & Falafel",
   "type": "kebab, falafel",
   "priceRange": "€€",
   "mapsUrl": "https://maps.google.com/?q=55.5933883,12.9725379",
   "lat": 55.5933883,
   "lng": 12.9725379,
   "halalConfidence": "likely",
   "source": "osm"
  },
  {
   "nom": "Falafel Bagdad",
   "type": "middle eastern, kebab, falafel",
   "priceRange": "€€",
   "mapsUrl": "https://maps.google.com/?q=55.5883201,13.0268749",
   "lat": 55.5883201,
   "lng": 13.0268749,
   "halalConfidence": "likely",
   "source": "osm"
  },
  {
   "nom": "Ali Orientaliskt",
   "type": "mediterranean, arab, brunch",
   "priceRange": "€€",
   "mapsUrl": "https://maps.google.com/?q=55.5935424,13.0362947",
   "lat": 55.5935424,
   "lng": 13.0362947,
   "halalConfidence": "likely",
   "source": "osm"
  },
  {
   "nom": "Fusion & Fresh",
   "type": "arab, indian, pasta",
   "priceRange": "€€",
   "mapsUrl": "https://maps.google.com/?q=55.5905396,13.0356607",
   "lat": 55.5905396,
   "lng": 13.0356607,
   "halalConfidence": "likely",
   "source": "osm"
  },
  {
   "nom": "Restaurang Mevlana Kolgrill",
   "type": "turkish, barbecue, kebab, middle eastern",
   "priceRange": "€€",
   "mapsUrl": "https://maps.google.com/?q=55.581552,13.0143566",
   "lat": 55.581552,
   "lng": 13.0143566,
   "halalConfidence": "likely",
   "source": "osm"
  },
  {
   "nom": "Taste of Damascus",
   "type": "syrian, arab, kebab, shawarma",
   "priceRange": "€€",
   "mapsUrl": "https://maps.google.com/?q=55.5871485,13.034581",
   "lat": 55.5871485,
   "lng": 13.034581,
   "halalConfidence": "likely",
   "source": "osm"
  },
  {
   "nom": "King Pizza Malmö",
   "type": "burger, kebab, pizza",
   "priceRange": "€€",
   "mapsUrl": "https://maps.google.com/?q=55.5808496,13.0242703",
   "lat": 55.5808496,
   "lng": 13.0242703,
   "halalConfidence": "likely",
   "source": "osm"
  },
  {
   "nom": "Runda grillen",
   "type": "kebab",
   "priceRange": "€€",
   "mapsUrl": "https://maps.google.com/?q=55.578321,13.0086687",
   "lat": 55.578321,
   "lng": 13.0086687,
   "halalConfidence": "likely",
   "source": "osm"
  },
  {
   "nom": "Segevångs falafel och kebab",
   "type": "kebab",
   "priceRange": "€€",
   "mapsUrl": "https://maps.google.com/?q=55.6139827,13.0490371",
   "lat": 55.6139827,
   "lng": 13.0490371,
   "halalConfidence": "likely",
   "source": "osm"
  },
  {
   "nom": "Restaurang Kolgrill",
   "type": "middle eastern, barbecue, kebab",
   "priceRange": "€€",
   "mapsUrl": "https://maps.google.com/?q=55.5857884,13.0446723",
   "lat": 55.5857884,
   "lng": 13.0446723,
   "halalConfidence": "likely",
   "source": "osm"
  },
  {
   "nom": "Bosniska Ćevapćići",
   "type": "bosnian, kebab",
   "priceRange": "€€",
   "mapsUrl": "https://maps.google.com/?q=55.5741328,13.0214279",
   "lat": 55.5741328,
   "lng": 13.0214279,
   "halalConfidence": "likely",
   "source": "osm"
  },
  {
   "nom": "Curry on Wheels",
   "type": "indian, pakistani",
   "priceRange": "€€",
   "mapsUrl": "https://maps.google.com/?q=55.5733493,13.0400326",
   "lat": 55.5733493,
   "lng": 13.0400326,
   "halalConfidence": "likely",
   "source": "osm"
  },
  {
   "nom": "Restaurang Capri",
   "type": "pizza, pasta, kebab, burger",
   "priceRange": "€€",
   "mapsUrl": "https://maps.google.com/?q=55.5621935,12.990239",
   "lat": 55.5621935,
   "lng": 12.990239,
   "halalConfidence": "likely",
   "source": "osm"
  },
  {
   "nom": "Pizzeria Modena",
   "type": "pizza, kebab, burger",
   "priceRange": "€€",
   "mapsUrl": "https://maps.google.com/?q=55.584147,12.9355643",
   "lat": 55.584147,
   "lng": 12.9355643,
   "halalConfidence": "likely",
   "source": "osm"
  },
  {
   "nom": "Meet and Eat",
   "type": "kebab, pizza",
   "priceRange": "€€",
   "mapsUrl": "https://maps.google.com/?q=55.5615722,12.979117",
   "lat": 55.5615722,
   "lng": 12.979117,
   "halalConfidence": "likely",
   "source": "osm"
  },
  {
   "nom": "Arlövs kebab",
   "type": "kebab",
   "priceRange": "€€",
   "mapsUrl": "https://maps.google.com/?q=55.6326645,13.0721502",
   "lat": 55.6326645,
   "lng": 13.0721502,
   "halalConfidence": "likely",
   "source": "osm"
  },
  {
   "nom": "Asia Restaurang",
   "type": "kebab, chinese, vietnamese",
   "priceRange": "€€",
   "mapsUrl": "https://maps.google.com/?q=55.6325205,13.0728923",
   "lat": 55.6325205,
   "lng": 13.0728923,
   "halalConfidence": "likely",
   "source": "osm"
  },
  {
   "nom": "Lomma Kebab och Falafel",
   "type": "kebab",
   "priceRange": "€€",
   "mapsUrl": "https://maps.google.com/?q=55.674191,13.0701817",
   "lat": 55.674191,
   "lng": 13.0701817,
   "halalConfidence": "likely",
   "source": "osm"
  },
  {
   "nom": "Hjärups Pizzeria och Restaurang",
   "type": "pizza, kebab",
   "priceRange": "€€",
   "mapsUrl": "https://maps.google.com/?q=55.6746846,13.1351805",
   "lat": 55.6746846,
   "lng": 13.1351805,
   "halalConfidence": "likely",
   "source": "osm"
  },
  {
   "nom": "Arom Indisk Twist",
   "lat": 55.607814,
   "lng": 13.0066975,
   "type": "indian",
   "halalConfidence": "likely",
   "mapsUrl": "https://maps.google.com/?q=55.607814,13.0066975",
   "source": "osm"
  },
  {
   "nom": "Asian Kingdom (Sri Lankan)",
   "lat": 55.6007434,
   "lng": 13.0023286,
   "type": "asian, chinese, curry, indian",
   "halalConfidence": "likely",
   "mapsUrl": "https://maps.google.com/?q=55.6007434,13.0023286",
   "source": "osm"
  },
  {
   "nom": "Masala Kitchen & Bar",
   "lat": 55.6069267,
   "lng": 12.9969053,
   "type": "indian",
   "halalConfidence": "likely",
   "mapsUrl": "https://maps.google.com/?q=55.6069267,12.9969053",
   "source": "osm"
  },
  {
   "nom": "Restaurang Vitlök",
   "lat": 55.5996049,
   "lng": 13.0083931,
   "type": "thai, indian",
   "halalConfidence": "likely",
   "mapsUrl": "https://maps.google.com/?q=55.5996049,13.0083931",
   "source": "osm"
  },
  {
   "nom": "The Paradise",
   "lat": 55.5986009,
   "lng": 13.0095838,
   "type": "indian",
   "halalConfidence": "likely",
   "mapsUrl": "https://maps.google.com/?q=55.5986009,13.0095838",
   "source": "osm"
  },
  {
   "nom": "Delhi",
   "lat": 55.5944801,
   "lng": 13.0042854,
   "type": "indian",
   "halalConfidence": "likely",
   "mapsUrl": "https://maps.google.com/?q=55.5944801,13.0042854",
   "source": "osm"
  },
  {
   "nom": "Curry Republik",
   "lat": 55.6115765,
   "lng": 12.9803148,
   "type": "indian",
   "halalConfidence": "likely",
   "mapsUrl": "https://maps.google.com/?q=55.6115765,12.9803148",
   "source": "osm"
  },
  {
   "nom": "Spoonery Slottstaden",
   "lat": 55.5972471,
   "lng": 12.9789788,
   "type": "chicken, curry, fish, indian, seafood",
   "halalConfidence": "likely",
   "mapsUrl": "https://maps.google.com/?q=55.5972471,12.9789788",
   "source": "osm"
  },
  {
   "nom": "Kontrast Ghee by the Sea",
   "lat": 55.6101936,
   "lng": 12.9736671,
   "type": "indian",
   "halalConfidence": "likely",
   "mapsUrl": "https://maps.google.com/?q=55.6101936,12.9736671",
   "source": "osm"
  },
  {
   "nom": "Danial's Indian Kitchen & Pizza",
   "lat": 55.5714942,
   "lng": 13.0364665,
   "type": "indian, pizza",
   "halalConfidence": "likely",
   "mapsUrl": "https://maps.google.com/?q=55.5714942,13.0364665",
   "source": "osm"
  },
  {
   "nom": "Dhaba Indian Kitchen",
   "lat": 55.5644687,
   "lng": 12.9726176,
   "type": "indian",
   "halalConfidence": "likely",
   "mapsUrl": "https://maps.google.com/?q=55.5644687,12.9726176",
   "source": "osm"
  },
  {
   "nom": "Peacock India in Every Bite",
   "lat": 55.5823502,
   "lng": 12.9317076,
   "type": "indian",
   "halalConfidence": "likely",
   "mapsUrl": "https://maps.google.com/?q=55.5823502,12.9317076",
   "source": "osm"
  },
  {
   "nom": "Mirchi by Masala & More",
   "lat": 55.5533881,
   "lng": 12.9955578,
   "type": "indian",
   "halalConfidence": "likely",
   "mapsUrl": "https://maps.google.com/?q=55.5533881,12.9955578",
   "source": "osm"
  }
 ],
 "hotels": [
  {
   "nom": "First Hotel Garden",
   "categorie": "Hôtel",
   "priceRange": "€€",
   "mapsUrl": "https://maps.google.com/?q=55.6045522,13.0037875",
   "lat": 55.6045522,
   "lng": 13.0037875,
   "halalFriendly": false,
   "bookingUrl": "https://maps.google.com/?q=55.6045522,13.0037875",
   "source": "osm"
  },
  {
   "nom": "Home Hotel Baltzar",
   "categorie": "Hôtel",
   "priceRange": "€€",
   "mapsUrl": "https://maps.google.com/?q=55.6047067,13.0018039",
   "lat": 55.6047067,
   "lng": 13.0018039,
   "halalFriendly": false,
   "bookingUrl": "https://maps.google.com/?q=55.6047067,13.0018039",
   "source": "osm"
  },
  {
   "nom": "Scandic Sankt Jörgen",
   "categorie": "Hôtel",
   "priceRange": "€€",
   "mapsUrl": "https://maps.google.com/?q=55.6035172,13.0017909",
   "lat": 55.6035172,
   "lng": 13.0017909,
   "halalFriendly": false,
   "bookingUrl": "https://maps.google.com/?q=55.6035172,13.0017909",
   "source": "osm"
  },
  {
   "nom": "The Mayfair Hotel tunneln",
   "categorie": "Hôtel",
   "priceRange": "€€",
   "mapsUrl": "https://maps.google.com/?q=55.6072469,13.0015259",
   "lat": 55.6072469,
   "lng": 13.0015259,
   "halalFriendly": false,
   "bookingUrl": "https://maps.google.com/?q=55.6072469,13.0015259",
   "source": "osm"
  },
  {
   "nom": "Hotel Noble House",
   "categorie": "Hôtel",
   "priceRange": "€€",
   "mapsUrl": "https://maps.google.com/?q=55.6036203,12.9997441",
   "lat": 55.6036203,
   "lng": 12.9997441,
   "halalFriendly": false,
   "bookingUrl": "https://maps.google.com/?q=55.6036203,12.9997441",
   "source": "osm"
  },
  {
   "nom": "Scandic Stortorget",
   "categorie": "Hôtel",
   "priceRange": "€€",
   "mapsUrl": "https://maps.google.com/?q=55.6057336,12.9989894",
   "lat": 55.6057336,
   "lng": 12.9989894,
   "halalFriendly": false,
   "bookingUrl": "https://maps.google.com/?q=55.6057336,12.9989894",
   "source": "osm"
  },
  {
   "nom": "EliteHotel Residens",
   "categorie": "Hôtel",
   "priceRange": "€€",
   "mapsUrl": "https://maps.google.com/?q=55.607457,13.0013398",
   "lat": 55.607457,
   "lng": 13.0013398,
   "halalFriendly": false,
   "bookingUrl": "https://maps.google.com/?q=55.607457,13.0013398",
   "source": "osm"
  },
  {
   "nom": "Moment Hotels",
   "categorie": "Hôtel",
   "priceRange": "€€",
   "mapsUrl": "https://maps.google.com/?q=55.6077984,13.0016056",
   "lat": 55.6077984,
   "lng": 13.0016056,
   "halalFriendly": false,
   "bookingUrl": "https://www.momenthotels.com/",
   "source": "osm"
  },
  {
   "nom": "Elite Hotel Plaza",
   "categorie": "Hôtel",
   "priceRange": "€€",
   "mapsUrl": "https://maps.google.com/?q=55.6032015,12.999329",
   "lat": 55.6032015,
   "lng": 12.999329,
   "halalFriendly": false,
   "bookingUrl": "https://www.elite.se/en/hotels/malmo/elite-plaza-hotel-malmo/",
   "source": "osm"
  },
  {
   "nom": "Hotell Norrvalla",
   "categorie": "Hôtel",
   "priceRange": "€€",
   "mapsUrl": "https://maps.google.com/?q=55.608142,13.004999",
   "lat": 55.608142,
   "lng": 13.004999,
   "halalFriendly": false,
   "bookingUrl": "https://maps.google.com/?q=55.608142,13.004999",
   "source": "osm"
  },
  {
   "nom": "Home Hotel Temperance",
   "categorie": "Hôtel",
   "priceRange": "€€",
   "mapsUrl": "https://maps.google.com/?q=55.6039232,12.9984265",
   "lat": 55.6039232,
   "lng": 12.9984265,
   "halalFriendly": false,
   "bookingUrl": "https://maps.google.com/?q=55.6039232,12.9984265",
   "source": "osm"
  },
  {
   "nom": "Elite Hotel Savoy Malmö",
   "categorie": "Hôtel",
   "priceRange": "€€",
   "mapsUrl": "https://maps.google.com/?q=55.6076532,13.0002187",
   "lat": 55.6076532,
   "lng": 13.0002187,
   "halalFriendly": false,
   "bookingUrl": "https://elite.se/",
   "source": "osm"
  },
  {
   "nom": "Radisson Blu",
   "categorie": "Hôtel",
   "priceRange": "€€",
   "mapsUrl": "https://maps.google.com/?q=55.6076558,13.0077105",
   "lat": 55.6076558,
   "lng": 13.0077105,
   "halalFriendly": false,
   "bookingUrl": "https://maps.google.com/?q=55.6076558,13.0077105",
   "source": "osm"
  },
  {
   "nom": "MJs",
   "categorie": "Hôtel",
   "priceRange": "€€",
   "mapsUrl": "https://maps.google.com/?q=55.6058691,12.9978395",
   "lat": 55.6058691,
   "lng": 12.9978395,
   "halalFriendly": false,
   "bookingUrl": "https://mjs.life/#",
   "source": "osm"
  },
  {
   "nom": "Mäster Johan",
   "categorie": "Hôtel",
   "priceRange": "€€",
   "mapsUrl": "https://maps.google.com/?q=55.6059056,12.9976681",
   "lat": 55.6059056,
   "lng": 12.9976681,
   "halalFriendly": false,
   "bookingUrl": "https://maps.google.com/?q=55.6059056,12.9976681",
   "source": "osm"
  },
  {
   "nom": "Scandic Malmö City",
   "categorie": "Hôtel",
   "priceRange": "€€",
   "mapsUrl": "https://maps.google.com/?q=55.6009917,13.0040424",
   "lat": 55.6009917,
   "lng": 13.0040424,
   "halalFriendly": false,
   "bookingUrl": "https://maps.google.com/?q=55.6009917,13.0040424",
   "source": "osm"
  },
  {
   "nom": "Continental Hotel",
   "categorie": "Hôtel",
   "priceRange": "€€",
   "mapsUrl": "https://maps.google.com/?q=55.6043275,12.995573",
   "lat": 55.6043275,
   "lng": 12.995573,
   "halalFriendly": false,
   "bookingUrl": "www.continental-hotel.se",
   "source": "osm"
  },
  {
   "nom": "Best Western Hotel Royal",
   "categorie": "Hôtel",
   "priceRange": "€€",
   "mapsUrl": "https://maps.google.com/?q=55.6065502,12.9953619",
   "lat": 55.6065502,
   "lng": 12.9953619,
   "halalFriendly": false,
   "bookingUrl": "https://maps.google.com/?q=55.6065502,12.9953619",
   "source": "osm"
  },
  {
   "nom": "Clarion Hotel Malmö Live",
   "categorie": "Hôtel",
   "priceRange": "€€",
   "mapsUrl": "https://maps.google.com/?q=55.6072965,12.9943943",
   "lat": 55.6072965,
   "lng": 12.9943943,
   "halalFriendly": false,
   "bookingUrl": "https://maps.google.com/?q=55.6072965,12.9943943",
   "source": "osm"
  },
  {
   "nom": "Quality Hotel The Mill",
   "categorie": "Hôtel",
   "priceRange": "€€",
   "mapsUrl": "https://maps.google.com/?q=55.5995646,13.0073982",
   "lat": 55.5995646,
   "lng": 13.0073982,
   "halalFriendly": false,
   "bookingUrl": "https://www.nordicchoicehotels.com/hotels/sweden/malmo/quality-hotel-the-mill/",
   "source": "osm"
  },
  {
   "nom": "Comfort Hotel Malmö",
   "categorie": "Hôtel",
   "priceRange": "€€",
   "mapsUrl": "https://maps.google.com/?q=55.6110513,13.0009882",
   "lat": 55.6110513,
   "lng": 13.0009882,
   "halalFriendly": false,
   "bookingUrl": "https://choice.se/",
   "source": "osm"
  },
  {
   "nom": "First Hotel Jörgen Kock",
   "categorie": "Hôtel",
   "priceRange": "€€",
   "mapsUrl": "https://maps.google.com/?q=55.6113835,12.9995023",
   "lat": 55.6113835,
   "lng": 12.9995023,
   "halalFriendly": false,
   "bookingUrl": "https://www.firsthotels.com/sv/Vara-hotell/Sverige/Malmoe/First-Hotel-Jorgen-Kock/",
   "source": "osm"
  },
  {
   "nom": "Henrik Smith Residence",
   "categorie": "Auberge",
   "priceRange": "€€",
   "mapsUrl": "https://maps.google.com/?q=55.5991972,13.014118",
   "lat": 55.5991972,
   "lng": 13.014118,
   "halalFriendly": false,
   "bookingUrl": "https://maps.google.com/?q=55.5991972,13.014118",
   "source": "osm"
  },
  {
   "nom": "Story Hotel Studio Malmo, Part of JDV by Hyatt",
   "categorie": "Hôtel",
   "priceRange": "€€€€",
   "score": 4,
   "mapsUrl": "https://maps.google.com/?q=55.611845,12.9951892",
   "lat": 55.611845,
   "lng": 12.9951892,
   "halalFriendly": false,
   "bookingUrl": "https://www.hyatt.com/jdv-by-hyatt/en-US/mmxjd-story-hotel-studio-malmo",
   "source": "osm"
  },
  {
   "nom": "Hotel Scandic Triangeln",
   "categorie": "Hôtel",
   "priceRange": "€€",
   "mapsUrl": "https://maps.google.com/?q=55.5963503,13.0013953",
   "lat": 55.5963503,
   "lng": 13.0013953,
   "halalFriendly": false,
   "bookingUrl": "https://www.scandichotels.se/hotell/sverige/malmo/scandic-triangeln",
   "source": "osm"
  },
  {
   "nom": "The More Hotel",
   "categorie": "Hôtel",
   "priceRange": "€€",
   "mapsUrl": "https://maps.google.com/?q=55.5943218,13.006539",
   "lat": 55.5943218,
   "lng": 13.006539,
   "halalFriendly": false,
   "bookingUrl": "https://maps.google.com/?q=55.5943218,13.006539",
   "source": "osm"
  },
  {
   "nom": "The Nooq Malmö",
   "categorie": "Hôtel",
   "priceRange": "€€",
   "mapsUrl": "https://maps.google.com/?q=55.6121243,12.989073",
   "lat": 55.6121243,
   "lng": 12.989073,
   "halalFriendly": false,
   "bookingUrl": "https://thenooq.se/#hotels",
   "source": "osm"
  },
  {
   "nom": "Best Western Plus Park City",
   "categorie": "Hôtel",
   "priceRange": "€€",
   "mapsUrl": "https://maps.google.com/?q=55.6097977,12.9801574",
   "lat": 55.6097977,
   "lng": 12.9801574,
   "halalFriendly": false,
   "bookingUrl": "https://ligula.se/en/bestwesternplus/best-western-park-city-malmo/",
   "source": "osm"
  },
  {
   "nom": "Ohboy Hotell",
   "categorie": "Hôtel",
   "priceRange": "€€",
   "mapsUrl": "https://maps.google.com/?q=55.6142021,12.9833319",
   "lat": 55.6142021,
   "lng": 12.9833319,
   "halalFriendly": false,
   "bookingUrl": "https://ohboy.se/",
   "source": "osm"
  },
  {
   "nom": "Rut & Ragnars Vandrarhem AB",
   "categorie": "Auberge",
   "priceRange": "€€",
   "mapsUrl": "https://maps.google.com/?q=55.5942989,13.0219589",
   "lat": 55.5942989,
   "lng": 13.0219589,
   "halalFriendly": false,
   "bookingUrl": "https://www.rutochragnars.se/",
   "source": "osm"
  },
  {
   "nom": "Rönnen International Housing",
   "categorie": "Appartement",
   "priceRange": "€€",
   "mapsUrl": "https://maps.google.com/?q=55.6011481,13.029982",
   "lat": 55.6011481,
   "lng": 13.029982,
   "halalFriendly": false,
   "bookingUrl": "https://maps.google.com/?q=55.6011481,13.029982",
   "source": "osm"
  },
  {
   "nom": "Grand Circus Hotel",
   "categorie": "Hôtel",
   "priceRange": "€€",
   "mapsUrl": "https://maps.google.com/?q=55.603653,13.0442453",
   "lat": 55.603653,
   "lng": 13.0442453,
   "halalFriendly": false,
   "bookingUrl": "https://grandcircushotel.com/",
   "source": "osm"
  },
  {
   "nom": "Goodmorning+ Hotel Malmö",
   "categorie": "Hôtel",
   "priceRange": "€€",
   "mapsUrl": "https://maps.google.com/?q=55.5810509,12.9934594",
   "lat": 55.5810509,
   "lng": 12.9934594,
   "halalFriendly": false,
   "bookingUrl": "https://maps.google.com/?q=55.5810509,12.9934594",
   "source": "osm"
  },
  {
   "nom": "Scandic Segevång",
   "categorie": "Hôtel",
   "priceRange": "€€€€",
   "score": 4,
   "mapsUrl": "https://maps.google.com/?q=55.6186003,13.0633118",
   "lat": 55.6186003,
   "lng": 13.0633118,
   "halalFriendly": false,
   "bookingUrl": "https://www.scandichotels.com/Hotels/Sweden/Malmo/Scandic-Segevang/",
   "source": "osm"
  },
  {
   "nom": "Malmö Arena Hotel",
   "categorie": "Hôtel",
   "priceRange": "€€€",
   "score": 3,
   "mapsUrl": "https://maps.google.com/?q=55.5655941,12.9758234",
   "lat": 55.5655941,
   "lng": 12.9758234,
   "halalFriendly": false,
   "bookingUrl": "https://malmoarenahotel.com",
   "source": "osm"
  },
  {
   "nom": "Quality Hotel View",
   "categorie": "Hôtel",
   "priceRange": "€€",
   "mapsUrl": "https://maps.google.com/?q=55.5619302,12.9762326",
   "lat": 55.5619302,
   "lng": 12.9762326,
   "halalFriendly": false,
   "bookingUrl": "https://www.nordicchoicehotels.se/hotell/sverige/malmo/quality-hotel-view/",
   "source": "osm"
  },
  {
   "nom": "Best Western Hotel Jägersro",
   "categorie": "Hôtel",
   "priceRange": "€€",
   "mapsUrl": "https://maps.google.com/?q=55.5691896,13.0617868",
   "lat": 55.5691896,
   "lng": 13.0617868,
   "halalFriendly": false,
   "bookingUrl": "https://maps.google.com/?q=55.5691896,13.0617868",
   "source": "osm"
  },
  {
   "nom": "Havshotellet Limhamn",
   "categorie": "Hôtel",
   "priceRange": "€€",
   "mapsUrl": "https://maps.google.com/?q=55.5822828,12.9216747",
   "lat": 55.5822828,
   "lng": 12.9216747,
   "halalFriendly": false,
   "bookingUrl": "https://havshotelletmalmo.se/",
   "source": "osm"
  },
  {
   "nom": "Arlöv Park Hotel",
   "categorie": "Hôtel",
   "priceRange": "€€",
   "mapsUrl": "https://maps.google.com/?q=55.6467169,13.0808749",
   "lat": 55.6467169,
   "lng": 13.0808749,
   "halalFriendly": false,
   "bookingUrl": "https://maps.google.com/?q=55.6467169,13.0808749",
   "source": "osm"
  }
 ],
 "mosqueesPrincipales": [
  {
   "id": "m13893476201",
   "nom": "Islamakademin",
   "type": "Mosquée",
   "adresse": "",
   "description": "Lieu de prière (OpenStreetMap).",
   "mapsUrl": "https://maps.google.com/?q=55.5945893,13.0060807",
   "lat": 55.5945893,
   "lng": 13.0060807,
   "source": "osm"
  },
  {
   "id": "m638684255",
   "nom": "Det Skandinaviska Wakf i Sverige",
   "type": "Mosquée",
   "adresse": "Danska vägen, Malmö",
   "description": "Lieu de prière (OpenStreetMap).",
   "mapsUrl": "https://maps.google.com/?q=55.5942626,13.0396844",
   "lat": 55.5942626,
   "lng": 13.0396844,
   "source": "osm"
  },
  {
   "id": "m12145973902",
   "nom": "Al-Hoda-moskén",
   "type": "Mosquée",
   "adresse": "",
   "description": "Lieu de prière (OpenStreetMap).",
   "mapsUrl": "https://maps.google.com/?q=55.5846892,13.0248337",
   "lat": 55.5846892,
   "lng": 13.0248337,
   "source": "osm"
  },
  {
   "id": "m12675448318",
   "nom": "Huda mosken",
   "type": "Mosquée",
   "adresse": "Docentgatan, Malmö",
   "description": "Lieu de prière (OpenStreetMap).",
   "mapsUrl": "https://maps.google.com/?q=55.5664527,13.0198229",
   "lat": 55.5664527,
   "lng": 13.0198229,
   "source": "osm"
  },
  {
   "id": "m806337057",
   "nom": "Mahmoodmoskén",
   "type": "Mosquée",
   "adresse": "Hästskogatan, Malmö",
   "description": "Lieu de prière (OpenStreetMap).",
   "mapsUrl": "https://maps.google.com/?q=55.5662588,13.0826836",
   "lat": 55.5662588,
   "lng": 13.0826836,
   "source": "osm"
  },
  {
   "nom": "Islamiska kulturcentret Lund",
   "lat": 55.7119818,
   "lng": 13.1708602,
   "coordonnees": {
    "lat": 55.7119818,
    "lng": 13.1708602
   },
   "mapsUrl": "https://maps.google.com/?q=55.7119818,13.1708602",
   "source": "osm"
  },
  {
   "nom": "Masjid Lund",
   "lat": 55.693786,
   "lng": 13.2398731,
   "coordonnees": {
    "lat": 55.693786,
    "lng": 13.2398731
   },
   "mapsUrl": "https://maps.google.com/?q=55.693786,13.2398731",
   "source": "osm"
  }
 ],
 "activites": [
  {
   "id": "a3414497893",
   "nom": "Teatermuseet",
   "categorie": "museum",
   "description": "",
   "prix": "",
   "duree": "",
   "mapsUrl": "https://maps.google.com/?q=55.6059398,13.0027471",
   "lat": 55.6059398,
   "lng": 13.0027471,
   "source": "osm"
  },
  {
   "id": "a681243145",
   "nom": "Ebbas hus",
   "categorie": "museum",
   "description": "",
   "prix": "",
   "duree": "",
   "mapsUrl": "https://maps.google.com/?q=55.6053708,13.0057766",
   "lat": 55.6053708,
   "lng": 13.0057766,
   "source": "osm"
  },
  {
   "id": "a10611710160",
   "nom": "Emigranterna",
   "categorie": "artwork",
   "description": "",
   "prix": "",
   "duree": "",
   "mapsUrl": "https://maps.google.com/?q=55.606249,13.0048241",
   "lat": 55.606249,
   "lng": 13.0048241,
   "source": "osm"
  },
  {
   "id": "a2293729248",
   "nom": "Optimistorkestern",
   "categorie": "artwork",
   "description": "",
   "prix": "",
   "duree": "",
   "mapsUrl": "https://maps.google.com/?q=55.6054936,13.0012471",
   "lat": 55.6054936,
   "lng": 13.0012471,
   "source": "osm"
  },
  {
   "id": "a9762398220",
   "nom": "Sädeskornet minnessten",
   "categorie": "memorial",
   "description": "",
   "prix": "",
   "duree": "",
   "mapsUrl": "https://maps.google.com/?q=55.6059228,13.0061392",
   "lat": 55.6059228,
   "lng": 13.0061392,
   "source": "osm"
  },
  {
   "id": "a2016689391",
   "nom": "Karl X Gustav",
   "categorie": "artwork",
   "description": "",
   "prix": "",
   "duree": "",
   "mapsUrl": "https://maps.google.com/?q=55.606143,13.0002248",
   "lat": 55.606143,
   "lng": 13.0002248,
   "source": "osm"
  },
  {
   "id": "a12176753342",
   "nom": "Cordes Vibrantes",
   "categorie": "artwork",
   "description": "",
   "prix": "",
   "duree": "",
   "mapsUrl": "https://maps.google.com/?q=55.602842,13.0054075",
   "lat": 55.602842,
   "lng": 13.0054075,
   "source": "osm"
  },
  {
   "id": "a680764890",
   "nom": "Länsresidenset Malmö",
   "categorie": "castle",
   "description": "",
   "prix": "",
   "duree": "",
   "mapsUrl": "https://maps.google.com/?q=55.6069199,13.0010067",
   "lat": 55.6069199,
   "lng": 13.0010067,
   "source": "osm"
  },
  {
   "id": "a12811999511",
   "nom": "Fem fontäner och ett klot",
   "categorie": "artwork",
   "description": "",
   "prix": "",
   "duree": "",
   "mapsUrl": "https://maps.google.com/?q=55.6028027,13.0012087",
   "lat": 55.6028027,
   "lng": 13.0012087,
   "source": "osm"
  },
  {
   "id": "a6797013185",
   "nom": "Form Design Center",
   "categorie": "museum",
   "description": "",
   "prix": "",
   "duree": "",
   "mapsUrl": "https://maps.google.com/?q=55.6045029,12.9992059",
   "lat": 55.6045029,
   "lng": 12.9992059,
   "source": "osm"
  },
  {
   "id": "a4665273760",
   "nom": "Det Svenska Tungsinnet",
   "categorie": "artwork",
   "description": "",
   "prix": "",
   "duree": "",
   "mapsUrl": "https://maps.google.com/?q=55.6031603,13.0071641",
   "lat": 55.6031603,
   "lng": 13.0071641,
   "source": "osm"
  },
  {
   "id": "a12075550754",
   "nom": "Rikstelefon",
   "categorie": "attraction",
   "description": "",
   "prix": "",
   "duree": "",
   "mapsUrl": "https://maps.google.com/?q=55.6053529,12.9990201",
   "lat": 55.6053529,
   "lng": 12.9990201,
   "source": "osm"
  },
  {
   "id": "a13142494033",
   "nom": "Raoul Wallenbergs Park",
   "categorie": "memorial",
   "description": "",
   "prix": "",
   "duree": "",
   "mapsUrl": "https://maps.google.com/?q=55.6021054,13.0023221",
   "lat": 55.6021054,
   "lng": 13.0023221,
   "source": "osm"
  },
  {
   "id": "a11418190011",
   "nom": "Pulserande koordinatsystem",
   "categorie": "artwork",
   "description": "",
   "prix": "",
   "duree": "",
   "mapsUrl": "https://maps.google.com/?q=55.6045475,13.0092663",
   "lat": 55.6045475,
   "lng": 13.0092663,
   "source": "osm"
  },
  {
   "id": "a11919745733",
   "nom": "Galleri Ping-Pong",
   "categorie": "gallery",
   "description": "",
   "prix": "",
   "duree": "",
   "mapsUrl": "https://maps.google.com/?q=55.6042176,13.0092775",
   "lat": 55.6042176,
   "lng": 13.0092775,
   "source": "osm"
  },
  {
   "id": "a35724417",
   "nom": "Moderna Museet",
   "categorie": "museum",
   "description": "",
   "prix": "",
   "duree": "",
   "mapsUrl": "https://maps.google.com/?q=55.6046324,13.0095667",
   "lat": 55.6046324,
   "lng": 13.0095667,
   "source": "osm"
  },
  {
   "id": "a12652258009",
   "nom": "Galleri Format",
   "categorie": "gallery",
   "description": "",
   "prix": "",
   "duree": "",
   "mapsUrl": "https://maps.google.com/?q=55.6030435,12.9982094",
   "lat": 55.6030435,
   "lng": 12.9982094,
   "source": "osm"
  },
  {
   "id": "a2715094114",
   "nom": "Frans Suell",
   "categorie": "artwork",
   "description": "",
   "prix": "",
   "duree": "",
   "mapsUrl": "https://maps.google.com/?q=55.607391,12.998519",
   "lat": 55.607391,
   "lng": 12.998519,
   "source": "osm"
  },
  {
   "id": "a13436730896",
   "nom": "Dringenbergska gården",
   "categorie": "memorial",
   "description": "",
   "prix": "",
   "duree": "",
   "mapsUrl": "https://maps.google.com/?q=55.6072885,12.9983504",
   "lat": 55.6072885,
   "lng": 12.9983504,
   "source": "osm"
  },
  {
   "id": "a12610499383",
   "nom": "Brandmuséet",
   "categorie": "museum",
   "description": "",
   "prix": "",
   "duree": "",
   "mapsUrl": "https://maps.google.com/?q=55.6024025,13.0088363",
   "lat": 55.6024025,
   "lng": 13.0088363,
   "source": "osm"
  },
  {
   "id": "a12100979043",
   "nom": "I love Malmo",
   "categorie": "attraction",
   "description": "",
   "prix": "",
   "duree": "",
   "mapsUrl": "https://maps.google.com/?q=55.6011702,13.00094",
   "lat": 55.6011702,
   "lng": 13.00094,
   "source": "osm"
  },
  {
   "id": "a13202600550",
   "nom": "REDAN Galleri",
   "categorie": "gallery",
   "description": "",
   "prix": "",
   "duree": "",
   "mapsUrl": "https://maps.google.com/?q=55.6010691,13.0065048",
   "lat": 55.6010691,
   "lng": 13.0065048,
   "source": "osm"
  },
  {
   "id": "a1036504155",
   "nom": "Disgusting Food Museum",
   "categorie": "museum",
   "description": "",
   "prix": "",
   "duree": "",
   "mapsUrl": "https://maps.google.com/?q=55.6008966,13.0013096",
   "lat": 55.6008966,
   "lng": 13.0013096,
   "source": "osm"
  },
  {
   "id": "a12161696701",
   "nom": "Kattarakt",
   "categorie": "artwork",
   "description": "",
   "prix": "",
   "duree": "",
   "mapsUrl": "https://maps.google.com/?q=55.6011343,13.0001221",
   "lat": 55.6011343,
   "lng": 13.0001221,
   "source": "osm"
  },
  {
   "id": "a3793755789",
   "nom": "Fiskegumma",
   "categorie": "artwork",
   "description": "",
   "prix": "",
   "duree": "",
   "mapsUrl": "https://maps.google.com/?q=55.6073113,12.9970739",
   "lat": 55.6073113,
   "lng": 12.9970739,
   "source": "osm"
  },
  {
   "id": "a11453259932",
   "nom": "Porten mot kontinenten",
   "categorie": "artwork",
   "description": "",
   "prix": "",
   "duree": "",
   "mapsUrl": "https://maps.google.com/?q=55.6078994,12.9976389",
   "lat": 55.6078994,
   "lng": 12.9976389,
   "source": "osm"
  },
  {
   "id": "a12292627090",
   "nom": "Floras hage",
   "categorie": "park",
   "description": "",
   "prix": "",
   "duree": "",
   "mapsUrl": "https://maps.google.com/?q=55.6011596,13.008797",
   "lat": 55.6011596,
   "lng": 13.008797,
   "source": "osm"
  },
  {
   "id": "a3744635797",
   "nom": "Flora",
   "categorie": "artwork",
   "description": "",
   "prix": "",
   "duree": "",
   "mapsUrl": "https://maps.google.com/?q=55.6013283,13.0094067",
   "lat": 55.6013283,
   "lng": 13.0094067,
   "source": "osm"
  },
  {
   "id": "a12986833418",
   "nom": "Lugnet",
   "categorie": "memorial",
   "description": "",
   "prix": "",
   "duree": "",
   "mapsUrl": "https://maps.google.com/?q=55.5998896,13.0031112",
   "lat": 55.5998896,
   "lng": 13.0031112,
   "source": "osm"
  },
  {
   "id": "a3402736391",
   "nom": "Non violence",
   "categorie": "artwork",
   "description": "",
   "prix": "",
   "duree": "",
   "mapsUrl": "https://maps.google.com/?q=55.608753,12.997242",
   "lat": 55.608753,
   "lng": 12.997242,
   "source": "osm"
  },
  {
   "id": "a9511315204",
   "nom": "Utblick / Insikt",
   "categorie": "artwork",
   "description": "",
   "prix": "",
   "duree": "",
   "mapsUrl": "https://maps.google.com/?q=55.6095383,12.9978703",
   "lat": 55.6095383,
   "lng": 12.9978703,
   "source": "osm"
  },
  {
   "id": "a952720423",
   "nom": "Minnenas hav, hav av minnen",
   "categorie": "artwork",
   "description": "",
   "prix": "",
   "duree": "",
   "mapsUrl": "https://maps.google.com/?q=55.6074881,12.9947621",
   "lat": 55.6074881,
   "lng": 12.9947621,
   "source": "osm"
  },
  {
   "id": "a1476332972",
   "nom": "Öfver • Djupen mot • Höjpen",
   "categorie": "artwork",
   "description": "",
   "prix": "",
   "duree": "",
   "mapsUrl": "https://maps.google.com/?q=55.6029705,12.9941616",
   "lat": 55.6029705,
   "lng": 12.9941616,
   "source": "osm"
  },
  {
   "id": "a3402736380",
   "nom": "Spectral self container",
   "categorie": "artwork",
   "description": "",
   "prix": "",
   "duree": "",
   "mapsUrl": "https://maps.google.com/?q=55.609455,12.996952",
   "lat": 55.609455,
   "lng": 12.996952,
   "source": "osm"
  },
  {
   "id": "a8818335518",
   "nom": "Rubato",
   "categorie": "artwork",
   "description": "",
   "prix": "",
   "duree": "",
   "mapsUrl": "https://maps.google.com/?q=55.6068021,12.993777",
   "lat": 55.6068021,
   "lng": 12.993777,
   "source": "osm"
  },
  {
   "id": "a12212839191",
   "nom": "SIEGFRIED GUTMANN",
   "categorie": "memorial",
   "description": "",
   "prix": "",
   "duree": "",
   "mapsUrl": "https://maps.google.com/?q=55.6099177,12.9978798",
   "lat": 55.6099177,
   "lng": 12.9978798,
   "source": "osm"
  },
  {
   "id": "a12212839192",
   "nom": "WALTER GERSON",
   "categorie": "memorial",
   "description": "",
   "prix": "",
   "duree": "",
   "mapsUrl": "https://maps.google.com/?q=55.6099239,12.9978788",
   "lat": 55.6099239,
   "lng": 12.9978788,
   "source": "osm"
  },
  {
   "id": "a12212839193",
   "nom": "SCHULIM BÜRGER",
   "categorie": "memorial",
   "description": "",
   "prix": "",
   "duree": "",
   "mapsUrl": "https://maps.google.com/?q=55.6099299,12.9978783",
   "lat": 55.6099299,
   "lng": 12.9978783,
   "source": "osm"
  },
  {
   "id": "a9543493466",
   "nom": "Wind wall",
   "categorie": "artwork",
   "description": "",
   "prix": "",
   "duree": "",
   "mapsUrl": "https://maps.google.com/?q=55.6082429,12.9947394",
   "lat": 55.6082429,
   "lng": 12.9947394,
   "source": "osm"
  },
  {
   "id": "a9693180996",
   "nom": "Solrosen",
   "categorie": "artwork",
   "description": "",
   "prix": "",
   "duree": "",
   "mapsUrl": "https://maps.google.com/?q=55.6032003,12.9934178",
   "lat": 55.6032003,
   "lng": 12.9934178,
   "source": "osm"
  },
  {
   "id": "a6420405509",
   "nom": "Diana",
   "categorie": "artwork",
   "description": "",
   "prix": "",
   "duree": "",
   "mapsUrl": "https://maps.google.com/?q=55.6044015,12.9927077",
   "lat": 55.6044015,
   "lng": 12.9927077,
   "source": "osm"
  },
  {
   "id": "a13338905468",
   "nom": "Kulspel",
   "categorie": "artwork",
   "description": "",
   "prix": "",
   "duree": "",
   "mapsUrl": "https://maps.google.com/?q=55.5994543,12.9983566",
   "lat": 55.5994543,
   "lng": 12.9983566,
   "source": "osm"
  },
  {
   "id": "a11453246651",
   "nom": "Passage",
   "categorie": "artwork",
   "description": "",
   "prix": "",
   "duree": "",
   "mapsUrl": "https://maps.google.com/?q=55.6079463,12.9938114",
   "lat": 55.6079463,
   "lng": 12.9938114,
   "source": "osm"
  },
  {
   "id": "a1607415347",
   "nom": "Sightseeing by boat",
   "categorie": "attraction",
   "description": "",
   "prix": "",
   "duree": "",
   "mapsUrl": "https://maps.google.com/?q=55.609576,12.9958821",
   "lat": 55.609576,
   "lng": 12.9958821,
   "source": "osm"
  },
  {
   "id": "a9674528760",
   "nom": "Ormet",
   "categorie": "artwork",
   "description": "",
   "prix": "",
   "duree": "",
   "mapsUrl": "https://maps.google.com/?q=55.6038074,12.9924066",
   "lat": 55.6038074,
   "lng": 12.9924066,
   "source": "osm"
  },
  {
   "id": "a8821461944",
   "nom": "Den talande staden",
   "categorie": "artwork",
   "description": "",
   "prix": "",
   "duree": "",
   "mapsUrl": "https://maps.google.com/?q=55.6023195,12.9932187",
   "lat": 55.6023195,
   "lng": 12.9932187,
   "source": "osm"
  },
  {
   "id": "a9949647552",
   "nom": "Solens finger",
   "categorie": "artwork",
   "description": "",
   "prix": "",
   "duree": "",
   "mapsUrl": "https://maps.google.com/?q=55.5985661,13.0010543",
   "lat": 55.5985661,
   "lng": 13.0010543,
   "source": "osm"
  },
  {
   "id": "a8824345187",
   "nom": "Sunes stenar",
   "categorie": "artwork",
   "description": "",
   "prix": "",
   "duree": "",
   "mapsUrl": "https://maps.google.com/?q=55.6007386,12.9941942",
   "lat": 55.6007386,
   "lng": 12.9941942,
   "source": "osm"
  },
  {
   "id": "a9730421193",
   "nom": "Vildsvinet",
   "categorie": "artwork",
   "description": "",
   "prix": "",
   "duree": "",
   "mapsUrl": "https://maps.google.com/?q=55.6005398,12.9943237",
   "lat": 55.6005398,
   "lng": 12.9943237,
   "source": "osm"
  },
  {
   "id": "a9674528763",
   "nom": "Anna Lisa",
   "categorie": "artwork",
   "description": "",
   "prix": "",
   "duree": "",
   "mapsUrl": "https://maps.google.com/?q=55.6011023,12.9925018",
   "lat": 55.6011023,
   "lng": 12.9925018,
   "source": "osm"
  },
  {
   "id": "a952721007",
   "nom": "Wave",
   "categorie": "artwork",
   "description": "",
   "prix": "",
   "duree": "",
   "mapsUrl": "https://maps.google.com/?q=55.6111422,12.9960017",
   "lat": 55.6111422,
   "lng": 12.9960017,
   "source": "osm"
  },
  {
   "id": "a8824374751",
   "nom": "Marmorlyran",
   "categorie": "artwork",
   "description": "",
   "prix": "",
   "duree": "",
   "mapsUrl": "https://maps.google.com/?q=55.6005869,12.9929056",
   "lat": 55.6005869,
   "lng": 12.9929056,
   "source": "osm"
  },
  {
   "id": "a1513013759",
   "nom": "Bore",
   "categorie": "museum",
   "description": "",
   "prix": "",
   "duree": "",
   "mapsUrl": "https://maps.google.com/?q=55.6116472,12.9970506",
   "lat": 55.6116472,
   "lng": 12.9970506,
   "source": "osm"
  },
  {
   "id": "a9674528761",
   "nom": "Konsul Anders Caspar Holm",
   "categorie": "artwork",
   "description": "",
   "prix": "",
   "duree": "",
   "mapsUrl": "https://maps.google.com/?q=55.6024789,12.9909776",
   "lat": 55.6024789,
   "lng": 12.9909776,
   "source": "osm"
  },
  {
   "id": "a13784368886",
   "nom": "Hartrappan",
   "categorie": "artwork",
   "description": "",
   "prix": "",
   "duree": "",
   "mapsUrl": "https://maps.google.com/?q=55.5974501,13.0012909",
   "lat": 55.5974501,
   "lng": 13.0012909,
   "source": "osm"
  },
  {
   "id": "a10992882424",
   "nom": "Elma Danielsson",
   "categorie": "artwork",
   "description": "",
   "prix": "",
   "duree": "",
   "mapsUrl": "https://maps.google.com/?q=55.6047853,13.0176853",
   "lat": 55.6047853,
   "lng": 13.0176853,
   "source": "osm"
  },
  {
   "id": "a8824319709",
   "nom": "Gustaf Rydberg",
   "categorie": "artwork",
   "description": "",
   "prix": "",
   "duree": "",
   "mapsUrl": "https://maps.google.com/?q=55.6032353,12.9898527",
   "lat": 55.6032353,
   "lng": 12.9898527,
   "source": "osm"
  },
  {
   "id": "a8824345473",
   "nom": "Liggende pige",
   "categorie": "artwork",
   "description": "",
   "prix": "",
   "duree": "",
   "mapsUrl": "https://maps.google.com/?q=55.6014105,12.9908094",
   "lat": 55.6014105,
   "lng": 12.9908094,
   "source": "osm"
  },
  {
   "id": "a11763290269",
   "nom": "Amaltheadådet",
   "categorie": "memorial",
   "description": "",
   "prix": "",
   "duree": "",
   "mapsUrl": "https://maps.google.com/?q=55.6109911,12.9931589",
   "lat": 55.6109911,
   "lng": 12.9931589,
   "source": "osm"
  },
  {
   "id": "a12677322915",
   "nom": "Skörd",
   "categorie": "artwork",
   "description": "",
   "prix": "",
   "duree": "",
   "mapsUrl": "https://maps.google.com/?q=55.5967826,12.998056",
   "lat": 55.5967826,
   "lng": 12.998056,
   "source": "osm"
  },
  {
   "id": "a12084917601",
   "nom": "Filmen 100 år",
   "categorie": "artwork",
   "description": "",
   "prix": "",
   "duree": "",
   "mapsUrl": "https://maps.google.com/?q=55.5975585,12.9944732",
   "lat": 55.5975585,
   "lng": 12.9944732,
   "source": "osm"
  },
  {
   "id": "a6467664469",
   "nom": "Galleri Lohme",
   "categorie": "gallery",
   "description": "",
   "prix": "",
   "duree": "",
   "mapsUrl": "https://maps.google.com/?q=55.5978574,12.9934245",
   "lat": 55.5978574,
   "lng": 12.9934245,
   "source": "osm"
  },
  {
   "id": "a9674528756",
   "nom": "Gycklaren",
   "categorie": "artwork",
   "description": "",
   "prix": "",
   "duree": "",
   "mapsUrl": "https://maps.google.com/?q=55.604976,12.9874089",
   "lat": 55.604976,
   "lng": 12.9874089,
   "source": "osm"
  },
  {
   "id": "a7021766812",
   "nom": "Tragos - Tragediens födelse",
   "categorie": "artwork",
   "description": "",
   "prix": "",
   "duree": "",
   "mapsUrl": "https://maps.google.com/?q=55.5966212,12.9965097",
   "lat": 55.5966212,
   "lng": 12.9965097,
   "source": "osm"
  },
  {
   "id": "a5207987703",
   "nom": "Prison Island",
   "categorie": "theme park",
   "description": "",
   "prix": "",
   "duree": "",
   "mapsUrl": "https://maps.google.com/?q=55.6068797,13.0200403",
   "lat": 55.6068797,
   "lng": 13.0200403,
   "source": "osm"
  },
  {
   "id": "a9674528758",
   "nom": "Frihetsfågeln",
   "categorie": "artwork",
   "description": "",
   "prix": "",
   "duree": "",
   "mapsUrl": "https://maps.google.com/?q=55.6048411,12.9870549",
   "lat": 55.6048411,
   "lng": 12.9870549,
   "source": "osm"
  },
  {
   "id": "a4895458698",
   "nom": "Malmö Museer Slottsholmen",
   "categorie": "museum",
   "description": "",
   "prix": "",
   "duree": "",
   "mapsUrl": "https://maps.google.com/?q=55.6047507,12.9869844",
   "lat": 55.6047507,
   "lng": 12.9869844,
   "source": "osm"
  },
  {
   "id": "a13786399534",
   "nom": "Vita Bussarna 1945",
   "categorie": "attraction",
   "description": "",
   "prix": "",
   "duree": "",
   "mapsUrl": "https://maps.google.com/?q=55.6049814,12.9866966",
   "lat": 55.6049814,
   "lng": 12.9866966,
   "source": "osm"
  },
  {
   "id": "a8824349035",
   "nom": "Pojke med gäss",
   "categorie": "artwork",
   "description": "",
   "prix": "",
   "duree": "",
   "mapsUrl": "https://maps.google.com/?q=55.6023484,12.9872756",
   "lat": 55.6023484,
   "lng": 12.9872756,
   "source": "osm"
  },
  {
   "id": "a282047842",
   "nom": "Galleri Final",
   "categorie": "gallery",
   "description": "",
   "prix": "",
   "duree": "",
   "mapsUrl": "https://maps.google.com/?q=55.6057667,13.0212703",
   "lat": 55.6057667,
   "lng": 13.0212703,
   "source": "osm"
  },
  {
   "id": "a1179411764",
   "nom": "Människan och Pegasus",
   "categorie": "artwork",
   "description": "",
   "prix": "",
   "duree": "",
   "mapsUrl": "https://maps.google.com/?q=55.6011056,12.9870975",
   "lat": 55.6011056,
   "lng": 12.9870975,
   "source": "osm"
  },
  {
   "id": "a11569837336",
   "nom": "Paraply",
   "categorie": "artwork",
   "description": "",
   "prix": "",
   "duree": "",
   "mapsUrl": "https://maps.google.com/?q=55.6005931,12.9874076",
   "lat": 55.6005931,
   "lng": 12.9874076,
   "source": "osm"
  },
  {
   "id": "a10063344306",
   "nom": "Points of View",
   "categorie": "artwork",
   "description": "",
   "prix": "",
   "duree": "",
   "mapsUrl": "https://maps.google.com/?q=55.5949894,12.9982849",
   "lat": 55.5949894,
   "lng": 12.9982849,
   "source": "osm"
  },
  {
   "id": "a8824444022",
   "nom": "La Forza Vitale",
   "categorie": "artwork",
   "description": "",
   "prix": "",
   "duree": "",
   "mapsUrl": "https://maps.google.com/?q=55.6050495,12.9851458",
   "lat": 55.6050495,
   "lng": 12.9851458,
   "source": "osm"
  },
  {
   "id": "a12983123939",
   "nom": "Pehr Henrik Ling",
   "categorie": "artwork",
   "description": "",
   "prix": "",
   "duree": "",
   "mapsUrl": "https://maps.google.com/?q=55.5950785,12.9972264",
   "lat": 55.5950785,
   "lng": 12.9972264,
   "source": "osm"
  },
  {
   "id": "a9682712872",
   "nom": "Till krigsförlista sjömäns minne",
   "categorie": "artwork",
   "description": "",
   "prix": "",
   "duree": "",
   "mapsUrl": "https://maps.google.com/?q=55.6146476,12.9959531",
   "lat": 55.6146476,
   "lng": 12.9959531,
   "source": "osm"
  },
  {
   "id": "a9056986889",
   "nom": "F. H. Kockum",
   "categorie": "artwork",
   "description": "",
   "prix": "",
   "duree": "",
   "mapsUrl": "https://maps.google.com/?q=55.6120352,12.9895802",
   "lat": 55.6120352,
   "lng": 12.9895802,
   "source": "osm"
  },
  {
   "id": "a9674528755",
   "nom": "Den trånga porten till friheten",
   "categorie": "artwork",
   "description": "",
   "prix": "",
   "duree": "",
   "mapsUrl": "https://maps.google.com/?q=55.6053176,13.0231333",
   "lat": 55.6053176,
   "lng": 13.0231333,
   "source": "osm"
  },
  {
   "id": "a12983155192",
   "nom": "Carl Frick",
   "categorie": "artwork",
   "description": "",
   "prix": "",
   "duree": "",
   "mapsUrl": "https://maps.google.com/?q=55.5947045,12.9972194",
   "lat": 55.5947045,
   "lng": 12.9972194,
   "source": "osm"
  },
  {
   "id": "a12829401167",
   "nom": "Radooo",
   "categorie": "artwork",
   "description": "",
   "prix": "",
   "duree": "",
   "mapsUrl": "https://maps.google.com/?q=55.5944168,13.0096362",
   "lat": 55.5944168,
   "lng": 13.0096362,
   "source": "osm"
  },
  {
   "id": "a12869645478",
   "nom": "Ängeln S:t Mikael",
   "categorie": "artwork",
   "description": "",
   "prix": "",
   "duree": "",
   "mapsUrl": "https://maps.google.com/?q=55.5980291,13.0191653",
   "lat": 55.5980291,
   "lng": 13.0191653,
   "source": "osm"
  },
  {
   "id": "a8824268474",
   "nom": "Vågen av Östersjön",
   "categorie": "artwork",
   "description": "",
   "prix": "",
   "duree": "",
   "mapsUrl": "https://maps.google.com/?q=55.6048037,12.9832835",
   "lat": 55.6048037,
   "lng": 12.9832835,
   "source": "osm"
  },
  {
   "id": "a11920288480",
   "nom": "Museispårvägen",
   "categorie": "museum",
   "description": "",
   "prix": "",
   "duree": "",
   "mapsUrl": "https://maps.google.com/?q=55.60553,12.9831976",
   "lat": 55.60553,
   "lng": 12.9831976,
   "source": "osm"
  },
  {
   "id": "a12255213374",
   "nom": "Lyftet",
   "categorie": "artwork",
   "description": "",
   "prix": "",
   "duree": "",
   "mapsUrl": "https://maps.google.com/?q=55.5954819,13.0160624",
   "lat": 55.5954819,
   "lng": 13.0160624,
   "source": "osm"
  },
  {
   "id": "a11270939077",
   "nom": "Reptilcenter",
   "categorie": "zoo",
   "description": "",
   "prix": "",
   "duree": "",
   "mapsUrl": "https://maps.google.com/?q=55.5944184,13.0132222",
   "lat": 55.5944184,
   "lng": 13.0132222,
   "source": "osm"
  },
  {
   "id": "a1456475952",
   "nom": "Rymdstenen",
   "categorie": "artwork",
   "description": "",
   "prix": "",
   "duree": "",
   "mapsUrl": "https://maps.google.com/?q=55.6013558,13.0237702",
   "lat": 55.6013558,
   "lng": 13.0237702,
   "source": "osm"
  },
  {
   "id": "a50139701",
   "nom": "Teknikens och sjöfartens hus",
   "categorie": "museum",
   "description": "",
   "prix": "",
   "duree": "",
   "mapsUrl": "https://maps.google.com/?q=55.6048325,12.9827784",
   "lat": 55.6048325,
   "lng": 12.9827784,
   "source": "osm"
  },
  {
   "id": "a8818264710",
   "nom": "Kanotisten",
   "categorie": "artwork",
   "description": "",
   "prix": "",
   "duree": "",
   "mapsUrl": "https://maps.google.com/?q=55.6041771,12.9828148",
   "lat": 55.6041771,
   "lng": 12.9828148,
   "source": "osm"
  },
  {
   "id": "a12860646565",
   "nom": "Gustav Möller",
   "categorie": "artwork",
   "description": "",
   "prix": "",
   "duree": "",
   "mapsUrl": "https://maps.google.com/?q=55.594486,13.013789",
   "lat": 55.594486,
   "lng": 13.013789,
   "source": "osm"
  },
  {
   "id": "a933496567",
   "nom": "U3",
   "categorie": "attraction",
   "description": "",
   "prix": "",
   "duree": "",
   "mapsUrl": "https://maps.google.com/?q=55.6051035,12.9825554",
   "lat": 55.6051035,
   "lng": 12.9825554,
   "source": "osm"
  },
  {
   "id": "a9663658079",
   "nom": "Kollämpare under arbete",
   "categorie": "artwork",
   "description": "",
   "prix": "",
   "duree": "",
   "mapsUrl": "https://maps.google.com/?q=55.6164206,12.9966076",
   "lat": 55.6164206,
   "lng": 12.9966076,
   "source": "osm"
  },
  {
   "id": "a12860793946",
   "nom": "Per Albin Hansson",
   "categorie": "artwork",
   "description": "",
   "prix": "",
   "duree": "",
   "mapsUrl": "https://maps.google.com/?q=55.5942473,13.0139154",
   "lat": 55.5942473,
   "lng": 13.0139154,
   "source": "osm"
  },
  {
   "id": "a4990174637",
   "nom": "Arkana",
   "categorie": "gallery",
   "description": "",
   "prix": "",
   "duree": "",
   "mapsUrl": "https://maps.google.com/?q=55.5930752,13.0083395",
   "lat": 55.5930752,
   "lng": 13.0083395,
   "source": "osm"
  },
  {
   "id": "a5598146586",
   "nom": "Galleri Ann-Katrin Braf",
   "categorie": "gallery",
   "description": "",
   "prix": "",
   "duree": "",
   "mapsUrl": "https://maps.google.com/?q=55.5955858,12.9898452",
   "lat": 55.5955858,
   "lng": 12.9898452,
   "source": "osm"
  },
  {
   "id": "a952726497",
   "nom": "Arch",
   "categorie": "artwork",
   "description": "",
   "prix": "",
   "duree": "",
   "mapsUrl": "https://maps.google.com/?q=55.6146555,12.9902331",
   "lat": 55.6146555,
   "lng": 12.9902331,
   "source": "osm"
  },
  {
   "id": "a12869580803",
   "nom": "Axel Danielsson",
   "categorie": "artwork",
   "description": "",
   "prix": "",
   "duree": "",
   "mapsUrl": "https://maps.google.com/?q=55.5931359,13.0133008",
   "lat": 55.5931359,
   "lng": 13.0133008,
   "source": "osm"
  },
  {
   "id": "a12983094367",
   "nom": "Ignabergastenen",
   "categorie": "monument",
   "description": "",
   "prix": "",
   "duree": "",
   "mapsUrl": "https://maps.google.com/?q=55.5931405,12.9937164",
   "lat": 55.5931405,
   "lng": 12.9937164,
   "source": "osm"
  },
  {
   "id": "a12869566321",
   "nom": "Olof Palme",
   "categorie": "artwork",
   "description": "",
   "prix": "",
   "duree": "",
   "mapsUrl": "https://maps.google.com/?q=55.59295,13.013231",
   "lat": 55.59295,
   "lng": 13.013231,
   "source": "osm"
  },
  {
   "id": "a2409108105",
   "nom": "Arbetets ära",
   "categorie": "artwork",
   "description": "",
   "prix": "",
   "duree": "",
   "mapsUrl": "https://maps.google.com/?q=55.5917419,13.007501",
   "lat": 55.5917419,
   "lng": 13.007501,
   "source": "osm"
  },
  {
   "id": "a12271306785",
   "nom": "Junta",
   "categorie": "gallery",
   "description": "",
   "prix": "",
   "duree": "",
   "mapsUrl": "https://maps.google.com/?q=55.5933541,13.0156633",
   "lat": 55.5933541,
   "lng": 13.0156633,
   "source": "osm"
  }
 ],
 "villeNonMusulmane": true,
 "osmEnriched": true,
 "osmEnrichedAt": "2026-06-30",
 "description_en": "Malmö may not be a Muslim-majority destination, but it welcomes Muslim travelers with real halal options. You'll find 82 halal restaurants and 5 mosques nearby, plus real-time prayer times and the Qibla direction — everything to explore Malmö, Sweden, with peace of mind.",
 "metaDescription_en": "Halal guide to Malmö: 90 halal restaurants listed, 5 mosques, prayer times and tips for Muslim travelers. Halal Trust Score 3.2/5.",
 "nom_en": "Malmö",
 "boucheries": [],
 "dataPurgedAt": "2026-07-15"
}