{
 "slug": "manille",
 "nom": "Manille",
 "pays": "Philippines",
 "pays_slug": "philippines",
 "continent": "Asie",
 "region": "Philippines",
 "coordonnees": {
  "lat": 14.5995,
  "lng": 120.9842
 },
 "codeISO": "PH",
 "score_halal": 3.2,
 "halalScore": 6.4,
 "description": "Manille, Philippines. Repérez les restaurants halal et les mosquées via l'application.",
 "metaDescription": "Manille, Philippines. Repérez les restaurants halal et les mosquées via l'application.",
 "image": "https://images.unsplash.com/photo-1488646953014-85cb44e25828?w=1200&q=80",
 "image_hero": "https://images.unsplash.com/photo-1488646953014-85cb44e25828?w=1200&q=80",
 "imageAVenir": true,
 "imageCredit": "",
 "scoreIndicatif": true,
 "statistiques": {
  "restaurants_halal": 57,
  "mosquees": 11,
  "hotels": 120
 },
 "infoPratique": {
  "transport": "Accessible par avion et transports locaux.",
  "meilleureEpoque": "Selon la saison.",
  "conseilHalal": "Repérez restaurants halal et mosquées via l'application."
 },
 "tags": [
  "halal",
  "asie"
 ],
 "restaurants": [
  {
   "nom": "Pamanganan Halal Foods",
   "type": "Restaurant halal",
   "priceRange": "€€",
   "mapsUrl": "https://maps.google.com/?q=14.5967034,120.9845292",
   "lat": 14.5967034,
   "lng": 120.9845292,
   "halalConfidence": "yes",
   "source": "osm"
  },
  {
   "nom": "Wakila Halal Food",
   "type": "Restaurant halal",
   "priceRange": "€€",
   "mapsUrl": "https://maps.google.com/?q=14.5965877,120.98456",
   "lat": 14.5965877,
   "lng": 120.98456,
   "halalConfidence": "yes",
   "source": "osm"
  },
  {
   "nom": "June-Nairah Halal Food",
   "type": "regional",
   "priceRange": "€€",
   "mapsUrl": "https://maps.google.com/?q=14.5965745,120.984626",
   "lat": 14.5965745,
   "lng": 120.984626,
   "halalConfidence": "yes",
   "source": "osm"
  },
  {
   "nom": "Al Merra Halal Foods",
   "type": "Restaurant halal",
   "priceRange": "€€",
   "mapsUrl": "https://maps.google.com/?q=14.5963921,120.9843671",
   "lat": 14.5963921,
   "lng": 120.9843671,
   "halalConfidence": "yes",
   "source": "osm"
  },
  {
   "nom": "Arab Asian Resto Cafe",
   "type": "Restaurant halal",
   "priceRange": "€€",
   "mapsUrl": "https://maps.google.com/?q=14.596445,120.984969",
   "lat": 14.596445,
   "lng": 120.984969,
   "halalConfidence": "yes",
   "source": "osm"
  },
  {
   "nom": "Moud Halal Food",
   "type": "Restaurant halal",
   "priceRange": "€€",
   "mapsUrl": "https://maps.google.com/?q=14.5963589,120.9845251",
   "lat": 14.5963589,
   "lng": 120.9845251,
   "halalConfidence": "yes",
   "source": "osm"
  },
  {
   "nom": "Chicken Corner",
   "type": "Restaurant halal",
   "priceRange": "€€",
   "mapsUrl": "https://maps.google.com/?q=14.6053933,120.9883436",
   "lat": 14.6053933,
   "lng": 120.9883436,
   "halalConfidence": "yes",
   "source": "osm"
  },
  {
   "nom": "The Chicken Rice Shop",
   "type": "malaysian, chicken rice",
   "priceRange": "€€",
   "mapsUrl": "https://maps.google.com/?q=14.5589731,120.9845814",
   "lat": 14.5589731,
   "lng": 120.9845814,
   "halalConfidence": "yes",
   "source": "osm"
  },
  {
   "nom": "Tanveer Halal Kitchenette",
   "type": "indian",
   "priceRange": "€€",
   "mapsUrl": "https://maps.google.com/?q=14.586435,121.0258471",
   "lat": 14.586435,
   "lng": 121.0258471,
   "halalConfidence": "yes",
   "source": "osm"
  },
  {
   "nom": "Garuda",
   "type": "indonesian",
   "priceRange": "€€",
   "mapsUrl": "https://maps.google.com/?q=14.5582878,121.0155567",
   "lat": 14.5582878,
   "lng": 121.0155567,
   "halalConfidence": "only",
   "source": "osm"
  },
  {
   "nom": "Vikings",
   "type": "Restaurant halal",
   "priceRange": "€€",
   "mapsUrl": "https://maps.google.com/?q=14.5405513,120.9790613",
   "lat": 14.5405513,
   "lng": 120.9790613,
   "halalConfidence": "yes",
   "source": "osm"
  },
  {
   "nom": "Al Razi's Shawarma Station",
   "type": "shawarma, levantine, middle-eastern",
   "priceRange": "€€",
   "mapsUrl": "https://maps.google.com/?q=14.5292488,120.9954368",
   "lat": 14.5292488,
   "lng": 120.9954368,
   "halalConfidence": "yes",
   "source": "osm"
  },
  {
   "nom": "Red Ginger",
   "type": "asian",
   "priceRange": "€€",
   "mapsUrl": "https://maps.google.com/?q=14.5237689,120.9924676",
   "lat": 14.5237689,
   "lng": 120.9924676,
   "halalConfidence": "yes",
   "source": "osm"
  },
  {
   "nom": "Puesto Carinderia",
   "type": "thai, regional",
   "priceRange": "€€",
   "mapsUrl": "https://maps.google.com/?q=14.6681673,121.0199343",
   "lat": 14.6681673,
   "lng": 121.0199343,
   "halalConfidence": "yes",
   "source": "osm"
  },
  {
   "nom": "Tams Halal Pizza",
   "type": "pizza, regional, filipino",
   "priceRange": "€€",
   "mapsUrl": "https://maps.google.com/?q=14.666433,121.05855",
   "lat": 14.666433,
   "lng": 121.05855,
   "halalConfidence": "yes",
   "source": "osm"
  },
  {
   "nom": "The Farmassist",
   "type": "regional",
   "priceRange": "€€",
   "mapsUrl": "https://maps.google.com/?q=14.5511649,121.0751616",
   "lat": 14.5511649,
   "lng": 121.0751616,
   "halalConfidence": "yes",
   "source": "osm"
  },
  {
   "nom": "Assad Cafe",
   "type": "indian, pakistani",
   "priceRange": "€€",
   "mapsUrl": "https://maps.google.com/?q=14.5847626,120.99203",
   "lat": 14.5847626,
   "lng": 120.99203,
   "halalConfidence": "likely",
   "source": "osm"
  },
  {
   "nom": "Arch Shawarma",
   "type": "shawarma",
   "priceRange": "€€",
   "mapsUrl": "https://maps.google.com/?q=14.5842601,120.9987062",
   "lat": 14.5842601,
   "lng": 120.9987062,
   "halalConfidence": "likely",
   "source": "osm"
  },
  {
   "nom": "SSC express",
   "type": "kebab",
   "priceRange": "€€",
   "mapsUrl": "https://maps.google.com/?q=14.5748435,120.9815739",
   "lat": 14.5748435,
   "lng": 120.9815739,
   "halalConfidence": "likely",
   "source": "osm"
  },
  {
   "nom": "Arya",
   "type": "persian",
   "priceRange": "€€",
   "mapsUrl": "https://maps.google.com/?q=14.5745082,120.98408",
   "lat": 14.5745082,
   "lng": 120.98408,
   "halalConfidence": "likely",
   "source": "osm"
  },
  {
   "nom": "Al Makkah",
   "type": "arab",
   "priceRange": "€€",
   "mapsUrl": "https://maps.google.com/?q=14.5676961,120.9935574",
   "lat": 14.5676961,
   "lng": 120.9935574,
   "halalConfidence": "likely",
   "source": "osm"
  },
  {
   "nom": "Bricks and Copper",
   "type": "turkish",
   "priceRange": "€€",
   "mapsUrl": "https://maps.google.com/?q=14.5912903,121.0367758",
   "lat": 14.5912903,
   "lng": 121.0367758,
   "halalConfidence": "likely",
   "source": "osm"
  },
  {
   "nom": "Behrouz",
   "type": "persian",
   "priceRange": "€€",
   "mapsUrl": "https://maps.google.com/?q=14.5977084,121.0395548",
   "lat": 14.5977084,
   "lng": 121.0395548,
   "halalConfidence": "likely",
   "source": "osm"
  },
  {
   "nom": "Turks Shawarma",
   "type": "shawarma, barbeque",
   "priceRange": "€€",
   "mapsUrl": "https://maps.google.com/?q=14.5776537,121.0349759",
   "lat": 14.5776537,
   "lng": 121.0349759,
   "halalConfidence": "likely",
   "source": "osm"
  },
  {
   "nom": "Hossein's Persian Kebab",
   "type": "kebab",
   "priceRange": "€€",
   "mapsUrl": "https://maps.google.com/?q=14.5630044,121.0283879",
   "lat": 14.5630044,
   "lng": 121.0283879,
   "halalConfidence": "likely",
   "source": "osm"
  },
  {
   "nom": "Shawarmama",
   "type": "beef bowl, chicken, arab, kebab, barbecue, persian, caribbean",
   "priceRange": "€€",
   "mapsUrl": "https://maps.google.com/?q=14.6282851,121.0342138",
   "lat": 14.6282851,
   "lng": 121.0342138,
   "halalConfidence": "likely",
   "source": "osm"
  },
  {
   "nom": "Ziggurat Cuisine",
   "type": "kebab",
   "priceRange": "€€",
   "mapsUrl": "https://maps.google.com/?q=14.5635478,121.0291975",
   "lat": 14.5635478,
   "lng": 121.0291975,
   "halalConfidence": "likely",
   "source": "osm"
  },
  {
   "nom": "Argos",
   "type": "turkish",
   "priceRange": "€€",
   "mapsUrl": "https://maps.google.com/?q=14.5631164,121.0292372",
   "lat": 14.5631164,
   "lng": 121.0292372,
   "halalConfidence": "likely",
   "source": "osm"
  },
  {
   "nom": "Green Bar",
   "type": "mexican, turkish, dessert, cake, salad, donut, sandwich",
   "priceRange": "€€",
   "mapsUrl": "https://maps.google.com/?q=14.552698,121.017437",
   "lat": 14.552698,
   "lng": 121.017437,
   "halalConfidence": "likely",
   "source": "osm"
  },
  {
   "nom": "Yalla Yalla",
   "type": "lebanese",
   "priceRange": "€€",
   "mapsUrl": "https://maps.google.com/?q=14.588875,121.0420566",
   "lat": 14.588875,
   "lng": 121.0420566,
   "halalConfidence": "likely",
   "source": "osm"
  },
  {
   "nom": "Hummus Elijah",
   "type": "mediterranean, lebanese",
   "priceRange": "€€",
   "mapsUrl": "https://maps.google.com/?q=14.5650273,121.0312012",
   "lat": 14.5650273,
   "lng": 121.0312012,
   "halalConfidence": "likely",
   "source": "osm"
  },
  {
   "nom": "Kite",
   "type": "kebab",
   "priceRange": "€€",
   "mapsUrl": "https://maps.google.com/?q=14.563025,121.0303376",
   "lat": 14.563025,
   "lng": 121.0303376,
   "halalConfidence": "likely",
   "source": "osm"
  },
  {
   "nom": "Mister Kebab",
   "type": "persian",
   "priceRange": "€€",
   "mapsUrl": "https://maps.google.com/?q=14.6410623,121.0264229",
   "lat": 14.6410623,
   "lng": 121.0264229,
   "halalConfidence": "likely",
   "source": "osm"
  },
  {
   "nom": "Arya",
   "type": "persian",
   "priceRange": "€€",
   "mapsUrl": "https://maps.google.com/?q=14.603484,121.0513661",
   "lat": 14.603484,
   "lng": 121.0513661,
   "halalConfidence": "likely",
   "source": "osm"
  },
  {
   "nom": "Turks",
   "type": "kebab",
   "priceRange": "€€",
   "mapsUrl": "https://maps.google.com/?q=14.5344004,120.980293",
   "lat": 14.5344004,
   "lng": 120.980293,
   "halalConfidence": "likely",
   "source": "osm"
  },
  {
   "nom": "Azadi Persian Kebab",
   "type": "persian",
   "priceRange": "€€",
   "mapsUrl": "https://maps.google.com/?q=14.64905,121.0283032",
   "lat": 14.64905,
   "lng": 121.0283032,
   "halalConfidence": "likely",
   "source": "osm"
  },
  {
   "nom": "The Shawarma Shack",
   "type": "kebab",
   "priceRange": "€€",
   "mapsUrl": "https://maps.google.com/?q=14.5309416,120.9968256",
   "lat": 14.5309416,
   "lng": 120.9968256,
   "halalConfidence": "likely",
   "source": "osm"
  },
  {
   "nom": "Habib",
   "type": "persian",
   "priceRange": "€€",
   "mapsUrl": "https://maps.google.com/?q=14.5791972,121.0535373",
   "lat": 14.5791972,
   "lng": 121.0535373,
   "halalConfidence": "likely",
   "source": "osm"
  },
  {
   "nom": "Maryam Persian Kebab House",
   "type": "persian, mediterranean",
   "priceRange": "€€",
   "mapsUrl": "https://maps.google.com/?q=14.6319634,121.0496588",
   "lat": 14.6319634,
   "lng": 121.0496588,
   "halalConfidence": "likely",
   "source": "osm"
  },
  {
   "nom": "Shawarma Shack",
   "type": "shawarma",
   "priceRange": "€€",
   "mapsUrl": "https://maps.google.com/?q=14.5583255,121.0456898",
   "lat": 14.5583255,
   "lng": 121.0456898,
   "halalConfidence": "likely",
   "source": "osm"
  },
  {
   "nom": "Persian Avenue",
   "type": "persian",
   "priceRange": "€€",
   "mapsUrl": "https://maps.google.com/?q=14.6683861,121.0209856",
   "lat": 14.6683861,
   "lng": 121.0209856,
   "halalConfidence": "likely",
   "source": "osm"
  },
  {
   "nom": "Khandan",
   "type": "pakistani",
   "priceRange": "€€",
   "mapsUrl": "https://maps.google.com/?q=14.5672663,121.0584535",
   "lat": 14.5672663,
   "lng": 121.0584535,
   "halalConfidence": "likely",
   "source": "osm"
  },
  {
   "nom": "Turks Shawarma",
   "type": "turkish",
   "priceRange": "€€",
   "mapsUrl": "https://maps.google.com/?q=14.552557,121.0496653",
   "lat": 14.552557,
   "lng": 121.0496653,
   "halalConfidence": "likely",
   "source": "osm"
  },
  {
   "nom": "Kabab Korner",
   "type": "kebab",
   "priceRange": "€€",
   "mapsUrl": "https://maps.google.com/?q=14.6455663,121.0521244",
   "lat": 14.6455663,
   "lng": 121.0521244,
   "halalConfidence": "likely",
   "source": "osm"
  },
  {
   "nom": "Shawarma Shack",
   "type": "kebab",
   "priceRange": "€€",
   "mapsUrl": "https://maps.google.com/?q=14.6359846,121.0583254",
   "lat": 14.6359846,
   "lng": 121.0583254,
   "halalConfidence": "likely",
   "source": "osm"
  },
  {
   "nom": "Uncle Moe's Shawarma Hub",
   "type": "persian",
   "priceRange": "€€",
   "mapsUrl": "https://maps.google.com/?q=14.5845636,121.0676078",
   "lat": 14.5845636,
   "lng": 121.0676078,
   "halalConfidence": "likely",
   "source": "osm"
  },
  {
   "nom": "yvan navy",
   "type": "burger and kebab",
   "priceRange": "€€",
   "mapsUrl": "https://maps.google.com/?q=14.6393116,121.061454",
   "lat": 14.6393116,
   "lng": 121.061454,
   "halalConfidence": "likely",
   "source": "osm"
  },
  {
   "nom": "Madrone Kebabs etc.",
   "type": "kebab",
   "priceRange": "€€",
   "mapsUrl": "https://maps.google.com/?q=14.5360018,121.0439535",
   "lat": 14.5360018,
   "lng": 121.0439535,
   "halalConfidence": "likely",
   "source": "osm"
  },
  {
   "nom": "Hassan Kebab and Steak",
   "type": "persian",
   "priceRange": "€€",
   "mapsUrl": "https://maps.google.com/?q=14.6175242,121.0711947",
   "lat": 14.6175242,
   "lng": 121.0711947,
   "halalConfidence": "likely",
   "source": "osm"
  },
  {
   "nom": "Turks",
   "type": "kebab",
   "priceRange": "€€",
   "mapsUrl": "https://maps.google.com/?q=14.5105935,120.9914851",
   "lat": 14.5105935,
   "lng": 120.9914851,
   "halalConfidence": "likely",
   "source": "osm"
  },
  {
   "nom": "Shawarma Shack",
   "type": "kebab",
   "priceRange": "€€",
   "mapsUrl": "https://maps.google.com/?q=14.5104787,120.9912381",
   "lat": 14.5104787,
   "lng": 120.9912381,
   "halalConfidence": "likely",
   "source": "osm"
  },
  {
   "nom": "Alfie's Chef Secret",
   "type": "kebab",
   "priceRange": "€€",
   "mapsUrl": "https://maps.google.com/?q=14.6778015,121.0301669",
   "lat": 14.6778015,
   "lng": 121.0301669,
   "halalConfidence": "likely",
   "source": "osm"
  },
  {
   "nom": "Ababu's Persian Kitchen",
   "type": "persian",
   "priceRange": "€€",
   "mapsUrl": "https://maps.google.com/?q=14.6349614,121.0705382",
   "lat": 14.6349614,
   "lng": 121.0705382,
   "halalConfidence": "likely",
   "source": "osm"
  },
  {
   "nom": "Turks",
   "type": "kebab",
   "priceRange": "€€",
   "mapsUrl": "https://maps.google.com/?q=14.5255248,121.0433098",
   "lat": 14.5255248,
   "lng": 121.0433098,
   "halalConfidence": "likely",
   "source": "osm"
  },
  {
   "nom": "Mazza Shawarma",
   "type": "persian",
   "priceRange": "€€",
   "mapsUrl": "https://maps.google.com/?q=14.6101253,121.0812152",
   "lat": 14.6101253,
   "lng": 121.0812152,
   "halalConfidence": "likely",
   "source": "osm"
  },
  {
   "nom": "Kebomb",
   "type": "persian, kebab",
   "priceRange": "€€",
   "mapsUrl": "https://maps.google.com/?q=14.637753,121.0741768",
   "lat": 14.637753,
   "lng": 121.0741768,
   "halalConfidence": "likely",
   "source": "osm"
  },
  {
   "nom": "Shawarma Shack",
   "type": "kebab",
   "priceRange": "€€",
   "mapsUrl": "https://maps.google.com/?q=14.5089295,121.0333873",
   "lat": 14.5089295,
   "lng": 121.0333873,
   "halalConfidence": "likely",
   "source": "osm"
  }
 ],
 "hotels": [
  {
   "nom": "CityState Hotel",
   "categorie": "Hôtel",
   "priceRange": "€€",
   "mapsUrl": "https://maps.google.com/?q=14.5994275,120.9840165",
   "lat": 14.5994275,
   "lng": 120.9840165,
   "halalFriendly": false,
   "bookingUrl": "https://maps.google.com/?q=14.5994275,120.9840165",
   "source": "osm"
  },
  {
   "nom": "Good 101 Hotel",
   "categorie": "Hôtel",
   "priceRange": "€€",
   "mapsUrl": "https://maps.google.com/?q=14.5996559,120.9845292",
   "lat": 14.5996559,
   "lng": 120.9845292,
   "halalFriendly": false,
   "bookingUrl": "https://maps.google.com/?q=14.5996559,120.9845292",
   "source": "osm"
  },
  {
   "nom": "Citystate Hotel",
   "categorie": "Hôtel",
   "priceRange": "€€",
   "mapsUrl": "https://maps.google.com/?q=14.5992787,120.9839126",
   "lat": 14.5992787,
   "lng": 120.9839126,
   "halalFriendly": false,
   "bookingUrl": "https://maps.google.com/?q=14.5992787,120.9839126",
   "source": "osm"
  },
  {
   "nom": "Escaldo Apartelle",
   "categorie": "Maison d'hôtes",
   "priceRange": "€€",
   "mapsUrl": "https://maps.google.com/?q=14.5986654,120.9845469",
   "lat": 14.5986654,
   "lng": 120.9845469,
   "halalFriendly": false,
   "bookingUrl": "https://maps.google.com/?q=14.5986654,120.9845469",
   "source": "osm"
  },
  {
   "nom": "One Quiapo Hotel",
   "categorie": "Hôtel",
   "priceRange": "€€",
   "mapsUrl": "https://maps.google.com/?q=14.6004315,120.9848174",
   "lat": 14.6004315,
   "lng": 120.9848174,
   "halalFriendly": false,
   "bookingUrl": "https://maps.google.com/?q=14.6004315,120.9848174",
   "source": "osm"
  },
  {
   "nom": "Hotel 99",
   "categorie": "Hôtel",
   "priceRange": "€€",
   "mapsUrl": "https://maps.google.com/?q=14.5977218,120.9843709",
   "lat": 14.5977218,
   "lng": 120.9843709,
   "halalFriendly": false,
   "bookingUrl": "https://maps.google.com/?q=14.5977218,120.9843709",
   "source": "osm"
  },
  {
   "nom": "538 Dormitel",
   "categorie": "Hôtel",
   "priceRange": "€€",
   "mapsUrl": "https://maps.google.com/?q=14.6005606,120.9827117",
   "lat": 14.6005606,
   "lng": 120.9827117,
   "halalFriendly": false,
   "bookingUrl": "https://maps.google.com/?q=14.6005606,120.9827117",
   "source": "osm"
  },
  {
   "nom": "Seaman's Quarter",
   "categorie": "Auberge",
   "priceRange": "€€",
   "mapsUrl": "https://maps.google.com/?q=14.6004637,120.986112",
   "lat": 14.6004637,
   "lng": 120.986112,
   "halalFriendly": false,
   "bookingUrl": "https://maps.google.com/?q=14.6004637,120.986112",
   "source": "osm"
  },
  {
   "nom": "JMM Lodge",
   "categorie": "Maison d'hôtes",
   "priceRange": "€€",
   "mapsUrl": "https://maps.google.com/?q=14.5971785,120.984447",
   "lat": 14.5971785,
   "lng": 120.984447,
   "halalFriendly": false,
   "bookingUrl": "https://maps.google.com/?q=14.5971785,120.984447",
   "source": "osm"
  },
  {
   "nom": "Greenland Guest House",
   "categorie": "Maison d'hôtes",
   "priceRange": "€€",
   "mapsUrl": "https://maps.google.com/?q=14.5971499,120.9842212",
   "lat": 14.5971499,
   "lng": 120.9842212,
   "halalFriendly": false,
   "bookingUrl": "https://maps.google.com/?q=14.5971499,120.9842212",
   "source": "osm"
  },
  {
   "nom": "8Hostel",
   "categorie": "Auberge",
   "priceRange": "€€",
   "mapsUrl": "https://maps.google.com/?q=14.598312,120.986309",
   "lat": 14.598312,
   "lng": 120.986309,
   "halalFriendly": false,
   "bookingUrl": "https://maps.google.com/?q=14.598312,120.986309",
   "source": "osm"
  },
  {
   "nom": "Astrotel",
   "categorie": "Hôtel",
   "priceRange": "€€",
   "mapsUrl": "https://maps.google.com/?q=14.6003134,120.9818863",
   "lat": 14.6003134,
   "lng": 120.9818863,
   "halalFriendly": false,
   "bookingUrl": "https://maps.google.com/?q=14.6003134,120.9818863",
   "source": "osm"
  },
  {
   "nom": "Sunlight Lodge",
   "categorie": "Maison d'hôtes",
   "priceRange": "€€",
   "mapsUrl": "https://maps.google.com/?q=14.5970843,120.9842627",
   "lat": 14.5970843,
   "lng": 120.9842627,
   "halalFriendly": false,
   "bookingUrl": "https://maps.google.com/?q=14.5970843,120.9842627",
   "source": "osm"
  },
  {
   "nom": "Shiny Lodge",
   "categorie": "Maison d'hôtes",
   "priceRange": "€€",
   "mapsUrl": "https://maps.google.com/?q=14.5969769,120.9842658",
   "lat": 14.5969769,
   "lng": 120.9842658,
   "halalFriendly": false,
   "bookingUrl": "https://maps.google.com/?q=14.5969769,120.9842658",
   "source": "osm"
  },
  {
   "nom": "City State Hotel",
   "categorie": "Hôtel",
   "priceRange": "€€",
   "mapsUrl": "https://maps.google.com/?q=14.5980045,120.9819197",
   "lat": 14.5980045,
   "lng": 120.9819197,
   "halalFriendly": false,
   "bookingUrl": "https://maps.google.com/?q=14.5980045,120.9819197",
   "source": "osm"
  },
  {
   "nom": "Hotel Paradise",
   "categorie": "Hôtel",
   "priceRange": "€€",
   "mapsUrl": "https://maps.google.com/?q=14.5994361,120.9809379",
   "lat": 14.5994361,
   "lng": 120.9809379,
   "halalFriendly": false,
   "bookingUrl": "https://maps.google.com/?q=14.5994361,120.9809379",
   "source": "osm"
  },
  {
   "nom": "Nadzmiah Lodge",
   "categorie": "Maison d'hôtes",
   "priceRange": "€€",
   "mapsUrl": "https://maps.google.com/?q=14.5962488,120.984188",
   "lat": 14.5962488,
   "lng": 120.984188,
   "halalFriendly": false,
   "bookingUrl": "https://maps.google.com/?q=14.5962488,120.984188",
   "source": "osm"
  },
  {
   "nom": "Shaira Lodge",
   "categorie": "Maison d'hôtes",
   "priceRange": "€€",
   "mapsUrl": "https://maps.google.com/?q=14.5962467,120.9842235",
   "lat": 14.5962467,
   "lng": 120.9842235,
   "halalFriendly": false,
   "bookingUrl": "https://maps.google.com/?q=14.5962467,120.9842235",
   "source": "osm"
  },
  {
   "nom": "Marantao Lodge",
   "categorie": "Maison d'hôtes",
   "priceRange": "€€",
   "mapsUrl": "https://maps.google.com/?q=14.5962447,120.984259",
   "lat": 14.5962447,
   "lng": 120.984259,
   "halalFriendly": false,
   "bookingUrl": "https://maps.google.com/?q=14.5962447,120.984259",
   "source": "osm"
  },
  {
   "nom": "Golden City Hotel",
   "categorie": "Hôtel",
   "priceRange": "€€",
   "mapsUrl": "https://maps.google.com/?q=14.5997142,120.9808311",
   "lat": 14.5997142,
   "lng": 120.9808311,
   "halalFriendly": false,
   "bookingUrl": "https://maps.google.com/?q=14.5997142,120.9808311",
   "source": "osm"
  },
  {
   "nom": "Dormtel",
   "categorie": "Hôtel",
   "priceRange": "€€",
   "mapsUrl": "https://maps.google.com/?q=14.6024626,120.9859137",
   "lat": 14.6024626,
   "lng": 120.9859137,
   "halalFriendly": false,
   "bookingUrl": "https://maps.google.com/?q=14.6024626,120.9859137",
   "source": "osm"
  },
  {
   "nom": "Halina",
   "categorie": "Hôtel",
   "priceRange": "€€",
   "mapsUrl": "https://maps.google.com/?q=14.6017294,120.9814751",
   "lat": 14.6017294,
   "lng": 120.9814751,
   "halalFriendly": false,
   "bookingUrl": "https://maps.google.com/?q=14.6017294,120.9814751",
   "source": "osm"
  },
  {
   "nom": "Kamagong",
   "categorie": "Hôtel",
   "priceRange": "€€",
   "mapsUrl": "https://maps.google.com/?q=14.6026783,120.9821181",
   "lat": 14.6026783,
   "lng": 120.9821181,
   "halalFriendly": false,
   "bookingUrl": "https://maps.google.com/?q=14.6026783,120.9821181",
   "source": "osm"
  },
  {
   "nom": "Nice Hotel",
   "categorie": "Hôtel",
   "priceRange": "€€",
   "mapsUrl": "https://maps.google.com/?q=14.6033234,120.9830894",
   "lat": 14.6033234,
   "lng": 120.9830894,
   "halalFriendly": false,
   "bookingUrl": "https://maps.google.com/?q=14.6033234,120.9830894",
   "source": "osm"
  },
  {
   "nom": "Lido de Paris",
   "categorie": "Hôtel",
   "priceRange": "€€",
   "mapsUrl": "https://maps.google.com/?q=14.6005629,120.9798762",
   "lat": 14.6005629,
   "lng": 120.9798762,
   "halalFriendly": false,
   "bookingUrl": "https://maps.google.com/?q=14.6005629,120.9798762",
   "source": "osm"
  },
  {
   "nom": "Elizabeth House",
   "categorie": "Maison d'hôtes",
   "priceRange": "€€",
   "mapsUrl": "https://maps.google.com/?q=14.600525,120.9795175",
   "lat": 14.600525,
   "lng": 120.9795175,
   "halalFriendly": false,
   "bookingUrl": "https://maps.google.com/?q=14.600525,120.9795175",
   "source": "osm"
  },
  {
   "nom": "Good Hope Hotel",
   "categorie": "Hôtel",
   "priceRange": "€€",
   "mapsUrl": "https://maps.google.com/?q=14.5999854,120.9793349",
   "lat": 14.5999854,
   "lng": 120.9793349,
   "halalFriendly": false,
   "bookingUrl": "https://maps.google.com/?q=14.5999854,120.9793349",
   "source": "osm"
  },
  {
   "nom": "Pearl Blossom Hotel",
   "categorie": "Hôtel",
   "priceRange": "€€",
   "mapsUrl": "https://maps.google.com/?q=14.6035337,120.98123",
   "lat": 14.6035337,
   "lng": 120.98123,
   "halalFriendly": false,
   "bookingUrl": "https://maps.google.com/?q=14.6035337,120.98123",
   "source": "osm"
  },
  {
   "nom": "Vista Hotel and Cinema",
   "categorie": "Hôtel",
   "priceRange": "€€",
   "mapsUrl": "https://maps.google.com/?q=14.6041348,120.9811689",
   "lat": 14.6041348,
   "lng": 120.9811689,
   "halalFriendly": false,
   "bookingUrl": "https://maps.google.com/?q=14.6041348,120.9811689",
   "source": "osm"
  },
  {
   "nom": "Ria's Ladies Dorm",
   "categorie": "Auberge",
   "priceRange": "€€",
   "mapsUrl": "https://maps.google.com/?q=14.6047739,120.9862357",
   "lat": 14.6047739,
   "lng": 120.9862357,
   "halalFriendly": false,
   "bookingUrl": "https://maps.google.com/?q=14.6047739,120.9862357",
   "source": "osm"
  },
  {
   "nom": "Ladies Dorm",
   "categorie": "Auberge",
   "priceRange": "€€",
   "mapsUrl": "https://maps.google.com/?q=14.60486,120.9870087",
   "lat": 14.60486,
   "lng": 120.9870087,
   "halalFriendly": false,
   "bookingUrl": "https://maps.google.com/?q=14.60486,120.9870087",
   "source": "osm"
  },
  {
   "nom": "One Legarda",
   "categorie": "Auberge",
   "priceRange": "€€",
   "mapsUrl": "https://maps.google.com/?q=14.6001331,120.9905732",
   "lat": 14.6001331,
   "lng": 120.9905732,
   "halalFriendly": false,
   "bookingUrl": "https://maps.google.com/?q=14.6001331,120.9905732",
   "source": "osm"
  },
  {
   "nom": "Louella Dormitory",
   "categorie": "Auberge",
   "priceRange": "€€",
   "mapsUrl": "https://maps.google.com/?q=14.6050586,120.9875206",
   "lat": 14.6050586,
   "lng": 120.9875206,
   "halalFriendly": false,
   "bookingUrl": "https://maps.google.com/?q=14.6050586,120.9875206",
   "source": "osm"
  },
  {
   "nom": "Manila Grand Opera Hotel",
   "categorie": "Hôtel",
   "priceRange": "€€",
   "mapsUrl": "https://maps.google.com/?q=14.605596,120.981658",
   "lat": 14.605596,
   "lng": 120.981658,
   "halalFriendly": false,
   "bookingUrl": "https://maps.google.com/?q=14.605596,120.981658",
   "source": "osm"
  },
  {
   "nom": "xyler lounge for seaman",
   "categorie": "Hôtel",
   "priceRange": "€€",
   "mapsUrl": "https://maps.google.com/?q=14.600764,120.9909682",
   "lat": 14.600764,
   "lng": 120.9909682,
   "halalFriendly": false,
   "bookingUrl": "https://maps.google.com/?q=14.600764,120.9909682",
   "source": "osm"
  },
  {
   "nom": "Chinatown Lai Lai Hotel",
   "categorie": "Hôtel",
   "priceRange": "€€",
   "mapsUrl": "https://maps.google.com/?q=14.6020136,120.9775178",
   "lat": 14.6020136,
   "lng": 120.9775178,
   "halalFriendly": false,
   "bookingUrl": "https://maps.google.com/?q=14.6020136,120.9775178",
   "source": "osm"
  },
  {
   "nom": "ampanya",
   "categorie": "Maison d'hôtes",
   "priceRange": "€€",
   "mapsUrl": "https://maps.google.com/?q=14.6033274,120.9781937",
   "lat": 14.6033274,
   "lng": 120.9781937,
   "halalFriendly": false,
   "bookingUrl": "https://maps.google.com/?q=14.6033274,120.9781937",
   "source": "osm"
  },
  {
   "nom": "565 Residences",
   "categorie": "Auberge",
   "priceRange": "€€",
   "mapsUrl": "https://maps.google.com/?q=14.6016857,120.9912169",
   "lat": 14.6016857,
   "lng": 120.9912169,
   "halalFriendly": false,
   "bookingUrl": "https://maps.google.com/?q=14.6016857,120.9912169",
   "source": "osm"
  },
  {
   "nom": "Day Dream Hotel",
   "categorie": "Hôtel",
   "priceRange": "€€",
   "mapsUrl": "https://maps.google.com/?q=14.6066419,120.9823332",
   "lat": 14.6066419,
   "lng": 120.9823332,
   "halalFriendly": false,
   "bookingUrl": "https://maps.google.com/?q=14.6066419,120.9823332",
   "source": "osm"
  },
  {
   "nom": "Peace Hotel",
   "categorie": "Hôtel",
   "priceRange": "€€",
   "mapsUrl": "https://maps.google.com/?q=14.6038098,120.9776256",
   "lat": 14.6038098,
   "lng": 120.9776256,
   "halalFriendly": false,
   "bookingUrl": "https://maps.google.com/?q=14.6038098,120.9776256",
   "source": "osm"
  },
  {
   "nom": "First Hotel",
   "categorie": "Hôtel",
   "priceRange": "€€",
   "mapsUrl": "https://maps.google.com/?q=14.6014015,120.9763438",
   "lat": 14.6014015,
   "lng": 120.9763438,
   "halalFriendly": false,
   "bookingUrl": "https://maps.google.com/?q=14.6014015,120.9763438",
   "source": "osm"
  },
  {
   "nom": "España Bakus",
   "categorie": "Appartement",
   "priceRange": "€€",
   "mapsUrl": "https://maps.google.com/?q=14.6060791,120.9891705",
   "lat": 14.6060791,
   "lng": 120.9891705,
   "halalFriendly": false,
   "bookingUrl": "https://maps.google.com/?q=14.6060791,120.9891705",
   "source": "osm"
  },
  {
   "nom": "Corinthians Econorooms",
   "categorie": "Auberge",
   "priceRange": "€€",
   "mapsUrl": "https://maps.google.com/?q=14.6076615,120.9865917",
   "lat": 14.6076615,
   "lng": 120.9865917,
   "halalFriendly": false,
   "bookingUrl": "https://maps.google.com/?q=14.6076615,120.9865917",
   "source": "osm"
  },
  {
   "nom": "Best Fortune Hotel",
   "categorie": "Hôtel",
   "priceRange": "€€",
   "mapsUrl": "https://maps.google.com/?q=14.6022659,120.9759039",
   "lat": 14.6022659,
   "lng": 120.9759039,
   "halalFriendly": false,
   "bookingUrl": "https://maps.google.com/?q=14.6022659,120.9759039",
   "source": "osm"
  },
  {
   "nom": "1",
   "categorie": "Appartement",
   "priceRange": "€€",
   "mapsUrl": "https://maps.google.com/?q=14.6077864,120.986356",
   "lat": 14.6077864,
   "lng": 120.986356,
   "halalFriendly": false,
   "bookingUrl": "https://maps.google.com/?q=14.6077864,120.986356",
   "source": "osm"
  },
  {
   "nom": "1075 Dormitory",
   "categorie": "Maison d'hôtes",
   "priceRange": "€€",
   "mapsUrl": "https://maps.google.com/?q=14.6078286,120.9864921",
   "lat": 14.6078286,
   "lng": 120.9864921,
   "halalFriendly": false,
   "bookingUrl": "https://maps.google.com/?q=14.6078286,120.9864921",
   "source": "osm"
  },
  {
   "nom": "Dormitel UST",
   "categorie": "Auberge",
   "priceRange": "€€",
   "mapsUrl": "https://maps.google.com/?q=14.6080505,120.9861976",
   "lat": 14.6080505,
   "lng": 120.9861976,
   "halalFriendly": false,
   "bookingUrl": "https://maps.google.com/?q=14.6080505,120.9861976",
   "source": "osm"
  },
  {
   "nom": "Ramada Manila Central Hotel",
   "categorie": "Hôtel",
   "priceRange": "€€",
   "mapsUrl": "https://maps.google.com/?q=14.5999434,120.9749635",
   "lat": 14.5999434,
   "lng": 120.9749635,
   "halalFriendly": false,
   "bookingUrl": "https://maps.google.com/?q=14.5999434,120.9749635",
   "source": "osm"
  },
  {
   "nom": "Ruyi Lucky Hotel",
   "categorie": "Hôtel",
   "priceRange": "€€",
   "mapsUrl": "https://maps.google.com/?q=14.5996175,120.9745207",
   "lat": 14.5996175,
   "lng": 120.9745207,
   "halalFriendly": false,
   "bookingUrl": "https://maps.google.com/?q=14.5996175,120.9745207",
   "source": "osm"
  },
  {
   "nom": "Red Planet Binondo",
   "categorie": "Hôtel",
   "priceRange": "€€",
   "mapsUrl": "https://maps.google.com/?q=14.5981425,120.974613",
   "lat": 14.5981425,
   "lng": 120.974613,
   "halalFriendly": false,
   "bookingUrl": "https://maps.google.com/?q=14.5981425,120.974613",
   "source": "osm"
  },
  {
   "nom": "Torre Residences",
   "categorie": "Hôtel",
   "priceRange": "€€",
   "mapsUrl": "https://maps.google.com/?q=14.6068107,120.9904512",
   "lat": 14.6068107,
   "lng": 120.9904512,
   "halalFriendly": false,
   "bookingUrl": "https://maps.google.com/?q=14.6068107,120.9904512",
   "source": "osm"
  },
  {
   "nom": "Jardin Oriental Suites",
   "categorie": "Hôtel",
   "priceRange": "€€",
   "mapsUrl": "https://maps.google.com/?q=14.6061706,120.9913926",
   "lat": 14.6061706,
   "lng": 120.9913926,
   "halalFriendly": false,
   "bookingUrl": "https://maps.google.com/?q=14.6061706,120.9913926",
   "source": "osm"
  },
  {
   "nom": "Aristotle Inn",
   "categorie": "Hôtel",
   "priceRange": "€€",
   "mapsUrl": "https://maps.google.com/?q=14.6092085,120.9821474",
   "lat": 14.6092085,
   "lng": 120.9821474,
   "halalFriendly": false,
   "bookingUrl": "https://maps.google.com/?q=14.6092085,120.9821474",
   "source": "osm"
  },
  {
   "nom": "YMCA",
   "categorie": "Hôtel",
   "priceRange": "€€",
   "mapsUrl": "https://maps.google.com/?q=14.589132,120.9826575",
   "lat": 14.589132,
   "lng": 120.9826575,
   "halalFriendly": false,
   "bookingUrl": "https://maps.google.com/?q=14.589132,120.9826575",
   "source": "osm"
  },
  {
   "nom": "Wynmark Suites",
   "categorie": "Hôtel",
   "priceRange": "€€",
   "mapsUrl": "https://maps.google.com/?q=14.5993299,120.9950813",
   "lat": 14.5993299,
   "lng": 120.9950813,
   "halalFriendly": false,
   "bookingUrl": "https://maps.google.com/?q=14.5993299,120.9950813",
   "source": "osm"
  },
  {
   "nom": "Dona Elena",
   "categorie": "Appartement",
   "priceRange": "€€",
   "mapsUrl": "https://maps.google.com/?q=14.6018469,120.9948672",
   "lat": 14.6018469,
   "lng": 120.9948672,
   "halalFriendly": false,
   "bookingUrl": "https://maps.google.com/?q=14.6018469,120.9948672",
   "source": "osm"
  },
  {
   "nom": "Hotel Lucky Chinatown",
   "categorie": "Hôtel",
   "priceRange": "€€",
   "mapsUrl": "https://maps.google.com/?q=14.6037847,120.9740482",
   "lat": 14.6037847,
   "lng": 120.9740482,
   "halalFriendly": false,
   "bookingUrl": "https://maps.google.com/?q=14.6037847,120.9740482",
   "source": "osm"
  },
  {
   "nom": "Hotel Lucky Chinatown",
   "categorie": "Hôtel",
   "priceRange": "€€",
   "mapsUrl": "https://maps.google.com/?q=14.6036609,120.9739567",
   "lat": 14.6036609,
   "lng": 120.9739567,
   "halalFriendly": false,
   "bookingUrl": "https://hotelluckychinatown.com/",
   "source": "osm"
  },
  {
   "nom": "Bevene Residences",
   "categorie": "Auberge",
   "priceRange": "€€",
   "mapsUrl": "https://maps.google.com/?q=14.5989968,120.9953035",
   "lat": 14.5989968,
   "lng": 120.9953035,
   "halalFriendly": false,
   "bookingUrl": "https://maps.google.com/?q=14.5989968,120.9953035",
   "source": "osm"
  },
  {
   "nom": "The Bayleaf Intramuros",
   "categorie": "Hôtel",
   "priceRange": "€€",
   "mapsUrl": "https://maps.google.com/?q=14.5900042,120.9787247",
   "lat": 14.5900042,
   "lng": 120.9787247,
   "halalFriendly": false,
   "bookingUrl": "https://www.thebayleaf.com.ph/intramuros/",
   "source": "osm"
  },
  {
   "nom": "Calypso(Andalucia) Inn",
   "categorie": "Hôtel",
   "priceRange": "€€",
   "mapsUrl": "https://maps.google.com/?q=14.6103214,120.9860549",
   "lat": 14.6103214,
   "lng": 120.9860549,
   "halalFriendly": false,
   "bookingUrl": "https://maps.google.com/?q=14.6103214,120.9860549",
   "source": "osm"
  },
  {
   "nom": "Forbes Hall",
   "categorie": "Auberge",
   "priceRange": "€€",
   "mapsUrl": "https://maps.google.com/?q=14.602986,120.9951816",
   "lat": 14.602986,
   "lng": 120.9951816,
   "halalFriendly": false,
   "bookingUrl": "https://forbeshall.com/",
   "source": "osm"
  },
  {
   "nom": "Good 101 Hotel",
   "categorie": "Hôtel",
   "priceRange": "€€",
   "mapsUrl": "https://maps.google.com/?q=14.6109586,120.984414",
   "lat": 14.6109586,
   "lng": 120.984414,
   "halalFriendly": false,
   "bookingUrl": "https://maps.google.com/?q=14.6109586,120.984414",
   "source": "osm"
  },
  {
   "nom": "Dela Chambre Hotel",
   "categorie": "Hôtel",
   "priceRange": "€€",
   "mapsUrl": "https://maps.google.com/?q=14.6033606,120.972641",
   "lat": 14.6033606,
   "lng": 120.972641,
   "halalFriendly": false,
   "bookingUrl": "https://maps.google.com/?q=14.6033606,120.972641",
   "source": "osm"
  },
  {
   "nom": "Payat",
   "categorie": "Appartement",
   "priceRange": "€€",
   "mapsUrl": "https://maps.google.com/?q=14.600549,120.9718491",
   "lat": 14.600549,
   "lng": 120.9718491,
   "halalFriendly": false,
   "bookingUrl": "https://maps.google.com/?q=14.600549,120.9718491",
   "source": "osm"
  },
  {
   "nom": "Residencia 729",
   "categorie": "Hôtel",
   "priceRange": "€€",
   "mapsUrl": "https://maps.google.com/?q=14.5897389,120.9767326",
   "lat": 14.5897389,
   "lng": 120.9767326,
   "halalFriendly": false,
   "bookingUrl": "https://maps.google.com/?q=14.5897389,120.9767326",
   "source": "osm"
  },
  {
   "nom": "Fersal Hotel",
   "categorie": "Hôtel",
   "priceRange": "€€",
   "mapsUrl": "https://maps.google.com/?q=14.611593,120.986139",
   "lat": 14.611593,
   "lng": 120.986139,
   "halalFriendly": false,
   "bookingUrl": "https://maps.google.com/?q=14.611593,120.986139",
   "source": "osm"
  },
  {
   "nom": "Atc building",
   "categorie": "Maison d'hôtes",
   "priceRange": "€€",
   "mapsUrl": "https://maps.google.com/?q=14.6115308,120.9872152",
   "lat": 14.6115308,
   "lng": 120.9872152,
   "halalFriendly": false,
   "bookingUrl": "https://maps.google.com/?q=14.6115308,120.9872152",
   "source": "osm"
  },
  {
   "nom": "Magallanes Dormitory",
   "categorie": "Auberge",
   "priceRange": "€€",
   "mapsUrl": "https://maps.google.com/?q=14.5884651,120.977879",
   "lat": 14.5884651,
   "lng": 120.977879,
   "halalFriendly": false,
   "bookingUrl": "https://maps.google.com/?q=14.5884651,120.977879",
   "source": "osm"
  },
  {
   "nom": "Amosup Sailors Home",
   "categorie": "Maison d'hôtes",
   "priceRange": "€€",
   "mapsUrl": "https://maps.google.com/?q=14.5897247,120.9759497",
   "lat": 14.5897247,
   "lng": 120.9759497,
   "halalFriendly": false,
   "bookingUrl": "https://maps.google.com/?q=14.5897247,120.9759497",
   "source": "osm"
  },
  {
   "nom": "Parkway Residences",
   "categorie": "Auberge",
   "priceRange": "€€",
   "mapsUrl": "https://maps.google.com/?q=14.6119022,120.987385",
   "lat": 14.6119022,
   "lng": 120.987385,
   "halalFriendly": false,
   "bookingUrl": "https://maps.google.com/?q=14.6119022,120.987385",
   "source": "osm"
  },
  {
   "nom": "608 Boarding House",
   "categorie": "Maison d'hôtes",
   "priceRange": "€€",
   "mapsUrl": "https://maps.google.com/?q=14.5888329,120.9768365",
   "lat": 14.5888329,
   "lng": 120.9768365,
   "halalFriendly": false,
   "bookingUrl": "https://maps.google.com/?q=14.5888329,120.9768365",
   "source": "osm"
  },
  {
   "nom": "White Knight Hotel Intramuros",
   "categorie": "Hôtel",
   "priceRange": "€€",
   "mapsUrl": "https://maps.google.com/?q=14.5895912,120.9756864",
   "lat": 14.5895912,
   "lng": 120.9756864,
   "halalFriendly": false,
   "bookingUrl": "https://maps.google.com/?q=14.5895912,120.9756864",
   "source": "osm"
  },
  {
   "nom": "Trinity Place",
   "categorie": "Auberge",
   "priceRange": "€€",
   "mapsUrl": "https://maps.google.com/?q=14.6120639,120.9872113",
   "lat": 14.6120639,
   "lng": 120.9872113,
   "halalFriendly": false,
   "bookingUrl": "https://maps.google.com/?q=14.6120639,120.9872113",
   "source": "osm"
  },
  {
   "nom": "Sailor's Home",
   "categorie": "Auberge",
   "priceRange": "€€",
   "mapsUrl": "https://maps.google.com/?q=14.5892463,120.9760481",
   "lat": 14.5892463,
   "lng": 120.9760481,
   "halalFriendly": false,
   "bookingUrl": "https://maps.google.com/?q=14.5892463,120.9760481",
   "source": "osm"
  },
  {
   "nom": "Apitong Hotel",
   "categorie": "Hôtel",
   "priceRange": "€€",
   "mapsUrl": "https://maps.google.com/?q=14.6089344,120.9937681",
   "lat": 14.6089344,
   "lng": 120.9937681,
   "halalFriendly": false,
   "bookingUrl": "https://maps.google.com/?q=14.6089344,120.9937681",
   "source": "osm"
  },
  {
   "nom": "Governor Forbes Inn",
   "categorie": "Hôtel",
   "priceRange": "€€",
   "mapsUrl": "https://maps.google.com/?q=14.6055482,120.9965386",
   "lat": 14.6055482,
   "lng": 120.9965386,
   "halalFriendly": false,
   "bookingUrl": "https://maps.google.com/?q=14.6055482,120.9965386",
   "source": "osm"
  },
  {
   "nom": "Regine's Crib",
   "categorie": "Appartement",
   "priceRange": "€€",
   "mapsUrl": "https://maps.google.com/?q=14.6092364,120.9937194",
   "lat": 14.6092364,
   "lng": 120.9937194,
   "halalFriendly": false,
   "bookingUrl": "https://maps.google.com/?q=14.6092364,120.9937194",
   "source": "osm"
  },
  {
   "nom": "Earnshaw Suites",
   "categorie": "Auberge",
   "priceRange": "€€",
   "mapsUrl": "https://maps.google.com/?q=14.609497,120.9934708",
   "lat": 14.609497,
   "lng": 120.9934708,
   "halalFriendly": false,
   "bookingUrl": "https://maps.google.com/?q=14.609497,120.9934708",
   "source": "osm"
  },
  {
   "nom": "Parkway Suites",
   "categorie": "Auberge",
   "priceRange": "€€",
   "mapsUrl": "https://maps.google.com/?q=14.6124679,120.9884248",
   "lat": 14.6124679,
   "lng": 120.9884248,
   "halalFriendly": false,
   "bookingUrl": "https://maps.google.com/?q=14.6124679,120.9884248",
   "source": "osm"
  },
  {
   "nom": "Sailors Inn",
   "categorie": "Maison d'hôtes",
   "priceRange": "€€",
   "mapsUrl": "https://maps.google.com/?q=14.5925393,120.972063",
   "lat": 14.5925393,
   "lng": 120.972063,
   "halalFriendly": false,
   "bookingUrl": "https://maps.google.com/?q=14.5925393,120.972063",
   "source": "osm"
  },
  {
   "nom": "Anson Tower",
   "categorie": "Appartement",
   "priceRange": "€€",
   "mapsUrl": "https://maps.google.com/?q=14.6125554,120.9885224",
   "lat": 14.6125554,
   "lng": 120.9885224,
   "halalFriendly": false,
   "bookingUrl": "https://maps.google.com/?q=14.6125554,120.9885224",
   "source": "osm"
  },
  {
   "nom": "JNL Dormitel",
   "categorie": "Auberge",
   "priceRange": "€€",
   "mapsUrl": "https://maps.google.com/?q=14.5995304,120.9986828",
   "lat": 14.5995304,
   "lng": 120.9986828,
   "halalFriendly": false,
   "bookingUrl": "https://maps.google.com/?q=14.5995304,120.9986828",
   "source": "osm"
  },
  {
   "nom": "Cosmo Hotel",
   "categorie": "Hôtel",
   "priceRange": "€€",
   "mapsUrl": "https://maps.google.com/?q=14.6116607,120.9922846",
   "lat": 14.6116607,
   "lng": 120.9922846,
   "halalFriendly": false,
   "bookingUrl": "https://maps.google.com/?q=14.6116607,120.9922846",
   "source": "osm"
  },
  {
   "nom": "Pacific Skyloft Residences",
   "categorie": "Appartement",
   "priceRange": "€€",
   "mapsUrl": "https://maps.google.com/?q=14.6127744,120.9903204",
   "lat": 14.6127744,
   "lng": 120.9903204,
   "halalFriendly": false,
   "bookingUrl": "http://pacificgrandtower.com",
   "source": "osm"
  },
  {
   "nom": "The Luxe Suites",
   "categorie": "Appartement",
   "priceRange": "€€",
   "mapsUrl": "https://maps.google.com/?q=14.6121703,120.9917676",
   "lat": 14.6121703,
   "lng": 120.9917676,
   "halalFriendly": false,
   "bookingUrl": "https://maps.google.com/?q=14.6121703,120.9917676",
   "source": "osm"
  },
  {
   "nom": "Richville Place",
   "categorie": "Appartement",
   "priceRange": "€€",
   "mapsUrl": "https://maps.google.com/?q=14.6135356,120.9896313",
   "lat": 14.6135356,
   "lng": 120.9896313,
   "halalFriendly": false,
   "bookingUrl": "https://maps.google.com/?q=14.6135356,120.9896313",
   "source": "osm"
  },
  {
   "nom": "Residencia Fortuna",
   "categorie": "Appartement",
   "priceRange": "€€",
   "mapsUrl": "https://maps.google.com/?q=14.6126146,120.9919884",
   "lat": 14.6126146,
   "lng": 120.9919884,
   "halalFriendly": false,
   "bookingUrl": "https://maps.google.com/?q=14.6126146,120.9919884",
   "source": "osm"
  },
  {
   "nom": "Manila Prince Hotel",
   "categorie": "Hôtel",
   "priceRange": "€€",
   "mapsUrl": "https://maps.google.com/?q=14.5845062,120.9871013",
   "lat": 14.5845062,
   "lng": 120.9871013,
   "halalFriendly": false,
   "bookingUrl": "https://manilaprince.com/",
   "source": "osm"
  },
  {
   "nom": "San Luis Mansion",
   "categorie": "Appartement",
   "priceRange": "€€",
   "mapsUrl": "https://maps.google.com/?q=14.6129694,120.9916378",
   "lat": 14.6129694,
   "lng": 120.9916378,
   "halalFriendly": false,
   "bookingUrl": "https://maps.google.com/?q=14.6129694,120.9916378",
   "source": "osm"
  },
  {
   "nom": "TCC Flats",
   "categorie": "Appartement",
   "priceRange": "€€",
   "mapsUrl": "https://maps.google.com/?q=14.6131217,120.9918876",
   "lat": 14.6131217,
   "lng": 120.9918876,
   "halalFriendly": false,
   "bookingUrl": "https://maps.google.com/?q=14.6131217,120.9918876",
   "source": "osm"
  },
  {
   "nom": "DPWH Employer’s Quarters",
   "categorie": "Auberge",
   "priceRange": "€€",
   "mapsUrl": "https://maps.google.com/?q=14.5901102,120.9708678",
   "lat": 14.5901102,
   "lng": 120.9708678,
   "halalFriendly": false,
   "bookingUrl": "https://maps.google.com/?q=14.5901102,120.9708678",
   "source": "osm"
  },
  {
   "nom": "Pope Pius XII Catholic Center",
   "categorie": "Appartement",
   "priceRange": "€€",
   "mapsUrl": "https://maps.google.com/?q=14.5844995,120.9900069",
   "lat": 14.5844995,
   "lng": 120.9900069,
   "halalFriendly": false,
   "bookingUrl": "https://maps.google.com/?q=14.5844995,120.9900069",
   "source": "osm"
  },
  {
   "nom": "Metro Home Ladies Dormitory",
   "categorie": "Auberge",
   "priceRange": "€€",
   "mapsUrl": "https://maps.google.com/?q=14.6010031,121.0008658",
   "lat": 14.6010031,
   "lng": 121.0008658,
   "halalFriendly": false,
   "bookingUrl": "https://maps.google.com/?q=14.6010031,121.0008658",
   "source": "osm"
  },
  {
   "nom": "Go Hotels",
   "categorie": "Hôtel",
   "priceRange": "€€",
   "mapsUrl": "https://maps.google.com/?q=14.5870195,120.9957101",
   "lat": 14.5870195,
   "lng": 120.9957101,
   "halalFriendly": false,
   "bookingUrl": "https://maps.google.com/?q=14.5870195,120.9957101",
   "source": "osm"
  },
  {
   "nom": "Nisus Properties, Inc.",
   "categorie": "Appartement",
   "priceRange": "€€",
   "mapsUrl": "https://maps.google.com/?q=14.616721,120.9864238",
   "lat": 14.616721,
   "lng": 120.9864238,
   "halalFriendly": false,
   "bookingUrl": "https://maps.google.com/?q=14.616721,120.9864238",
   "source": "osm"
  },
  {
   "nom": "The Pearl Manila Hotel",
   "categorie": "Hôtel",
   "priceRange": "€€",
   "mapsUrl": "https://maps.google.com/?q=14.5817441,120.9856336",
   "lat": 14.5817441,
   "lng": 120.9856336,
   "halalFriendly": false,
   "bookingUrl": "http://www.pearlmanila.com.ph/",
   "source": "osm"
  },
  {
   "nom": "Seamans Dorm",
   "categorie": "Maison d'hôtes",
   "priceRange": "€€",
   "mapsUrl": "https://maps.google.com/?q=14.5892329,120.9687084",
   "lat": 14.5892329,
   "lng": 120.9687084,
   "halalFriendly": false,
   "bookingUrl": "https://maps.google.com/?q=14.5892329,120.9687084",
   "source": "osm"
  },
  {
   "nom": "The Corporate Inn Hotel Manila",
   "categorie": "Hôtel",
   "priceRange": "€€",
   "mapsUrl": "https://maps.google.com/?q=14.5815711,120.9811146",
   "lat": 14.5815711,
   "lng": 120.9811146,
   "halalFriendly": false,
   "bookingUrl": "https://maps.google.com/?q=14.5815711,120.9811146",
   "source": "osm"
  },
  {
   "nom": "Winford Hotel and Casino",
   "categorie": "Hôtel",
   "priceRange": "€€",
   "mapsUrl": "https://maps.google.com/?q=14.617539,120.9874033",
   "lat": 14.617539,
   "lng": 120.9874033,
   "halalFriendly": false,
   "bookingUrl": "https://maps.google.com/?q=14.617539,120.9874033",
   "source": "osm"
  },
  {
   "nom": "Casa Bocobo Hotel",
   "categorie": "Hôtel",
   "priceRange": "€€",
   "mapsUrl": "https://maps.google.com/?q=14.5810893,120.9809681",
   "lat": 14.5810893,
   "lng": 120.9809681,
   "halalFriendly": false,
   "bookingUrl": "https://www.casabocobo.com.ph/",
   "source": "osm"
  },
  {
   "nom": "Manila Hotel",
   "categorie": "Hôtel",
   "priceRange": "€€€€",
   "score": 5,
   "mapsUrl": "https://maps.google.com/?q=14.5833708,120.9738119",
   "lat": 14.5833708,
   "lng": 120.9738119,
   "halalFriendly": false,
   "bookingUrl": "https://www.manila-hotel.com.ph/",
   "source": "osm"
  },
  {
   "nom": "Paco Park Oasis Hotel",
   "categorie": "Hôtel",
   "priceRange": "€€",
   "mapsUrl": "https://maps.google.com/?q=14.5810573,120.9894956",
   "lat": 14.5810573,
   "lng": 120.9894956,
   "halalFriendly": false,
   "bookingUrl": "https://maps.google.com/?q=14.5810573,120.9894956",
   "source": "osm"
  },
  {
   "nom": "The Jade Vine",
   "categorie": "Hôtel",
   "priceRange": "€€",
   "mapsUrl": "https://maps.google.com/?q=14.5805921,120.9808795",
   "lat": 14.5805921,
   "lng": 120.9808795,
   "halalFriendly": false,
   "bookingUrl": "https://maps.google.com/?q=14.5805921,120.9808795",
   "source": "osm"
  },
  {
   "nom": "Mabini Mansion",
   "categorie": "Hôtel",
   "priceRange": "€€",
   "mapsUrl": "https://maps.google.com/?q=14.5805107,120.9796685",
   "lat": 14.5805107,
   "lng": 120.9796685,
   "halalFriendly": false,
   "bookingUrl": "https://maps.google.com/?q=14.5805107,120.9796685",
   "source": "osm"
  },
  {
   "nom": "Garden Plaza",
   "categorie": "Hôtel",
   "priceRange": "€€",
   "mapsUrl": "https://maps.google.com/?q=14.5805925,120.9891168",
   "lat": 14.5805925,
   "lng": 120.9891168,
   "halalFriendly": false,
   "bookingUrl": "https://maps.google.com/?q=14.5805925,120.9891168",
   "source": "osm"
  },
  {
   "nom": "Yanyan Dangupon",
   "categorie": "Maison d'hôtes",
   "priceRange": "€€",
   "mapsUrl": "https://maps.google.com/?q=14.6063347,121.0031767",
   "lat": 14.6063347,
   "lng": 121.0031767,
   "halalFriendly": false,
   "bookingUrl": "https://maps.google.com/?q=14.6063347,121.0031767",
   "source": "osm"
  },
  {
   "nom": "Mariners Safehouse",
   "categorie": "Auberge",
   "priceRange": "€€",
   "mapsUrl": "https://maps.google.com/?q=14.580255,120.980011",
   "lat": 14.580255,
   "lng": 120.980011,
   "halalFriendly": false,
   "bookingUrl": "https://maps.google.com/?q=14.580255,120.980011",
   "source": "osm"
  },
  {
   "nom": "1318",
   "categorie": "Maison d'hôtes",
   "priceRange": "€€",
   "mapsUrl": "https://maps.google.com/?q=14.6176595,120.9920291",
   "lat": 14.6176595,
   "lng": 120.9920291,
   "halalFriendly": false,
   "bookingUrl": "https://maps.google.com/?q=14.6176595,120.9920291",
   "source": "osm"
  },
  {
   "nom": "Hotel Soriente",
   "categorie": "Hôtel",
   "priceRange": "€€",
   "mapsUrl": "https://maps.google.com/?q=14.5799317,120.9812252",
   "lat": 14.5799317,
   "lng": 120.9812252,
   "halalFriendly": false,
   "bookingUrl": "https://maps.google.com/?q=14.5799317,120.9812252",
   "source": "osm"
  },
  {
   "nom": "Paragon Tower Hotel",
   "categorie": "Hôtel",
   "priceRange": "€€",
   "mapsUrl": "https://maps.google.com/?q=14.5796944,120.9810706",
   "lat": 14.5796944,
   "lng": 120.9810706,
   "halalFriendly": false,
   "bookingUrl": "https://maps.google.com/?q=14.5796944,120.9810706",
   "source": "osm"
  },
  {
   "nom": "Bahay ng Marino",
   "categorie": "Maison d'hôtes",
   "priceRange": "€€",
   "mapsUrl": "https://maps.google.com/?q=14.587785,120.967345",
   "lat": 14.587785,
   "lng": 120.967345,
   "halalFriendly": false,
   "bookingUrl": "https://maps.google.com/?q=14.587785,120.967345",
   "source": "osm"
  },
  {
   "nom": "Casa Rosario",
   "categorie": "Hôtel",
   "priceRange": "€€",
   "mapsUrl": "https://maps.google.com/?q=14.6080205,121.003021",
   "lat": 14.6080205,
   "lng": 121.003021,
   "halalFriendly": false,
   "bookingUrl": "https://maps.google.com/?q=14.6080205,121.003021",
   "source": "osm"
  },
  {
   "nom": "Oceanic Dormitory",
   "categorie": "Appartement",
   "priceRange": "€€",
   "mapsUrl": "https://maps.google.com/?q=14.5796833,120.9802567",
   "lat": 14.5796833,
   "lng": 120.9802567,
   "halalFriendly": false,
   "bookingUrl": "https://maps.google.com/?q=14.5796833,120.9802567",
   "source": "osm"
  },
  {
   "nom": "Walk Inn",
   "categorie": "Hôtel",
   "priceRange": "€€",
   "mapsUrl": "https://maps.google.com/?q=14.6196627,120.9826691",
   "lat": 14.6196627,
   "lng": 120.9826691,
   "halalFriendly": false,
   "bookingUrl": "https://maps.google.com/?q=14.6196627,120.9826691",
   "source": "osm"
  },
  {
   "nom": "El Capitan Dorm",
   "categorie": "Appartement",
   "priceRange": "€€",
   "mapsUrl": "https://maps.google.com/?q=14.5796359,120.9802893",
   "lat": 14.5796359,
   "lng": 120.9802893,
   "halalFriendly": false,
   "bookingUrl": "https://maps.google.com/?q=14.5796359,120.9802893",
   "source": "osm"
  },
  {
   "nom": "Panda Haus Transient and Bedspacer",
   "categorie": "Hôtel",
   "priceRange": "€€",
   "mapsUrl": "https://maps.google.com/?q=14.5794965,120.9807791",
   "lat": 14.5794965,
   "lng": 120.9807791,
   "halalFriendly": false,
   "bookingUrl": "https://maps.google.com/?q=14.5794965,120.9807791",
   "source": "osm"
  },
  {
   "nom": "Purple Tree Hostel",
   "categorie": "Auberge",
   "priceRange": "€€",
   "mapsUrl": "https://maps.google.com/?q=14.5799919,120.9781096",
   "lat": 14.5799919,
   "lng": 120.9781096,
   "halalFriendly": false,
   "bookingUrl": "https://maps.google.com/?q=14.5799919,120.9781096",
   "source": "osm"
  },
  {
   "nom": "Coco's Garden Guestroom",
   "categorie": "Hôtel",
   "priceRange": "€€",
   "mapsUrl": "https://maps.google.com/?q=14.5836934,120.9975479",
   "lat": 14.5836934,
   "lng": 120.9975479,
   "halalFriendly": false,
   "bookingUrl": "https://maps.google.com/?q=14.5836934,120.9975479",
   "source": "osm"
  },
  {
   "nom": "Luneta Hotel",
   "categorie": "Hôtel",
   "priceRange": "€€",
   "mapsUrl": "https://maps.google.com/?q=14.5799197,120.9781138",
   "lat": 14.5799197,
   "lng": 120.9781138,
   "halalFriendly": false,
   "bookingUrl": "https://lunetahotel.com/",
   "source": "osm"
  }
 ],
 "mosqueesPrincipales": [
  {
   "id": "m27086772",
   "nom": "Quiapo Church",
   "type": "Mosquée",
   "adresse": "Plaza Miranda, Manila",
   "description": "Lieu de prière (OpenStreetMap).",
   "mapsUrl": "https://maps.google.com/?q=14.5988233,120.9837861",
   "lat": 14.5988233,
   "lng": 120.9837861,
   "source": "osm"
  },
  {
   "id": "m174249107",
   "nom": "Golden Mosque",
   "type": "Mosquée",
   "adresse": "Globo de Oro Street, Manila",
   "description": "Lieu de prière (OpenStreetMap).",
   "mapsUrl": "https://maps.google.com/?q=14.5957786,120.9851259",
   "lat": 14.5957786,
   "lng": 120.9851259,
   "source": "osm"
  },
  {
   "id": "m89571506",
   "nom": "San Agustin Church",
   "type": "Mosquée",
   "adresse": "General Luna Street, Manila",
   "description": "Lieu de prière (OpenStreetMap).",
   "mapsUrl": "https://maps.google.com/?q=14.5889152,120.975345",
   "lat": 14.5889152,
   "lng": 120.975345,
   "source": "osm"
  },
  {
   "id": "m7686641477",
   "nom": "Ermita Mosque",
   "type": "Mosquée",
   "adresse": "",
   "description": "Lieu de prière (OpenStreetMap).",
   "mapsUrl": "https://maps.google.com/?q=14.5777272,120.9801875",
   "lat": 14.5777272,
   "lng": 120.9801875,
   "source": "osm"
  },
  {
   "id": "m10003384062",
   "nom": "Greenhills Masjid",
   "type": "Mosquée",
   "adresse": "",
   "description": "Lieu de prière (OpenStreetMap).",
   "mapsUrl": "https://maps.google.com/?q=14.6030016,121.0486714",
   "lat": 14.6030016,
   "lng": 121.0486714,
   "source": "osm"
  },
  {
   "id": "m290313987",
   "nom": "Al-Wasat Mosque",
   "type": "Mosquée",
   "adresse": "",
   "description": "Lieu de prière (OpenStreetMap).",
   "mapsUrl": "https://maps.google.com/?q=14.5324168,120.9975595",
   "lat": 14.5324168,
   "lng": 120.9975595,
   "source": "osm"
  },
  {
   "id": "m24058935",
   "nom": "Baclaran Church",
   "type": "Mosquée",
   "adresse": "Roxas Boulevard, Parañaque",
   "description": "Lieu de prière (OpenStreetMap).",
   "mapsUrl": "https://maps.google.com/?q=14.5314128,120.995245",
   "lat": 14.5314128,
   "lng": 120.995245,
   "source": "osm"
  },
  {
   "id": "m29234703",
   "nom": "EDSA Shrine",
   "type": "Mosquée",
   "adresse": "EDSA, Quezon City",
   "description": "Lieu de prière (OpenStreetMap).",
   "mapsUrl": "https://maps.google.com/?q=14.5924668,121.0587691",
   "lat": 14.5924668,
   "lng": 121.0587691,
   "source": "osm"
  },
  {
   "id": "m12198539111",
   "nom": "Muslim Prayer Room",
   "type": "Mosquée",
   "adresse": "Pasay",
   "description": "Lieu de prière (OpenStreetMap).",
   "mapsUrl": "https://maps.google.com/?q=14.5089222,121.0118255",
   "lat": 14.5089222,
   "lng": 121.0118255,
   "source": "osm"
  },
  {
   "id": "m170997894",
   "nom": "Salam Mosque",
   "type": "Mosquée",
   "adresse": "Quezon City",
   "description": "Lieu de prière (OpenStreetMap).",
   "mapsUrl": "https://maps.google.com/?q=14.6660099,121.0583828",
   "lat": 14.6660099,
   "lng": 121.0583828,
   "source": "osm"
  },
  {
   "id": "m1382500950",
   "nom": "Al-Abrar Mosque",
   "type": "Mosquée",
   "adresse": "",
   "description": "Lieu de prière (OpenStreetMap).",
   "mapsUrl": "https://maps.google.com/?q=14.667111,121.05847",
   "lat": 14.667111,
   "lng": 121.05847,
   "source": "osm"
  }
 ],
 "activites": [
  {
   "id": "a4364397391",
   "nom": "San Juan Bautista",
   "categorie": "artwork",
   "description": "",
   "prix": "",
   "duree": "",
   "mapsUrl": "https://maps.google.com/?q=14.5988055,120.9834933",
   "lat": 14.5988055,
   "lng": 120.9834933,
   "source": "osm"
  },
  {
   "id": "a4177404032",
   "nom": "Ang Bahay ng mga Nakpil at Bautista",
   "categorie": "memorial",
   "description": "",
   "prix": "",
   "duree": "",
   "mapsUrl": "https://maps.google.com/?q=14.5984463,120.9846438",
   "lat": 14.5984463,
   "lng": 120.9846438,
   "source": "osm"
  },
  {
   "id": "a179408056",
   "nom": "Bahay Nakpil-Bautista",
   "categorie": "museum",
   "description": "",
   "prix": "",
   "duree": "",
   "mapsUrl": "https://maps.google.com/?q=14.5984448,120.98474",
   "lat": 14.5984448,
   "lng": 120.98474,
   "source": "osm"
  },
  {
   "id": "a836257439",
   "nom": "The Plaza Miranda Bombing",
   "categorie": "memorial",
   "description": "",
   "prix": "",
   "duree": "",
   "mapsUrl": "https://maps.google.com/?q=14.5981416,120.9837271",
   "lat": 14.5981416,
   "lng": 120.9837271,
   "source": "osm"
  },
  {
   "id": "a9025156722",
   "nom": "Plaza Miranda",
   "categorie": "memorial",
   "description": "",
   "prix": "",
   "duree": "",
   "mapsUrl": "https://maps.google.com/?q=14.5981878,120.9834096",
   "lat": 14.5981878,
   "lng": 120.9834096,
   "source": "osm"
  },
  {
   "id": "a1974825376",
   "nom": "The Padilla Art Gallery",
   "categorie": "museum",
   "description": "",
   "prix": "",
   "duree": "",
   "mapsUrl": "https://maps.google.com/?q=14.5983659,120.985895",
   "lat": 14.5983659,
   "lng": 120.985895,
   "source": "osm"
  },
  {
   "id": "a4180149209",
   "nom": "El Renacimiento",
   "categorie": "memorial",
   "description": "",
   "prix": "",
   "duree": "",
   "mapsUrl": "https://maps.google.com/?q=14.5967084,120.9851984",
   "lat": 14.5967084,
   "lng": 120.9851984,
   "source": "osm"
  },
  {
   "id": "a4177404034",
   "nom": "Gregorio Araneta y Soriano",
   "categorie": "memorial",
   "description": "",
   "prix": "",
   "duree": "",
   "mapsUrl": "https://maps.google.com/?q=14.5989136,120.9873709",
   "lat": 14.5989136,
   "lng": 120.9873709,
   "source": "osm"
  },
  {
   "id": "a4177404036",
   "nom": "J. Antonio Araneta Y Zaragoza",
   "categorie": "memorial",
   "description": "",
   "prix": "",
   "duree": "",
   "mapsUrl": "https://maps.google.com/?q=14.5989184,120.9873849",
   "lat": 14.5989184,
   "lng": 120.9873849,
   "source": "osm"
  },
  {
   "id": "a4177404037",
   "nom": "Miguel Zaragoza Y Aranquizna",
   "categorie": "memorial",
   "description": "",
   "prix": "",
   "duree": "",
   "mapsUrl": "https://maps.google.com/?q=14.5989233,120.987399",
   "lat": 14.5989233,
   "lng": 120.987399,
   "source": "osm"
  },
  {
   "id": "a1195153767",
   "nom": "Mayor Arsenio Lacson",
   "categorie": "memorial",
   "description": "",
   "prix": "",
   "duree": "",
   "mapsUrl": "https://maps.google.com/?q=14.5988566,120.9806481",
   "lat": 14.5988566,
   "lng": 120.9806481,
   "source": "osm"
  },
  {
   "id": "a13590973560",
   "nom": "Ariston Bautista Lin",
   "categorie": "memorial",
   "description": "",
   "prix": "",
   "duree": "",
   "mapsUrl": "https://maps.google.com/?q=14.6002603,120.9805385",
   "lat": 14.6002603,
   "lng": 120.9805385,
   "source": "osm"
  },
  {
   "id": "a10097934718",
   "nom": "arch of good will",
   "categorie": "attraction",
   "description": "",
   "prix": "",
   "duree": "",
   "mapsUrl": "https://maps.google.com/?q=14.6001068,120.9802766",
   "lat": 14.6001068,
   "lng": 120.9802766,
   "source": "osm"
  },
  {
   "id": "a5281204236",
   "nom": "Pasig River, Estuary-Sanctuary",
   "categorie": "artwork",
   "description": "",
   "prix": "",
   "duree": "",
   "mapsUrl": "https://maps.google.com/?q=14.5955978,120.9844892",
   "lat": 14.5955978,
   "lng": 120.9844892,
   "source": "osm"
  },
  {
   "id": "a12377166547",
   "nom": "Patricio Mariano",
   "categorie": "memorial",
   "description": "",
   "prix": "",
   "duree": "",
   "mapsUrl": "https://maps.google.com/?q=14.5987846,120.9797962",
   "lat": 14.5987846,
   "lng": 120.9797962,
   "source": "osm"
  },
  {
   "id": "a179223714",
   "nom": "Casa Consulado Museum & Library",
   "categorie": "museum",
   "description": "",
   "prix": "",
   "duree": "",
   "mapsUrl": "https://maps.google.com/?q=14.6000982,120.9886963",
   "lat": 14.6000982,
   "lng": 120.9886963,
   "source": "osm"
  },
  {
   "id": "a13399308979",
   "nom": "Regina Building",
   "categorie": "memorial",
   "description": "",
   "prix": "",
   "duree": "",
   "mapsUrl": "https://maps.google.com/?q=14.5987886,120.9796741",
   "lat": 14.5987886,
   "lng": 120.9796741,
   "source": "osm"
  },
  {
   "id": "a4300013991",
   "nom": "Nicanor Reyes Memorial",
   "categorie": "memorial",
   "description": "",
   "prix": "",
   "duree": "",
   "mapsUrl": "https://maps.google.com/?q=14.6038767,120.9857385",
   "lat": 14.6038767,
   "lng": 120.9857385,
   "source": "osm"
  },
  {
   "id": "a5992214990",
   "nom": "Perez-Samanillo Building",
   "categorie": "memorial",
   "description": "",
   "prix": "",
   "duree": "",
   "mapsUrl": "https://maps.google.com/?q=14.5987818,120.9794695",
   "lat": 14.5987818,
   "lng": 120.9794695,
   "source": "osm"
  },
  {
   "id": "a5992214989",
   "nom": "Gusaling Perez-Samanillo",
   "categorie": "memorial",
   "description": "",
   "prix": "",
   "duree": "",
   "mapsUrl": "https://maps.google.com/?q=14.5987564,120.979442",
   "lat": 14.5987564,
   "lng": 120.979442,
   "source": "osm"
  },
  {
   "id": "a354481548",
   "nom": "Nicanor Reyes Square",
   "categorie": "monument",
   "description": "",
   "prix": "",
   "duree": "",
   "mapsUrl": "https://maps.google.com/?q=14.6037278,120.9865075",
   "lat": 14.6037278,
   "lng": 120.9865075,
   "source": "osm"
  },
  {
   "id": "a9905264860",
   "nom": "The Aquatic Reef",
   "categorie": "aquarium",
   "description": "",
   "prix": "",
   "duree": "",
   "mapsUrl": "https://maps.google.com/?q=14.6010559,120.9794768",
   "lat": 14.6010559,
   "lng": 120.9794768,
   "source": "osm"
  },
  {
   "id": "a7629254791",
   "nom": "First United Building Community Museum",
   "categorie": "museum",
   "description": "",
   "prix": "",
   "duree": "",
   "mapsUrl": "https://maps.google.com/?q=14.5988365,120.979254",
   "lat": 14.5988365,
   "lng": 120.979254,
   "source": "osm"
  },
  {
   "id": "a4179570154",
   "nom": "San Sebastian Church",
   "categorie": "memorial",
   "description": "",
   "prix": "",
   "duree": "",
   "mapsUrl": "https://maps.google.com/?q=14.5995017,120.9892247",
   "lat": 14.5995017,
   "lng": 120.9892247,
   "source": "osm"
  },
  {
   "id": "a12004926774",
   "nom": "William J. Burke",
   "categorie": "memorial",
   "description": "",
   "prix": "",
   "duree": "",
   "mapsUrl": "https://maps.google.com/?q=14.598587,120.9791868",
   "lat": 14.598587,
   "lng": 120.9791868,
   "source": "osm"
  },
  {
   "id": "a12004926775",
   "nom": "William J. Burke",
   "categorie": "memorial",
   "description": "",
   "prix": "",
   "duree": "",
   "mapsUrl": "https://maps.google.com/?q=14.5985187,120.9791851",
   "lat": 14.5985187,
   "lng": 120.9791851,
   "source": "osm"
  },
  {
   "id": "a294049660",
   "nom": "Douglas MacArthur",
   "categorie": "memorial",
   "description": "",
   "prix": "",
   "duree": "",
   "mapsUrl": "https://maps.google.com/?q=14.595925,120.9804216",
   "lat": 14.595925,
   "lng": 120.9804216,
   "source": "osm"
  },
  {
   "id": "a4798181627",
   "nom": "Tamaraw Statue",
   "categorie": "artwork",
   "description": "",
   "prix": "",
   "duree": "",
   "mapsUrl": "https://maps.google.com/?q=14.6040534,120.9868262",
   "lat": 14.6040534,
   "lng": 120.9868262,
   "source": "osm"
  },
  {
   "id": "a7629254792",
   "nom": "Calvo Museum",
   "categorie": "museum",
   "description": "",
   "prix": "",
   "duree": "",
   "mapsUrl": "https://maps.google.com/?q=14.5970832,120.9782048",
   "lat": 14.5970832,
   "lng": 120.9782048,
   "source": "osm"
  },
  {
   "id": "a7629254793",
   "nom": "Gusaling Calvo",
   "categorie": "memorial",
   "description": "",
   "prix": "",
   "duree": "",
   "mapsUrl": "https://maps.google.com/?q=14.5973095,120.9780842",
   "lat": 14.5973095,
   "lng": 120.9780842,
   "source": "osm"
  },
  {
   "id": "a7621304561",
   "nom": "Inauguration of the First Philippine Assembly",
   "categorie": "memorial",
   "description": "",
   "prix": "",
   "duree": "",
   "mapsUrl": "https://maps.google.com/?q=14.6053179,120.9816565",
   "lat": 14.6053179,
   "lng": 120.9816565,
   "source": "osm"
  },
  {
   "id": "a5281204235",
   "nom": "Your World Made Better",
   "categorie": "artwork",
   "description": "",
   "prix": "",
   "duree": "",
   "mapsUrl": "https://maps.google.com/?q=14.5932363,120.9832162",
   "lat": 14.5932363,
   "lng": 120.9832162,
   "source": "osm"
  },
  {
   "id": "a7743018310",
   "nom": "Philippine Post Office",
   "categorie": "memorial",
   "description": "",
   "prix": "",
   "duree": "",
   "mapsUrl": "https://maps.google.com/?q=14.5953224,120.979134",
   "lat": 14.5953224,
   "lng": 120.979134,
   "source": "osm"
  },
  {
   "id": "a1068853303",
   "nom": "The Postman",
   "categorie": "artwork",
   "description": "",
   "prix": "",
   "duree": "",
   "mapsUrl": "https://maps.google.com/?q=14.5952642,120.9791672",
   "lat": 14.5952642,
   "lng": 120.9791672,
   "source": "osm"
  },
  {
   "id": "a1038073330",
   "nom": "Manila Metropolitan Theater",
   "categorie": "memorial",
   "description": "",
   "prix": "",
   "duree": "",
   "mapsUrl": "https://maps.google.com/?q=14.5942367,120.9803321",
   "lat": 14.5942367,
   "lng": 120.9803321,
   "source": "osm"
  },
  {
   "id": "a10769040895",
   "nom": "Globe Statue",
   "categorie": "artwork",
   "description": "",
   "prix": "",
   "duree": "",
   "mapsUrl": "https://maps.google.com/?q=14.5947108,120.9796545",
   "lat": 14.5947108,
   "lng": 120.9796545,
   "source": "osm"
  },
  {
   "id": "a7621304562",
   "nom": "The Manila Grand Opera House",
   "categorie": "memorial",
   "description": "",
   "prix": "",
   "duree": "",
   "mapsUrl": "https://maps.google.com/?q=14.6057618,120.981855",
   "lat": 14.6057618,
   "lng": 120.981855,
   "source": "osm"
  },
  {
   "id": "a12284519950",
   "nom": "Pasig River Esplanade",
   "categorie": "attraction",
   "description": "",
   "prix": "",
   "duree": "",
   "mapsUrl": "https://maps.google.com/?q=14.595868,120.9782951",
   "lat": 14.595868,
   "lng": 120.9782951,
   "source": "osm"
  },
  {
   "id": "a12964590378",
   "nom": "Kalye Mendiola",
   "categorie": "memorial",
   "description": "",
   "prix": "",
   "duree": "",
   "mapsUrl": "https://maps.google.com/?q=14.6001722,120.9911744",
   "lat": 14.6001722,
   "lng": 120.9911744,
   "source": "osm"
  },
  {
   "id": "a331699595",
   "nom": "Andres Bonifacio",
   "categorie": "memorial",
   "description": "",
   "prix": "",
   "duree": "",
   "mapsUrl": "https://maps.google.com/?q=14.5945384,120.9793971",
   "lat": 14.5945384,
   "lng": 120.9793971,
   "source": "osm"
  },
  {
   "id": "a12374860211",
   "nom": "Siar",
   "categorie": "garden",
   "description": "",
   "prix": "",
   "duree": "",
   "mapsUrl": "https://maps.google.com/?q=14.5966048,120.9776977",
   "lat": 14.5966048,
   "lng": 120.9776977,
   "source": "osm"
  },
  {
   "id": "a1037130637",
   "nom": "Chino Roces",
   "categorie": "memorial",
   "description": "",
   "prix": "",
   "duree": "",
   "mapsUrl": "https://maps.google.com/?q=14.6000808,120.9913328",
   "lat": 14.6000808,
   "lng": 120.9913328,
   "source": "osm"
  },
  {
   "id": "a12374622466",
   "nom": "Plaza Yuchengco",
   "categorie": "attraction",
   "description": "",
   "prix": "",
   "duree": "",
   "mapsUrl": "https://maps.google.com/?q=14.5965523,120.977628",
   "lat": 14.5965523,
   "lng": 120.977628,
   "source": "osm"
  },
  {
   "id": "a595356825",
   "nom": "Mendiola Peace Arch",
   "categorie": "memorial",
   "description": "",
   "prix": "",
   "duree": "",
   "mapsUrl": "https://maps.google.com/?q=14.5999373,120.9914701",
   "lat": 14.5999373,
   "lng": 120.9914701,
   "source": "osm"
  },
  {
   "id": "a1037921417",
   "nom": "Eagle Statue",
   "categorie": "artwork",
   "description": "",
   "prix": "",
   "duree": "",
   "mapsUrl": "https://maps.google.com/?q=14.5943892,120.9791285",
   "lat": 14.5943892,
   "lng": 120.9791285,
   "source": "osm"
  },
  {
   "id": "a10769040897",
   "nom": "Rooster Statue",
   "categorie": "artwork",
   "description": "",
   "prix": "",
   "duree": "",
   "mapsUrl": "https://maps.google.com/?q=14.5943683,120.9790187",
   "lat": 14.5943683,
   "lng": 120.9790187,
   "source": "osm"
  },
  {
   "id": "a10769040896",
   "nom": "History Marker",
   "categorie": "artwork",
   "description": "",
   "prix": "",
   "duree": "",
   "mapsUrl": "https://maps.google.com/?q=14.5944286,120.9785593",
   "lat": 14.5944286,
   "lng": 120.9785593,
   "source": "osm"
  },
  {
   "id": "a1038011259",
   "nom": "Leon Maria Guerrero",
   "categorie": "memorial",
   "description": "",
   "prix": "",
   "duree": "",
   "mapsUrl": "https://maps.google.com/?q=14.5926421,120.981145",
   "lat": 14.5926421,
   "lng": 120.981145,
   "source": "osm"
  },
  {
   "id": "a5813762470",
   "nom": "Leon Maria Guerrero",
   "categorie": "memorial",
   "description": "",
   "prix": "",
   "duree": "",
   "mapsUrl": "https://maps.google.com/?q=14.5926409,120.9811378",
   "lat": 14.5926409,
   "lng": 120.9811378,
   "source": "osm"
  },
  {
   "id": "a1460507396",
   "nom": "Gratitude (La Madre Filipina)",
   "categorie": "artwork",
   "description": "",
   "prix": "",
   "duree": "",
   "mapsUrl": "https://maps.google.com/?q=14.5950058,120.9779083",
   "lat": 14.5950058,
   "lng": 120.9779083,
   "source": "osm"
  },
  {
   "id": "a1460507395",
   "nom": "Gratitude (La Madre Filipina)",
   "categorie": "artwork",
   "description": "",
   "prix": "",
   "duree": "",
   "mapsUrl": "https://maps.google.com/?q=14.5949081,120.9777289",
   "lat": 14.5949081,
   "lng": 120.9777289,
   "source": "osm"
  },
  {
   "id": "a13825055501",
   "nom": "ARKONG PAGKAKAIBIGANG PILIPINO TSINO",
   "categorie": "attraction",
   "description": "",
   "prix": "",
   "duree": "",
   "mapsUrl": "https://maps.google.com/?q=14.5972605,120.9763804",
   "lat": 14.5972605,
   "lng": 120.9763804,
   "source": "osm"
  },
  {
   "id": "a1038011185",
   "nom": "Alexander Pushkin",
   "categorie": "memorial",
   "description": "",
   "prix": "",
   "duree": "",
   "mapsUrl": "https://maps.google.com/?q=14.5922255,120.9808068",
   "lat": 14.5922255,
   "lng": 120.9808068,
   "source": "osm"
  },
  {
   "id": "a6023810896",
   "nom": "Alexander Pushkin",
   "categorie": "memorial",
   "description": "",
   "prix": "",
   "duree": "",
   "mapsUrl": "https://maps.google.com/?q=14.5922283,120.9807954",
   "lat": 14.5922283,
   "lng": 120.9807954,
   "source": "osm"
  },
  {
   "id": "a7791922061",
   "nom": "The Mehan Garden",
   "categorie": "memorial",
   "description": "",
   "prix": "",
   "duree": "",
   "mapsUrl": "https://maps.google.com/?q=14.5922153,120.9807992",
   "lat": 14.5922153,
   "lng": 120.9807992,
   "source": "osm"
  },
  {
   "id": "a7805355217",
   "nom": "Drummer Boy Memorial Monument",
   "categorie": "monument",
   "description": "",
   "prix": "",
   "duree": "",
   "mapsUrl": "https://maps.google.com/?q=14.6001037,120.9925297",
   "lat": 14.6001037,
   "lng": 120.9925297,
   "source": "osm"
  },
  {
   "id": "a5813762469",
   "nom": "Universidad de Manila",
   "categorie": "memorial",
   "description": "",
   "prix": "",
   "duree": "",
   "mapsUrl": "https://maps.google.com/?q=14.5915714,120.9816557",
   "lat": 14.5915714,
   "lng": 120.9816557,
   "source": "osm"
  },
  {
   "id": "a89546105",
   "nom": "Victims of Martial Law (Memorial Wall)",
   "categorie": "memorial",
   "description": "",
   "prix": "",
   "duree": "",
   "mapsUrl": "https://maps.google.com/?q=14.5913472,120.9815817",
   "lat": 14.5913472,
   "lng": 120.9815817,
   "source": "osm"
  },
  {
   "id": "a12964678513",
   "nom": "Pacific Commercial Company Building",
   "categorie": "memorial",
   "description": "",
   "prix": "",
   "duree": "",
   "mapsUrl": "https://maps.google.com/?q=14.5961143,120.9760776",
   "lat": 14.5961143,
   "lng": 120.9760776,
   "source": "osm"
  },
  {
   "id": "a331628857",
   "nom": "Baluarte de San Gabriel",
   "categorie": "attraction",
   "description": "",
   "prix": "",
   "duree": "",
   "mapsUrl": "https://maps.google.com/?q=14.5939692,120.977385",
   "lat": 14.5939692,
   "lng": 120.977385,
   "source": "osm"
  },
  {
   "id": "a9953742724",
   "nom": "Kaysone Phomvihane",
   "categorie": "artwork",
   "description": "",
   "prix": "",
   "duree": "",
   "mapsUrl": "https://maps.google.com/?q=14.5932355,120.9780021",
   "lat": 14.5932355,
   "lng": 120.9780021,
   "source": "osm"
  },
  {
   "id": "a7732752238",
   "nom": "Francisca del Espiritu Santo",
   "categorie": "artwork",
   "description": "",
   "prix": "",
   "duree": "",
   "mapsUrl": "https://maps.google.com/?q=14.5938379,120.977342",
   "lat": 14.5938379,
   "lng": 120.977342,
   "source": "osm"
  },
  {
   "id": "a9953738858",
   "nom": "Ho Chi Minh",
   "categorie": "artwork",
   "description": "",
   "prix": "",
   "duree": "",
   "mapsUrl": "https://maps.google.com/?q=14.5928626,120.9780453",
   "lat": 14.5928626,
   "lng": 120.9780453,
   "source": "osm"
  },
  {
   "id": "a1038073309",
   "nom": "Emilio Jacinto",
   "categorie": "memorial",
   "description": "",
   "prix": "",
   "duree": "",
   "mapsUrl": "https://maps.google.com/?q=14.5908789,120.9815433",
   "lat": 14.5908789,
   "lng": 120.9815433,
   "source": "osm"
  },
  {
   "id": "a9953742723",
   "nom": "José Rizal",
   "categorie": "artwork",
   "description": "",
   "prix": "",
   "duree": "",
   "mapsUrl": "https://maps.google.com/?q=14.5924745,120.9783832",
   "lat": 14.5924745,
   "lng": 120.9783832,
   "source": "osm"
  },
  {
   "id": "a291713407",
   "nom": "The Life and Heroism of Gat Andres Bonifacio",
   "categorie": "artwork",
   "description": "",
   "prix": "",
   "duree": "",
   "mapsUrl": "https://maps.google.com/?q=14.5909511,120.9810886",
   "lat": 14.5909511,
   "lng": 120.9810886,
   "source": "osm"
  },
  {
   "id": "a89536438",
   "nom": "Memorare - Andres Bonifacio",
   "categorie": "memorial",
   "description": "",
   "prix": "",
   "duree": "",
   "mapsUrl": "https://maps.google.com/?q=14.5909361,120.9810984",
   "lat": 14.5909361,
   "lng": 120.9810984,
   "source": "osm"
  },
  {
   "id": "a1038073301",
   "nom": "Memorare",
   "categorie": "memorial",
   "description": "",
   "prix": "",
   "duree": "",
   "mapsUrl": "https://maps.google.com/?q=14.590867,120.9811946",
   "lat": 14.590867,
   "lng": 120.9811946,
   "source": "osm"
  },
  {
   "id": "a7561589889",
   "nom": "Roman Ongpin",
   "categorie": "memorial",
   "description": "",
   "prix": "",
   "duree": "",
   "mapsUrl": "https://maps.google.com/?q=14.5998339,120.9747338",
   "lat": 14.5998339,
   "lng": 120.9747338,
   "source": "osm"
  },
  {
   "id": "a1034880222",
   "nom": "Isabel II",
   "categorie": "memorial",
   "description": "",
   "prix": "",
   "duree": "",
   "mapsUrl": "https://maps.google.com/?q=14.594237,120.9762403",
   "lat": 14.594237,
   "lng": 120.9762403,
   "source": "osm"
  },
  {
   "id": "a10243714050",
   "nom": "Puerta de Isabel II",
   "categorie": "attraction",
   "description": "",
   "prix": "",
   "duree": "",
   "mapsUrl": "https://maps.google.com/?q=14.5941498,120.9762525",
   "lat": 14.5941498,
   "lng": 120.9762525,
   "source": "osm"
  },
  {
   "id": "a12824841701",
   "nom": "Minor Basilica of San Lorenzo Ruiz",
   "categorie": "attraction",
   "description": "",
   "prix": "",
   "duree": "",
   "mapsUrl": "https://maps.google.com/?q=14.6001136,120.9744974",
   "lat": 14.6001136,
   "lng": 120.9744974,
   "source": "osm"
  },
  {
   "id": "a8317870119",
   "nom": "Victoria Park",
   "categorie": "park",
   "description": "",
   "prix": "",
   "duree": "",
   "mapsUrl": "https://maps.google.com/?q=14.5911622,120.9796251",
   "lat": 14.5911622,
   "lng": 120.9796251,
   "source": "osm"
  },
  {
   "id": "a1042221787",
   "nom": "Scout-Heroes of Colegio de San Juan de Letran, Manila",
   "categorie": "memorial",
   "description": "",
   "prix": "",
   "duree": "",
   "mapsUrl": "https://maps.google.com/?q=14.5937478,120.9764621",
   "lat": 14.5937478,
   "lng": 120.9764621,
   "source": "osm"
  },
  {
   "id": "a5860992124",
   "nom": "Statue of Dr. Jose P. Laurel",
   "categorie": "memorial",
   "description": "",
   "prix": "",
   "duree": "",
   "mapsUrl": "https://maps.google.com/?q=14.592052,120.9779748",
   "lat": 14.592052,
   "lng": 120.9779748,
   "source": "osm"
  },
  {
   "id": "a5281204238",
   "nom": "Suong, Sulong",
   "categorie": "artwork",
   "description": "",
   "prix": "",
   "duree": "",
   "mapsUrl": "https://maps.google.com/?q=14.5962239,120.9748672",
   "lat": 14.5962239,
   "lng": 120.9748672,
   "source": "osm"
  },
  {
   "id": "a13164956570",
   "nom": "Joaquin Santa Maria",
   "categorie": "memorial",
   "description": "",
   "prix": "",
   "duree": "",
   "mapsUrl": "https://maps.google.com/?q=14.6001219,120.9739204",
   "lat": 14.6001219,
   "lng": 120.9739204,
   "source": "osm"
  },
  {
   "id": "a582388575",
   "nom": "Manila City Hall Clock Tower",
   "categorie": "attraction",
   "description": "",
   "prix": "",
   "duree": "",
   "mapsUrl": "https://maps.google.com/?q=14.5898643,120.9815562",
   "lat": 14.5898643,
   "lng": 120.9815562,
   "source": "osm"
  },
  {
   "id": "a12824841602",
   "nom": "Gate 7",
   "categorie": "attraction",
   "description": "",
   "prix": "",
   "duree": "",
   "mapsUrl": "https://maps.google.com/?q=14.5941647,120.9754689",
   "lat": 14.5941647,
   "lng": 120.9754689,
   "source": "osm"
  },
  {
   "id": "a4834094621",
   "nom": "Gusali ng Lunsod ng Maynila",
   "categorie": "memorial",
   "description": "",
   "prix": "",
   "duree": "",
   "mapsUrl": "https://maps.google.com/?q=14.5897174,120.981619",
   "lat": 14.5897174,
   "lng": 120.981619,
   "source": "osm"
  },
  {
   "id": "a7557643468",
   "nom": "San Lorenzo Ruiz",
   "categorie": "artwork",
   "description": "",
   "prix": "",
   "duree": "",
   "mapsUrl": "https://maps.google.com/?q=14.6004252,120.9737247",
   "lat": 14.6004252,
   "lng": 120.9737247,
   "source": "osm"
  },
  {
   "id": "a7557643469",
   "nom": "Fil-Chi WWII Martyrs Memorial",
   "categorie": "memorial",
   "description": "",
   "prix": "",
   "duree": "",
   "mapsUrl": "https://maps.google.com/?q=14.6005329,120.973663",
   "lat": 14.6005329,
   "lng": 120.973663,
   "source": "osm"
  },
  {
   "id": "a1037130640",
   "nom": "Liberation of Manila",
   "categorie": "memorial",
   "description": "",
   "prix": "",
   "duree": "",
   "mapsUrl": "https://maps.google.com/?q=14.5946485,120.993578",
   "lat": 14.5946485,
   "lng": 120.993578,
   "source": "osm"
  },
  {
   "id": "a7557643470",
   "nom": "Tomas Pinpin",
   "categorie": "memorial",
   "description": "",
   "prix": "",
   "duree": "",
   "mapsUrl": "https://maps.google.com/?q=14.6006303,120.9736026",
   "lat": 14.6006303,
   "lng": 120.9736026,
   "source": "osm"
  },
  {
   "id": "a11116298305",
   "nom": "Bollard ligt lamp",
   "categorie": "attraction",
   "description": "",
   "prix": "",
   "duree": "",
   "mapsUrl": "https://maps.google.com/?q=14.6045759,120.9748719",
   "lat": 14.6045759,
   "lng": 120.9748719,
   "source": "osm"
  },
  {
   "id": "a331628855",
   "nom": "Baluarte de San Francisco de Dilao",
   "categorie": "attraction",
   "description": "",
   "prix": "",
   "duree": "",
   "mapsUrl": "https://maps.google.com/?q=14.5903932,120.9791041",
   "lat": 14.5903932,
   "lng": 120.9791041,
   "source": "osm"
  },
  {
   "id": "a1037921413",
   "nom": "The Manila-Acapulco Galleon",
   "categorie": "artwork",
   "description": "",
   "prix": "",
   "duree": "",
   "mapsUrl": "https://maps.google.com/?q=14.594473,120.9748396",
   "lat": 14.594473,
   "lng": 120.9748396,
   "source": "osm"
  },
  {
   "id": "a1055759082",
   "nom": "A Cruceiro",
   "categorie": "memorial",
   "description": "",
   "prix": "",
   "duree": "",
   "mapsUrl": "https://maps.google.com/?q=14.5940777,120.9750678",
   "lat": 14.5940777,
   "lng": 120.9750678,
   "source": "osm"
  },
  {
   "id": "a1037921415",
   "nom": "Philippine-Mexican Marker Plaza",
   "categorie": "memorial",
   "description": "",
   "prix": "",
   "duree": "",
   "mapsUrl": "https://maps.google.com/?q=14.594473,120.9746043",
   "lat": 14.594473,
   "lng": 120.9746043,
   "source": "osm"
  },
  {
   "id": "a1034880052",
   "nom": "Adolfo Lopez Mateos",
   "categorie": "memorial",
   "description": "",
   "prix": "",
   "duree": "",
   "mapsUrl": "https://maps.google.com/?q=14.5944738,120.974429",
   "lat": 14.5944738,
   "lng": 120.974429,
   "source": "osm"
  },
  {
   "id": "a247636770",
   "nom": "Arch of the Centuries",
   "categorie": "monument",
   "description": "",
   "prix": "",
   "duree": "",
   "mapsUrl": "https://maps.google.com/?q=14.6084303,120.9908407",
   "lat": 14.6084303,
   "lng": 120.9908407,
   "source": "osm"
  },
  {
   "id": "a12588512019",
   "nom": "Filipino Struggles Through History",
   "categorie": "artwork",
   "description": "",
   "prix": "",
   "duree": "",
   "mapsUrl": "https://maps.google.com/?q=14.5946577,120.9739552",
   "lat": 14.5946577,
   "lng": 120.9739552,
   "source": "osm"
  },
  {
   "id": "a1235774725",
   "nom": "Philip the Second, King of Spain",
   "categorie": "memorial",
   "description": "",
   "prix": "",
   "duree": "",
   "mapsUrl": "https://maps.google.com/?q=14.5936015,120.9745281",
   "lat": 14.5936015,
   "lng": 120.9745281,
   "source": "osm"
  },
  {
   "id": "a8945536886",
   "nom": "Chinatown Museum",
   "categorie": "museum",
   "description": "",
   "prix": "",
   "duree": "",
   "mapsUrl": "https://maps.google.com/?q=14.6039486,120.9737244",
   "lat": 14.6039486,
   "lng": 120.9737244,
   "source": "osm"
  },
  {
   "id": "a12824841603",
   "nom": "Gate 10",
   "categorie": "attraction",
   "description": "",
   "prix": "",
   "duree": "",
   "mapsUrl": "https://maps.google.com/?q=14.5894131,120.9793269",
   "lat": 14.5894131,
   "lng": 120.9793269,
   "source": "osm"
  },
  {
   "id": "a4578683289",
   "nom": "Presidential Museum and Library",
   "categorie": "museum",
   "description": "",
   "prix": "",
   "duree": "",
   "mapsUrl": "https://maps.google.com/?q=14.5945505,120.9946016",
   "lat": 14.5945505,
   "lng": 120.9946016,
   "source": "osm"
  },
  {
   "id": "a13969243028",
   "nom": "Birthplace of Gabriel Beato Francisco",
   "categorie": "memorial",
   "description": "",
   "prix": "",
   "duree": "",
   "mapsUrl": "https://maps.google.com/?q=14.6007033,120.9958002",
   "lat": 14.6007033,
   "lng": 120.9958002,
   "source": "osm"
  },
  {
   "id": "a10148591105",
   "nom": "Unibersidad ng Santo Tomas",
   "categorie": "memorial",
   "description": "",
   "prix": "",
   "duree": "",
   "mapsUrl": "https://maps.google.com/?q=14.5929505,120.9746869",
   "lat": 14.5929505,
   "lng": 120.9746869,
   "source": "osm"
  },
  {
   "id": "a7726827490",
   "nom": "Manuel L. Quezon",
   "categorie": "memorial",
   "description": "",
   "prix": "",
   "duree": "",
   "mapsUrl": "https://maps.google.com/?q=14.58842,120.9818584",
   "lat": 14.58842,
   "lng": 120.9818584,
   "source": "osm"
  },
  {
   "id": "a7726827491",
   "nom": "City Hall Building",
   "categorie": "memorial",
   "description": "",
   "prix": "",
   "duree": "",
   "mapsUrl": "https://maps.google.com/?q=14.5884025,120.981792",
   "lat": 14.5884025,
   "lng": 120.981792,
   "source": "osm"
  }
 ],
 "villeNonMusulmane": true,
 "osmEnriched": true,
 "osmEnrichedAt": "2026-06-30"
}
