{
 "slug": "mardin",
 "nom": "Mardin",
 "pays": "Turquie",
 "pays_slug": "turquie",
 "continent": "Asie",
 "region": "Turquie",
 "coordonnees": {
  "lat": 37.3122,
  "lng": 40.7351
 },
 "codeISO": "",
 "score_halal": 4.5,
 "halalScore": 9.1,
 "description": "Ville-terrasse surplombant la plaine de Mésopotamie, Mardin est un joyau de pierre dorée aux medersas et mosquées séculaires.",
 "image": "https://upload.wikimedia.org/wikipedia/commons/6/67/View_from_Mardin_to_the_Mesopotamian_plains.jpg",
 "image_hero": "https://upload.wikimedia.org/wikipedia/commons/6/67/View_from_Mardin_to_the_Mesopotamian_plains.jpg",
 "metaDescription": "Ville-terrasse surplombant la plaine de Mésopotamie, Mardin est un joyau de pierre dorée aux medersas et mosquées séculaires.",
 "statistiques": {
  "restaurants_halal": 5,
  "mosquees": 60,
  "hotels": 23
 },
 "infoPratique": {
  "transport": "Accessible par avion / transports locaux.",
  "meilleureEpoque": "Printemps et automne."
 },
 "tags": [
  "halal"
 ],
 "restaurants": [
  {
   "nom": "Tarihi Mardin Kahvaltıcısı",
   "type": "turkish",
   "priceRange": "€€",
   "mapsUrl": "https://maps.google.com/?q=37.3128727,40.7354771",
   "lat": 37.3128727,
   "lng": 40.7354771,
   "halalConfidence": "likely",
   "source": "osm"
  },
  {
   "nom": "Sadik Künefe",
   "type": "local, turkish, ice cream",
   "priceRange": "€€",
   "mapsUrl": "https://maps.google.com/?q=37.3193095,40.7241108",
   "lat": 37.3193095,
   "lng": 40.7241108,
   "halalConfidence": "likely",
   "source": "osm"
  },
  {
   "nom": "Adana Dostlar Kebapçısı",
   "type": "local, kebab, turkish",
   "priceRange": "€€",
   "mapsUrl": "https://maps.google.com/?q=37.3227165,40.7172709",
   "lat": 37.3227165,
   "lng": 40.7172709,
   "halalConfidence": "likely",
   "source": "osm"
  },
  {
   "nom": "Kasr-i Kaya",
   "type": "turkish, breakfast, local, tea",
   "priceRange": "€€",
   "mapsUrl": "https://maps.google.com/?q=37.3258817,40.7164938",
   "lat": 37.3258817,
   "lng": 40.7164938,
   "halalConfidence": "likely",
   "source": "osm"
  },
  {
   "nom": "Ottoman",
   "lat": 37.328344,
   "lng": 40.7120585,
   "type": "pasta, burger, sandwich, turkish, tea, coffee shop",
   "halalConfidence": "likely",
   "mapsUrl": "https://maps.google.com/?q=37.328344,40.7120585",
   "source": "osm"
  }
 ],
 "hotels": [
  {
   "nom": "Ulubey Konağı",
   "categorie": "Hôtel",
   "priceRange": "€€",
   "mapsUrl": "https://maps.google.com/?q=37.3127933,40.7370768",
   "lat": 37.3127933,
   "lng": 40.7370768,
   "halalFriendly": false,
   "bookingUrl": "https://maps.google.com/?q=37.3127933,40.7370768",
   "source": "osm"
  },
  {
   "nom": "Tuğhan Hotel",
   "categorie": "Hôtel",
   "priceRange": "€€",
   "mapsUrl": "https://maps.google.com/?q=37.313593,40.7365879",
   "lat": 37.313593,
   "lng": 40.7365879,
   "halalFriendly": false,
   "bookingUrl": "https://maps.google.com/?q=37.313593,40.7365879",
   "source": "osm"
  },
  {
   "nom": "Kadim Hotel",
   "categorie": "Hôtel",
   "priceRange": "€€",
   "mapsUrl": "https://maps.google.com/?q=37.3137873,40.7371239",
   "lat": 37.3137873,
   "lng": 40.7371239,
   "halalFriendly": false,
   "bookingUrl": "https://maps.google.com/?q=37.3137873,40.7371239",
   "source": "osm"
  },
  {
   "nom": "Kaya Ninova",
   "categorie": "Hôtel",
   "priceRange": "€€",
   "mapsUrl": "https://maps.google.com/?q=37.3134959,40.7375285",
   "lat": 37.3134959,
   "lng": 40.7375285,
   "halalFriendly": false,
   "bookingUrl": "https://www.kayaninovaotel.com/",
   "source": "osm"
  },
  {
   "nom": "Merde Konağı",
   "categorie": "Maison d'hôtes",
   "priceRange": "€€",
   "mapsUrl": "https://maps.google.com/?q=37.3121071,40.7387526",
   "lat": 37.3121071,
   "lng": 40.7387526,
   "halalFriendly": false,
   "bookingUrl": "https://maps.google.com/?q=37.3121071,40.7387526",
   "source": "osm"
  },
  {
   "nom": "Başak Otel",
   "categorie": "Hôtel",
   "priceRange": "€€",
   "mapsUrl": "https://maps.google.com/?q=37.3133945,40.7392869",
   "lat": 37.3133945,
   "lng": 40.7392869,
   "halalFriendly": false,
   "bookingUrl": "https://maps.google.com/?q=37.3133945,40.7392869",
   "source": "osm"
  },
  {
   "nom": "Gılgamış otel",
   "categorie": "Hôtel",
   "priceRange": "€€",
   "mapsUrl": "https://maps.google.com/?q=37.3132608,40.7307325",
   "lat": 37.3132608,
   "lng": 40.7307325,
   "halalFriendly": false,
   "bookingUrl": "https://maps.google.com/?q=37.3132608,40.7307325",
   "source": "osm"
  },
  {
   "nom": "Maridin Otel",
   "categorie": "Hôtel",
   "priceRange": "€€",
   "mapsUrl": "https://maps.google.com/?q=37.3128257,40.7303037",
   "lat": 37.3128257,
   "lng": 40.7303037,
   "halalFriendly": false,
   "bookingUrl": "http://www.maridin.com/",
   "source": "osm"
  },
  {
   "nom": "Basak Hotel",
   "categorie": "Hôtel",
   "priceRange": "€€",
   "mapsUrl": "https://maps.google.com/?q=37.3136004,40.7400219",
   "lat": 37.3136004,
   "lng": 40.7400219,
   "halalFriendly": false,
   "bookingUrl": "https://maps.google.com/?q=37.3136004,40.7400219",
   "source": "osm"
  },
  {
   "nom": "Büyük Mardin Oteli",
   "categorie": "Hôtel",
   "priceRange": "€€",
   "mapsUrl": "https://maps.google.com/?q=37.3099844,40.7301147",
   "lat": 37.3099844,
   "lng": 40.7301147,
   "halalFriendly": false,
   "bookingUrl": "https://maps.google.com/?q=37.3099844,40.7301147",
   "source": "osm"
  },
  {
   "nom": "Ro House",
   "categorie": "Auberge",
   "priceRange": "€€",
   "mapsUrl": "https://maps.google.com/?q=37.3132804,40.7287012",
   "lat": 37.3132804,
   "lng": 40.7287012,
   "halalFriendly": false,
   "bookingUrl": "https://maps.google.com/?q=37.3132804,40.7287012",
   "source": "osm"
  },
  {
   "nom": "Mardin Osmanlı Konağı",
   "categorie": "Hôtel",
   "priceRange": "€€",
   "mapsUrl": "https://maps.google.com/?q=37.3140499,40.7423469",
   "lat": 37.3140499,
   "lng": 40.7423469,
   "halalFriendly": false,
   "bookingUrl": "https://maps.google.com/?q=37.3140499,40.7423469",
   "source": "osm"
  },
  {
   "nom": "Erdoba Evleri Babil Konağı",
   "categorie": "Hôtel",
   "priceRange": "€€",
   "mapsUrl": "https://maps.google.com/?q=37.3140115,40.7428162",
   "lat": 37.3140115,
   "lng": 40.7428162,
   "halalFriendly": false,
   "bookingUrl": "https://maps.google.com/?q=37.3140115,40.7428162",
   "source": "osm"
  },
  {
   "nom": "Izala Boutique Hotel",
   "categorie": "Hôtel",
   "priceRange": "€€",
   "mapsUrl": "https://maps.google.com/?q=37.3143939,40.7429214",
   "lat": 37.3143939,
   "lng": 40.7429214,
   "halalFriendly": false,
   "bookingUrl": "https://maps.google.com/?q=37.3143939,40.7429214",
   "source": "osm"
  },
  {
   "nom": "Beyt Sami Oteli",
   "categorie": "Maison d'hôtes",
   "priceRange": "€€",
   "mapsUrl": "https://maps.google.com/?q=37.3126741,40.7434103",
   "lat": 37.3126741,
   "lng": 40.7434103,
   "halalFriendly": false,
   "bookingUrl": "https://maps.google.com/?q=37.3126741,40.7434103",
   "source": "osm"
  },
  {
   "nom": "Merdin Boutique Hotel",
   "categorie": "Hôtel",
   "priceRange": "€€",
   "mapsUrl": "https://maps.google.com/?q=37.3138627,40.7451705",
   "lat": 37.3138627,
   "lng": 40.7451705,
   "halalFriendly": false,
   "bookingUrl": "https://maps.google.com/?q=37.3138627,40.7451705",
   "source": "osm"
  },
  {
   "nom": "Mardin Apart Otel",
   "categorie": "Hôtel",
   "priceRange": "€€",
   "mapsUrl": "https://maps.google.com/?q=37.3141514,40.7462961",
   "lat": 37.3141514,
   "lng": 40.7462961,
   "halalFriendly": false,
   "bookingUrl": "https://maps.google.com/?q=37.3141514,40.7462961",
   "source": "osm"
  },
  {
   "nom": "Rosa Hostel",
   "categorie": "Auberge",
   "priceRange": "€€",
   "mapsUrl": "https://maps.google.com/?q=37.3157866,40.7473819",
   "lat": 37.3157866,
   "lng": 40.7473819,
   "halalFriendly": false,
   "bookingUrl": "https://maps.google.com/?q=37.3157866,40.7473819",
   "source": "osm"
  },
  {
   "nom": "Mardin Öğretmenevi",
   "categorie": "Hôtel",
   "priceRange": "€€",
   "mapsUrl": "https://maps.google.com/?q=37.3234341,40.7249475",
   "lat": 37.3234341,
   "lng": 40.7249475,
   "halalFriendly": false,
   "bookingUrl": "https://artukluogretmenevi.com.tr/",
   "source": "osm"
  },
  {
   "nom": "Hilton Garden Inn Mardin",
   "categorie": "Hôtel",
   "priceRange": "€€€€",
   "score": 4,
   "mapsUrl": "https://maps.google.com/?q=37.3185309,40.7138946",
   "lat": 37.3185309,
   "lng": 40.7138946,
   "halalFriendly": false,
   "bookingUrl": "https://www.hilton.com/en/hotels/mqmgigi-hilton-garden-inn-mardin/",
   "source": "osm"
  },
  {
   "nom": "Mardin Polis Evi",
   "categorie": "Maison d'hôtes",
   "priceRange": "€€",
   "mapsUrl": "https://maps.google.com/?q=37.3253919,40.7158446",
   "lat": 37.3253919,
   "lng": 40.7158446,
   "halalFriendly": false,
   "bookingUrl": "https://www.polisevi.com/mardin-polisevi/",
   "source": "osm"
  },
  {
   "nom": "Ramada Plaza by Wyndham Mardin",
   "categorie": "Hôtel",
   "priceRange": "€€€€",
   "score": 5,
   "mapsUrl": "https://maps.google.com/?q=37.3268794,40.7535062",
   "lat": 37.3268794,
   "lng": 40.7535062,
   "halalFriendly": false,
   "bookingUrl": "https://www.wyndhamhotels.com/tr-tr/ramada/mardin-turkiye/ramada-plaza-mardin/overview",
   "source": "osm"
  },
  {
   "nom": "Yay Grand Otel",
   "categorie": "Hôtel",
   "priceRange": "€€€€",
   "score": 4,
   "mapsUrl": "https://maps.google.com/?q=37.3369554,40.6956477",
   "lat": 37.3369554,
   "lng": 40.6956477,
   "halalFriendly": false,
   "bookingUrl": "https://www.yaygrand.com/tr",
   "source": "osm"
  }
 ],
 "mosqueesPrincipales": [
  {
   "id": "osm-93377253",
   "nom": "Yeşil Vadi Camii",
   "type": "mosquee",
   "adresse": "Mardin",
   "lat": 37.3390994,
   "lng": 40.816563,
   "mapsUrl": "https://maps.google.com/?q=37.3390994,40.816563",
   "source": "osm"
  },
  {
   "id": "osm-124052466",
   "nom": "Hafız Halil Camii",
   "type": "mosquee",
   "adresse": "Mardin",
   "lat": 37.2195421,
   "lng": 40.7866715,
   "mapsUrl": "https://maps.google.com/?q=37.2195421,40.7866715",
   "source": "osm"
  },
  {
   "id": "osm-124052467",
   "nom": "Seyda Camii",
   "type": "mosquee",
   "adresse": "Mardin",
   "lat": 37.2226416,
   "lng": 40.7858054,
   "mapsUrl": "https://maps.google.com/?q=37.2226416,40.7858054",
   "source": "osm"
  },
  {
   "id": "osm-124052468",
   "nom": "Ortaköy Mahallesi Eski Camii",
   "type": "mosquee",
   "adresse": "Mardin",
   "lat": 37.2227678,
   "lng": 40.7829788,
   "mapsUrl": "https://maps.google.com/?q=37.2227678,40.7829788",
   "source": "osm"
  },
  {
   "id": "osm-219782679",
   "nom": "Mehmet Edip Fatma Yüksel Camii",
   "type": "mosquee",
   "adresse": "Mardin",
   "lat": 37.3305855,
   "lng": 40.713507,
   "mapsUrl": "https://maps.google.com/?q=37.3305855,40.713507",
   "source": "osm"
  },
  {
   "id": "osm-222889660",
   "nom": "Organize Camii",
   "type": "mosquee",
   "adresse": "Mardin",
   "lat": 37.2727797,
   "lng": 40.6807042,
   "mapsUrl": "https://maps.google.com/?q=37.2727797,40.6807042",
   "source": "osm"
  },
  {
   "id": "osm-222890233",
   "nom": "Yukarı Azıklı Mahallesi Camii",
   "type": "mosquee",
   "adresse": "Mardin",
   "lat": 37.2663962,
   "lng": 40.676086,
   "mapsUrl": "https://maps.google.com/?q=37.2663962,40.676086",
   "source": "osm"
  },
  {
   "id": "osm-222896065",
   "nom": "Göllü Mahallesi Camii",
   "type": "mosquee",
   "adresse": "Mardin",
   "lat": 37.2505663,
   "lng": 40.7129091,
   "mapsUrl": "https://maps.google.com/?q=37.2505663,40.7129091",
   "source": "osm"
  },
  {
   "id": "osm-228779907",
   "nom": "Fuat Yağcı Camii",
   "type": "mosquee",
   "adresse": "Mehtap Caddesi, Mardin",
   "lat": 37.3255929,
   "lng": 40.7216403,
   "mapsUrl": "https://maps.google.com/?q=37.3255929,40.7216403",
   "source": "osm"
  },
  {
   "id": "osm-242951823",
   "nom": "Yaylı Maahllesi Camii",
   "type": "mosquee",
   "adresse": "Mardin",
   "lat": 37.2027936,
   "lng": 40.7543663,
   "mapsUrl": "https://maps.google.com/?q=37.2027936,40.7543663",
   "source": "osm"
  },
  {
   "id": "osm-243020899",
   "nom": "Mescidi Aksa Camiİ",
   "type": "mosquee",
   "lat": 37.2881886,
   "lng": 40.7090463,
   "mapsUrl": "https://maps.google.com/?q=37.2881886,40.7090463",
   "source": "osm"
  },
  {
   "id": "osm-243020902",
   "nom": "İstasyon Camii",
   "type": "mosquee",
   "adresse": "Mardin",
   "lat": 37.2853467,
   "lng": 40.7053995,
   "mapsUrl": "https://maps.google.com/?q=37.2853467,40.7053995",
   "source": "osm"
  },
  {
   "id": "osm-243020908",
   "nom": "Nuhoğlu Kireç Fabrikası Camii",
   "type": "mosquee",
   "adresse": "Marrdin",
   "lat": 37.2987624,
   "lng": 40.7122007,
   "mapsUrl": "https://maps.google.com/?q=37.2987624,40.7122007",
   "source": "osm"
  },
  {
   "id": "osm-243020910",
   "nom": "Kubbeli Camii",
   "type": "mosquee",
   "adresse": "Mardin",
   "lat": 37.2811526,
   "lng": 40.7003322,
   "mapsUrl": "https://maps.google.com/?q=37.2811526,40.7003322",
   "source": "osm"
  },
  {
   "id": "osm-243020916",
   "nom": "Mahmut Feyzi Yedikardeş Camii",
   "type": "mosquee",
   "adresse": "Mardin",
   "lat": 37.3357096,
   "lng": 40.6991531,
   "mapsUrl": "https://maps.google.com/?q=37.3357096,40.6991531",
   "source": "osm"
  },
  {
   "id": "osm-243020917",
   "nom": "Toki Hacı Kazım Ozan Camii",
   "type": "mosquee",
   "adresse": "Mardin",
   "lat": 37.3339532,
   "lng": 40.6962789,
   "mapsUrl": "https://maps.google.com/?q=37.3339532,40.6962789",
   "source": "osm"
  },
  {
   "id": "osm-255525889",
   "nom": "Toki Camii",
   "type": "mosquee",
   "adresse": "Mardin",
   "lat": 37.2327533,
   "lng": 40.6254955,
   "mapsUrl": "https://maps.google.com/?q=37.2327533,40.6254955",
   "source": "osm"
  },
  {
   "id": "osm-288737571",
   "nom": "Çağlar Camii",
   "type": "mosquee",
   "adresse": "Mardin",
   "lat": 37.3050229,
   "lng": 40.7604714,
   "mapsUrl": "https://maps.google.com/?q=37.3050229,40.7604714",
   "source": "osm"
  },
  {
   "id": "osm-288743243",
   "nom": "Harabel Camii",
   "type": "mosquee",
   "adresse": "Mardin",
   "lat": 37.3675772,
   "lng": 40.6242559,
   "mapsUrl": "https://maps.google.com/?q=37.3675772,40.6242559",
   "source": "osm"
  },
  {
   "id": "osm-291881612",
   "nom": "Hz. Ebubekir Camii",
   "type": "mosquee",
   "adresse": "Mardin",
   "lat": 37.3330392,
   "lng": 40.7247684,
   "mapsUrl": "https://maps.google.com/?q=37.3330392,40.7247684",
   "source": "osm"
  },
  {
   "id": "osm-294165738",
   "nom": "Fesih Camii",
   "type": "mosquee",
   "adresse": "Mardin",
   "lat": 37.2310803,
   "lng": 40.6204511,
   "mapsUrl": "https://maps.google.com/?q=37.2310803,40.6204511",
   "source": "osm"
  },
  {
   "id": "osm-302885101",
   "nom": "Molla İsmail Camii",
   "type": "mosquee",
   "adresse": "Mardin",
   "lat": 37.2238906,
   "lng": 40.7886091,
   "mapsUrl": "https://maps.google.com/?q=37.2238906,40.7886091",
   "source": "osm"
  },
  {
   "id": "osm-304644286",
   "nom": "Haznevi Camii",
   "type": "mosquee",
   "adresse": "Mardin",
   "lat": 37.3464359,
   "lng": 40.8006436,
   "mapsUrl": "https://maps.google.com/?q=37.3464359,40.8006436",
   "source": "osm"
  },
  {
   "id": "osm-313798909",
   "nom": "Sadık Yay Cami",
   "type": "mosquee",
   "adresse": "Artuklu/Mardin",
   "lat": 37.3194878,
   "lng": 40.7182228,
   "mapsUrl": "https://maps.google.com/?q=37.3194878,40.7182228",
   "source": "osm"
  },
  {
   "id": "osm-322457141",
   "nom": "Hacı Abdullatif Camii",
   "type": "mosquee",
   "adresse": "Mardin",
   "lat": 37.3570136,
   "lng": 40.7893302,
   "mapsUrl": "https://maps.google.com/?q=37.3570136,40.7893302",
   "source": "osm"
  },
  {
   "id": "osm-335869103",
   "nom": "Sancarlı Mahallesi Camii",
   "type": "mosquee",
   "adresse": "Mardin",
   "lat": 37.2599911,
   "lng": 40.6330715,
   "mapsUrl": "https://maps.google.com/?q=37.2599911,40.6330715",
   "source": "osm"
  },
  {
   "id": "osm-335873461",
   "nom": "Aşağıazıklı Mahallesi Camii",
   "type": "mosquee",
   "adresse": "Mardin",
   "lat": 37.245072,
   "lng": 40.6824919,
   "mapsUrl": "https://maps.google.com/?q=37.245072,40.6824919",
   "source": "osm"
  },
  {
   "id": "osm-335873464",
   "nom": "Eskin Mahallesi Camii",
   "type": "mosquee",
   "adresse": "Mardin",
   "lat": 37.2133393,
   "lng": 40.6770917,
   "mapsUrl": "https://maps.google.com/?q=37.2133393,40.6770917",
   "source": "osm"
  },
  {
   "id": "osm-361573541",
   "nom": "Sancar Mahallesi Camii",
   "type": "mosquee",
   "adresse": "Mardin",
   "lat": 37.3062015,
   "lng": 40.8806369,
   "mapsUrl": "https://maps.google.com/?q=37.3062015,40.8806369",
   "source": "osm"
  },
  {
   "id": "osm-361573543",
   "nom": "Kayalar Camii",
   "type": "mosquee",
   "adresse": "Mardin",
   "lat": 37.3409166,
   "lng": 40.7969449,
   "mapsUrl": "https://maps.google.com/?q=37.3409166,40.7969449",
   "source": "osm"
  },
  {
   "id": "osm-369955867",
   "nom": "Aşşolar Camii",
   "type": "mosquee",
   "adresse": "1. Sokak, Mardin",
   "lat": 37.311631,
   "lng": 40.7504785,
   "mapsUrl": "https://maps.google.com/?q=37.311631,40.7504785",
   "source": "osm"
  },
  {
   "id": "osm-369955869",
   "nom": "Hamza-i Kebir Camii",
   "type": "mosquee",
   "adresse": "Mardin",
   "lat": 37.3162164,
   "lng": 40.751075,
   "mapsUrl": "https://maps.google.com/?q=37.3162164,40.751075",
   "source": "osm"
  },
  {
   "id": "osm-369955872",
   "nom": "Bahçebaşı 1. Merkez Camii",
   "type": "mosquee",
   "adresse": "Mardin",
   "lat": 37.3549799,
   "lng": 40.8396622,
   "mapsUrl": "https://maps.google.com/?q=37.3549799,40.8396622",
   "source": "osm"
  },
  {
   "id": "osm-369955880",
   "nom": "Çınaraltı Mahallesi Camii",
   "type": "mosquee",
   "adresse": "Mardin",
   "lat": 37.3843844,
   "lng": 40.8597879,
   "mapsUrl": "https://maps.google.com/?q=37.3843844,40.8597879",
   "source": "osm"
  },
  {
   "id": "osm-374518004",
   "nom": "Eroğlu Mahallesi Camii",
   "type": "mosquee",
   "adresse": "Mardin",
   "lat": 37.2417724,
   "lng": 40.630137,
   "mapsUrl": "https://maps.google.com/?q=37.2417724,40.630137",
   "source": "osm"
  },
  {
   "id": "osm-374726595",
   "nom": "Hacı Hasan Camii",
   "type": "mosquee",
   "lat": 37.2047329,
   "lng": 40.6942101,
   "mapsUrl": "https://maps.google.com/?q=37.2047329,40.6942101",
   "source": "osm"
  },
  {
   "id": "osm-377249223",
   "nom": "Kasım Tuğmaner Cami",
   "type": "mosquee",
   "adresse": "Artuklu/Mardin",
   "lat": 37.3131491,
   "lng": 40.7381922,
   "mapsUrl": "https://maps.google.com/?q=37.3131491,40.7381922",
   "source": "osm"
  },
  {
   "id": "osm-377249224",
   "nom": "Mardin Ulu Camii",
   "type": "mosquee",
   "adresse": "Mardin",
   "lat": 37.312663,
   "lng": 40.7392956,
   "mapsUrl": "https://maps.google.com/?q=37.312663,40.7392956",
   "source": "osm"
  },
  {
   "id": "osm-377249665",
   "nom": "Şeyh Çabuk Camii",
   "type": "mosquee",
   "adresse": "Mardin",
   "lat": 37.3129517,
   "lng": 40.7318322,
   "mapsUrl": "https://maps.google.com/?q=37.3129517,40.7318322",
   "source": "osm"
  },
  {
   "id": "osm-379741857",
   "nom": "Taceddin Habeşi Camii",
   "type": "mosquee",
   "adresse": "Mardin",
   "lat": 37.249395,
   "lng": 40.630675,
   "mapsUrl": "https://maps.google.com/?q=37.249395,40.630675",
   "source": "osm"
  },
  {
   "id": "osm-379745317",
   "nom": "Molla İbrahim Camii",
   "type": "mosquee",
   "lat": 37.2041238,
   "lng": 40.6976568,
   "mapsUrl": "https://maps.google.com/?q=37.2041238,40.6976568",
   "source": "osm"
  },
  {
   "id": "osm-399205790",
   "nom": "Halid Bin Velid Camii",
   "type": "mosquee",
   "adresse": "Mardin",
   "lat": 37.3201724,
   "lng": 40.7310737,
   "mapsUrl": "https://maps.google.com/?q=37.3201724,40.7310737",
   "source": "osm"
  },
  {
   "id": "osm-399205791",
   "nom": "Altınova Camii",
   "type": "mosquee",
   "adresse": "Mardin",
   "lat": 37.3159017,
   "lng": 40.7309727,
   "mapsUrl": "https://maps.google.com/?q=37.3159017,40.7309727",
   "source": "osm"
  },
  {
   "id": "osm-467809199",
   "nom": "Nuhoğlu Camii",
   "type": "mosquee",
   "adresse": "Mardin",
   "lat": 37.3530742,
   "lng": 40.8046899,
   "mapsUrl": "https://maps.google.com/?q=37.3530742,40.8046899",
   "source": "osm"
  },
  {
   "id": "osm-467809200",
   "nom": "Şeyh Abdülaziz Camii",
   "type": "mosquee",
   "adresse": "Mardin",
   "lat": 37.3545142,
   "lng": 40.8063549,
   "mapsUrl": "https://maps.google.com/?q=37.3545142,40.8063549",
   "source": "osm"
  },
  {
   "id": "osm-475275103",
   "nom": "Nuri Saruhan Cami",
   "type": "mosquee",
   "lat": 37.3224581,
   "lng": 40.7320026,
   "mapsUrl": "https://maps.google.com/?q=37.3224581,40.7320026",
   "source": "osm"
  },
  {
   "id": "osm-485011089",
   "nom": "Kocalar Mahallesi Camii",
   "type": "mosquee",
   "adresse": "Mardin",
   "lat": 37.2654143,
   "lng": 40.6420068,
   "mapsUrl": "https://maps.google.com/?q=37.2654143,40.6420068",
   "source": "osm"
  },
  {
   "id": "osm-486862516",
   "nom": "Hacı İsmail Kaya Camii",
   "type": "mosquee",
   "adresse": "Mardin-Midyat yolu, Mardin",
   "lat": 37.3405967,
   "lng": 40.7901894,
   "mapsUrl": "https://maps.google.com/?q=37.3405967,40.7901894",
   "source": "osm"
  },
  {
   "id": "osm-491669403",
   "nom": "Eminettin Camii",
   "type": "mosquee",
   "adresse": "Mardin",
   "lat": 37.3114413,
   "lng": 40.7316877,
   "mapsUrl": "https://maps.google.com/?q=37.3114413,40.7316877",
   "source": "osm"
  },
  {
   "id": "osm-491746624",
   "nom": "Bilal-i Habeş Camii",
   "type": "mosquee",
   "adresse": "Mardin",
   "lat": 37.3133435,
   "lng": 40.7253435,
   "mapsUrl": "https://maps.google.com/?q=37.3133435,40.7253435",
   "source": "osm"
  },
  {
   "id": "osm-491795870",
   "nom": "Melik Mahmut Camii",
   "type": "mosquee",
   "adresse": "Mardin",
   "lat": 37.3142731,
   "lng": 40.7479198,
   "mapsUrl": "https://maps.google.com/?q=37.3142731,40.7479198",
   "source": "osm"
  },
  {
   "id": "osm-491802769",
   "nom": "Hamidiye Camii",
   "type": "mosquee",
   "adresse": "Mardin",
   "lat": 37.3140715,
   "lng": 40.745851,
   "mapsUrl": "https://maps.google.com/?q=37.3140715,40.745851",
   "source": "osm"
  },
  {
   "id": "osm-491802772",
   "nom": "Şehidiye Camii",
   "type": "mosquee",
   "adresse": "Mardin",
   "lat": 37.3138579,
   "lng": 40.7433394,
   "mapsUrl": "https://maps.google.com/?q=37.3138579,40.7433394",
   "source": "osm"
  },
  {
   "id": "osm-491802793",
   "nom": "Reyhaniye Camii",
   "type": "mosquee",
   "adresse": "Mardin",
   "lat": 37.3134742,
   "lng": 40.7419493,
   "mapsUrl": "https://maps.google.com/?q=37.3134742,40.7419493",
   "source": "osm"
  },
  {
   "id": "osm-491859320",
   "nom": "Hacı Mehmet Sümer Camii",
   "type": "mosquee",
   "adresse": "Mardin",
   "lat": 37.2780987,
   "lng": 40.6930973,
   "mapsUrl": "https://maps.google.com/?q=37.2780987,40.6930973",
   "source": "osm"
  },
  {
   "id": "osm-503630007",
   "nom": "15 Temmuz Şehitleri Camii",
   "type": "mosquee",
   "adresse": "Mardin",
   "lat": 37.3295026,
   "lng": 40.6811462,
   "mapsUrl": "https://maps.google.com/?q=37.3295026,40.6811462",
   "source": "osm"
  },
  {
   "id": "osm-514234791",
   "nom": "Çağlar Mahallesi Camii",
   "type": "mosquee",
   "adresse": "Mardin",
   "lat": 37.3415096,
   "lng": 40.6556317,
   "mapsUrl": "https://maps.google.com/?q=37.3415096,40.6556317",
   "source": "osm"
  },
  {
   "id": "osm-550617199",
   "nom": "Pınarbaşı Camii",
   "type": "mosquee",
   "lat": 37.3191512,
   "lng": 40.7306444,
   "mapsUrl": "https://maps.google.com/?q=37.3191512,40.7306444",
   "source": "osm"
  },
  {
   "id": "osm-550617350",
   "nom": "Zeyd Camii",
   "type": "mosquee",
   "adresse": "Mardin",
   "lat": 37.3120145,
   "lng": 40.7363878,
   "mapsUrl": "https://maps.google.com/?q=37.3120145,40.7363878",
   "source": "osm"
  },
  {
   "id": "osm-550636432",
   "nom": "Kuba Camii",
   "type": "mosquee",
   "adresse": "Mardin",
   "lat": 37.3191504,
   "lng": 40.7224933,
   "mapsUrl": "https://maps.google.com/?q=37.3191504,40.7224933",
   "source": "osm"
  }
 ],
 "activites": [
  {
   "nom": "Mardin Müzesi",
   "lat": 37.313782,
   "lng": 40.7346344,
   "coordonnees": {
    "lat": 37.313782,
    "lng": 40.7346344
   },
   "categorie": "Culture",
   "mapsUrl": "https://maps.google.com/?q=37.313782,40.7346344",
   "source": "osm"
  },
  {
   "nom": "Mardin Kalesi",
   "lat": 37.3154406,
   "lng": 40.7383929,
   "coordonnees": {
    "lat": 37.3154406,
    "lng": 40.7383929
   },
   "categorie": "Histoire",
   "mapsUrl": "https://maps.google.com/?q=37.3154406,40.7383929",
   "source": "osm"
  },
  {
   "nom": "viewpoint Mardin",
   "lat": 37.3145555,
   "lng": 40.7395535,
   "coordonnees": {
    "lat": 37.3145555,
    "lng": 40.7395535
   },
   "categorie": "Panorama",
   "mapsUrl": "https://maps.google.com/?q=37.3145555,40.7395535",
   "source": "osm"
  },
  {
   "nom": "Tellallar Çarsisi",
   "lat": 37.3133611,
   "lng": 40.7410709,
   "coordonnees": {
    "lat": 37.3133611,
    "lng": 40.7410709
   },
   "categorie": "À voir",
   "mapsUrl": "https://maps.google.com/?q=37.3133611,40.7410709",
   "source": "osm"
  },
  {
   "nom": "Mardin Yaşayan Müze",
   "lat": 37.3141845,
   "lng": 40.7415459,
   "coordonnees": {
    "lat": 37.3141845,
    "lng": 40.7415459
   },
   "categorie": "Culture",
   "mapsUrl": "https://maps.google.com/?q=37.3141845,40.7415459",
   "source": "osm"
  },
  {
   "nom": "Hatuniyye Medresesi",
   "lat": 37.3151042,
   "lng": 40.747341,
   "coordonnees": {
    "lat": 37.3151042,
    "lng": 40.747341
   },
   "categorie": "À voir",
   "mapsUrl": "https://maps.google.com/?q=37.3151042,40.747341",
   "source": "osm"
  },
  {
   "nom": "El - Cezeri Müzesi",
   "lat": 37.3075047,
   "lng": 40.720212,
   "coordonnees": {
    "lat": 37.3075047,
    "lng": 40.720212
   },
   "categorie": "Culture",
   "mapsUrl": "https://maps.google.com/?q=37.3075047,40.720212",
   "source": "osm"
  },
  {
   "nom": "View point",
   "lat": 37.3071185,
   "lng": 40.760063,
   "coordonnees": {
    "lat": 37.3071185,
    "lng": 40.760063
   },
   "categorie": "Panorama",
   "mapsUrl": "https://maps.google.com/?q=37.3071185,40.760063",
   "source": "osm"
  },
  {
   "nom": "Hacı Hıdır Kasrı",
   "lat": 37.3273466,
   "lng": 40.8107,
   "coordonnees": {
    "lat": 37.3273466,
    "lng": 40.8107
   },
   "categorie": "Histoire",
   "mapsUrl": "https://maps.google.com/?q=37.3273466,40.8107",
   "source": "osm"
  },
  {
   "nom": "Yeşilli Saat Kulesi",
   "lat": 37.3390768,
   "lng": 40.8201341,
   "coordonnees": {
    "lat": 37.3390768,
    "lng": 40.8201341
   },
   "categorie": "Histoire",
   "mapsUrl": "https://maps.google.com/?q=37.3390768,40.8201341",
   "source": "osm"
  },
  {
   "nom": "Şeyh Hedi Çesmesi Yeşilli",
   "lat": 37.3496315,
   "lng": 40.8443888,
   "coordonnees": {
    "lat": 37.3496315,
    "lng": 40.8443888
   },
   "categorie": "Nature",
   "mapsUrl": "https://maps.google.com/?q=37.3496315,40.8443888",
   "source": "osm"
  },
  {
   "nom": "Tacettin Harzem Şah Medresesi",
   "lat": 37.2493388,
   "lng": 40.6304908,
   "coordonnees": {
    "lat": 37.2493388,
    "lng": 40.6304908
   },
   "categorie": "À voir",
   "mapsUrl": "https://maps.google.com/?q=37.2493388,40.6304908",
   "source": "osm"
  }
 ],
 "imageCredit": "Wikimedia Commons",
 "osmEnriched": true,
 "osmEnrichedAt": "2026-07-15",
 "description_en": "Mardin, in Turkey, is a halal-friendly destination with a Halal Trust Score of 4.5/5. Muslim travelers will find 5 halal restaurants listed, 1 mosques, real-time prayer times and the Qibla direction — a complete guide to travel with peace of mind.",
 "metaDescription_en": "Halal guide to Mardin: 5 halal restaurants listed, 1 mosques, prayer times and tips for Muslim travelers. Halal Trust Score 4.5/5.",
 "nom_en": "Mardin",
 "boucheries": [],
 "dataPurgedAt": "2026-07-15"
}