{
 "slug": "medine",
 "nom": "Médine",
 "nom_arabe": "المدينة المنورة",
 "pays": "Arabie Saoudite",
 "pays_slug": "arabie-saoudite",
 "drapeau": "🇸🇦",
 "region": "Péninsule Arabique",
 "coordonnees": {
  "lat": 24.5247,
  "lng": 39.5692
 },
 "score_halal": 4.9,
 "score_securite": 5,
 "score_famille": 4,
 "score_budget": 3,
 "description": "La Cité Lumineuse — ville du Prophète Muhammad ﷺ. Masjid al-Nabawi, tombeau du Prophète et lieu de naissance de la première communauté islamique. Accessible aux musulmans uniquement.",
 "description_courte": "La ville du Prophète, Al-Madinah Al-Munawwarah",
 "description_longue": "Médine (Al-Madinah Al-Munawwarah) est la deuxième ville sainte de l'Islam, où le Prophète Muhammad ﷺ émigra de La Mecque en 622 (l'Hégire) et établit la première communauté musulmane. Sa mosquée — Masjid al-Nabawi — est la 2ème plus sacrée au monde, et son tombeau s'y trouve. La ville est entourée de sites historiques de l'islam primitif : Uhud, Quba, Qiblatayn. Accessible aux musulmans uniquement dans la zone du Haram.",
 "image_hero": "https://images.unsplash.com/photo-1591604129939-f1efa4d9f7fa?w=1600&q=80",
 "image_alt": "Dôme vert de Masjid al-Nabawi la nuit, Médine, Arabie Saoudite",
 "meta_title": "Médine 2025 — Guide Pèlerinage Ziyara & Omra",
 "meta_description": "Guide complet Médine : Masjid al-Nabawi, tombeau du Prophète, Uhud, Quba. La ville sainte du Prophète ﷺ réservée aux musulmans.",
 "statistiques": {
  "mosquees": 60,
  "restaurants_halal": 23,
  "hotels_halal": 150,
  "boucheries_halal": 300,
  "habitants_musulmans_pct": 100,
  "habitants": 1300000,
  "altitude_m": 608,
  "superficie_km2": 589,
  "hotels": 111
 },
 "infos_pratiques": {
  "langue_officielle": "Arabe",
  "langues_parlees": [
   "Arabe",
   "Ourdou",
   "Anglais",
   "Français",
   "Indonésien"
  ],
  "monnaie": "Riyal saoudien (SAR)",
  "taux_change_eur": "1 EUR ≈ 4.10 SAR",
  "meilleure_periode": "Octobre-Février (températures plus clémentes, 20-30°C)",
  "a_eviter": "Juin-Août (jusqu'à 45°C), sauf obligation spirituelle",
  "fuseau_horaire": "AST (UTC+3)",
  "appel_priere": "L'adhan du Masjid al-Nabawi résonne dans toute la ville 5 fois par jour",
  "nourriture_halal": "100% halal — ville 100% islamique",
  "alcool": "Strictement interdit dans toute l'Arabie Saoudite",
  "tenue_recommandee": "Tenue modeste obligatoire. Femmes : abaya + hijab dans la zone du Haram. Hommes : tenue propre et décente.",
  "securite": "Excellente — forces de sécurité saoudiennes spécialisées, zone du Haram très surveillée",
  "transport_local": "Bus Al-Haramain, taxis blancs, Uber, navettes hôtels",
  "aeroport": "Aéroport Prince Mohammed bin Abdulaziz (MED) — 15 km du centre",
  "visa": "Visa Omra ou Hajj obligatoire. Non-musulmans interdits d'accès à la zone du Haram."
 },
 "meteo_par_mois": [
  {
   "mois": "Janvier",
   "temp_max": 26,
   "temp_min": 10,
   "pluie_jours": 1,
   "emoji": "☀️"
  },
  {
   "mois": "Février",
   "temp_max": 28,
   "temp_min": 12,
   "pluie_jours": 1,
   "emoji": "☀️"
  },
  {
   "mois": "Mars",
   "temp_max": 32,
   "temp_min": 16,
   "pluie_jours": 1,
   "emoji": "☀️"
  },
  {
   "mois": "Avril",
   "temp_max": 37,
   "temp_min": 20,
   "pluie_jours": 0,
   "emoji": "🌞"
  },
  {
   "mois": "Mai",
   "temp_max": 41,
   "temp_min": 24,
   "pluie_jours": 0,
   "emoji": "🌞"
  },
  {
   "mois": "Juin",
   "temp_max": 44,
   "temp_min": 28,
   "pluie_jours": 0,
   "emoji": "🌡️"
  },
  {
   "mois": "Juillet",
   "temp_max": 44,
   "temp_min": 28,
   "pluie_jours": 0,
   "emoji": "🌡️"
  },
  {
   "mois": "Août",
   "temp_max": 43,
   "temp_min": 27,
   "pluie_jours": 0,
   "emoji": "🌡️"
  },
  {
   "mois": "Septembre",
   "temp_max": 40,
   "temp_min": 25,
   "pluie_jours": 0,
   "emoji": "🌞"
  },
  {
   "mois": "Octobre",
   "temp_max": 35,
   "temp_min": 20,
   "pluie_jours": 0,
   "emoji": "☀️"
  },
  {
   "mois": "Novembre",
   "temp_max": 29,
   "temp_min": 15,
   "pluie_jours": 1,
   "emoji": "☀️"
  },
  {
   "mois": "Décembre",
   "temp_max": 25,
   "temp_min": 10,
   "pluie_jours": 1,
   "emoji": "⛅"
  }
 ],
 "restaurants": [
  {
   "nom": "Fairuz Turkish Restaurant",
   "lat": 24.4942129,
   "lng": 39.5856245,
   "type": "turkish",
   "halalConfidence": "likely",
   "mapsUrl": "https://maps.google.com/?q=24.4942129,39.5856245",
   "source": "osm"
  },
  {
   "nom": "مطاعم التركي للمشويات و الفطائر",
   "lat": 24.49012,
   "lng": 39.5700021,
   "type": "turkish",
   "halalConfidence": "likely",
   "mapsUrl": "https://maps.google.com/?q=24.49012,39.5700021",
   "source": "osm"
  },
  {
   "nom": "حمص ريفي",
   "lat": 24.4887507,
   "lng": 39.5817893,
   "type": "lebanese",
   "halalConfidence": "likely",
   "mapsUrl": "https://maps.google.com/?q=24.4887507,39.5817893",
   "source": "osm"
  },
  {
   "nom": "بيروتي",
   "lat": 24.4880342,
   "lng": 39.5850796,
   "type": "syrian",
   "halalConfidence": "likely",
   "mapsUrl": "https://maps.google.com/?q=24.4880342,39.5850796",
   "source": "osm"
  },
  {
   "nom": "Beiruti",
   "lat": 24.4870451,
   "lng": 39.5891774,
   "type": "lebanese",
   "halalConfidence": "likely",
   "mapsUrl": "https://maps.google.com/?q=24.4870451,39.5891774",
   "source": "osm"
  },
  {
   "nom": "Davanti Lounge",
   "lat": 24.4827451,
   "lng": 39.572261,
   "type": "italian, cafe, dessert",
   "halalConfidence": "high",
   "mapsUrl": "https://maps.google.com/?q=24.4827451,39.572261",
   "source": "osm"
  },
  {
   "nom": "Bayt al-Kabab",
   "lat": 24.4842424,
   "lng": 39.600478,
   "type": "egyptian",
   "halalConfidence": "likely",
   "mapsUrl": "https://maps.google.com/?q=24.4842424,39.600478",
   "source": "osm"
  },
  {
   "nom": "Turkish Restaurant المطاعم التركية",
   "lat": 24.4789447,
   "lng": 39.5930768,
   "type": "turkish",
   "halalConfidence": "likely",
   "mapsUrl": "https://maps.google.com/?q=24.4789447,39.5930768",
   "source": "osm"
  },
  {
   "nom": "مطاعم و مطابخ نخبة حضرموت",
   "lat": 24.4750324,
   "lng": 39.5826143,
   "type": "arab, chicken, regional",
   "halalConfidence": "high",
   "mapsUrl": "https://maps.google.com/?q=24.4750324,39.5826143",
   "source": "osm"
  },
  {
   "nom": "ساندويتشات كباب",
   "lat": 24.4822872,
   "lng": 39.6013184,
   "type": "turkish",
   "halalConfidence": "likely",
   "mapsUrl": "https://maps.google.com/?q=24.4822872,39.6013184",
   "source": "osm"
  },
  {
   "nom": "بيت المشويات التركية",
   "lat": 24.4700524,
   "lng": 39.582463,
   "type": "turkish",
   "halalConfidence": "likely",
   "mapsUrl": "https://maps.google.com/?q=24.4700524,39.582463",
   "source": "osm"
  },
  {
   "nom": "مطعم ابو خطاب",
   "lat": 24.4697301,
   "lng": 39.599095,
   "type": "egyptian",
   "halalConfidence": "likely",
   "mapsUrl": "https://maps.google.com/?q=24.4697301,39.599095",
   "source": "osm"
  },
  {
   "nom": "مطعم الهدى التركية",
   "lat": 24.4703153,
   "lng": 39.6021336,
   "type": "turkish",
   "halalConfidence": "likely",
   "mapsUrl": "https://maps.google.com/?q=24.4703153,39.6021336",
   "source": "osm"
  },
  {
   "nom": "Fairouz Al Hijaz",
   "lat": 24.4733705,
   "lng": 39.6092294,
   "type": "kebab",
   "halalConfidence": "likely",
   "mapsUrl": "https://maps.google.com/?q=24.4733705,39.6092294",
   "source": "osm"
  },
  {
   "nom": "Naya Turkish Restaurant",
   "lat": 24.4686376,
   "lng": 39.6019605,
   "type": "turkish",
   "halalConfidence": "likely",
   "mapsUrl": "https://maps.google.com/?q=24.4686376,39.6019605",
   "source": "osm"
  },
  {
   "nom": "Al Sanabel Turkish Restaurant",
   "lat": 24.4727509,
   "lng": 39.6122178,
   "type": "turkish",
   "halalConfidence": "likely",
   "mapsUrl": "https://maps.google.com/?q=24.4727509,39.6122178",
   "source": "osm"
  },
  {
   "nom": "Al Faris Lilrose Al Bukhari",
   "lat": 24.4719625,
   "lng": 39.612677,
   "type": "pakistani, indian, arabic",
   "halalConfidence": "likely",
   "mapsUrl": "https://maps.google.com/?q=24.4719625,39.612677",
   "source": "osm"
  },
  {
   "nom": "Ruqn Shami",
   "lat": 24.4820046,
   "lng": 39.6304603,
   "type": "lebanese",
   "halalConfidence": "likely",
   "mapsUrl": "https://maps.google.com/?q=24.4820046,39.6304603",
   "source": "osm"
  },
  {
   "nom": "Kebap",
   "lat": 24.4557515,
   "lng": 39.5953725,
   "type": "kebab",
   "halalConfidence": "likely",
   "mapsUrl": "https://maps.google.com/?q=24.4557515,39.5953725",
   "source": "osm"
  },
  {
   "nom": "Grapeleaves",
   "lat": 24.4497978,
   "lng": 39.5426998,
   "type": "breakfast, chicken, grill, kebab, oriental, pasta, pizza",
   "halalConfidence": "likely",
   "mapsUrl": "https://maps.google.com/?q=24.4497978,39.5426998",
   "source": "osm"
  },
  {
   "nom": "مطاعم الرومانسية  Al-Romansiah Restaurants",
   "lat": 24.47009,
   "lng": 39.6416017,
   "type": "arab",
   "halalConfidence": "likely",
   "mapsUrl": "https://maps.google.com/?q=24.47009,39.6416017",
   "source": "osm"
  },
  {
   "nom": "The Ocean - Indian and Chinese Cuisine",
   "lat": 24.4825237,
   "lng": 39.6514564,
   "type": "asian, chinese, indian",
   "halalConfidence": "likely",
   "mapsUrl": "https://maps.google.com/?q=24.4825237,39.6514564",
   "source": "osm"
  },
  {
   "nom": "مطعم تركيا",
   "lat": 24.4453867,
   "lng": 39.6060546,
   "type": "turkish",
   "halalConfidence": "likely",
   "mapsUrl": "https://maps.google.com/?q=24.4453867,39.6060546",
   "source": "osm"
  }
 ],
 "mosquees": [],
 "hotels": [
  {
   "nom": "Le Meridien Medina",
   "categorie": "Hôtel",
   "priceRange": "€€",
   "mapsUrl": "https://maps.google.com/?q=24.4893827,39.5639423",
   "lat": 24.4893827,
   "lng": 39.5639423,
   "halalFriendly": false,
   "bookingUrl": "https://maps.google.com/?q=24.4893827,39.5639423",
   "source": "osm"
  },
  {
   "nom": "عمادة شؤون الطلاب",
   "categorie": "Appartement",
   "priceRange": "€€",
   "mapsUrl": "https://maps.google.com/?q=24.4829097,39.5586852",
   "lat": 24.4829097,
   "lng": 39.5586852,
   "halalFriendly": false,
   "bookingUrl": "https://maps.google.com/?q=24.4829097,39.5586852",
   "source": "osm"
  },
  {
   "nom": "Wihdah 21",
   "categorie": "Appartement",
   "priceRange": "€€",
   "mapsUrl": "https://maps.google.com/?q=24.4822789,39.5588995",
   "lat": 24.4822789,
   "lng": 39.5588995,
   "halalFriendly": false,
   "bookingUrl": "https://maps.google.com/?q=24.4822789,39.5588995",
   "source": "osm"
  },
  {
   "nom": "Wihdah 22",
   "categorie": "Appartement",
   "priceRange": "€€",
   "mapsUrl": "https://maps.google.com/?q=24.4822359,39.5575845",
   "lat": 24.4822359,
   "lng": 39.5575845,
   "halalFriendly": false,
   "bookingUrl": "https://maps.google.com/?q=24.4822359,39.5575845",
   "source": "osm"
  },
  {
   "nom": "Wihdah 23",
   "categorie": "Appartement",
   "priceRange": "€€",
   "mapsUrl": "https://maps.google.com/?q=24.4821997,39.5565242",
   "lat": 24.4821997,
   "lng": 39.5565242,
   "halalFriendly": false,
   "bookingUrl": "https://maps.google.com/?q=24.4821997,39.5565242",
   "source": "osm"
  },
  {
   "nom": "شرفة أُحد",
   "categorie": "Hôtel",
   "priceRange": "€€",
   "mapsUrl": "https://maps.google.com/?q=24.5044513,39.614006",
   "lat": 24.5044513,
   "lng": 39.614006,
   "halalFriendly": false,
   "bookingUrl": "https://maps.google.com/?q=24.5044513,39.614006",
   "source": "osm"
  },
  {
   "nom": "فندق جلنار",
   "categorie": "Hôtel",
   "priceRange": "€€",
   "mapsUrl": "https://maps.google.com/?q=24.4873635,39.6032319",
   "lat": 24.4873635,
   "lng": 39.6032319,
   "halalFriendly": false,
   "bookingUrl": "https://maps.google.com/?q=24.4873635,39.6032319",
   "source": "osm"
  },
  {
   "nom": "الشهداء الماسي",
   "categorie": "Auberge",
   "priceRange": "€€",
   "mapsUrl": "https://maps.google.com/?q=24.4928973,39.6102197",
   "lat": 24.4928973,
   "lng": 39.6102197,
   "halalFriendly": false,
   "bookingUrl": "https://maps.google.com/?q=24.4928973,39.6102197",
   "source": "osm"
  },
  {
   "nom": "بيتوتة",
   "categorie": "Hôtel",
   "priceRange": "€€",
   "mapsUrl": "https://maps.google.com/?q=24.491466,39.609742",
   "lat": 24.491466,
   "lng": 39.609742,
   "halalFriendly": false,
   "bookingUrl": "https://maps.google.com/?q=24.491466,39.609742",
   "source": "osm"
  },
  {
   "nom": "فندق المغربي",
   "categorie": "Hôtel",
   "priceRange": "€€",
   "mapsUrl": "https://maps.google.com/?q=24.4853222,39.6051134",
   "lat": 24.4853222,
   "lng": 39.6051134,
   "halalFriendly": false,
   "bookingUrl": "https://maps.google.com/?q=24.4853222,39.6051134",
   "source": "osm"
  },
  {
   "nom": "Ghalyt Ohud",
   "categorie": "Hôtel",
   "priceRange": "€€",
   "mapsUrl": "https://maps.google.com/?q=24.4909416,39.6118552",
   "lat": 24.4909416,
   "lng": 39.6118552,
   "halalFriendly": false,
   "bookingUrl": "https://maps.google.com/?q=24.4909416,39.6118552",
   "source": "osm"
  },
  {
   "nom": "Hotel Jawar Al Madinah",
   "categorie": "Hôtel",
   "priceRange": "€€",
   "mapsUrl": "https://maps.google.com/?q=24.4801032,39.6101488",
   "lat": 24.4801032,
   "lng": 39.6101488,
   "halalFriendly": false,
   "bookingUrl": "https://maps.google.com/?q=24.4801032,39.6101488",
   "source": "osm"
  },
  {
   "nom": "Al Awail Golden Hotel",
   "categorie": "Hôtel",
   "priceRange": "€€",
   "mapsUrl": "https://maps.google.com/?q=24.4790203,39.610749",
   "lat": 24.4790203,
   "lng": 39.610749,
   "halalFriendly": false,
   "bookingUrl": "https://maps.google.com/?q=24.4790203,39.610749",
   "source": "osm"
  },
  {
   "nom": "جوهرة طابة",
   "categorie": "Hôtel",
   "priceRange": "€€",
   "mapsUrl": "https://maps.google.com/?q=24.4801803,39.6123346",
   "lat": 24.4801803,
   "lng": 39.6123346,
   "halalFriendly": false,
   "bookingUrl": "https://maps.google.com/?q=24.4801803,39.6123346",
   "source": "osm"
  },
  {
   "nom": "Al Manar al Fiddi 2",
   "categorie": "Hôtel",
   "priceRange": "€€",
   "mapsUrl": "https://maps.google.com/?q=24.4799114,39.6123413",
   "lat": 24.4799114,
   "lng": 39.6123413,
   "halalFriendly": false,
   "bookingUrl": "https://maps.google.com/?q=24.4799114,39.6123413",
   "source": "osm"
  },
  {
   "nom": "فندق دار الاجيال",
   "categorie": "Hôtel",
   "priceRange": "€€",
   "mapsUrl": "https://maps.google.com/?q=24.4800883,39.6125729",
   "lat": 24.4800883,
   "lng": 39.6125729,
   "halalFriendly": false,
   "bookingUrl": "https://maps.google.com/?q=24.4800883,39.6125729",
   "source": "osm"
  },
  {
   "nom": "Dar Al Arkam",
   "categorie": "Hôtel",
   "priceRange": "€€",
   "mapsUrl": "https://maps.google.com/?q=24.479538,39.6119177",
   "lat": 24.479538,
   "lng": 39.6119177,
   "halalFriendly": false,
   "bookingUrl": "https://maps.google.com/?q=24.479538,39.6119177",
   "source": "osm"
  },
  {
   "nom": "فندق همسات طيبة",
   "categorie": "Hôtel",
   "priceRange": "€€",
   "mapsUrl": "https://maps.google.com/?q=24.4797447,39.6125751",
   "lat": 24.4797447,
   "lng": 39.6125751,
   "halalFriendly": false,
   "bookingUrl": "https://maps.google.com/?q=24.4797447,39.6125751",
   "source": "osm"
  },
  {
   "nom": "Al Manar al Fiddi",
   "categorie": "Hôtel",
   "priceRange": "€€",
   "mapsUrl": "https://maps.google.com/?q=24.4795544,39.6123458",
   "lat": 24.4795544,
   "lng": 39.6123458,
   "halalFriendly": false,
   "bookingUrl": "https://maps.google.com/?q=24.4795544,39.6123458",
   "source": "osm"
  },
  {
   "nom": "دار الأمل 2",
   "categorie": "Hôtel",
   "priceRange": "€€",
   "mapsUrl": "https://maps.google.com/?q=24.4803857,39.6142178",
   "lat": 24.4803857,
   "lng": 39.6142178,
   "halalFriendly": false,
   "bookingUrl": "https://maps.google.com/?q=24.4803857,39.6142178",
   "source": "osm"
  },
  {
   "nom": "فندق قصر ابوماهر",
   "categorie": "Hôtel",
   "priceRange": "€€",
   "mapsUrl": "https://maps.google.com/?q=24.4744006,39.6071993",
   "lat": 24.4744006,
   "lng": 39.6071993,
   "halalFriendly": false,
   "bookingUrl": "https://maps.google.com/?q=24.4744006,39.6071993",
   "source": "osm"
  },
  {
   "nom": "زها طيبة",
   "categorie": "Hôtel",
   "priceRange": "€€",
   "mapsUrl": "https://maps.google.com/?q=24.4793789,39.6144335",
   "lat": 24.4793789,
   "lng": 39.6144335,
   "halalFriendly": false,
   "bookingUrl": "https://www.booking.com/hotel/sa/zaha-taiba-medina2.ar.html",
   "source": "osm"
  },
  {
   "nom": "مركز محبوبة طيبة",
   "categorie": "Auberge",
   "priceRange": "€€",
   "mapsUrl": "https://maps.google.com/?q=24.4774924,39.6120567",
   "lat": 24.4774924,
   "lng": 39.6120567,
   "halalFriendly": false,
   "bookingUrl": "https://maps.google.com/?q=24.4774924,39.6120567",
   "source": "osm"
  },
  {
   "nom": "فندق وقف عثمان بن عفان",
   "categorie": "Hôtel",
   "priceRange": "€€",
   "mapsUrl": "https://maps.google.com/?q=24.4736303,39.6066661",
   "lat": 24.4736303,
   "lng": 39.6066661,
   "halalFriendly": false,
   "bookingUrl": "https://almokhtaragroup.com/waqf-outhman-bin-affan-hotel/",
   "source": "osm"
  },
  {
   "nom": "فندق المختارة العالمي",
   "categorie": "Hôtel",
   "priceRange": "€€",
   "score": 2,
   "mapsUrl": "https://maps.google.com/?q=24.4732763,39.6062175",
   "lat": 24.4732763,
   "lng": 39.6062175,
   "halalFriendly": false,
   "bookingUrl": "https://almokhtaragroup.com/al-mokhtara-international/",
   "source": "osm"
  },
  {
   "nom": "فندق الحياة العالمي",
   "categorie": "Hôtel",
   "priceRange": "€€",
   "mapsUrl": "https://maps.google.com/?q=24.4736539,39.6069917",
   "lat": 24.4736539,
   "lng": 39.6069917,
   "halalFriendly": false,
   "bookingUrl": "https://maps.google.com/?q=24.4736539,39.6069917",
   "source": "osm"
  },
  {
   "nom": "فندق سجى المدينة",
   "categorie": "Hôtel",
   "priceRange": "€€€",
   "score": 3,
   "mapsUrl": "https://maps.google.com/?q=24.4736415,39.6077717",
   "lat": 24.4736415,
   "lng": 39.6077717,
   "halalFriendly": false,
   "bookingUrl": "https://maps.google.com/?q=24.4736415,39.6077717",
   "source": "osm"
  },
  {
   "nom": "فندق كرم السعيد",
   "categorie": "Hôtel",
   "priceRange": "€€",
   "mapsUrl": "https://maps.google.com/?q=24.4703127,39.6019543",
   "lat": 24.4703127,
   "lng": 39.6019543,
   "halalFriendly": false,
   "bookingUrl": "https://maps.google.com/?q=24.4703127,39.6019543",
   "source": "osm"
  },
  {
   "nom": "فندق درة الإيمان",
   "categorie": "Hôtel",
   "priceRange": "€€€€",
   "score": 4,
   "mapsUrl": "https://maps.google.com/?q=24.4728447,39.6067446",
   "lat": 24.4728447,
   "lng": 39.6067446,
   "halalFriendly": false,
   "bookingUrl": "https://maps.google.com/?q=24.4728447,39.6067446",
   "source": "osm"
  },
  {
   "nom": "hôtel Mokhtara El Alamy",
   "categorie": "Hôtel",
   "priceRange": "€€",
   "mapsUrl": "https://maps.google.com/?q=24.4725158,39.6063714",
   "lat": 24.4725158,
   "lng": 39.6063714,
   "halalFriendly": false,
   "bookingUrl": "https://maps.google.com/?q=24.4725158,39.6063714",
   "source": "osm"
  },
  {
   "nom": "فندق قصر الأندلس الذهبي",
   "categorie": "Hôtel",
   "priceRange": "€€€",
   "score": 3,
   "mapsUrl": "https://maps.google.com/?q=24.4732428,39.6076064",
   "lat": 24.4732428,
   "lng": 39.6076064,
   "halalFriendly": false,
   "bookingUrl": "https://maps.google.com/?q=24.4732428,39.6076064",
   "source": "osm"
  },
  {
   "nom": "فندق تريبل ون",
   "categorie": "Hôtel",
   "priceRange": "€€",
   "mapsUrl": "https://maps.google.com/?q=24.4723661,39.6062108",
   "lat": 24.4723661,
   "lng": 39.6062108,
   "halalFriendly": false,
   "bookingUrl": "https://maps.google.com/?q=24.4723661,39.6062108",
   "source": "osm"
  },
  {
   "nom": "فندق شيراتون طيبة ــ البرج ١",
   "categorie": "Hôtel",
   "priceRange": "€€",
   "mapsUrl": "https://maps.google.com/?q=24.4728456,39.6070189",
   "lat": 24.4728456,
   "lng": 39.6070189,
   "halalFriendly": false,
   "bookingUrl": "https://maps.google.com/?q=24.4728456,39.6070189",
   "source": "osm"
  },
  {
   "nom": "فندق أودست المدينة",
   "categorie": "Hôtel",
   "priceRange": "€€€",
   "score": 3.5,
   "mapsUrl": "https://maps.google.com/?q=24.4735984,39.6083198",
   "lat": 24.4735984,
   "lng": 39.6083198,
   "halalFriendly": false,
   "bookingUrl": "https://almokhtaragroup.com/odst-al-madinah-hotel/",
   "source": "osm"
  },
  {
   "nom": "فندق نوفوتيل المدينة",
   "categorie": "Hôtel",
   "priceRange": "€€",
   "mapsUrl": "https://maps.google.com/?q=24.4707043,39.6033795",
   "lat": 24.4707043,
   "lng": 39.6033795,
   "halalFriendly": false,
   "bookingUrl": "https://maps.google.com/?q=24.4707043,39.6033795",
   "source": "osm"
  },
  {
   "nom": "فندق أرجوان الذهبي",
   "categorie": "Hôtel",
   "priceRange": "€€",
   "mapsUrl": "https://maps.google.com/?q=24.4707747,39.6038436",
   "lat": 24.4707747,
   "lng": 39.6038436,
   "halalFriendly": false,
   "bookingUrl": "https://maps.google.com/?q=24.4707747,39.6038436",
   "source": "osm"
  },
  {
   "nom": "فندق رويال المدينة",
   "categorie": "Hôtel",
   "priceRange": "€€",
   "mapsUrl": "https://maps.google.com/?q=24.4723625,39.6066807",
   "lat": 24.4723625,
   "lng": 39.6066807,
   "halalFriendly": false,
   "bookingUrl": "https://maps.google.com/?q=24.4723625,39.6066807",
   "source": "osm"
  },
  {
   "nom": "فندق شيراتون طيبة ــ البرج ٢",
   "categorie": "Hôtel",
   "priceRange": "€€",
   "mapsUrl": "https://maps.google.com/?q=24.4728733,39.607544",
   "lat": 24.4728733,
   "lng": 39.607544,
   "halalFriendly": false,
   "bookingUrl": "https://maps.google.com/?q=24.4728733,39.607544",
   "source": "osm"
  },
  {
   "nom": "فندق ديار الايمان",
   "categorie": "Hôtel",
   "priceRange": "€€€€",
   "score": 4,
   "mapsUrl": "https://maps.google.com/?q=24.4720621,39.6062542",
   "lat": 24.4720621,
   "lng": 39.6062542,
   "halalFriendly": false,
   "bookingUrl": "https://maps.google.com/?q=24.4720621,39.6062542",
   "source": "osm"
  },
  {
   "nom": "فندق زوار العالمي",
   "categorie": "Hôtel",
   "priceRange": "€€€€",
   "score": 4,
   "mapsUrl": "https://maps.google.com/?q=24.4734685,39.608647",
   "lat": 24.4734685,
   "lng": 39.608647,
   "halalFriendly": false,
   "bookingUrl": "https://almokhtaragroup.com/zowar-international-hotel/",
   "source": "osm"
  },
  {
   "nom": "فندق الأندلس المدينة",
   "categorie": "Hôtel",
   "priceRange": "€€",
   "mapsUrl": "https://maps.google.com/?q=24.4703503,39.603262",
   "lat": 24.4703503,
   "lng": 39.603262,
   "halalFriendly": false,
   "bookingUrl": "https://maps.google.com/?q=24.4703503,39.603262",
   "source": "osm"
  },
  {
   "nom": "فندق رؤى الفخآمة",
   "categorie": "Hôtel",
   "priceRange": "€€",
   "mapsUrl": "https://maps.google.com/?q=24.4708292,39.6042517",
   "lat": 24.4708292,
   "lng": 39.6042517,
   "halalFriendly": false,
   "bookingUrl": "https://maps.google.com/?q=24.4708292,39.6042517",
   "source": "osm"
  },
  {
   "nom": "فندق أركان المنار",
   "categorie": "Hôtel",
   "priceRange": "€€€€",
   "score": 4,
   "mapsUrl": "https://maps.google.com/?q=24.4723609,39.6070051",
   "lat": 24.4723609,
   "lng": 39.6070051,
   "halalFriendly": false,
   "bookingUrl": "https://maps.google.com/?q=24.4723609,39.6070051",
   "source": "osm"
  },
  {
   "nom": "فندق الأنصر بلاتينوم",
   "categorie": "Hôtel",
   "priceRange": "€€€",
   "score": 3,
   "mapsUrl": "https://maps.google.com/?q=24.4728781,39.6078797",
   "lat": 24.4728781,
   "lng": 39.6078797,
   "halalFriendly": false,
   "bookingUrl": "https://maps.google.com/?q=24.4728781,39.6078797",
   "source": "osm"
  },
  {
   "nom": "فندق الأندلس بلازا",
   "categorie": "Hôtel",
   "priceRange": "€€",
   "mapsUrl": "https://maps.google.com/?q=24.4701115,39.6031413",
   "lat": 24.4701115,
   "lng": 39.6031413,
   "halalFriendly": false,
   "bookingUrl": "https://maps.google.com/?q=24.4701115,39.6031413",
   "source": "osm"
  },
  {
   "nom": "فندق المرسى",
   "categorie": "Hôtel",
   "priceRange": "€€",
   "score": 2,
   "mapsUrl": "https://maps.google.com/?q=24.4734628,39.6089713",
   "lat": 24.4734628,
   "lng": 39.6089713,
   "halalFriendly": false,
   "bookingUrl": "https://maps.google.com/?q=24.4734628,39.6089713",
   "source": "osm"
  },
  {
   "nom": "فندق برج موده",
   "categorie": "Hôtel",
   "priceRange": "€€",
   "mapsUrl": "https://maps.google.com/?q=24.4695107,39.601974",
   "lat": 24.4695107,
   "lng": 39.601974,
   "halalFriendly": false,
   "bookingUrl": "https://maps.google.com/?q=24.4695107,39.601974",
   "source": "osm"
  },
  {
   "nom": "فندق مرجان الذهبي",
   "categorie": "Hôtel",
   "priceRange": "€€",
   "mapsUrl": "https://maps.google.com/?q=24.4708241,39.6045621",
   "lat": 24.4708241,
   "lng": 39.6045621,
   "halalFriendly": false,
   "bookingUrl": "https://maps.google.com/?q=24.4708241,39.6045621",
   "source": "osm"
  },
  {
   "nom": "فندق واحة النزيل",
   "categorie": "Hôtel",
   "priceRange": "€€",
   "score": 2.5,
   "mapsUrl": "https://maps.google.com/?q=24.4706534,39.6042678",
   "lat": 24.4706534,
   "lng": 39.6042678,
   "halalFriendly": false,
   "bookingUrl": "https://maps.google.com/?q=24.4706534,39.6042678",
   "source": "osm"
  },
  {
   "nom": "فندق درة المدينة",
   "categorie": "Hôtel",
   "priceRange": "€€",
   "mapsUrl": "https://maps.google.com/?q=24.4734322,39.6091317",
   "lat": 24.4734322,
   "lng": 39.6091317,
   "halalFriendly": false,
   "bookingUrl": "https://maps.google.com/?q=24.4734322,39.6091317",
   "source": "osm"
  },
  {
   "nom": "فندق إلياس الفضي",
   "categorie": "Hôtel",
   "priceRange": "€€",
   "mapsUrl": "https://maps.google.com/?q=24.4706144,39.6045682",
   "lat": 24.4706144,
   "lng": 39.6045682,
   "halalFriendly": false,
   "bookingUrl": "https://maps.google.com/?q=24.4706144,39.6045682",
   "source": "osm"
  },
  {
   "nom": "فندق ابراج طابة",
   "categorie": "Hôtel",
   "priceRange": "€€",
   "mapsUrl": "https://maps.google.com/?q=24.4715821,39.6064884",
   "lat": 24.4715821,
   "lng": 39.6064884,
   "halalFriendly": false,
   "bookingUrl": "https://maps.google.com/?q=24.4715821,39.6064884",
   "source": "osm"
  },
  {
   "nom": "فندق وقف الصافي",
   "categorie": "Hôtel",
   "priceRange": "€€",
   "mapsUrl": "https://maps.google.com/?q=24.4702883,39.6043829",
   "lat": 24.4702883,
   "lng": 39.6043829,
   "halalFriendly": false,
   "bookingUrl": "https://ws.bosphorus-group.com/",
   "source": "osm"
  },
  {
   "nom": "فندق شذا ريجنسي بلازا",
   "categorie": "Hôtel",
   "priceRange": "€€€€",
   "score": 5,
   "mapsUrl": "https://maps.google.com/?q=24.4737844,39.6102474",
   "lat": 24.4737844,
   "lng": 39.6102474,
   "halalFriendly": false,
   "bookingUrl": "https://maps.google.com/?q=24.4737844,39.6102474",
   "source": "osm"
  },
  {
   "nom": "فندق ربوة الصفوة الذهبي",
   "categorie": "Hôtel",
   "priceRange": "€",
   "score": 1.5,
   "mapsUrl": "https://maps.google.com/?q=24.4699474,39.6038601",
   "lat": 24.4699474,
   "lng": 39.6038601,
   "halalFriendly": false,
   "bookingUrl": "https://maps.google.com/?q=24.4699474,39.6038601",
   "source": "osm"
  },
  {
   "nom": "فندق وينر إن الخير",
   "categorie": "Hôtel",
   "priceRange": "€€€",
   "score": 3.5,
   "mapsUrl": "https://maps.google.com/?q=24.4715743,39.6069336",
   "lat": 24.4715743,
   "lng": 39.6069336,
   "halalFriendly": false,
   "bookingUrl": "https://maps.google.com/?q=24.4715743,39.6069336",
   "source": "osm"
  },
  {
   "nom": "فندق اعمار ايليت",
   "categorie": "Hôtel",
   "priceRange": "€€€",
   "score": 3,
   "mapsUrl": "https://maps.google.com/?q=24.4712749,39.6065098",
   "lat": 24.4712749,
   "lng": 39.6065098,
   "halalFriendly": false,
   "bookingUrl": "https://maps.google.com/?q=24.4712749,39.6065098",
   "source": "osm"
  },
  {
   "nom": "فندق كون كود النزيل",
   "categorie": "Hôtel",
   "priceRange": "€€€",
   "score": 3,
   "mapsUrl": "https://maps.google.com/?q=24.4734939,39.6101319",
   "lat": 24.4734939,
   "lng": 39.6101319,
   "halalFriendly": false,
   "bookingUrl": "https://maps.google.com/?q=24.4734939,39.6101319",
   "source": "osm"
  },
  {
   "nom": "فندق رؤى السعادة",
   "categorie": "Hôtel",
   "priceRange": "€€",
   "mapsUrl": "https://maps.google.com/?q=24.4697277,39.603863",
   "lat": 24.4697277,
   "lng": 39.603863,
   "halalFriendly": false,
   "bookingUrl": "https://maps.google.com/?q=24.4697277,39.603863",
   "source": "osm"
  },
  {
   "nom": "فندق كرم الحجاز",
   "categorie": "Hôtel",
   "priceRange": "€€",
   "mapsUrl": "https://maps.google.com/?q=24.4699263,39.604253",
   "lat": 24.4699263,
   "lng": 39.604253,
   "halalFriendly": false,
   "bookingUrl": "https://maps.google.com/?q=24.4699263,39.604253",
   "source": "osm"
  },
  {
   "nom": "فندق مآدن طيبة",
   "categorie": "Hôtel",
   "priceRange": "€€€€",
   "score": 4,
   "mapsUrl": "https://maps.google.com/?q=24.4723018,39.6084734",
   "lat": 24.4723018,
   "lng": 39.6084734,
   "halalFriendly": false,
   "bookingUrl": "https://www.gloria-hotels.com",
   "source": "osm"
  },
  {
   "nom": "فندق إيلاف طيبة",
   "categorie": "Hôtel",
   "priceRange": "€€€",
   "score": 3.5,
   "mapsUrl": "https://maps.google.com/?q=24.4712688,39.6069387",
   "lat": 24.4712688,
   "lng": 39.6069387,
   "halalFriendly": false,
   "bookingUrl": "https://maps.google.com/?q=24.4712688,39.6069387",
   "source": "osm"
  },
  {
   "nom": "فندق بروفينس الشام",
   "categorie": "Hôtel",
   "priceRange": "€€",
   "mapsUrl": "https://maps.google.com/?q=24.4731087,39.6099856",
   "lat": 24.4731087,
   "lng": 39.6099856,
   "halalFriendly": false,
   "bookingUrl": "https://maps.google.com/?q=24.4731087,39.6099856",
   "source": "osm"
  },
  {
   "nom": "فندق منازل الحسن",
   "categorie": "Hôtel",
   "priceRange": "€€",
   "mapsUrl": "https://maps.google.com/?q=24.4697331,39.6042577",
   "lat": 24.4697331,
   "lng": 39.6042577,
   "halalFriendly": false,
   "bookingUrl": "https://maps.google.com/?q=24.4697331,39.6042577",
   "source": "osm"
  },
  {
   "nom": "فندق ارائك طيبة",
   "categorie": "Hôtel",
   "priceRange": "€€",
   "mapsUrl": "https://maps.google.com/?q=24.4698481,39.6045412",
   "lat": 24.4698481,
   "lng": 39.6045412,
   "halalFriendly": false,
   "bookingUrl": "https://maps.google.com/?q=24.4698481,39.6045412",
   "source": "osm"
  },
  {
   "nom": "نصر السلام",
   "categorie": "Hôtel",
   "priceRange": "€€",
   "mapsUrl": "https://maps.google.com/?q=24.4666278,39.5977102",
   "lat": 24.4666278,
   "lng": 39.5977102,
   "halalFriendly": false,
   "bookingUrl": "https://maps.google.com/?q=24.4666278,39.5977102",
   "source": "osm"
  },
  {
   "nom": "فندق وسام السلام",
   "categorie": "Hôtel",
   "priceRange": "€€",
   "mapsUrl": "https://maps.google.com/?q=24.4674626,39.5998155",
   "lat": 24.4674626,
   "lng": 39.5998155,
   "halalFriendly": false,
   "bookingUrl": "https://maps.google.com/?q=24.4674626,39.5998155",
   "source": "osm"
  },
  {
   "nom": "فندق ديار عجوة",
   "categorie": "Hôtel",
   "priceRange": "€€",
   "mapsUrl": "https://maps.google.com/?q=24.4720134,39.6084751",
   "lat": 24.4720134,
   "lng": 39.6084751,
   "halalFriendly": false,
   "bookingUrl": "https://www.hilton.com/en/hotels/medinup-diyar-ajwa-tapestry-collection-by-hilton/",
   "source": "osm"
  },
  {
   "nom": "فندق مآثر الأندلس",
   "categorie": "Hôtel",
   "priceRange": "€€",
   "score": 2,
   "mapsUrl": "https://maps.google.com/?q=24.4688274,39.6028945",
   "lat": 24.4688274,
   "lng": 39.6028945,
   "halalFriendly": false,
   "bookingUrl": "https://maps.google.com/?q=24.4688274,39.6028945",
   "source": "osm"
  },
  {
   "nom": "فندق جوهرة الفيروز",
   "categorie": "Hôtel",
   "priceRange": "€€",
   "score": 2,
   "mapsUrl": "https://maps.google.com/?q=24.4728293,39.6099516",
   "lat": 24.4728293,
   "lng": 39.6099516,
   "halalFriendly": false,
   "bookingUrl": "https://maps.google.com/?q=24.4728293,39.6099516",
   "source": "osm"
  },
  {
   "nom": "فندق ميسان الحارثية",
   "categorie": "Hôtel",
   "priceRange": "€€€€",
   "score": 5,
   "mapsUrl": "https://maps.google.com/?q=24.4721807,39.6089602",
   "lat": 24.4721807,
   "lng": 39.6089602,
   "halalFriendly": false,
   "bookingUrl": "https://maps.google.com/?q=24.4721807,39.6089602",
   "source": "osm"
  },
  {
   "nom": "فندق منازل الزهراء",
   "categorie": "Hôtel",
   "priceRange": "€€€",
   "score": 3,
   "mapsUrl": "https://maps.google.com/?q=24.4694148,39.6042482",
   "lat": 24.4694148,
   "lng": 39.6042482,
   "halalFriendly": false,
   "bookingUrl": "https://maps.google.com/?q=24.4694148,39.6042482",
   "source": "osm"
  },
  {
   "nom": "فندق الريتز المدينة",
   "categorie": "Hôtel",
   "priceRange": "€€€€",
   "score": 4,
   "mapsUrl": "https://maps.google.com/?q=24.4730852,39.6104755",
   "lat": 24.4730852,
   "lng": 39.6104755,
   "halalFriendly": false,
   "bookingUrl": "https://almokhtaragroup.com/ritz-al-madinah-hotel/",
   "source": "osm"
  },
  {
   "nom": "فندق كرم طيبة الماسي",
   "categorie": "Hôtel",
   "priceRange": "€€",
   "mapsUrl": "https://maps.google.com/?q=24.4694866,39.6045492",
   "lat": 24.4694866,
   "lng": 39.6045492,
   "halalFriendly": false,
   "bookingUrl": "https://maps.google.com/?q=24.4694866,39.6045492",
   "source": "osm"
  },
  {
   "nom": "جار الحبيب",
   "categorie": "Hôtel",
   "priceRange": "€€",
   "mapsUrl": "https://maps.google.com/?q=24.4667214,39.5987439",
   "lat": 24.4667214,
   "lng": 39.5987439,
   "halalFriendly": false,
   "bookingUrl": "https://maps.google.com/?q=24.4667214,39.5987439",
   "source": "osm"
  },
  {
   "nom": "فندق وقت النزيل",
   "categorie": "Hôtel",
   "priceRange": "€€",
   "score": 2.5,
   "mapsUrl": "https://maps.google.com/?q=24.469052,39.6038869",
   "lat": 24.469052,
   "lng": 39.6038869,
   "halalFriendly": false,
   "bookingUrl": "https://maps.google.com/?q=24.469052,39.6038869",
   "source": "osm"
  },
  {
   "nom": "فندق الزهراء",
   "categorie": "Hôtel",
   "priceRange": "€€",
   "score": 2,
   "mapsUrl": "https://maps.google.com/?q=24.4685051,39.6028516",
   "lat": 24.4685051,
   "lng": 39.6028516,
   "halalFriendly": false,
   "bookingUrl": "https://maps.google.com/?q=24.4685051,39.6028516",
   "source": "osm"
  },
  {
   "nom": "فندق العقيق المدينة",
   "categorie": "Hôtel",
   "priceRange": "€€€",
   "score": 3,
   "mapsUrl": "https://maps.google.com/?q=24.4721814,39.6094533",
   "lat": 24.4721814,
   "lng": 39.6094533,
   "halalFriendly": false,
   "bookingUrl": "https://maps.google.com/?q=24.4721814,39.6094533",
   "source": "osm"
  },
  {
   "nom": "فندق بيننسولا وورث المدينة",
   "categorie": "Hôtel",
   "priceRange": "€€",
   "mapsUrl": "https://maps.google.com/?q=24.4735895,39.6116106",
   "lat": 24.4735895,
   "lng": 39.6116106,
   "halalFriendly": false,
   "bookingUrl": "https://maps.google.com/?q=24.4735895,39.6116106",
   "source": "osm"
  },
  {
   "nom": "فندق نزل رويال إن",
   "categorie": "Hôtel",
   "priceRange": "€€€€",
   "score": 4,
   "mapsUrl": "https://maps.google.com/?q=24.4728029,39.6104785",
   "lat": 24.4728029,
   "lng": 39.6104785,
   "halalFriendly": false,
   "bookingUrl": "https://maps.google.com/?q=24.4728029,39.6104785",
   "source": "osm"
  },
  {
   "nom": "فندق مآدن",
   "categorie": "Hôtel",
   "priceRange": "€€€€",
   "score": 5,
   "mapsUrl": "https://maps.google.com/?q=24.4729583,39.6108774",
   "lat": 24.4729583,
   "lng": 39.6108774,
   "halalFriendly": false,
   "bookingUrl": "https://maps.google.com/?q=24.4729583,39.6108774",
   "source": "osm"
  },
  {
   "nom": "فندق زها",
   "categorie": "Hôtel",
   "priceRange": "€€€",
   "score": 3,
   "mapsUrl": "https://maps.google.com/?q=24.4666624,39.5992972",
   "lat": 24.4666624,
   "lng": 39.5992972,
   "halalFriendly": false,
   "bookingUrl": "https://maps.google.com/?q=24.4666624,39.5992972",
   "source": "osm"
  },
  {
   "nom": "فندق فيرتا المدينة",
   "categorie": "Hôtel",
   "priceRange": "€€€€",
   "score": 5,
   "mapsUrl": "https://maps.google.com/?q=24.4688176,39.6038762",
   "lat": 24.4688176,
   "lng": 39.6038762,
   "halalFriendly": false,
   "bookingUrl": "https://maps.google.com/?q=24.4688176,39.6038762",
   "source": "osm"
  },
  {
   "nom": "فندق حياة الذهبي",
   "categorie": "Hôtel",
   "priceRange": "€€€€",
   "score": 4,
   "mapsUrl": "https://maps.google.com/?q=24.4690599,39.6043971",
   "lat": 24.4690599,
   "lng": 39.6043971,
   "halalFriendly": false,
   "bookingUrl": "https://maps.google.com/?q=24.4690599,39.6043971",
   "source": "osm"
  },
  {
   "nom": "فندق استونيست طيبة",
   "categorie": "Hôtel",
   "priceRange": "€€€",
   "score": 3,
   "mapsUrl": "https://maps.google.com/?q=24.4735729,39.612058",
   "lat": 24.4735729,
   "lng": 39.612058,
   "halalFriendly": false,
   "bookingUrl": "https://www.almokhtaragroup.com/",
   "source": "osm"
  },
  {
   "nom": "فندق سويس إنترناشونال طابه السلام",
   "categorie": "Hôtel",
   "priceRange": "€",
   "score": 1,
   "mapsUrl": "https://maps.google.com/?q=24.4688591,39.6042746",
   "lat": 24.4688591,
   "lng": 39.6042746,
   "halalFriendly": false,
   "bookingUrl": "https://maps.google.com/?q=24.4688591,39.6042746",
   "source": "osm"
  },
  {
   "nom": "دار الايمان انتركونتيننتال",
   "categorie": "Hôtel",
   "priceRange": "€€",
   "mapsUrl": "https://maps.google.com/?q=24.4713519,39.6087731",
   "lat": 24.4713519,
   "lng": 39.6087731,
   "halalFriendly": false,
   "bookingUrl": "https://maps.google.com/?q=24.4713519,39.6087731",
   "source": "osm"
  },
  {
   "nom": "فندق جراند الزوار",
   "categorie": "Hôtel",
   "priceRange": "€€",
   "mapsUrl": "https://maps.google.com/?q=24.4682654,39.6032848",
   "lat": 24.4682654,
   "lng": 39.6032848,
   "halalFriendly": false,
   "bookingUrl": "https://maps.google.com/?q=24.4682654,39.6032848",
   "source": "osm"
  },
  {
   "nom": "فندق مآدن الروضة",
   "categorie": "Hôtel",
   "priceRange": "€€€€",
   "score": 5,
   "mapsUrl": "https://maps.google.com/?q=24.4720112,39.6099199",
   "lat": 24.4720112,
   "lng": 39.6099199,
   "halalFriendly": false,
   "bookingUrl": "https://maps.google.com/?q=24.4720112,39.6099199",
   "source": "osm"
  },
  {
   "nom": "فندق حياة الهدى",
   "categorie": "Hôtel",
   "priceRange": "€€",
   "mapsUrl": "https://maps.google.com/?q=24.4683752,39.603548",
   "lat": 24.4683752,
   "lng": 39.603548,
   "halalFriendly": false,
   "bookingUrl": "https://maps.google.com/?q=24.4683752,39.603548",
   "source": "osm"
  },
  {
   "nom": "فندق الدار روافد توليب إن",
   "categorie": "Hôtel",
   "priceRange": "€€",
   "mapsUrl": "https://maps.google.com/?q=24.4688568,39.604538",
   "lat": 24.4688568,
   "lng": 39.604538,
   "halalFriendly": false,
   "bookingUrl": "https://maps.google.com/?q=24.4688568,39.604538",
   "source": "osm"
  },
  {
   "nom": "فندق مكارم برج المدينة",
   "categorie": "Hôtel",
   "priceRange": "€€",
   "mapsUrl": "https://maps.google.com/?q=24.4721612,39.6103066",
   "lat": 24.4721612,
   "lng": 39.6103066,
   "halalFriendly": false,
   "bookingUrl": "https://maps.google.com/?q=24.4721612,39.6103066",
   "source": "osm"
  },
  {
   "nom": "فندق المنى",
   "categorie": "Hôtel",
   "priceRange": "€€",
   "mapsUrl": "https://maps.google.com/?q=24.4666104,39.6000923",
   "lat": 24.4666104,
   "lng": 39.6000923,
   "halalFriendly": false,
   "bookingUrl": "https://maps.google.com/?q=24.4666104,39.6000923",
   "source": "osm"
  },
  {
   "nom": "فندق رياض الزهراء",
   "categorie": "Hôtel",
   "priceRange": "€€",
   "mapsUrl": "https://maps.google.com/?q=24.4686045,39.6042795",
   "lat": 24.4686045,
   "lng": 39.6042795,
   "halalFriendly": false,
   "bookingUrl": "https://maps.google.com/?q=24.4686045,39.6042795",
   "source": "osm"
  },
  {
   "nom": "فندق دار النعيم",
   "categorie": "Hôtel",
   "priceRange": "€€",
   "score": 2,
   "mapsUrl": "https://maps.google.com/?q=24.4735431,39.6124647",
   "lat": 24.4735431,
   "lng": 39.6124647,
   "halalFriendly": false,
   "bookingUrl": "https://maps.google.com/?q=24.4735431,39.6124647",
   "source": "osm"
  },
  {
   "nom": "فندق المختارة الغربي",
   "categorie": "Hôtel",
   "priceRange": "€€€",
   "score": 3,
   "mapsUrl": "https://maps.google.com/?q=24.4681419,39.6035666",
   "lat": 24.4681419,
   "lng": 39.6035666,
   "halalFriendly": false,
   "bookingUrl": "https://maps.google.com/?q=24.4681419,39.6035666",
   "source": "osm"
  },
  {
   "nom": "فندق امجاد الغراء",
   "categorie": "Hôtel",
   "priceRange": "€€€",
   "score": 3.5,
   "mapsUrl": "https://maps.google.com/?q=24.4682729,39.60388",
   "lat": 24.4682729,
   "lng": 39.60388,
   "halalFriendly": false,
   "bookingUrl": "https://maps.google.com/?q=24.4682729,39.60388",
   "source": "osm"
  },
  {
   "nom": "فندق ديار التقوى",
   "categorie": "Hôtel",
   "priceRange": "€€",
   "mapsUrl": "https://maps.google.com/?q=24.4686003,39.6045503",
   "lat": 24.4686003,
   "lng": 39.6045503,
   "halalFriendly": false,
   "bookingUrl": "https://maps.google.com/?q=24.4686003,39.6045503",
   "source": "osm"
  },
  {
   "nom": "المدينة الكريمة",
   "categorie": "Hôtel",
   "priceRange": "€€",
   "mapsUrl": "https://maps.google.com/?q=24.4743487,39.6138088",
   "lat": 24.4743487,
   "lng": 39.6138088,
   "halalFriendly": false,
   "bookingUrl": "https://maps.google.com/?q=24.4743487,39.6138088",
   "source": "osm"
  },
  {
   "nom": "فندق كرم الخير",
   "categorie": "Hôtel",
   "priceRange": "€€",
   "mapsUrl": "https://maps.google.com/?q=24.4683945,39.6042646",
   "lat": 24.4683945,
   "lng": 39.6042646,
   "halalFriendly": false,
   "bookingUrl": "https://maps.google.com/?q=24.4683945,39.6042646",
   "source": "osm"
  },
  {
   "nom": "فندق أرجوان السعادة",
   "categorie": "Hôtel",
   "priceRange": "€€",
   "mapsUrl": "https://maps.google.com/?q=24.467745,39.6030634",
   "lat": 24.467745,
   "lng": 39.6030634,
   "halalFriendly": false,
   "bookingUrl": "https://maps.google.com/?q=24.467745,39.6030634",
   "source": "osm"
  },
  {
   "nom": "فندق واجهة طيبة",
   "categorie": "Hôtel",
   "priceRange": "€€€",
   "score": 3.5,
   "mapsUrl": "https://maps.google.com/?q=24.4713456,39.609532",
   "lat": 24.4713456,
   "lng": 39.609532,
   "halalFriendly": false,
   "bookingUrl": "https://www.taibaaracsuite.com/",
   "source": "osm"
  },
  {
   "nom": "فندق كيان العالمي",
   "categorie": "Hôtel",
   "priceRange": "€€€",
   "score": 3,
   "mapsUrl": "https://maps.google.com/?q=24.4735074,39.6127955",
   "lat": 24.4735074,
   "lng": 39.6127955,
   "halalFriendly": false,
   "bookingUrl": "https://maps.google.com/?q=24.4735074,39.6127955",
   "source": "osm"
  },
  {
   "nom": "فندق أركان الذهبي",
   "categorie": "Hôtel",
   "priceRange": "€€",
   "mapsUrl": "https://maps.google.com/?q=24.4730281,39.6121298",
   "lat": 24.4730281,
   "lng": 39.6121298,
   "halalFriendly": false,
   "bookingUrl": "https://maps.google.com/?q=24.4730281,39.6121298",
   "source": "osm"
  },
  {
   "nom": "فندق المدينة هيلتون",
   "categorie": "Hôtel",
   "priceRange": "€€€€",
   "score": 5,
   "mapsUrl": "https://maps.google.com/?q=24.4721096,39.6107978",
   "lat": 24.4721096,
   "lng": 39.6107978,
   "halalFriendly": false,
   "bookingUrl": "https://www.hilton.com/en/hotels/medhihi-madinah-hilton/",
   "source": "osm"
  },
  {
   "nom": "فندق سبال بلس",
   "categorie": "Hôtel",
   "priceRange": "€€",
   "score": 2,
   "mapsUrl": "https://maps.google.com/?q=24.4677458,39.6033317",
   "lat": 24.4677458,
   "lng": 39.6033317,
   "halalFriendly": false,
   "bookingUrl": "https://maps.google.com/?q=24.4677458,39.6033317",
   "source": "osm"
  },
  {
   "nom": "فندق رؤى العالمي",
   "categorie": "Hôtel",
   "priceRange": "€€",
   "mapsUrl": "https://maps.google.com/?q=24.4730294,39.6124458",
   "lat": 24.4730294,
   "lng": 39.6124458,
   "halalFriendly": false,
   "bookingUrl": "https://maps.google.com/?q=24.4730294,39.6124458",
   "source": "osm"
  },
  {
   "nom": "فندق روضة العقيق",
   "categorie": "Hôtel",
   "priceRange": "€€€",
   "score": 3.5,
   "mapsUrl": "https://maps.google.com/?q=24.4681848,39.6043887",
   "lat": 24.4681848,
   "lng": 39.6043887,
   "halalFriendly": false,
   "bookingUrl": "https://maps.google.com/?q=24.4681848,39.6043887",
   "source": "osm"
  },
  {
   "nom": "فندق سنابل المدينة",
   "categorie": "Hôtel",
   "priceRange": "€€",
   "mapsUrl": "https://maps.google.com/?q=24.4727874,39.6121427",
   "lat": 24.4727874,
   "lng": 39.6121427,
   "halalFriendly": false,
   "bookingUrl": "https://maps.google.com/?q=24.4727874,39.6121427",
   "source": "osm"
  },
  {
   "nom": "فندق وفادة الزهراء",
   "categorie": "Hôtel",
   "priceRange": "€€",
   "score": 2,
   "mapsUrl": "https://maps.google.com/?q=24.4677425,39.6035952",
   "lat": 24.4677425,
   "lng": 39.6035952,
   "halalFriendly": false,
   "bookingUrl": "https://maps.google.com/?q=24.4677425,39.6035952",
   "source": "osm"
  },
  {
   "nom": "فندق طيبة هيلز",
   "categorie": "Hôtel",
   "priceRange": "€€",
   "mapsUrl": "https://maps.google.com/?q=24.4677443,39.6038636",
   "lat": 24.4677443,
   "lng": 39.6038636,
   "halalFriendly": false,
   "bookingUrl": "https://maps.google.com/?q=24.4677443,39.6038636",
   "source": "osm"
  }
 ],
 "activites": [
  {
   "nom": "قصر سعيد بن العاص الأثري",
   "lat": 24.4865563,
   "lng": 39.5677499,
   "coordonnees": {
    "lat": 24.4865563,
    "lng": 39.5677499
   },
   "categorie": "Histoire",
   "mapsUrl": "https://maps.google.com/?q=24.4865563,39.5677499",
   "source": "osm"
  },
  {
   "nom": "Saudi Palm",
   "lat": 24.5238393,
   "lng": 39.5270716,
   "coordonnees": {
    "lat": 24.5238393,
    "lng": 39.5270716
   },
   "categorie": "À voir",
   "mapsUrl": "https://maps.google.com/?q=24.5238393,39.5270716",
   "source": "osm"
  },
  {
   "nom": "البوابة الشمالية بقسم شطر الطالبات",
   "lat": 24.4906833,
   "lng": 39.5497506,
   "coordonnees": {
    "lat": 24.4906833,
    "lng": 39.5497506
   },
   "categorie": "Histoire",
   "mapsUrl": "https://maps.google.com/?q=24.4906833,39.5497506",
   "source": "osm"
  },
  {
   "nom": "اسراحة النخبة",
   "lat": 24.5680916,
   "lng": 39.6052379,
   "coordonnees": {
    "lat": 24.5680916,
    "lng": 39.6052379
   },
   "categorie": "À voir",
   "mapsUrl": "https://maps.google.com/?q=24.5680916,39.6052379",
   "source": "osm"
  },
  {
   "nom": "باب المجيدي - 12, 13, 14 - مدخل النساء",
   "lat": 24.4694812,
   "lng": 39.6091622,
   "coordonnees": {
    "lat": 24.4694812,
    "lng": 39.6091622
   },
   "categorie": "Histoire",
   "mapsUrl": "https://maps.google.com/?q=24.4694812,39.6091622",
   "source": "osm"
  },
  {
   "nom": "باب عمر بن الخطاب 16, 17 - مدخل النساء",
   "lat": 24.4699252,
   "lng": 39.6099172,
   "coordonnees": {
    "lat": 24.4699252,
    "lng": 39.6099172
   },
   "categorie": "Histoire",
   "mapsUrl": "https://maps.google.com/?q=24.4699252,39.6099172",
   "source": "osm"
  },
  {
   "nom": "باب الملك فهد - 20, 21, 22",
   "lat": 24.4699247,
   "lng": 39.6111565,
   "coordonnees": {
    "lat": 24.4699247,
    "lng": 39.6111565
   },
   "categorie": "Histoire",
   "mapsUrl": "https://maps.google.com/?q=24.4699247,39.6111565",
   "source": "osm"
  },
  {
   "nom": "باب الملك سعود - 7, 8, 9",
   "lat": 24.468265,
   "lng": 39.6091518,
   "coordonnees": {
    "lat": 24.468265,
    "lng": 39.6091518
   },
   "categorie": "Histoire",
   "mapsUrl": "https://maps.google.com/?q=24.468265,39.6091518",
   "source": "osm"
  },
  {
   "nom": "باب عثمان بن عفان - 24, 25, 26 - مدخل النساء",
   "lat": 24.46994,
   "lng": 39.6123761,
   "coordonnees": {
    "lat": 24.46994,
    "lng": 39.6123761
   },
   "categorie": "Histoire",
   "mapsUrl": "https://maps.google.com/?q=24.46994,39.6123761",
   "source": "osm"
  },
  {
   "nom": "باب قباء - 5",
   "lat": 24.4677551,
   "lng": 39.6099202,
   "coordonnees": {
    "lat": 24.4677551,
    "lng": 39.6099202
   },
   "categorie": "Histoire",
   "mapsUrl": "https://maps.google.com/?q=24.4677551,39.6099202",
   "source": "osm"
  },
  {
   "nom": "باب علي بن أبو طالب - 28 , 29, 30 - مدخل النساء",
   "lat": 24.4694554,
   "lng": 39.613162,
   "coordonnees": {
    "lat": 24.4694554,
    "lng": 39.613162
   },
   "categorie": "Histoire",
   "mapsUrl": "https://maps.google.com/?q=24.4694554,39.613162",
   "source": "osm"
  },
  {
   "nom": "باب النساء - 39",
   "lat": 24.4678205,
   "lng": 39.6115451,
   "coordonnees": {
    "lat": 24.4678205,
    "lng": 39.6115451
   },
   "categorie": "Histoire",
   "mapsUrl": "https://maps.google.com/?q=24.4678205,39.6115451",
   "source": "osm"
  },
  {
   "nom": "معرض عمارة المسجد النبوي",
   "lat": 24.4658863,
   "lng": 39.6086802,
   "coordonnees": {
    "lat": 24.4658863,
    "lng": 39.6086802
   },
   "categorie": "Culture",
   "mapsUrl": "https://maps.google.com/?q=24.4658863,39.6086802",
   "source": "osm"
  },
  {
   "nom": "باب الملك عبدالعزيز - 33, 34, 35",
   "lat": 24.4682758,
   "lng": 39.613198,
   "coordonnees": {
    "lat": 24.4682758,
    "lng": 39.613198
   },
   "categorie": "Histoire",
   "mapsUrl": "https://maps.google.com/?q=24.4682758,39.613198",
   "source": "osm"
  },
  {
   "nom": "باب مكة - 37",
   "lat": 24.4677688,
   "lng": 39.6124748,
   "coordonnees": {
    "lat": 24.4677688,
    "lng": 39.6124748
   },
   "categorie": "Histoire",
   "mapsUrl": "https://maps.google.com/?q=24.4677688,39.6124748",
   "source": "osm"
  },
  {
   "nom": "مركز كوكب البولينج",
   "lat": 24.4882048,
   "lng": 39.6465212,
   "coordonnees": {
    "lat": 24.4882048,
    "lng": 39.6465212
   },
   "categorie": "À voir",
   "mapsUrl": "https://maps.google.com/?q=24.4882048,39.6465212",
   "source": "osm"
  },
  {
   "nom": "Work",
   "lat": 24.4871144,
   "lng": 39.6530866,
   "coordonnees": {
    "lat": 24.4871144,
    "lng": 39.6530866
   },
   "categorie": "À voir",
   "mapsUrl": "https://maps.google.com/?q=24.4871144,39.6530866",
   "source": "osm"
  },
  {
   "nom": "Adilla Maktab wukla",
   "lat": 24.4383809,
   "lng": 39.602725,
   "coordonnees": {
    "lat": 24.4383809,
    "lng": 39.602725
   },
   "categorie": "À voir",
   "mapsUrl": "https://maps.google.com/?q=24.4383809,39.602725",
   "source": "osm"
  },
  {
   "nom": "حديقة الزهور",
   "lat": 24.4611213,
   "lng": 39.6419913,
   "coordonnees": {
    "lat": 24.4611213,
    "lng": 39.6419913
   },
   "categorie": "Nature",
   "mapsUrl": "https://maps.google.com/?q=24.4611213,39.6419913",
   "source": "osm"
  },
  {
   "nom": "محطة مخيط - قطار الحجاز",
   "lat": 24.4975651,
   "lng": 39.4695211,
   "coordonnees": {
    "lat": 24.4975651,
    "lng": 39.4695211
   },
   "categorie": "Histoire",
   "mapsUrl": "https://maps.google.com/?q=24.4975651,39.4695211",
   "source": "osm"
  },
  {
   "nom": "مزرعة سلمان الفارسي المحمدي",
   "lat": 24.4465897,
   "lng": 39.6315533,
   "coordonnees": {
    "lat": 24.4465897,
    "lng": 39.6315533
   },
   "categorie": "À voir",
   "mapsUrl": "https://maps.google.com/?q=24.4465897,39.6315533",
   "source": "osm"
  },
  {
   "nom": "مكتب ابو عبدالله الجابري المدينة",
   "lat": 24.4526307,
   "lng": 39.6542079,
   "coordonnees": {
    "lat": 24.4526307,
    "lng": 39.6542079
   },
   "categorie": "Culture",
   "mapsUrl": "https://maps.google.com/?q=24.4526307,39.6542079",
   "source": "osm"
  },
  {
   "nom": "حديقة العوالي",
   "lat": 24.4330542,
   "lng": 39.6321462,
   "coordonnees": {
    "lat": 24.4330542,
    "lng": 39.6321462
   },
   "categorie": "Nature",
   "mapsUrl": "https://maps.google.com/?q=24.4330542,39.6321462",
   "source": "osm"
  },
  {
   "nom": "منتزه المدينة البري",
   "lat": 24.5911537,
   "lng": 39.4264306,
   "coordonnees": {
    "lat": 24.5911537,
    "lng": 39.4264306
   },
   "categorie": "Nature",
   "mapsUrl": "https://maps.google.com/?q=24.5911537,39.4264306",
   "source": "osm"
  }
 ],
 "road_trips": [
  {
   "id": "rt1",
   "titre": "Circuit Islamique Hijaz Complet",
   "emoji": "🕌",
   "duree": "7 jours",
   "distance_km": 800,
   "difficulte": "Facile",
   "budget_estime_eur": "500-800€",
   "etapes": [
    {
     "ville": "Médine",
     "nuits": 3,
     "highlights": [
      "Masjid al-Nabawi",
      "Quba",
      "Uhud",
      "Al-Baqi"
     ]
    },
    {
     "ville": "La Mecque",
     "nuits": 3,
     "highlights": [
      "Tawaf Kaaba",
      "Safa-Marwa",
      "Zamzam",
      "Jabal al-Nour"
     ]
    },
    {
     "ville": "Djeddah",
     "nuits": 1,
     "highlights": [
      "Vieille ville UNESCO",
      "Corniche",
      "Mosquée Flottante"
     ]
    }
   ],
   "conseils_halal": "Package Omra classique — agences françaises proposent ce circuit clé-en-main avec guide francophone.",
   "tags": [
    "Omra",
    "Hijaz",
    "Complet"
   ]
  },
  {
   "id": "rt2",
   "titre": "Sur les pas de la Bataille de Badr",
   "emoji": "⚔️",
   "duree": "2 jours",
   "distance_km": 200,
   "difficulte": "Facile",
   "budget_estime_eur": "80-150€",
   "etapes": [
    {
     "ville": "Médine",
     "nuits": 1,
     "highlights": [
      "Départ pour Badr"
     ]
    },
    {
     "ville": "Badr",
     "nuits": 1,
     "highlights": [
      "Puits de Badr",
      "Cimetière des Martyrs de Badr 624",
      "Mosquée Asfan"
     ]
    }
   ],
   "conseils_halal": "Excursion historique depuis Médine. Route halal, restaurants sur l'autoroute.",
   "tags": [
    "Badr",
    "Bataille",
    "Historique"
   ]
  },
  {
   "id": "rt3",
   "titre": "Médine — Khaybar — Al-Ula",
   "emoji": "🏜️",
   "duree": "3 jours",
   "distance_km": 500,
   "difficulte": "Aventureux",
   "budget_estime_eur": "200-350€",
   "etapes": [
    {
     "ville": "Médine",
     "nuits": 1,
     "highlights": [
      "Départ matin"
     ]
    },
    {
     "ville": "Khaybar",
     "nuits": 1,
     "highlights": [
      "Forteresses juives de Khaybar (628)",
      "Oasis palmiers",
      "Paysage volcanique"
     ]
    },
    {
     "ville": "Al-Ula",
     "nuits": 1,
     "highlights": [
      "Hégra (Madâin Sâlih) nabatéen UNESCO",
      "Al-Ula historique",
      "Désert de Hisma"
     ]
    }
   ],
   "conseils_halal": "Toute la route est 100% halal. Al-Ula a des restaurants récents depuis le développement touristique Vision 2030.",
   "tags": [
    "Désert",
    "Khaybar",
    "Al-Ula"
   ]
  }
 ],
 "voyages_par_type": {
  "en_couple": {
   "emoji": "💑",
   "couleur": "#e91e8c",
   "intro": "Médine pour un couple de musulmans représente l'acte de piété conjugale ultime — faire ses salutations au Prophète ﷺ ensemble, prier côte à côte dans sa mosquée et partager les dattes Ajwa de sa propre terre.",
   "top_experiences": [
    {
     "titre": "Prière commune au Nabawi",
     "details": "Dans la mosquée du Prophète, hommes et femmes séparés mais ensemble",
     "prix": "Gratuit"
    },
    {
     "titre": "Coucher de soleil au Dôme Vert",
     "details": "Moment de recueillement et de reconnaissance",
     "prix": "Gratuit"
    },
    {
     "titre": "Dattes Ajwa à la palmeraie",
     "details": "Offrir les dattes du Prophète à son épouse",
     "prix": "20€"
    }
   ],
   "hotels_recommandes": [
    "Anwar Al Madinah Mövenpick",
    "Oberoi Médine"
   ],
   "conseils": "Couples mariés — preuve de mariage recommandée aux hôtels. Chambre double légale pour époux."
  },
  "en_famille": {
   "emoji": "👨‍👩‍👧‍👦",
   "couleur": "#4CAF50",
   "intro": "Emmener ses enfants à Médine est transmettre l'amour du Prophète ﷺ de génération en génération — leur faire visiter sa mosquée, voir son Dôme Vert et boire l'eau Zamzam.",
   "top_experiences": [
    {
     "titre": "Voir le Dôme Vert ensemble",
     "details": "L'émerveiller de la Grande Mosquée pour les enfants",
     "prix": "Gratuit"
    },
    {
     "titre": "Masjid Quba en famille",
     "details": "La première mosquée de l'Islam",
     "prix": "Gratuit"
    },
    {
     "titre": "Dattes Ajwa les enfants adorent",
     "details": "Les plus douces et meilleures du monde",
     "prix": "5€"
    }
   ],
   "hotels_recommandes": [
    "Dar Al Iman Hotel",
    "InterContinental Dar Al Hijra"
   ],
   "conseils": "Poussettes autorisées dans le Haram. Espace familial dans les hôtels. La mosquée est très accessible avec enfants."
  },
  "entre_amis": {
   "emoji": "👫",
   "couleur": "#9C27B0",
   "intro": "Un groupe d'amis à Médine pour l'Omra — frères et soeurs en Islam qui accomplissent ensemble un acte de dévotion, se soutiennent mutuellement et créent des souvenirs à vie.",
   "top_experiences": [
    {
     "titre": "Tahajjud de nuit ensemble",
     "details": "Prière nocturne volontaire dans la mosquée du Prophète",
     "prix": "Gratuit"
    },
    {
     "titre": "Tour des mosquées historiques",
     "details": "Quba, Qiblatayn, Al-Fath, Ghamama",
     "prix": "Gratuit"
    },
    {
     "titre": "Dîner halal group Mandi",
     "details": "Grand plateau partagé — tradition islamique",
     "prix": "10€/pers"
    }
   ],
   "conseils": "Les groupes de femmes sans mahram sont légaux pour l'Omra (réformes 2021). Agences françaises spécialisées groupes."
  },
  "voyage_solo": {
   "emoji": "🎒",
   "couleur": "#FF9800",
   "intro": "L'Omra en solo est souvent le voyage le plus transformateur d'une vie. Seul face au tombeau du Prophète ﷺ, seul dans Al-Rawdah, les pleurs viennent naturellement.",
   "top_experiences": [
    {
     "titre": "Itikaf d'une nuit au Nabawi",
     "details": "Rester jusqu'à l'aube en prière et récitation",
     "prix": "Gratuit"
    },
    {
     "titre": "Marcher seul vers Quba samedi",
     "details": "Reproduire la marche du Prophète",
     "prix": "Gratuit"
    },
    {
     "titre": "Écrire ses du'as à Al-Rawdah",
     "details": "Supplications personnelles écrites et lues",
     "prix": "Gratuit"
    }
   ],
   "conseil_securite": "Médine est très sûre. La police religieuse est bienveillante. Garder visa et passeport sur soi."
  },
  "voyage_spirituel": {
   "emoji": "🕌",
   "couleur": "#2196F3",
   "intro": "Médine EST la destination spirituelle islamique absolue après La Mecque. Voir la mosquée du Prophète ﷺ, se tenir sur sa terre bénie et lui offrir ses salutations — l'objectif de toute une vie.",
   "top_experiences": [
    {
     "titre": "Salutation au Prophète ﷺ (Al-Rawdah)",
     "details": "Salam sur le Prophète, Abu Bakr et Omar",
     "prix": "Gratuit (réservation Nusuk)"
    },
    {
     "titre": "40 prières consécutives au Nabawi",
     "details": "40 Salah sans absence — récompense de la protection du Prophète",
     "prix": "Gratuit"
    },
    {
     "titre": "Lire Surah Yassin au cimetière Al-Baqi",
     "details": "Pour les défunts des Sahaba et de la famille du Prophète",
     "prix": "Gratuit"
    }
   ],
   "conseil_pratique": "Prévoir minimum 8 jours à Médine pour les 40 prières consécutives (Arba'een). La plupart des packages Omra incluent Médine avant ou après La Mecque."
  }
 },
 "boucheries": [],
 "boulangeries": [
  {
   "id": "bo1",
   "nom": "Khobz Taboon (four en terre)",
   "adresse": "Old Quarter, Médine",
   "quartier": "Vieille ville",
   "description": "Pain taboon (four en terre) médinois — pain plat cuit sur galets de basalte volcanique, tradition millénaire.",
   "specialites": [
    "Khobz taboon volcanique",
    "Regheef saoudien",
    "Khameer au sucre"
   ],
   "prix": "0.50-2 SAR",
   "horaires": "5h-21h",
   "note": 4.7
  },
  {
   "id": "bo2",
   "nom": "Bakery Al-Nour",
   "adresse": "Haram Area",
   "quartier": "Haram",
   "description": "Boulangerie ouverte 24h/24 pendant Ramadan et Hajj — sandwichs et viennoiseries halal pour pèlerins.",
   "specialites": [
    "Croissant halal",
    "Pain de mie",
    "Brioche dattes"
   ],
   "prix": "2-8 SAR",
   "horaires": "5h-midnight (24h Ramadan)",
   "note": 4.3
  },
  {
   "id": "bo3",
   "nom": "Ma'amoul Specialist Al-Madinah",
   "adresse": "King Abdul Aziz Road",
   "quartier": "Centre",
   "description": "Spécialiste des ma'amoul — biscuits fourrés dattes, pistaches ou noix, le biscuit islamique traditionnel offert à l'Aïd.",
   "specialites": [
    "Ma'amoul dattes",
    "Ma'amoul pistache",
    "Kaak anis"
   ],
   "prix": "20-80 SAR/boite",
   "horaires": "9h-22h",
   "note": 4.6
  },
  {
   "id": "bo4",
   "nom": "Mekki Sweets",
   "adresse": "Anbariya, Médine",
   "quartier": "Anbariya",
   "specialites": [
    "Halwa médine",
    "Zlabia",
    "Basboussa semoule"
   ],
   "prix": "5-25 SAR",
   "horaires": "8h-midnight",
   "note": 4.4
  },
  {
   "id": "bo5",
   "nom": "Tamr Al-Hilwa (Dattes sucrées)",
   "adresse": "Haram Mall, Médine",
   "quartier": "Haram",
   "description": "Boutique de dattes transformées — dattes enrobées chocolat halal, dattes fourrées amandes, dattes au safran.",
   "specialites": [
    "Dattes chocolat",
    "Dattes amandes",
    "Dattes Ajwa premium"
   ],
   "prix": "30-200 SAR",
   "horaires": "10h-midnight",
   "note": 4.8
  }
 ],
 "articles_lies": [
  "guide-omra-debutant",
  "medine-ziyara-sites",
  "dattes-ajwa-bienfaits"
 ],
 "villes_proches": [
  "la-mecque",
  "djeddah"
 ],
 "destinations_combiner": [
  {
   "ville": "La Mecque",
   "distance_km": 450,
   "raison": "Combinaison obligatoire — package Omra inclut toujours les deux villes saintes"
  },
  {
   "ville": "Djeddah",
   "distance_km": 430,
   "raison": "Porte d'entrée via l'aéroport, ville moderne avec restaurants et shopping"
  },
  {
   "ville": "Badr",
   "distance_km": 155,
   "raison": "Site de la première grande bataille de l'Islam (624) — excursion historique d'une journée"
  }
 ],
 "conseils_halal": "Médine est 100% halal et islamique — la ville du Prophète ﷺ lui-même. Tout alcool, porc ou comportement contraire à l'Islam est strictement interdit et puni. La ville est parmi les plus propres et les plus sûres du monde. Conseil essentiel : arriver en état de pureté (wudhu), avoir ses supplications prêtes, et emporter des livres de du'as recommandées.",
 "codeISO": "SA",
 "image": "https://images.unsplash.com/photo-1591604129939-f1efa4d9f7fa?w=1600&q=80",
 "continent": "Asie",
 "metaDescription": "Restaurants halal signalés, mosquées et guide pratique pour Médine — Halal Trust Score 5/5.",
 "mosqueesPrincipales": [
  {
   "nom": "مسجد بدري العتيبي",
   "lat": 24.4917212,
   "lng": 39.575975,
   "coordonnees": {
    "lat": 24.4917212,
    "lng": 39.575975
   },
   "mapsUrl": "https://maps.google.com/?q=24.4917212,39.575975",
   "source": "osm"
  },
  {
   "nom": "مسجد المسند",
   "lat": 24.4830034,
   "lng": 39.5800089,
   "coordonnees": {
    "lat": 24.4830034,
    "lng": 39.5800089
   },
   "mapsUrl": "https://maps.google.com/?q=24.4830034,39.5800089",
   "source": "osm"
  },
  {
   "nom": "مسجد المحطة",
   "lat": 24.4754969,
   "lng": 39.5548299,
   "coordonnees": {
    "lat": 24.4754969,
    "lng": 39.5548299
   },
   "mapsUrl": "https://maps.google.com/?q=24.4754969,39.5548299",
   "source": "osm"
  },
  {
   "nom": "مسجد داخل المجمع",
   "lat": 24.457995,
   "lng": 39.61441,
   "coordonnees": {
    "lat": 24.457995,
    "lng": 39.61441
   },
   "mapsUrl": "https://maps.google.com/?q=24.457995,39.61441",
   "source": "osm"
  },
  {
   "nom": "مسجد زينل - حسن مفتي",
   "lat": 24.4490166,
   "lng": 39.6150818,
   "coordonnees": {
    "lat": 24.4490166,
    "lng": 39.6150818
   },
   "mapsUrl": "https://maps.google.com/?q=24.4490166,39.6150818",
   "source": "osm"
  },
  {
   "nom": "مسجد شيخ العمري",
   "lat": 24.4563778,
   "lng": 39.6282323,
   "coordonnees": {
    "lat": 24.4563778,
    "lng": 39.6282323
   },
   "mapsUrl": "https://maps.google.com/?q=24.4563778,39.6282323",
   "source": "osm"
  },
  {
   "nom": "مسجد سليمان حامد الأحمدي",
   "lat": 24.4485264,
   "lng": 39.6209335,
   "coordonnees": {
    "lat": 24.4485264,
    "lng": 39.6209335
   },
   "mapsUrl": "https://maps.google.com/?q=24.4485264,39.6209335",
   "source": "osm"
  },
  {
   "nom": "مصلى",
   "lat": 24.4473553,
   "lng": 39.6212959,
   "coordonnees": {
    "lat": 24.4473553,
    "lng": 39.6212959
   },
   "mapsUrl": "https://maps.google.com/?q=24.4473553,39.6212959",
   "source": "osm"
  },
  {
   "nom": "مسجد الشيخ هديبان الحيسوني",
   "lat": 24.4617942,
   "lng": 39.6440661,
   "coordonnees": {
    "lat": 24.4617942,
    "lng": 39.6440661
   },
   "mapsUrl": "https://maps.google.com/?q=24.4617942,39.6440661",
   "source": "osm"
  },
  {
   "nom": "مسجد قباء",
   "lat": 24.4395969,
   "lng": 39.6172632,
   "coordonnees": {
    "lat": 24.4395969,
    "lng": 39.6172632
   },
   "mapsUrl": "https://maps.google.com/?q=24.4395969,39.6172632",
   "source": "osm"
  },
  {
   "nom": "مسجد الإحسان",
   "lat": 24.4243009,
   "lng": 39.5776634,
   "coordonnees": {
    "lat": 24.4243009,
    "lng": 39.5776634
   },
   "mapsUrl": "https://maps.google.com/?q=24.4243009,39.5776634",
   "source": "osm"
  },
  {
   "nom": "مسجد الهداية",
   "lat": 24.4338811,
   "lng": 39.6323621,
   "coordonnees": {
    "lat": 24.4338811,
    "lng": 39.6323621
   },
   "mapsUrl": "https://maps.google.com/?q=24.4338811,39.6323621",
   "source": "osm"
  },
  {
   "nom": "مسجد الحكمة",
   "lat": 24.4316735,
   "lng": 39.6350348,
   "coordonnees": {
    "lat": 24.4316735,
    "lng": 39.6350348
   },
   "mapsUrl": "https://maps.google.com/?q=24.4316735,39.6350348",
   "source": "osm"
  },
  {
   "nom": "مسجد السديس بالمدينة المنورة",
   "lat": 24.4269592,
   "lng": 39.6522711,
   "coordonnees": {
    "lat": 24.4269592,
    "lng": 39.6522711
   },
   "mapsUrl": "https://maps.google.com/?q=24.4269592,39.6522711",
   "source": "osm"
  },
  {
   "id": "osm-65541892",
   "nom": "مسجد الحارة",
   "type": "mosquee",
   "lat": 24.4541858,
   "lng": 39.670577,
   "mapsUrl": "https://maps.google.com/?q=24.4541858,39.670577",
   "source": "osm"
  },
  {
   "id": "osm-65542091",
   "nom": "مسجد بلال بن رباح",
   "type": "mosquee",
   "adresse": "المدينة المنورة",
   "lat": 24.4615076,
   "lng": 39.6118112,
   "mapsUrl": "https://maps.google.com/?q=24.4615076,39.6118112",
   "source": "osm"
  },
  {
   "id": "osm-65542630",
   "nom": "مسجد بن لادن",
   "type": "mosquee",
   "lat": 24.4533298,
   "lng": 39.6122492,
   "mapsUrl": "https://maps.google.com/?q=24.4533298,39.6122492",
   "source": "osm"
  },
  {
   "id": "osm-65543011",
   "nom": "مسجد ام المومنین",
   "type": "mosquee",
   "lat": 24.4387229,
   "lng": 39.6615382,
   "mapsUrl": "https://maps.google.com/?q=24.4387229,39.6615382",
   "source": "osm"
  },
  {
   "id": "osm-65543164",
   "nom": "مسجد انس ابن مالك",
   "type": "mosquee",
   "lat": 24.4564837,
   "lng": 39.6611083,
   "mapsUrl": "https://maps.google.com/?q=24.4564837,39.6611083",
   "source": "osm"
  },
  {
   "id": "osm-65543251",
   "nom": "مسجد الرضوان",
   "type": "mosquee",
   "lat": 24.43802,
   "lng": 39.6347827,
   "mapsUrl": "https://maps.google.com/?q=24.43802,39.6347827",
   "source": "osm"
  },
  {
   "id": "osm-66104067",
   "nom": "مسجد بني حرام",
   "type": "mosquee",
   "lat": 24.4731454,
   "lng": 39.5972687,
   "mapsUrl": "https://maps.google.com/?q=24.4731454,39.5972687",
   "source": "osm"
  },
  {
   "id": "osm-66104178",
   "nom": "مسجد السلام",
   "type": "mosquee",
   "lat": 24.4809477,
   "lng": 39.5862724,
   "mapsUrl": "https://maps.google.com/?q=24.4809477,39.5862724",
   "source": "osm"
  },
  {
   "id": "osm-66509862",
   "nom": "مسجدالبلوی",
   "type": "mosquee",
   "lat": 24.4749567,
   "lng": 39.5594086,
   "mapsUrl": "https://maps.google.com/?q=24.4749567,39.5594086",
   "source": "osm"
  },
  {
   "id": "osm-66510051",
   "nom": "مسجدالجربوع",
   "type": "mosquee",
   "lat": 24.4721087,
   "lng": 39.5610871,
   "mapsUrl": "https://maps.google.com/?q=24.4721087,39.5610871",
   "source": "osm"
  },
  {
   "id": "osm-66510098",
   "nom": "مسجد القبلتين",
   "type": "mosquee",
   "lat": 24.4841569,
   "lng": 39.5788111,
   "mapsUrl": "https://maps.google.com/?q=24.4841569,39.5788111",
   "source": "osm"
  },
  {
   "id": "osm-67397092",
   "nom": "Masjid Al-Amer مسجد العامر",
   "type": "mosquee",
   "lat": 24.4962225,
   "lng": 39.5872855,
   "mapsUrl": "https://maps.google.com/?q=24.4962225,39.5872855",
   "source": "osm"
  },
  {
   "id": "osm-67738096",
   "nom": "مسجد المهاجرین",
   "type": "mosquee",
   "lat": 24.4296468,
   "lng": 39.5898581,
   "mapsUrl": "https://maps.google.com/?q=24.4296468,39.5898581",
   "source": "osm"
  },
  {
   "id": "osm-67738100",
   "nom": "مسجد الهجره",
   "type": "mosquee",
   "lat": 24.4299131,
   "lng": 39.5805725,
   "mapsUrl": "https://maps.google.com/?q=24.4299131,39.5805725",
   "source": "osm"
  },
  {
   "id": "osm-67738102",
   "nom": "مسجد نور کاتب",
   "type": "mosquee",
   "lat": 24.4268998,
   "lng": 39.5792883,
   "mapsUrl": "https://maps.google.com/?q=24.4268998,39.5792883",
   "source": "osm"
  },
  {
   "id": "osm-112566260",
   "nom": "Masjid Al-Sab'a",
   "type": "mosquee",
   "lat": 24.4768985,
   "lng": 39.5960329,
   "mapsUrl": "https://maps.google.com/?q=24.4768985,39.5960329",
   "source": "osm"
  },
  {
   "id": "osm-161521148",
   "nom": "مسجد العنبرية",
   "type": "mosquee",
   "lat": 24.4616154,
   "lng": 39.6017162,
   "mapsUrl": "https://maps.google.com/?q=24.4616154,39.6017162",
   "source": "osm"
  },
  {
   "id": "osm-161521149",
   "nom": "مسجد السقيا",
   "type": "mosquee",
   "lat": 24.4608481,
   "lng": 39.6001632,
   "mapsUrl": "https://maps.google.com/?q=24.4608481,39.6001632",
   "source": "osm"
  },
  {
   "id": "osm-161522244",
   "nom": "مسجد أبي ذر الغفاري",
   "type": "mosquee",
   "lat": 24.4756473,
   "lng": 39.6146227,
   "mapsUrl": "https://maps.google.com/?q=24.4756473,39.6146227",
   "source": "osm"
  },
  {
   "id": "osm-302403744",
   "nom": "مسجد الشيخ عبدالعزيز بن باز",
   "type": "mosquee",
   "lat": 24.4812247,
   "lng": 39.5619169,
   "mapsUrl": "https://maps.google.com/?q=24.4812247,39.5619169",
   "source": "osm"
  },
  {
   "id": "osm-310543468",
   "nom": "مسجد الشيخ محمد بن إبراهيم آل الشيخ رحمه الله.",
   "type": "mosquee",
   "lat": 24.4820357,
   "lng": 39.5555303,
   "mapsUrl": "https://maps.google.com/?q=24.4820357,39.5555303",
   "source": "osm"
  },
  {
   "id": "osm-312124465",
   "nom": "مسجد سليمان النزاوي",
   "type": "mosquee",
   "lat": 24.4830739,
   "lng": 39.586231,
   "mapsUrl": "https://maps.google.com/?q=24.4830739,39.586231",
   "source": "osm"
  },
  {
   "id": "osm-312124467",
   "nom": "مسجد دار الهجرة",
   "type": "mosquee",
   "lat": 24.4768541,
   "lng": 39.555117,
   "mapsUrl": "https://maps.google.com/?q=24.4768541,39.555117",
   "source": "osm"
  },
  {
   "id": "osm-312124469",
   "nom": "مسجد عائش براك",
   "type": "mosquee",
   "lat": 24.4735491,
   "lng": 39.5700023,
   "mapsUrl": "https://maps.google.com/?q=24.4735491,39.5700023",
   "source": "osm"
  },
  {
   "id": "osm-346500332",
   "nom": "مسجد الإجابة",
   "type": "mosquee",
   "lat": 24.4719641,
   "lng": 39.6184441,
   "mapsUrl": "https://maps.google.com/?q=24.4719641,39.6184441",
   "source": "osm"
  },
  {
   "id": "osm-349022846",
   "nom": "مسجد والدة عبدالرحمن الربيعان",
   "type": "mosquee",
   "lat": 24.4459027,
   "lng": 39.5994904,
   "mapsUrl": "https://maps.google.com/?q=24.4459027,39.5994904",
   "source": "osm"
  },
  {
   "id": "osm-351428848",
   "nom": "مسجد المنارتين",
   "type": "mosquee",
   "lat": 24.4554371,
   "lng": 39.5934465,
   "mapsUrl": "https://maps.google.com/?q=24.4554371,39.5934465",
   "source": "osm"
  },
  {
   "id": "osm-351428859",
   "nom": "مسجد منيرة بنت صالح الفريان",
   "type": "mosquee",
   "lat": 24.4617291,
   "lng": 39.5830169,
   "mapsUrl": "https://maps.google.com/?q=24.4617291,39.5830169",
   "source": "osm"
  },
  {
   "id": "osm-352785917",
   "nom": "مسجد الأمير عبدالمجيد",
   "type": "mosquee",
   "lat": 24.4876503,
   "lng": 39.5690491,
   "mapsUrl": "https://maps.google.com/?q=24.4876503,39.5690491",
   "source": "osm"
  },
  {
   "id": "osm-357343712",
   "nom": "مسجد الجبولي",
   "type": "mosquee",
   "lat": 24.4671423,
   "lng": 39.5436949,
   "mapsUrl": "https://maps.google.com/?q=24.4671423,39.5436949",
   "source": "osm"
  },
  {
   "id": "osm-357343716",
   "nom": "مسجد محمد الدخيل الشايع",
   "type": "mosquee",
   "lat": 24.4669504,
   "lng": 39.5636008,
   "mapsUrl": "https://maps.google.com/?q=24.4669504,39.5636008",
   "source": "osm"
  },
  {
   "id": "osm-357668755",
   "nom": "مسجد الملك عبد العزيز بن عبد الرحمن آل سعود",
   "type": "mosquee",
   "lat": 24.4578668,
   "lng": 39.5347307,
   "mapsUrl": "https://maps.google.com/?q=24.4578668,39.5347307",
   "source": "osm"
  },
  {
   "id": "osm-357668822",
   "nom": "مسجد قرطلي",
   "type": "mosquee",
   "lat": 24.4593619,
   "lng": 39.5374316,
   "mapsUrl": "https://maps.google.com/?q=24.4593619,39.5374316",
   "source": "osm"
  },
  {
   "id": "osm-369055309",
   "nom": "مسجد الغمامة",
   "type": "mosquee",
   "lat": 24.465808,
   "lng": 39.6069555,
   "mapsUrl": "https://maps.google.com/?q=24.465808,39.6069555",
   "source": "osm"
  },
  {
   "id": "osm-369055316",
   "nom": "مسجد ذو النورين",
   "type": "mosquee",
   "lat": 24.4635929,
   "lng": 39.6095031,
   "mapsUrl": "https://maps.google.com/?q=24.4635929,39.6095031",
   "source": "osm"
  },
  {
   "id": "osm-379815461",
   "nom": "مسجد البخاري",
   "type": "mosquee",
   "lat": 24.4539946,
   "lng": 39.6617133,
   "mapsUrl": "https://maps.google.com/?q=24.4539946,39.6617133",
   "source": "osm"
  },
  {
   "id": "osm-444235531",
   "nom": "مسجد علي بن أبي طالب",
   "type": "mosquee",
   "lat": 24.4669902,
   "lng": 39.6063626,
   "mapsUrl": "https://maps.google.com/?q=24.4669902,39.6063626",
   "source": "osm"
  },
  {
   "id": "osm-444240031",
   "nom": "مسجد سيد الشهداء",
   "type": "mosquee",
   "lat": 24.5034726,
   "lng": 39.6127542,
   "mapsUrl": "https://maps.google.com/?q=24.5034726,39.6127542",
   "source": "osm"
  },
  {
   "id": "osm-456361104",
   "nom": "مسجد الشجرة",
   "type": "mosquee",
   "adresse": "Dhu Al Hulayfah, Medina",
   "lat": 24.4136374,
   "lng": 39.542991,
   "mapsUrl": "https://maps.google.com/?q=24.4136374,39.542991",
   "source": "osm"
  },
  {
   "id": "osm-457205318",
   "nom": "مسجد الخليل",
   "type": "mosquee",
   "lat": 24.4620228,
   "lng": 39.6220828,
   "mapsUrl": "https://maps.google.com/?q=24.4620228,39.6220828",
   "source": "osm"
  },
  {
   "id": "osm-457206795",
   "nom": "مسجد المالحة",
   "type": "mosquee",
   "lat": 24.4595897,
   "lng": 39.6044257,
   "mapsUrl": "https://maps.google.com/?q=24.4595897,39.6044257",
   "source": "osm"
  },
  {
   "id": "osm-457207167",
   "nom": "Masjid Mughaisilah",
   "type": "mosquee",
   "lat": 24.4587411,
   "lng": 39.6046497,
   "mapsUrl": "https://maps.google.com/?q=24.4587411,39.6046497",
   "source": "osm"
  },
  {
   "id": "osm-457208725",
   "nom": "مسجد الهرساني",
   "type": "mosquee",
   "lat": 24.4532239,
   "lng": 39.6024666,
   "mapsUrl": "https://maps.google.com/?q=24.4532239,39.6024666",
   "source": "osm"
  },
  {
   "id": "osm-457209330",
   "nom": "مسجد الكويتي",
   "type": "mosquee",
   "lat": 24.4575064,
   "lng": 39.607635,
   "mapsUrl": "https://maps.google.com/?q=24.4575064,39.607635",
   "source": "osm"
  },
  {
   "id": "osm-457209534",
   "nom": "جامع القمقمجي",
   "type": "mosquee",
   "lat": 24.4606579,
   "lng": 39.6278784,
   "mapsUrl": "https://maps.google.com/?q=24.4606579,39.6278784",
   "source": "osm"
  },
  {
   "id": "osm-457209653",
   "nom": "مسجد العشقي",
   "type": "mosquee",
   "lat": 24.4617797,
   "lng": 39.6250537,
   "mapsUrl": "https://maps.google.com/?q=24.4617797,39.6250537",
   "source": "osm"
  }
 ],
 "halalScore": 9.8,
 "description_en": "Medina, in Saudi Arabia, is a halal-friendly destination with a Halal Trust Score of 4.9/5. Muslim travelers will find 73 halal restaurants listed, 300 mosques, real-time prayer times and the Qibla direction — a complete guide to travel with peace of mind. Best time to visit: October-February.",
 "metaDescription_en": "Halal guide to Medina: 73 halal restaurants listed, 300 mosques, prayer times and tips for Muslim travelers. Halal Trust Score 4.9/5.",
 "nom_en": "Medina",
 "infos_pratiques_en": {
  "langue_officielle": "Arabic",
  "monnaie": "Saudi riyal (SAR)",
  "taux_change_eur": "1 EUR ≈ 4.10 SAR",
  "fuseau_horaire": "AST (UTC+3)",
  "nourriture_halal": "100% halal — city 100% islamique",
  "transport_local": "Bus Al-HaraMayn, taxis blancs, Uber, navettes hotels"
 },
 "dataPurgedAt": "2026-07-15",
 "osmEnrichedAt": "2026-07-15"
}