{
  "slug": "meknes",
  "nom": "Meknès",
  "pays": "Maroc",
  "pays_slug": "maroc",
  "continent": "Afrique",
  "region": "Centre du Maroc",
  "coordonnees": {
    "lat": 33.8935,
    "lng": -5.5473
  },
  "codeISO": "MA",
  "score_halal": 4.5,
  "halalScore": 9,
  "description": "Ville impériale aux portes monumentales et à l'architecture ismaïlienne grandiose. Point de départ pour Volubilis et Moulay Idriss Zerhoun.",
  "image": "https://upload.wikimedia.org/wikipedia/commons/thumb/2/29/Meknes.jpg/1920px-Meknes.jpg",
  "image_hero": "https://upload.wikimedia.org/wikipedia/commons/thumb/2/29/Meknes.jpg/1920px-Meknes.jpg",
  "metaDescription": "Ville impériale aux portes monumentales et à l'architecture ismaïlienne grandiose. Point de départ pour Volubilis et Moulay Idriss Zerhoun.",
  "monnaie": "MAD (Dirham marocain)",
  "langue": "Arabe, Tamazight, Français",
  "statistiques": {
    "restaurants_halal": 11,
    "mosquees": 1,
    "hotels": 58
  },
  "infoPratique": {
    "monnaie": "MAD (Dirham marocain)",
    "langue": "Arabe, Tamazight, Français",
    "transport": "Accessible en bus (CTM/Supratours), grand taxi ou voiture.",
    "meilleureEpoque": "Printemps et automne (climat doux)."
  },
  "tags": [
    "halal",
    "Maroc"
  ],
  "restaurants": [
    {
      "nom": "Burger King",
      "type": "burger",
      "priceRange": "€€",
      "mapsUrl": "https://maps.google.com/?q=33.8964472,-5.5420609",
      "lat": 33.8964472,
      "lng": -5.5420609,
      "halalConfidence": "yes",
      "source": "osm"
    },
    {
      "nom": "Restaurant Latino",
      "type": "Restaurant halal",
      "priceRange": "€€",
      "mapsUrl": "https://maps.google.com/?q=33.9007147,-5.5400002",
      "lat": 33.9007147,
      "lng": -5.5400002,
      "halalConfidence": "yes",
      "source": "osm"
    },
    {
      "nom": "La Daurade",
      "type": "Restaurant halal",
      "priceRange": "€€",
      "mapsUrl": "https://maps.google.com/?q=33.8986751,-5.5368323",
      "lat": 33.8986751,
      "lng": -5.5368323,
      "halalConfidence": "yes",
      "source": "osm"
    },
    {
      "nom": "Allo Pizza",
      "type": "pizza",
      "priceRange": "€€",
      "mapsUrl": "https://maps.google.com/?q=33.8998381,-5.5367942",
      "lat": 33.8998381,
      "lng": -5.5367942,
      "halalConfidence": "yes",
      "source": "osm"
    },
    {
      "nom": "Big Boy",
      "type": "burger",
      "priceRange": "€€",
      "mapsUrl": "https://maps.google.com/?q=33.8980956,-5.5333072",
      "lat": 33.8980956,
      "lng": -5.5333072,
      "halalConfidence": "yes",
      "source": "osm"
    },
    {
      "nom": "مشواة دادة",
      "type": "barbecue, moroccan",
      "priceRange": "€€",
      "mapsUrl": "https://maps.google.com/?q=33.9002563,-5.5467551",
      "lat": 33.9002563,
      "lng": -5.5467551,
      "halalConfidence": "likely",
      "source": "osm"
    },
    {
      "nom": "Mig Mag",
      "type": "pizza, pasta, moroccan, sandwich, local",
      "priceRange": "€€",
      "mapsUrl": "https://maps.google.com/?q=33.8931042,-5.5644056",
      "lat": 33.8931042,
      "lng": -5.5644056,
      "halalConfidence": "likely",
      "source": "osm"
    },
    {
      "nom": "Restaurant Baraka",
      "type": "moroccan",
      "priceRange": "€€",
      "mapsUrl": "https://maps.google.com/?q=33.8959864,-5.5652083",
      "lat": 33.8959864,
      "lng": -5.5652083,
      "halalConfidence": "likely",
      "source": "osm"
    },
    {
      "nom": "Restaurant YA HALA",
      "type": "moroccan",
      "priceRange": "€€",
      "mapsUrl": "https://maps.google.com/?q=33.8941524,-5.5655323",
      "lat": 33.8941524,
      "lng": -5.5655323,
      "halalConfidence": "likely",
      "source": "osm"
    },
    {
      "nom": "Dar lalla khadra",
      "type": "moroccan",
      "priceRange": "€€",
      "mapsUrl": "https://maps.google.com/?q=33.8991181,-5.5658562",
      "lat": 33.8991181,
      "lng": -5.5658562,
      "halalConfidence": "likely",
      "source": "osm"
    },
    {
      "nom": "Lasfour",
      "type": "italian pizza, chicken, sandwich, moroccan, coffee shop, local, barbecue, tea, pizza, burger, pasta, kebab, grill",
      "priceRange": "€€",
      "mapsUrl": "https://maps.google.com/?q=33.8784647,-5.5618509",
      "lat": 33.8784647,
      "lng": -5.5618509,
      "halalConfidence": "likely",
      "source": "osm"
    }
  ],
  "hotels": [
    {
      "nom": "Belle Vue",
      "categorie": "Hôtel",
      "priceRange": "€€€",
      "score": 3,
      "mapsUrl": "https://maps.google.com/?q=33.8951509,-5.5488273",
      "lat": 33.8951509,
      "lng": -5.5488273,
      "halalFriendly": false,
      "bookingUrl": "www.hotelbellevue.ma",
      "source": "osm"
    },
    {
      "nom": "Hotel Oasis Tafilalet",
      "categorie": "Hôtel",
      "priceRange": "€€",
      "mapsUrl": "https://maps.google.com/?q=33.8963857,-5.5477717",
      "lat": 33.8963857,
      "lng": -5.5477717,
      "halalFriendly": false,
      "bookingUrl": "https://maps.google.com/?q=33.8963857,-5.5477717",
      "source": "osm"
    },
    {
      "nom": "Hotel Beau Sejour",
      "categorie": "Hôtel",
      "priceRange": "€€",
      "mapsUrl": "https://maps.google.com/?q=33.8966713,-5.5440798",
      "lat": 33.8966713,
      "lng": -5.5440798,
      "halalFriendly": false,
      "bookingUrl": "https://maps.google.com/?q=33.8966713,-5.5440798",
      "source": "osm"
    },
    {
      "nom": "Hotel Bab Mansour",
      "categorie": "Hôtel",
      "priceRange": "€€",
      "mapsUrl": "https://maps.google.com/?q=33.897187,-5.5436073",
      "lat": 33.897187,
      "lng": -5.5436073,
      "halalFriendly": false,
      "bookingUrl": "https://maps.google.com/?q=33.897187,-5.5436073",
      "source": "osm"
    },
    {
      "nom": "Hotel Akouas",
      "categorie": "Hôtel",
      "priceRange": "€€",
      "mapsUrl": "https://maps.google.com/?q=33.89713,-5.5431051",
      "lat": 33.89713,
      "lng": -5.5431051,
      "halalFriendly": false,
      "bookingUrl": "https://maps.google.com/?q=33.89713,-5.5431051",
      "source": "osm"
    },
    {
      "nom": "Hotel Palace",
      "categorie": "Hôtel",
      "priceRange": "€€",
      "mapsUrl": "https://maps.google.com/?q=33.8982816,-5.5496059",
      "lat": 33.8982816,
      "lng": -5.5496059,
      "halalFriendly": false,
      "bookingUrl": "https://maps.google.com/?q=33.8982816,-5.5496059",
      "source": "osm"
    },
    {
      "nom": "Excelsior Hotel",
      "categorie": "Hôtel",
      "priceRange": "€€",
      "mapsUrl": "https://maps.google.com/?q=33.8969744,-5.54264",
      "lat": 33.8969744,
      "lng": -5.54264,
      "halalFriendly": false,
      "bookingUrl": "https://maps.google.com/?q=33.8969744,-5.54264",
      "source": "osm"
    },
    {
      "nom": "hotel majestic",
      "categorie": "Hôtel",
      "priceRange": "€€",
      "mapsUrl": "https://maps.google.com/?q=33.8988703,-5.5461451",
      "lat": 33.8988703,
      "lng": -5.5461451,
      "halalFriendly": false,
      "bookingUrl": "https://maps.google.com/?q=33.8988703,-5.5461451",
      "source": "osm"
    },
    {
      "nom": "Hotel Rif",
      "categorie": "Hôtel",
      "priceRange": "€€",
      "mapsUrl": "https://maps.google.com/?q=33.8983696,-5.5507443",
      "lat": 33.8983696,
      "lng": -5.5507443,
      "halalFriendly": false,
      "bookingUrl": "http://www.hotel-rif.com/",
      "source": "osm"
    },
    {
      "nom": "Ibis Meknes",
      "categorie": "Hôtel",
      "priceRange": "€€€",
      "score": 3,
      "mapsUrl": "https://maps.google.com/?q=33.8956086,-5.5536521",
      "lat": 33.8956086,
      "lng": -5.5536521,
      "halalFriendly": false,
      "bookingUrl": "https://maps.google.com/?q=33.8956086,-5.5536521",
      "source": "osm"
    },
    {
      "nom": "city building",
      "categorie": "Appartement",
      "priceRange": "€€",
      "mapsUrl": "https://maps.google.com/?q=33.8969119,-5.5403755",
      "lat": 33.8969119,
      "lng": -5.5403755,
      "halalFriendly": false,
      "bookingUrl": "https://maps.google.com/?q=33.8969119,-5.5403755",
      "source": "osm"
    },
    {
      "nom": "Tafilalet",
      "categorie": "Hôtel",
      "priceRange": "€€",
      "mapsUrl": "https://maps.google.com/?q=33.8996222,-5.5436987",
      "lat": 33.8996222,
      "lng": -5.5436987,
      "halalFriendly": false,
      "bookingUrl": "https://maps.google.com/?q=33.8996222,-5.5436987",
      "source": "osm"
    },
    {
      "nom": "Malta",
      "categorie": "Hôtel",
      "priceRange": "€€",
      "mapsUrl": "https://maps.google.com/?q=33.9004784,-5.5500992",
      "lat": 33.9004784,
      "lng": -5.5500992,
      "halalFriendly": false,
      "bookingUrl": "https://maps.google.com/?q=33.9004784,-5.5500992",
      "source": "osm"
    },
    {
      "nom": "إقامة",
      "categorie": "Appartement",
      "priceRange": "€€",
      "mapsUrl": "https://maps.google.com/?q=33.903033,-5.5449756",
      "lat": 33.903033,
      "lng": -5.5449756,
      "halalFriendly": false,
      "bookingUrl": "https://maps.google.com/?q=33.903033,-5.5449756",
      "source": "osm"
    },
    {
      "nom": "Riad Imperial Atlas",
      "categorie": "Maison d'hôtes",
      "priceRange": "€€",
      "mapsUrl": "https://maps.google.com/?q=33.8946216,-5.5591943",
      "lat": 33.8946216,
      "lng": -5.5591943,
      "halalFriendly": false,
      "bookingUrl": "https://maps.google.com/?q=33.8946216,-5.5591943",
      "source": "osm"
    },
    {
      "nom": "Hotel Maroc",
      "categorie": "Hôtel",
      "priceRange": "€€",
      "mapsUrl": "https://maps.google.com/?q=33.8939492,-5.5596593",
      "lat": 33.8939492,
      "lng": -5.5596593,
      "halalFriendly": false,
      "bookingUrl": "https://maps.google.com/?q=33.8939492,-5.5596593",
      "source": "osm"
    },
    {
      "nom": "Riad Lahboul",
      "categorie": "Maison d'hôtes",
      "priceRange": "€€",
      "mapsUrl": "https://maps.google.com/?q=33.8957654,-5.5612147",
      "lat": 33.8957654,
      "lng": -5.5612147,
      "halalFriendly": false,
      "bookingUrl": "https://maps.google.com/?q=33.8957654,-5.5612147",
      "source": "osm"
    },
    {
      "nom": "Agadir أكادير",
      "categorie": "Hôtel",
      "priceRange": "€€",
      "mapsUrl": "https://maps.google.com/?q=33.8946777,-5.5626037",
      "lat": 33.8946777,
      "lng": -5.5626037,
      "halalFriendly": false,
      "bookingUrl": "https://maps.google.com/?q=33.8946777,-5.5626037",
      "source": "osm"
    },
    {
      "nom": "Regina",
      "categorie": "Hôtel",
      "priceRange": "€€",
      "mapsUrl": "https://maps.google.com/?q=33.89449,-5.562741",
      "lat": 33.89449,
      "lng": -5.562741,
      "halalFriendly": false,
      "bookingUrl": "https://maps.google.com/?q=33.89449,-5.562741",
      "source": "osm"
    },
    {
      "nom": "Riad Yacout",
      "categorie": "Maison d'hôtes",
      "priceRange": "€€",
      "mapsUrl": "https://maps.google.com/?q=33.8936411,-5.5627875",
      "lat": 33.8936411,
      "lng": -5.5627875,
      "halalFriendly": false,
      "bookingUrl": "https://maps.google.com/?q=33.8936411,-5.5627875",
      "source": "osm"
    },
    {
      "nom": "Auberge de jeunesse",
      "categorie": "Auberge",
      "priceRange": "€€",
      "mapsUrl": "https://maps.google.com/?q=33.9034839,-5.5575094",
      "lat": 33.9034839,
      "lng": -5.5575094,
      "halalFriendly": false,
      "bookingUrl": "https://maps.google.com/?q=33.9034839,-5.5575094",
      "source": "osm"
    },
    {
      "nom": "Ryad Dar Al Meknassia",
      "categorie": "Hôtel",
      "priceRange": "€€",
      "mapsUrl": "https://maps.google.com/?q=33.8940196,-5.5631255",
      "lat": 33.8940196,
      "lng": -5.5631255,
      "halalFriendly": false,
      "bookingUrl": "https://maps.google.com/?q=33.8940196,-5.5631255",
      "source": "osm"
    },
    {
      "nom": "Riad Menthe et Citron",
      "categorie": "Auberge",
      "priceRange": "€€",
      "mapsUrl": "https://maps.google.com/?q=33.8956108,-5.5633302",
      "lat": 33.8956108,
      "lng": -5.5633302,
      "halalFriendly": false,
      "bookingUrl": "https://maps.google.com/?q=33.8956108,-5.5633302",
      "source": "osm"
    },
    {
      "nom": "Riad Yanis",
      "categorie": "Hôtel",
      "priceRange": "€€",
      "mapsUrl": "https://maps.google.com/?q=33.8942902,-5.5637628",
      "lat": 33.8942902,
      "lng": -5.5637628,
      "halalFriendly": false,
      "bookingUrl": "https://maps.google.com/?q=33.8942902,-5.5637628",
      "source": "osm"
    },
    {
      "nom": "Riad Safir",
      "categorie": "Maison d'hôtes",
      "priceRange": "€€",
      "mapsUrl": "https://maps.google.com/?q=33.8936796,-5.5647432",
      "lat": 33.8936796,
      "lng": -5.5647432,
      "halalFriendly": false,
      "bookingUrl": "https://maps.google.com/?q=33.8936796,-5.5647432",
      "source": "osm"
    },
    {
      "nom": "Hotel Transatlantique",
      "categorie": "Hôtel",
      "priceRange": "€€",
      "mapsUrl": "https://maps.google.com/?q=33.9034214,-5.5600999",
      "lat": 33.9034214,
      "lng": -5.5600999,
      "halalFriendly": false,
      "bookingUrl": "https://maps.google.com/?q=33.9034214,-5.5600999",
      "source": "osm"
    },
    {
      "nom": "إقامة النسيم",
      "categorie": "Appartement",
      "priceRange": "€€",
      "mapsUrl": "https://maps.google.com/?q=33.9080772,-5.5514541",
      "lat": 33.9080772,
      "lng": -5.5514541,
      "halalFriendly": false,
      "bookingUrl": "https://maps.google.com/?q=33.9080772,-5.5514541",
      "source": "osm"
    },
    {
      "nom": "Riad malak",
      "categorie": "Auberge",
      "priceRange": "€€",
      "mapsUrl": "https://maps.google.com/?q=33.8944525,-5.5654658",
      "lat": 33.8944525,
      "lng": -5.5654658,
      "halalFriendly": false,
      "bookingUrl": "https://maps.google.com/?q=33.8944525,-5.5654658",
      "source": "osm"
    },
    {
      "nom": "Riad Selma",
      "categorie": "Hôtel",
      "priceRange": "€€",
      "mapsUrl": "https://maps.google.com/?q=33.8946313,-5.5655104",
      "lat": 33.8946313,
      "lng": -5.5655104,
      "halalFriendly": false,
      "bookingUrl": "https://maps.google.com/?q=33.8946313,-5.5655104",
      "source": "osm"
    },
    {
      "nom": "Riad Ritaj",
      "categorie": "Hôtel",
      "priceRange": "€€",
      "mapsUrl": "https://maps.google.com/?q=33.8942017,-5.5655772",
      "lat": 33.8942017,
      "lng": -5.5655772,
      "halalFriendly": false,
      "bookingUrl": "https://maps.google.com/?q=33.8942017,-5.5655772",
      "source": "osm"
    },
    {
      "nom": "Riad Amazigh",
      "categorie": "Maison d'hôtes",
      "priceRange": "€€",
      "mapsUrl": "https://maps.google.com/?q=33.8962286,-5.5658204",
      "lat": 33.8962286,
      "lng": -5.5658204,
      "halalFriendly": false,
      "bookingUrl": "http://riadamazigh-meknes.blogspot.com/",
      "source": "osm"
    },
    {
      "nom": "Riad Bahia",
      "categorie": "Maison d'hôtes",
      "priceRange": "€€",
      "mapsUrl": "https://maps.google.com/?q=33.8943005,-5.5662301",
      "lat": 33.8943005,
      "lng": -5.5662301,
      "halalFriendly": false,
      "bookingUrl": "http://www.ryad-bahia.com/",
      "source": "osm"
    },
    {
      "nom": "Riad Benchekroun",
      "categorie": "Maison d'hôtes",
      "priceRange": "€€",
      "mapsUrl": "https://maps.google.com/?q=33.8945548,-5.5662418",
      "lat": 33.8945548,
      "lng": -5.5662418,
      "halalFriendly": false,
      "bookingUrl": "https://maps.google.com/?q=33.8945548,-5.5662418",
      "source": "osm"
    },
    {
      "nom": "Dar Meknes Tresor",
      "categorie": "Auberge",
      "priceRange": "€€",
      "mapsUrl": "https://maps.google.com/?q=33.8952301,-5.5661757",
      "lat": 33.8952301,
      "lng": -5.5661757,
      "halalFriendly": false,
      "bookingUrl": "https://maps.google.com/?q=33.8952301,-5.5661757",
      "source": "osm"
    },
    {
      "nom": "Riad Atika",
      "categorie": "Maison d'hôtes",
      "priceRange": "€€",
      "mapsUrl": "https://maps.google.com/?q=33.8947695,-5.566406",
      "lat": 33.8947695,
      "lng": -5.566406,
      "halalFriendly": false,
      "bookingUrl": "https://maps.google.com/?q=33.8947695,-5.566406",
      "source": "osm"
    },
    {
      "nom": "Riad Zahraa",
      "categorie": "Maison d'hôtes",
      "priceRange": "€€",
      "mapsUrl": "https://maps.google.com/?q=33.8953285,-5.56639",
      "lat": 33.8953285,
      "lng": -5.56639,
      "halalFriendly": false,
      "bookingUrl": "https://maps.google.com/?q=33.8953285,-5.56639",
      "source": "osm"
    },
    {
      "nom": "Riad Andalouss",
      "categorie": "Maison d'hôtes",
      "priceRange": "€€",
      "mapsUrl": "https://maps.google.com/?q=33.8949399,-5.5668088",
      "lat": 33.8949399,
      "lng": -5.5668088,
      "halalFriendly": false,
      "bookingUrl": "https://maps.google.com/?q=33.8949399,-5.5668088",
      "source": "osm"
    },
    {
      "nom": "Hotel Zaki",
      "categorie": "Hôtel",
      "priceRange": "€€€€",
      "score": 4,
      "mapsUrl": "https://maps.google.com/?q=33.8814892,-5.5336808",
      "lat": 33.8814892,
      "lng": -5.5336808,
      "halalFriendly": false,
      "bookingUrl": "https://maps.google.com/?q=33.8814892,-5.5336808",
      "source": "osm"
    },
    {
      "nom": "La maison d'a côté",
      "categorie": "Hôtel",
      "priceRange": "€€",
      "mapsUrl": "https://maps.google.com/?q=33.8943664,-5.5674615",
      "lat": 33.8943664,
      "lng": -5.5674615,
      "halalFriendly": false,
      "bookingUrl": "https://maps.google.com/?q=33.8943664,-5.5674615",
      "source": "osm"
    },
    {
      "nom": "Maisson Olga",
      "categorie": "Auberge",
      "priceRange": "€€",
      "mapsUrl": "https://maps.google.com/?q=33.8940298,-5.5675423",
      "lat": 33.8940298,
      "lng": -5.5675423,
      "halalFriendly": false,
      "bookingUrl": "https://maps.google.com/?q=33.8940298,-5.5675423",
      "source": "osm"
    },
    {
      "nom": "Ryad Bab Berdaine",
      "categorie": "Maison d'hôtes",
      "priceRange": "€€",
      "mapsUrl": "https://maps.google.com/?q=33.8983742,-5.5667082",
      "lat": 33.8983742,
      "lng": -5.5667082,
      "halalFriendly": false,
      "bookingUrl": "https://maps.google.com/?q=33.8983742,-5.5667082",
      "source": "osm"
    },
    {
      "nom": "Hotel Swani",
      "categorie": "Hôtel",
      "priceRange": "€€",
      "mapsUrl": "https://maps.google.com/?q=33.9048643,-5.5317808",
      "lat": 33.9048643,
      "lng": -5.5317808,
      "halalFriendly": false,
      "bookingUrl": "http://www.hotelswani.com",
      "source": "osm"
    },
    {
      "nom": "Riad Inspira",
      "categorie": "Auberge",
      "priceRange": "€€",
      "mapsUrl": "https://maps.google.com/?q=33.8975191,-5.5678119",
      "lat": 33.8975191,
      "lng": -5.5678119,
      "halalFriendly": false,
      "bookingUrl": "https://maps.google.com/?q=33.8975191,-5.5678119",
      "source": "osm"
    },
    {
      "nom": "Riad Yamcha",
      "categorie": "Hôtel",
      "priceRange": "€€",
      "mapsUrl": "https://maps.google.com/?q=33.895925,-5.5681949",
      "lat": 33.895925,
      "lng": -5.5681949,
      "halalFriendly": false,
      "bookingUrl": "https://www.booking.com/hotel/ma/riad-yamcha.de.html",
      "source": "osm"
    },
    {
      "nom": "Dar Riad Merzouga",
      "categorie": "Maison d'hôtes",
      "priceRange": "€€",
      "mapsUrl": "https://maps.google.com/?q=33.8994128,-5.5672922",
      "lat": 33.8994128,
      "lng": -5.5672922,
      "halalFriendly": false,
      "bookingUrl": "https://maps.google.com/?q=33.8994128,-5.5672922",
      "source": "osm"
    },
    {
      "nom": "57",
      "categorie": "Appartement",
      "priceRange": "€€",
      "mapsUrl": "https://maps.google.com/?q=33.909214,-5.5637641",
      "lat": 33.909214,
      "lng": -5.5637641,
      "halalFriendly": false,
      "bookingUrl": "https://maps.google.com/?q=33.909214,-5.5637641",
      "source": "osm"
    },
    {
      "nom": "فندق البساتين",
      "categorie": "Hôtel",
      "priceRange": "€€",
      "mapsUrl": "https://maps.google.com/?q=33.8995232,-5.5202633",
      "lat": 33.8995232,
      "lng": -5.5202633,
      "halalFriendly": false,
      "bookingUrl": "https://maps.google.com/?q=33.8995232,-5.5202633",
      "source": "osm"
    },
    {
      "nom": "فندق جوهرة البساتين",
      "categorie": "Hôtel",
      "priceRange": "€€",
      "mapsUrl": "https://maps.google.com/?q=33.8934326,-5.5159078",
      "lat": 33.8934326,
      "lng": -5.5159078,
      "halalFriendly": false,
      "bookingUrl": "https://maps.google.com/?q=33.8934326,-5.5159078",
      "source": "osm"
    },
    {
      "nom": "تافيلالت",
      "categorie": "Hôtel",
      "priceRange": "€€",
      "mapsUrl": "https://maps.google.com/?q=33.8639047,-5.553604",
      "lat": 33.8639047,
      "lng": -5.553604,
      "halalFriendly": false,
      "bookingUrl": "https://maps.google.com/?q=33.8639047,-5.553604",
      "source": "osm"
    },
    {
      "nom": "Maison Es-saadi",
      "categorie": "Maison d'hôtes",
      "priceRange": "€€",
      "mapsUrl": "https://maps.google.com/?q=33.8737475,-5.5852625",
      "lat": 33.8737475,
      "lng": -5.5852625,
      "halalFriendly": false,
      "bookingUrl": "https://maps.google.com/?q=33.8737475,-5.5852625",
      "source": "osm"
    },
    {
      "nom": "Haj driss family",
      "categorie": "Hôtel",
      "priceRange": "€€",
      "mapsUrl": "https://maps.google.com/?q=33.856164,-5.537859",
      "lat": 33.856164,
      "lng": -5.537859,
      "halalFriendly": false,
      "bookingUrl": "https://maps.google.com/?q=33.856164,-5.537859",
      "source": "osm"
    },
    {
      "nom": "Maison mère",
      "categorie": "Maison d'hôtes",
      "priceRange": "€€",
      "mapsUrl": "https://maps.google.com/?q=33.860665,-5.5749367",
      "lat": 33.860665,
      "lng": -5.5749367,
      "halalFriendly": false,
      "bookingUrl": "https://maps.google.com/?q=33.860665,-5.5749367",
      "source": "osm"
    },
    {
      "nom": "Hotel Menzeh Dalia",
      "categorie": "Hôtel",
      "priceRange": "€€",
      "mapsUrl": "https://maps.google.com/?q=33.8576048,-5.5861464",
      "lat": 33.8576048,
      "lng": -5.5861464,
      "halalFriendly": false,
      "bookingUrl": "https://maps.google.com/?q=33.8576048,-5.5861464",
      "source": "osm"
    },
    {
      "nom": "Z Hotel Meknes",
      "categorie": "Hôtel",
      "priceRange": "€€€€",
      "score": 4,
      "mapsUrl": "https://maps.google.com/?q=33.8419841,-5.5207124",
      "lat": 33.8419841,
      "lng": -5.5207124,
      "halalFriendly": false,
      "bookingUrl": "https://maps.google.com/?q=33.8419841,-5.5207124",
      "source": "osm"
    },
    {
      "nom": "Couchsurfing, 10. & 11.10.2019",
      "categorie": "Appartement",
      "priceRange": "€€",
      "mapsUrl": "https://maps.google.com/?q=33.8877514,-5.4645234",
      "lat": 33.8877514,
      "lng": -5.4645234,
      "halalFriendly": false,
      "bookingUrl": "https://maps.google.com/?q=33.8877514,-5.4645234",
      "source": "osm"
    }
  ],
  "mosqueesPrincipales": [
    {
      "id": "m1",
      "nom": "Grande Mosquée de Meknès",
      "type": "Mosquée",
      "adresse": "Centre-ville, Meknès",
      "description": "Mosquée principale de la ville, prière du vendredi.",
      "note": 5,
      "acces_non_musulmans": false,
      "mapsUrl": "https://maps.google.com/?q=Grande%20Mosqu%C3%A9e%20Mekn%C3%A8s%20Mekn%C3%A8s%20Maroc"
    }
  ],
  "activites": [
    {
      "id": "a1",
      "nom": "Bab Mansour",
      "categorie": "Histoire",
      "description": "L'une des plus belles portes monumentales du Maroc.",
      "prix": "Gratuit",
      "duree": "",
      "mapsUrl": "https://maps.google.com/?q=Bab%20Mansour%20Mekn%C3%A8s%20Maroc",
      "lat": 33.8925842,
      "lng": -5.5646391,
      "geocoded": true
    },
    {
      "id": "a2",
      "nom": "Volubilis (cité romaine)",
      "categorie": "Histoire",
      "description": "Vaste site romain classé UNESCO, mosaïques remarquables.",
      "prix": "Payant",
      "duree": "",
      "mapsUrl": "https://maps.google.com/?q=Volubilis%20%28cit%C3%A9%20romaine%29%20Mekn%C3%A8s%20Maroc"
    },
    {
      "id": "a3",
      "nom": "Moulay Idriss Zerhoun",
      "categorie": "Spirituel",
      "description": "Ville sainte de pèlerinage perchée sur deux collines.",
      "prix": "Gratuit",
      "duree": "",
      "mapsUrl": "https://maps.google.com/?q=Moulay%20Idriss%20Zerhoun%20Mekn%C3%A8s%20Maroc",
      "lat": 34.055188,
      "lng": -5.525518,
      "geocoded": true
    },
    {
      "id": "a4",
      "nom": "Greniers et écuries de Moulay Ismaïl",
      "categorie": "Histoire",
      "description": "Immenses greniers royaux et bassin de l'Agdal.",
      "prix": "Payant",
      "duree": "",
      "mapsUrl": "https://maps.google.com/?q=Greniers%20et%20%C3%A9curies%20de%20Moulay%20Isma%C3%AFl%20Mekn%C3%A8s%20Maroc"
    }
  ],
  "imageCredit": "Wikimedia Commons",
  "osmEnriched": true,
  "osmEnrichedAt": "2026-06-30",
  "description_en": "Meknès, in Morocco, is a halal-friendly destination with a Halal Trust Score of 4.5/5. Muslim travelers will find 11 halal restaurants, 1 mosques, real-time prayer times and the Qibla direction — a complete guide to travel with peace of mind.",
  "metaDescription_en": "Halal guide to Meknès: 11+ halal restaurants, 1 mosques, prayer times and tips for Muslim travelers. Halal Trust Score 4.5/5.",
  "nom_en": "Meknès"
}