{
 "slug": "meknes",
 "nom": "Meknès",
 "pays": "Maroc",
 "pays_slug": "maroc",
 "continent": "Afrique",
 "region": "Centre du Maroc",
 "coordonnees": {
  "lat": 33.8935,
  "lng": -5.5473
 },
 "codeISO": "MA",
 "score_halal": 4.5,
 "halalScore": 9,
 "description": "Ville impériale aux portes monumentales et à l'architecture ismaïlienne grandiose. Point de départ pour Volubilis et Moulay Idriss Zerhoun.",
 "image": "https://upload.wikimedia.org/wikipedia/commons/thumb/2/29/Meknes.jpg/1920px-Meknes.jpg",
 "image_hero": "https://upload.wikimedia.org/wikipedia/commons/thumb/2/29/Meknes.jpg/1920px-Meknes.jpg",
 "metaDescription": "Ville impériale aux portes monumentales et à l'architecture ismaïlienne grandiose. Point de départ pour Volubilis et Moulay Idriss Zerhoun.",
 "monnaie": "MAD (Dirham marocain)",
 "langue": "Arabe, Tamazight, Français",
 "statistiques": {
  "restaurants_halal": 11,
  "mosquees": 1,
  "hotels": 0
 },
 "infoPratique": {
  "monnaie": "MAD (Dirham marocain)",
  "langue": "Arabe, Tamazight, Français",
  "transport": "Accessible en bus (CTM/Supratours), grand taxi ou voiture.",
  "meilleureEpoque": "Printemps et automne (climat doux)."
 },
 "tags": [
  "halal",
  "Maroc"
 ],
 "restaurants": [
  {
   "nom": "Burger King",
   "type": "burger",
   "priceRange": "€€",
   "mapsUrl": "https://maps.google.com/?q=33.8964472,-5.5420609",
   "lat": 33.8964472,
   "lng": -5.5420609,
   "halalConfidence": "yes",
   "source": "osm"
  },
  {
   "nom": "Restaurant Latino",
   "type": "Restaurant halal",
   "priceRange": "€€",
   "mapsUrl": "https://maps.google.com/?q=33.9007147,-5.5400002",
   "lat": 33.9007147,
   "lng": -5.5400002,
   "halalConfidence": "yes",
   "source": "osm"
  },
  {
   "nom": "La Daurade",
   "type": "Restaurant halal",
   "priceRange": "€€",
   "mapsUrl": "https://maps.google.com/?q=33.8986751,-5.5368323",
   "lat": 33.8986751,
   "lng": -5.5368323,
   "halalConfidence": "yes",
   "source": "osm"
  },
  {
   "nom": "Allo Pizza",
   "type": "pizza",
   "priceRange": "€€",
   "mapsUrl": "https://maps.google.com/?q=33.8998381,-5.5367942",
   "lat": 33.8998381,
   "lng": -5.5367942,
   "halalConfidence": "yes",
   "source": "osm"
  },
  {
   "nom": "Big Boy",
   "type": "burger",
   "priceRange": "€€",
   "mapsUrl": "https://maps.google.com/?q=33.8980956,-5.5333072",
   "lat": 33.8980956,
   "lng": -5.5333072,
   "halalConfidence": "yes",
   "source": "osm"
  },
  {
   "nom": "مشواة دادة",
   "type": "barbecue, moroccan",
   "priceRange": "€€",
   "mapsUrl": "https://maps.google.com/?q=33.9002563,-5.5467551",
   "lat": 33.9002563,
   "lng": -5.5467551,
   "halalConfidence": "likely",
   "source": "osm"
  },
  {
   "nom": "Mig Mag",
   "type": "pizza, pasta, moroccan, sandwich, local",
   "priceRange": "€€",
   "mapsUrl": "https://maps.google.com/?q=33.8931042,-5.5644056",
   "lat": 33.8931042,
   "lng": -5.5644056,
   "halalConfidence": "likely",
   "source": "osm"
  },
  {
   "nom": "Restaurant Baraka",
   "type": "moroccan",
   "priceRange": "€€",
   "mapsUrl": "https://maps.google.com/?q=33.8959864,-5.5652083",
   "lat": 33.8959864,
   "lng": -5.5652083,
   "halalConfidence": "likely",
   "source": "osm"
  },
  {
   "nom": "Restaurant YA HALA",
   "type": "moroccan",
   "priceRange": "€€",
   "mapsUrl": "https://maps.google.com/?q=33.8941524,-5.5655323",
   "lat": 33.8941524,
   "lng": -5.5655323,
   "halalConfidence": "likely",
   "source": "osm"
  },
  {
   "nom": "Dar lalla khadra",
   "type": "moroccan",
   "priceRange": "€€",
   "mapsUrl": "https://maps.google.com/?q=33.8991181,-5.5658562",
   "lat": 33.8991181,
   "lng": -5.5658562,
   "halalConfidence": "likely",
   "source": "osm"
  },
  {
   "nom": "Lasfour",
   "type": "italian pizza, chicken, sandwich, moroccan, coffee shop, local, barbecue, tea, pizza, burger, pasta, kebab, grill",
   "priceRange": "€€",
   "mapsUrl": "https://maps.google.com/?q=33.8784647,-5.5618509",
   "lat": 33.8784647,
   "lng": -5.5618509,
   "halalConfidence": "likely",
   "source": "osm"
  }
 ],
 "hotels": [],
 "mosqueesPrincipales": [
  {
   "id": "m1",
   "nom": "Grande Mosquée de Meknès",
   "type": "Mosquée",
   "adresse": "Centre-ville, Meknès",
   "description": "Mosquée principale de la ville, prière du vendredi.",
   "note": 5,
   "acces_non_musulmans": false,
   "mapsUrl": "https://maps.google.com/?q=Grande%20Mosqu%C3%A9e%20Mekn%C3%A8s%20Mekn%C3%A8s%20Maroc"
  }
 ],
 "activites": [
  {
   "id": "a1",
   "nom": "Bab Mansour",
   "categorie": "Histoire",
   "description": "L'une des plus belles portes monumentales du Maroc.",
   "prix": "Gratuit",
   "duree": "",
   "mapsUrl": "https://maps.google.com/?q=Bab%20Mansour%20Mekn%C3%A8s%20Maroc"
  },
  {
   "id": "a2",
   "nom": "Volubilis (cité romaine)",
   "categorie": "Histoire",
   "description": "Vaste site romain classé UNESCO, mosaïques remarquables.",
   "prix": "Payant",
   "duree": "",
   "mapsUrl": "https://maps.google.com/?q=Volubilis%20%28cit%C3%A9%20romaine%29%20Mekn%C3%A8s%20Maroc"
  },
  {
   "id": "a3",
   "nom": "Moulay Idriss Zerhoun",
   "categorie": "Spirituel",
   "description": "Ville sainte de pèlerinage perchée sur deux collines.",
   "prix": "Gratuit",
   "duree": "",
   "mapsUrl": "https://maps.google.com/?q=Moulay%20Idriss%20Zerhoun%20Mekn%C3%A8s%20Maroc"
  },
  {
   "id": "a4",
   "nom": "Greniers et écuries de Moulay Ismaïl",
   "categorie": "Histoire",
   "description": "Immenses greniers royaux et bassin de l'Agdal.",
   "prix": "Payant",
   "duree": "",
   "mapsUrl": "https://maps.google.com/?q=Greniers%20et%20%C3%A9curies%20de%20Moulay%20Isma%C3%AFl%20Mekn%C3%A8s%20Maroc"
  }
 ],
 "imageCredit": "Wikimedia Commons",
 "osmEnriched": true,
 "osmEnrichedAt": "2026-06-30"
}
