{
 "slug": "meknes",
 "nom": "Meknès",
 "pays": "Maroc",
 "pays_slug": "maroc",
 "continent": "Afrique",
 "region": "Centre du Maroc",
 "coordonnees": {
  "lat": 33.8935,
  "lng": -5.5473
 },
 "codeISO": "MA",
 "score_halal": 4.5,
 "halalScore": 9,
 "description": "Ville impériale aux portes monumentales et à l'architecture ismaïlienne grandiose. Point de départ pour Volubilis et Moulay Idriss Zerhoun.",
 "image": "https://upload.wikimedia.org/wikipedia/commons/thumb/2/29/Meknes.jpg/1920px-Meknes.jpg",
 "image_hero": "https://upload.wikimedia.org/wikipedia/commons/thumb/2/29/Meknes.jpg/1920px-Meknes.jpg",
 "metaDescription": "Ville impériale aux portes monumentales et à l'architecture ismaïlienne grandiose. Point de départ pour Volubilis et Moulay Idriss Zerhoun.",
 "monnaie": "MAD (Dirham marocain)",
 "langue": "Arabe, Tamazight, Français",
 "statistiques": {
  "restaurants_halal": 11,
  "mosquees": 1,
  "hotels": 30
 },
 "infoPratique": {
  "monnaie": "MAD (Dirham marocain)",
  "langue": "Arabe, Tamazight, Français",
  "transport": "Accessible en bus (CTM/Supratours), grand taxi ou voiture.",
  "meilleureEpoque": "Printemps et automne (climat doux)."
 },
 "tags": [
  "halal",
  "Maroc"
 ],
 "restaurants": [
  {
   "nom": "Burger King",
   "type": "burger",
   "priceRange": "€€",
   "mapsUrl": "https://maps.google.com/?q=33.8964472,-5.5420609",
   "lat": 33.8964472,
   "lng": -5.5420609,
   "halalConfidence": "yes",
   "source": "osm"
  },
  {
   "nom": "Restaurant Latino",
   "type": "Restaurant halal",
   "priceRange": "€€",
   "mapsUrl": "https://maps.google.com/?q=33.9007147,-5.5400002",
   "lat": 33.9007147,
   "lng": -5.5400002,
   "halalConfidence": "yes",
   "source": "osm"
  },
  {
   "nom": "La Daurade",
   "type": "Restaurant halal",
   "priceRange": "€€",
   "mapsUrl": "https://maps.google.com/?q=33.8986751,-5.5368323",
   "lat": 33.8986751,
   "lng": -5.5368323,
   "halalConfidence": "yes",
   "source": "osm"
  },
  {
   "nom": "Allo Pizza",
   "type": "pizza",
   "priceRange": "€€",
   "mapsUrl": "https://maps.google.com/?q=33.8998381,-5.5367942",
   "lat": 33.8998381,
   "lng": -5.5367942,
   "halalConfidence": "yes",
   "source": "osm"
  },
  {
   "nom": "Big Boy",
   "type": "burger",
   "priceRange": "€€",
   "mapsUrl": "https://maps.google.com/?q=33.8980956,-5.5333072",
   "lat": 33.8980956,
   "lng": -5.5333072,
   "halalConfidence": "yes",
   "source": "osm"
  },
  {
   "nom": "مشواة دادة",
   "type": "barbecue, moroccan",
   "priceRange": "€€",
   "mapsUrl": "https://maps.google.com/?q=33.9002563,-5.5467551",
   "lat": 33.9002563,
   "lng": -5.5467551,
   "halalConfidence": "likely",
   "source": "osm"
  },
  {
   "nom": "Mig Mag",
   "type": "pizza, pasta, moroccan, sandwich, local",
   "priceRange": "€€",
   "mapsUrl": "https://maps.google.com/?q=33.8931042,-5.5644056",
   "lat": 33.8931042,
   "lng": -5.5644056,
   "halalConfidence": "likely",
   "source": "osm"
  },
  {
   "nom": "Restaurant Baraka",
   "type": "moroccan",
   "priceRange": "€€",
   "mapsUrl": "https://maps.google.com/?q=33.8959864,-5.5652083",
   "lat": 33.8959864,
   "lng": -5.5652083,
   "halalConfidence": "likely",
   "source": "osm"
  },
  {
   "nom": "Restaurant YA HALA",
   "type": "moroccan",
   "priceRange": "€€",
   "mapsUrl": "https://maps.google.com/?q=33.8941524,-5.5655323",
   "lat": 33.8941524,
   "lng": -5.5655323,
   "halalConfidence": "likely",
   "source": "osm"
  },
  {
   "nom": "Dar lalla khadra",
   "type": "moroccan",
   "priceRange": "€€",
   "mapsUrl": "https://maps.google.com/?q=33.8991181,-5.5658562",
   "lat": 33.8991181,
   "lng": -5.5658562,
   "halalConfidence": "likely",
   "source": "osm"
  },
  {
   "nom": "Lasfour",
   "type": "italian pizza, chicken, sandwich, moroccan, coffee shop, local, barbecue, tea, pizza, burger, pasta, kebab, grill",
   "priceRange": "€€",
   "mapsUrl": "https://maps.google.com/?q=33.8784647,-5.5618509",
   "lat": 33.8784647,
   "lng": -5.5618509,
   "halalConfidence": "likely",
   "source": "osm"
  }
 ],
 "hotels": [
  {
   "nom": "Belle Vue",
   "categorie": "Hôtel",
   "priceRange": "€€€",
   "score": 3,
   "mapsUrl": "https://maps.google.com/?q=33.8951509,-5.5488273",
   "lat": 33.8951509,
   "lng": -5.5488273,
   "halalFriendly": false,
   "bookingUrl": "www.hotelbellevue.ma",
   "source": "osm"
  },
  {
   "nom": "Hotel Oasis Tafilalet",
   "categorie": "Hôtel",
   "priceRange": "€€",
   "mapsUrl": "https://maps.google.com/?q=33.8963857,-5.5477717",
   "lat": 33.8963857,
   "lng": -5.5477717,
   "halalFriendly": false,
   "bookingUrl": "https://maps.google.com/?q=33.8963857,-5.5477717",
   "source": "osm"
  },
  {
   "nom": "Hotel Beau Sejour",
   "categorie": "Hôtel",
   "priceRange": "€€",
   "mapsUrl": "https://maps.google.com/?q=33.8966713,-5.5440798",
   "lat": 33.8966713,
   "lng": -5.5440798,
   "halalFriendly": false,
   "bookingUrl": "https://maps.google.com/?q=33.8966713,-5.5440798",
   "source": "osm"
  },
  {
   "nom": "Hotel Bab Mansour",
   "categorie": "Hôtel",
   "priceRange": "€€",
   "mapsUrl": "https://maps.google.com/?q=33.897187,-5.5436073",
   "lat": 33.897187,
   "lng": -5.5436073,
   "halalFriendly": false,
   "bookingUrl": "https://maps.google.com/?q=33.897187,-5.5436073",
   "source": "osm"
  },
  {
   "nom": "Hotel Akouas",
   "categorie": "Hôtel",
   "priceRange": "€€",
   "mapsUrl": "https://maps.google.com/?q=33.89713,-5.5431051",
   "lat": 33.89713,
   "lng": -5.5431051,
   "halalFriendly": false,
   "bookingUrl": "https://maps.google.com/?q=33.89713,-5.5431051",
   "source": "osm"
  },
  {
   "nom": "Hotel Palace",
   "categorie": "Hôtel",
   "priceRange": "€€",
   "mapsUrl": "https://maps.google.com/?q=33.8982816,-5.5496059",
   "lat": 33.8982816,
   "lng": -5.5496059,
   "halalFriendly": false,
   "bookingUrl": "https://maps.google.com/?q=33.8982816,-5.5496059",
   "source": "osm"
  },
  {
   "nom": "Excelsior Hotel",
   "categorie": "Hôtel",
   "priceRange": "€€",
   "mapsUrl": "https://maps.google.com/?q=33.8969744,-5.54264",
   "lat": 33.8969744,
   "lng": -5.54264,
   "halalFriendly": false,
   "bookingUrl": "https://maps.google.com/?q=33.8969744,-5.54264",
   "source": "osm"
  },
  {
   "nom": "hotel majestic",
   "categorie": "Hôtel",
   "priceRange": "€€",
   "mapsUrl": "https://maps.google.com/?q=33.8988703,-5.5461451",
   "lat": 33.8988703,
   "lng": -5.5461451,
   "halalFriendly": false,
   "bookingUrl": "https://maps.google.com/?q=33.8988703,-5.5461451",
   "source": "osm"
  },
  {
   "nom": "Hotel Rif",
   "categorie": "Hôtel",
   "priceRange": "€€",
   "mapsUrl": "https://maps.google.com/?q=33.8983696,-5.5507443",
   "lat": 33.8983696,
   "lng": -5.5507443,
   "halalFriendly": false,
   "bookingUrl": "http://www.hotel-rif.com/",
   "source": "osm"
  },
  {
   "nom": "Ibis Meknes",
   "categorie": "Hôtel",
   "priceRange": "€€€",
   "score": 3,
   "mapsUrl": "https://maps.google.com/?q=33.8956086,-5.5536521",
   "lat": 33.8956086,
   "lng": -5.5536521,
   "halalFriendly": false,
   "bookingUrl": "https://maps.google.com/?q=33.8956086,-5.5536521",
   "source": "osm"
  },
  {
   "nom": "city building",
   "categorie": "Appartement",
   "priceRange": "€€",
   "mapsUrl": "https://maps.google.com/?q=33.8969119,-5.5403755",
   "lat": 33.8969119,
   "lng": -5.5403755,
   "halalFriendly": false,
   "bookingUrl": "https://maps.google.com/?q=33.8969119,-5.5403755",
   "source": "osm"
  },
  {
   "nom": "Tafilalet",
   "categorie": "Hôtel",
   "priceRange": "€€",
   "mapsUrl": "https://maps.google.com/?q=33.8996222,-5.5436987",
   "lat": 33.8996222,
   "lng": -5.5436987,
   "halalFriendly": false,
   "bookingUrl": "https://maps.google.com/?q=33.8996222,-5.5436987",
   "source": "osm"
  },
  {
   "nom": "Malta",
   "categorie": "Hôtel",
   "priceRange": "€€",
   "mapsUrl": "https://maps.google.com/?q=33.9004784,-5.5500992",
   "lat": 33.9004784,
   "lng": -5.5500992,
   "halalFriendly": false,
   "bookingUrl": "https://maps.google.com/?q=33.9004784,-5.5500992",
   "source": "osm"
  },
  {
   "nom": "إقامة",
   "categorie": "Appartement",
   "priceRange": "€€",
   "mapsUrl": "https://maps.google.com/?q=33.903033,-5.5449756",
   "lat": 33.903033,
   "lng": -5.5449756,
   "halalFriendly": false,
   "bookingUrl": "https://maps.google.com/?q=33.903033,-5.5449756",
   "source": "osm"
  },
  {
   "nom": "Riad Imperial Atlas",
   "categorie": "Maison d'hôtes",
   "priceRange": "€€",
   "mapsUrl": "https://maps.google.com/?q=33.8946216,-5.5591943",
   "lat": 33.8946216,
   "lng": -5.5591943,
   "halalFriendly": false,
   "bookingUrl": "https://maps.google.com/?q=33.8946216,-5.5591943",
   "source": "osm"
  },
  {
   "nom": "Hotel Maroc",
   "categorie": "Hôtel",
   "priceRange": "€€",
   "mapsUrl": "https://maps.google.com/?q=33.8939492,-5.5596593",
   "lat": 33.8939492,
   "lng": -5.5596593,
   "halalFriendly": false,
   "bookingUrl": "https://maps.google.com/?q=33.8939492,-5.5596593",
   "source": "osm"
  },
  {
   "nom": "Riad Lahboul",
   "categorie": "Maison d'hôtes",
   "priceRange": "€€",
   "mapsUrl": "https://maps.google.com/?q=33.8957654,-5.5612147",
   "lat": 33.8957654,
   "lng": -5.5612147,
   "halalFriendly": false,
   "bookingUrl": "https://maps.google.com/?q=33.8957654,-5.5612147",
   "source": "osm"
  },
  {
   "nom": "Agadir أكادير",
   "categorie": "Hôtel",
   "priceRange": "€€",
   "mapsUrl": "https://maps.google.com/?q=33.8946777,-5.5626037",
   "lat": 33.8946777,
   "lng": -5.5626037,
   "halalFriendly": false,
   "bookingUrl": "https://maps.google.com/?q=33.8946777,-5.5626037",
   "source": "osm"
  },
  {
   "nom": "Regina",
   "categorie": "Hôtel",
   "priceRange": "€€",
   "mapsUrl": "https://maps.google.com/?q=33.89449,-5.562741",
   "lat": 33.89449,
   "lng": -5.562741,
   "halalFriendly": false,
   "bookingUrl": "https://maps.google.com/?q=33.89449,-5.562741",
   "source": "osm"
  },
  {
   "nom": "Riad Yacout",
   "categorie": "Maison d'hôtes",
   "priceRange": "€€",
   "mapsUrl": "https://maps.google.com/?q=33.8936411,-5.5627875",
   "lat": 33.8936411,
   "lng": -5.5627875,
   "halalFriendly": false,
   "bookingUrl": "https://maps.google.com/?q=33.8936411,-5.5627875",
   "source": "osm"
  },
  {
   "nom": "Auberge de jeunesse",
   "categorie": "Auberge",
   "priceRange": "€€",
   "mapsUrl": "https://maps.google.com/?q=33.9034839,-5.5575094",
   "lat": 33.9034839,
   "lng": -5.5575094,
   "halalFriendly": false,
   "bookingUrl": "https://maps.google.com/?q=33.9034839,-5.5575094",
   "source": "osm"
  },
  {
   "nom": "Ryad Dar Al Meknassia",
   "categorie": "Hôtel",
   "priceRange": "€€",
   "mapsUrl": "https://maps.google.com/?q=33.8940196,-5.5631255",
   "lat": 33.8940196,
   "lng": -5.5631255,
   "halalFriendly": false,
   "bookingUrl": "https://maps.google.com/?q=33.8940196,-5.5631255",
   "source": "osm"
  },
  {
   "nom": "Riad Menthe et Citron",
   "categorie": "Auberge",
   "priceRange": "€€",
   "mapsUrl": "https://maps.google.com/?q=33.8956108,-5.5633302",
   "lat": 33.8956108,
   "lng": -5.5633302,
   "halalFriendly": false,
   "bookingUrl": "https://maps.google.com/?q=33.8956108,-5.5633302",
   "source": "osm"
  },
  {
   "nom": "Riad Yanis",
   "categorie": "Hôtel",
   "priceRange": "€€",
   "mapsUrl": "https://maps.google.com/?q=33.8942902,-5.5637628",
   "lat": 33.8942902,
   "lng": -5.5637628,
   "halalFriendly": false,
   "bookingUrl": "https://maps.google.com/?q=33.8942902,-5.5637628",
   "source": "osm"
  },
  {
   "nom": "Riad Safir",
   "categorie": "Maison d'hôtes",
   "priceRange": "€€",
   "mapsUrl": "https://maps.google.com/?q=33.8936796,-5.5647432",
   "lat": 33.8936796,
   "lng": -5.5647432,
   "halalFriendly": false,
   "bookingUrl": "https://maps.google.com/?q=33.8936796,-5.5647432",
   "source": "osm"
  },
  {
   "nom": "Hotel Transatlantique",
   "categorie": "Hôtel",
   "priceRange": "€€",
   "mapsUrl": "https://maps.google.com/?q=33.9034214,-5.5600999",
   "lat": 33.9034214,
   "lng": -5.5600999,
   "halalFriendly": false,
   "bookingUrl": "https://maps.google.com/?q=33.9034214,-5.5600999",
   "source": "osm"
  },
  {
   "nom": "إقامة النسيم",
   "categorie": "Appartement",
   "priceRange": "€€",
   "mapsUrl": "https://maps.google.com/?q=33.9080772,-5.5514541",
   "lat": 33.9080772,
   "lng": -5.5514541,
   "halalFriendly": false,
   "bookingUrl": "https://maps.google.com/?q=33.9080772,-5.5514541",
   "source": "osm"
  },
  {
   "nom": "Riad malak",
   "categorie": "Auberge",
   "priceRange": "€€",
   "mapsUrl": "https://maps.google.com/?q=33.8944525,-5.5654658",
   "lat": 33.8944525,
   "lng": -5.5654658,
   "halalFriendly": false,
   "bookingUrl": "https://maps.google.com/?q=33.8944525,-5.5654658",
   "source": "osm"
  },
  {
   "nom": "Riad Selma",
   "categorie": "Hôtel",
   "priceRange": "€€",
   "mapsUrl": "https://maps.google.com/?q=33.8946313,-5.5655104",
   "lat": 33.8946313,
   "lng": -5.5655104,
   "halalFriendly": false,
   "bookingUrl": "https://maps.google.com/?q=33.8946313,-5.5655104",
   "source": "osm"
  },
  {
   "nom": "Riad Ritaj",
   "categorie": "Hôtel",
   "priceRange": "€€",
   "mapsUrl": "https://maps.google.com/?q=33.8942017,-5.5655772",
   "lat": 33.8942017,
   "lng": -5.5655772,
   "halalFriendly": false,
   "bookingUrl": "https://maps.google.com/?q=33.8942017,-5.5655772",
   "source": "osm"
  }
 ],
 "mosqueesPrincipales": [
  {
   "id": "m1",
   "nom": "Grande Mosquée de Meknès",
   "type": "Mosquée",
   "adresse": "Centre-ville, Meknès",
   "description": "Mosquée principale de la ville, prière du vendredi.",
   "note": 5,
   "acces_non_musulmans": false,
   "mapsUrl": "https://maps.google.com/?q=Grande%20Mosqu%C3%A9e%20Mekn%C3%A8s%20Mekn%C3%A8s%20Maroc"
  }
 ],
 "activites": [
  {
   "id": "a1",
   "nom": "Bab Mansour",
   "categorie": "Histoire",
   "description": "L'une des plus belles portes monumentales du Maroc.",
   "prix": "Gratuit",
   "duree": "",
   "mapsUrl": "https://maps.google.com/?q=Bab%20Mansour%20Mekn%C3%A8s%20Maroc"
  },
  {
   "id": "a2",
   "nom": "Volubilis (cité romaine)",
   "categorie": "Histoire",
   "description": "Vaste site romain classé UNESCO, mosaïques remarquables.",
   "prix": "Payant",
   "duree": "",
   "mapsUrl": "https://maps.google.com/?q=Volubilis%20%28cit%C3%A9%20romaine%29%20Mekn%C3%A8s%20Maroc"
  },
  {
   "id": "a3",
   "nom": "Moulay Idriss Zerhoun",
   "categorie": "Spirituel",
   "description": "Ville sainte de pèlerinage perchée sur deux collines.",
   "prix": "Gratuit",
   "duree": "",
   "mapsUrl": "https://maps.google.com/?q=Moulay%20Idriss%20Zerhoun%20Mekn%C3%A8s%20Maroc"
  },
  {
   "id": "a4",
   "nom": "Greniers et écuries de Moulay Ismaïl",
   "categorie": "Histoire",
   "description": "Immenses greniers royaux et bassin de l'Agdal.",
   "prix": "Payant",
   "duree": "",
   "mapsUrl": "https://maps.google.com/?q=Greniers%20et%20%C3%A9curies%20de%20Moulay%20Isma%C3%AFl%20Mekn%C3%A8s%20Maroc"
  }
 ],
 "imageCredit": "Wikimedia Commons",
 "osmEnriched": true,
 "osmEnrichedAt": "2026-06-30"
}
