{
 "slug": "mexico",
 "nom": "Mexico",
 "pays": "Mexique",
 "pays_slug": "mexique",
 "continent": "Amérique du Nord",
 "region": "Mexique",
 "coordonnees": {
  "lat": 19.4326,
  "lng": -99.1332
 },
 "codeISO": "MX",
 "score_halal": 2.9,
 "halalScore": 5.8,
 "villeNonMusulmane": true,
 "description": "Mégapole d'altitude à l'histoire riche. Offre halal modeste et centre islamique dans la capitale.",
 "metaDescription": "Mégapole d'altitude à l'histoire riche. Offre halal modeste et centre islamique dans la capitale.",
 "image": "https://upload.wikimedia.org/wikipedia/commons/thumb/4/4f/Sobrevuelos_CDMX_HJ2A4913_%2825514321687%29_%28cropped%29.jpg/1600px-Sobrevuelos_CDMX_HJ2A4913_%2825514321687%29_%28cropped%29.jpg",
 "image_hero": "https://upload.wikimedia.org/wikipedia/commons/thumb/4/4f/Sobrevuelos_CDMX_HJ2A4913_%2825514321687%29_%28cropped%29.jpg/1600px-Sobrevuelos_CDMX_HJ2A4913_%2825514321687%29_%28cropped%29.jpg",
 "imageCredit": "Wikimedia Commons",
 "statistiques": {
  "restaurants_halal": 13,
  "mosquees": 3,
  "hotels": 40
 },
 "infoPratique": {
  "transport": "Accessible par avion et transports en commun locaux.",
  "meilleureEpoque": "Printemps et automne (climat tempéré).",
  "conseilHalal": "Ville non-musulmane : repérez les restaurants halal certifiés et les mosquées via l'application avant votre visite."
 },
 "tags": [
  "halal",
  "ville non-musulmane",
  "amérique du nord"
 ],
 "restaurants": [
  {
   "nom": "La cinco de mayo",
   "type": "kebab, mexican",
   "priceRange": "€€",
   "mapsUrl": "https://maps.google.com/?q=19.4342711,-99.1377013",
   "lat": 19.4342711,
   "lng": -99.1377013,
   "halalConfidence": "likely",
   "source": "osm"
  },
  {
   "nom": "Helus",
   "type": "lebanese",
   "priceRange": "€€",
   "mapsUrl": "https://maps.google.com/?q=19.4286004,-99.1298986",
   "lat": 19.4286004,
   "lng": -99.1298986,
   "halalConfidence": "likely",
   "source": "osm"
  },
  {
   "nom": "al-Andalus",
   "type": "lebanese",
   "priceRange": "€€",
   "mapsUrl": "https://maps.google.com/?q=19.4277282,-99.1290975",
   "lat": 19.4277282,
   "lng": -99.1290975,
   "halalConfidence": "likely",
   "source": "osm"
  },
  {
   "nom": "Al Diwan",
   "type": "lebanese",
   "priceRange": "€€",
   "mapsUrl": "https://maps.google.com/?q=19.4174154,-99.1568604",
   "lat": 19.4174154,
   "lng": -99.1568604,
   "halalConfidence": "likely",
   "source": "osm"
  },
  {
   "nom": "Meramiyeh",
   "type": "lebanese",
   "priceRange": "€€",
   "mapsUrl": "https://maps.google.com/?q=19.4146138,-99.1619536",
   "lat": 19.4146138,
   "lng": -99.1619536,
   "halalConfidence": "likely",
   "source": "osm"
  },
  {
   "nom": "El Jamil",
   "type": "lebanese",
   "priceRange": "€€",
   "mapsUrl": "https://maps.google.com/?q=19.4141665,-99.166988",
   "lat": 19.4141665,
   "lng": -99.166988,
   "halalConfidence": "likely",
   "source": "osm"
  },
  {
   "nom": "Delicias de Líbano",
   "type": "arab",
   "priceRange": "€€",
   "mapsUrl": "https://maps.google.com/?q=19.3964674,-99.1475538",
   "lat": 19.3964674,
   "lng": -99.1475538,
   "halalConfidence": "likely",
   "source": "osm"
  },
  {
   "nom": "Falafelito",
   "type": "lebanese",
   "priceRange": "€€",
   "mapsUrl": "https://maps.google.com/?q=19.410245,-99.1692808",
   "lat": 19.410245,
   "lng": -99.1692808,
   "halalConfidence": "likely",
   "source": "osm"
  },
  {
   "nom": "Hayito",
   "type": "arab",
   "priceRange": "€€",
   "mapsUrl": "https://maps.google.com/?q=19.3928977,-99.1508563",
   "lat": 19.3928977,
   "lng": -99.1508563,
   "halalConfidence": "likely",
   "source": "osm"
  },
  {
   "nom": "Taqueria Don Eraki",
   "type": "arab",
   "priceRange": "€€",
   "mapsUrl": "https://maps.google.com/?q=19.3934245,-99.1531522",
   "lat": 19.3934245,
   "lng": -99.1531522,
   "halalConfidence": "likely",
   "source": "osm"
  },
  {
   "nom": "Pitas Saleh",
   "type": "arab",
   "priceRange": "€€",
   "mapsUrl": "https://maps.google.com/?q=19.3829971,-99.1569351",
   "lat": 19.3829971,
   "lng": -99.1569351,
   "halalConfidence": "likely",
   "source": "osm"
  },
  {
   "nom": "Alibaba",
   "type": "arab",
   "priceRange": "€€",
   "mapsUrl": "https://maps.google.com/?q=19.3872647,-99.1715562",
   "lat": 19.3872647,
   "lng": -99.1715562,
   "halalConfidence": "likely",
   "source": "osm"
  },
  {
   "nom": "Nahnu -Tacos Árabes",
   "type": "kebab",
   "priceRange": "€€",
   "mapsUrl": "https://maps.google.com/?q=19.4307866,-99.1969708",
   "lat": 19.4307866,
   "lng": -99.1969708,
   "halalConfidence": "likely",
   "source": "osm"
  }
 ],
 "hotels": [
  {
   "nom": "Best Western Hotel Majestic",
   "categorie": "Hôtel",
   "priceRange": "€€€€",
   "score": 4,
   "mapsUrl": "https://maps.google.com/?q=19.4329711,-99.1343673",
   "lat": 19.4329711,
   "lng": -99.1343673,
   "halalFriendly": false,
   "bookingUrl": "https://hotelmajestic.com.mx/",
   "source": "osm"
  },
  {
   "nom": "Gran Hotel Ciudad de México",
   "categorie": "Hôtel",
   "priceRange": "€€",
   "mapsUrl": "https://maps.google.com/?q=19.4322694,-99.13468",
   "lat": 19.4322694,
   "lng": -99.13468,
   "halalFriendly": false,
   "bookingUrl": "https://granhoteldelaciudaddemexico.com.mx/",
   "source": "osm"
  },
  {
   "nom": "Zócalo Central",
   "categorie": "Hôtel",
   "priceRange": "€€",
   "mapsUrl": "https://maps.google.com/?q=19.4338373,-99.1342979",
   "lat": 19.4338373,
   "lng": -99.1342979,
   "halalFriendly": false,
   "bookingUrl": "https://maps.google.com/?q=19.4338373,-99.1342979",
   "source": "osm"
  },
  {
   "nom": "Balcón del Zócalo",
   "categorie": "Hôtel",
   "priceRange": "€€",
   "mapsUrl": "https://maps.google.com/?q=19.4338757,-99.1345995",
   "lat": 19.4338757,
   "lng": -99.1345995,
   "halalFriendly": false,
   "bookingUrl": "https://maps.google.com/?q=19.4338757,-99.1345995",
   "source": "osm"
  },
  {
   "nom": "Casa Herrmann",
   "categorie": "Hôtel",
   "priceRange": "€€",
   "mapsUrl": "https://maps.google.com/?q=19.4323991,-99.1354462",
   "lat": 19.4323991,
   "lng": -99.1354462,
   "halalFriendly": false,
   "bookingUrl": "https://www.casaherrmann.com.mx/",
   "source": "osm"
  },
  {
   "nom": "NH Collection Mexico City Centro Histórico",
   "categorie": "Hôtel",
   "priceRange": "€€",
   "mapsUrl": "https://maps.google.com/?q=19.4315917,-99.135338",
   "lat": 19.4315917,
   "lng": -99.135338,
   "halalFriendly": false,
   "bookingUrl": "https://www.nh-hotels.com/en/hotel/nh-collection-mexico-city-centro-historico",
   "source": "osm"
  },
  {
   "nom": "Zocalo Rooms",
   "categorie": "Hôtel",
   "priceRange": "€€",
   "mapsUrl": "https://maps.google.com/?q=19.4304094,-99.1325453",
   "lat": 19.4304094,
   "lng": -99.1325453,
   "halalFriendly": false,
   "bookingUrl": "https://maps.google.com/?q=19.4304094,-99.1325453",
   "source": "osm"
  },
  {
   "nom": "MX zócalo",
   "categorie": "Hôtel",
   "priceRange": "€€",
   "mapsUrl": "https://maps.google.com/?q=19.4337529,-99.1355272",
   "lat": 19.4337529,
   "lng": -99.1355272,
   "halalFriendly": false,
   "bookingUrl": "https://www.hotelesmx.com/mx-zocalo",
   "source": "osm"
  },
  {
   "nom": "Circulo Mexicano",
   "categorie": "Hôtel",
   "priceRange": "€€",
   "mapsUrl": "https://maps.google.com/?q=19.4351439,-99.1328504",
   "lat": 19.4351439,
   "lng": -99.1328504,
   "halalFriendly": false,
   "bookingUrl": "https://maps.google.com/?q=19.4351439,-99.1328504",
   "source": "osm"
  },
  {
   "nom": "Hotel Moneda",
   "categorie": "Hôtel",
   "priceRange": "€€",
   "mapsUrl": "https://maps.google.com/?q=19.4335756,-99.1306817",
   "lat": 19.4335756,
   "lng": -99.1306817,
   "halalFriendly": false,
   "bookingUrl": "https://maps.google.com/?q=19.4335756,-99.1306817",
   "source": "osm"
  },
  {
   "nom": "Casa Pepe",
   "categorie": "Hôtel",
   "priceRange": "€€",
   "mapsUrl": "https://maps.google.com/?q=19.4303338,-99.1344888",
   "lat": 19.4303338,
   "lng": -99.1344888,
   "halalFriendly": false,
   "bookingUrl": "https://casapepe.mx/casa-pepe-cdmx/",
   "source": "osm"
  },
  {
   "nom": "Hotel Washington",
   "categorie": "Hôtel",
   "priceRange": "€€",
   "mapsUrl": "https://maps.google.com/?q=19.4343034,-99.1352563",
   "lat": 19.4343034,
   "lng": -99.1352563,
   "halalFriendly": false,
   "bookingUrl": "https://maps.google.com/?q=19.4343034,-99.1352563",
   "source": "osm"
  },
  {
   "nom": "Hostel Mundo Joven Catedral",
   "categorie": "Auberge",
   "priceRange": "€€",
   "mapsUrl": "https://maps.google.com/?q=19.435202,-99.133603",
   "lat": 19.435202,
   "lng": -99.133603,
   "halalFriendly": false,
   "bookingUrl": "https://maps.google.com/?q=19.435202,-99.133603",
   "source": "osm"
  },
  {
   "nom": "Roble",
   "categorie": "Hôtel",
   "priceRange": "€€",
   "mapsUrl": "https://maps.google.com/?q=19.4298939,-99.1327841",
   "lat": 19.4298939,
   "lng": -99.1327841,
   "halalFriendly": false,
   "bookingUrl": "https://maps.google.com/?q=19.4298939,-99.1327841",
   "source": "osm"
  },
  {
   "nom": "Hotel Zamora",
   "categorie": "Hôtel",
   "priceRange": "€€",
   "mapsUrl": "https://maps.google.com/?q=19.4343336,-99.1354917",
   "lat": 19.4343336,
   "lng": -99.1354917,
   "halalFriendly": false,
   "bookingUrl": "https://maps.google.com/?q=19.4343336,-99.1354917",
   "source": "osm"
  },
  {
   "nom": "Hotel Canada Central",
   "categorie": "Hôtel",
   "priceRange": "€€",
   "mapsUrl": "https://maps.google.com/?q=19.4340694,-99.1357174",
   "lat": 19.4340694,
   "lng": -99.1357174,
   "halalFriendly": false,
   "bookingUrl": "https://www.centralhoteles.com/hotels/canada-central-rooftop/",
   "source": "osm"
  },
  {
   "nom": "Hotel Rioja",
   "categorie": "Hôtel",
   "priceRange": "€€",
   "mapsUrl": "https://maps.google.com/?q=19.4340783,-99.13583",
   "lat": 19.4340783,
   "lng": -99.13583,
   "halalFriendly": false,
   "bookingUrl": "https://www.hotelrioja.com.mx/",
   "source": "osm"
  },
  {
   "nom": "Hampton Inn",
   "categorie": "Hôtel",
   "priceRange": "€€",
   "mapsUrl": "https://maps.google.com/?q=19.4299764,-99.1345745",
   "lat": 19.4299764,
   "lng": -99.1345745,
   "halalFriendly": false,
   "bookingUrl": "http://www.hamptonmexicocity.com",
   "source": "osm"
  },
  {
   "nom": "Casa de la Luz",
   "categorie": "Hôtel",
   "priceRange": "€€",
   "mapsUrl": "https://maps.google.com/?q=19.4295807,-99.1330363",
   "lat": 19.4295807,
   "lng": -99.1330363,
   "halalFriendly": false,
   "bookingUrl": "https://maps.google.com/?q=19.4295807,-99.1330363",
   "source": "osm"
  },
  {
   "nom": "Juarez",
   "categorie": "Hôtel",
   "priceRange": "€€",
   "mapsUrl": "https://maps.google.com/?q=19.4346584,-99.1355678",
   "lat": 19.4346584,
   "lng": -99.1355678,
   "halalFriendly": false,
   "bookingUrl": "https://maps.google.com/?q=19.4346584,-99.1355678",
   "source": "osm"
  },
  {
   "nom": "Mexico City Hostel",
   "categorie": "Auberge",
   "priceRange": "€€",
   "mapsUrl": "https://maps.google.com/?q=19.4356304,-99.1335944",
   "lat": 19.4356304,
   "lng": -99.1335944,
   "halalFriendly": false,
   "bookingUrl": "https://maps.google.com/?q=19.4356304,-99.1335944",
   "source": "osm"
  },
  {
   "nom": "Hotel Catedral",
   "categorie": "Hôtel",
   "priceRange": "€€",
   "mapsUrl": "https://maps.google.com/?q=19.4357717,-99.1330672",
   "lat": 19.4357717,
   "lng": -99.1330672,
   "halalFriendly": false,
   "bookingUrl": "https://maps.google.com/?q=19.4357717,-99.1330672",
   "source": "osm"
  },
  {
   "nom": "Hotel Gillow",
   "categorie": "Hôtel",
   "priceRange": "€€",
   "mapsUrl": "https://maps.google.com/?q=19.4340053,-99.1362735",
   "lat": 19.4340053,
   "lng": -99.1362735,
   "halalFriendly": false,
   "bookingUrl": "https://hotelgillow.com.mx/",
   "source": "osm"
  },
  {
   "nom": "Hostal Historico",
   "categorie": "Auberge",
   "priceRange": "€€",
   "mapsUrl": "https://maps.google.com/?q=19.4358286,-99.1338962",
   "lat": 19.4358286,
   "lng": -99.1338962,
   "halalFriendly": false,
   "bookingUrl": "https://maps.google.com/?q=19.4358286,-99.1338962",
   "source": "osm"
  },
  {
   "nom": "Hotel Montecarlo",
   "categorie": "Hôtel",
   "priceRange": "€€",
   "mapsUrl": "https://maps.google.com/?q=19.4302987,-99.1360753",
   "lat": 19.4302987,
   "lng": -99.1360753,
   "halalFriendly": false,
   "bookingUrl": "https://maps.google.com/?q=19.4302987,-99.1360753",
   "source": "osm"
  },
  {
   "nom": "Hotel Azores",
   "categorie": "Hôtel",
   "priceRange": "€€",
   "mapsUrl": "https://maps.google.com/?q=19.4365505,-99.1336007",
   "lat": 19.4365505,
   "lng": -99.1336007,
   "halalFriendly": false,
   "bookingUrl": "https://maps.google.com/?q=19.4365505,-99.1336007",
   "source": "osm"
  },
  {
   "nom": "Hostel Amigo Suites Downtown",
   "categorie": "Auberge",
   "priceRange": "€€",
   "mapsUrl": "https://maps.google.com/?q=19.4366015,-99.1328413",
   "lat": 19.4366015,
   "lng": -99.1328413,
   "halalFriendly": false,
   "bookingUrl": "https://maps.google.com/?q=19.4366015,-99.1328413",
   "source": "osm"
  },
  {
   "nom": "Apapacho Hostel",
   "categorie": "Auberge",
   "priceRange": "€€",
   "mapsUrl": "https://maps.google.com/?q=19.4287426,-99.1349627",
   "lat": 19.4287426,
   "lng": -99.1349627,
   "halalFriendly": false,
   "bookingUrl": "https://apapachohostel.com/es/inicio/",
   "source": "osm"
  },
  {
   "nom": "Hostel Amigo Suites",
   "categorie": "Auberge",
   "priceRange": "€€",
   "mapsUrl": "https://maps.google.com/?q=19.4367982,-99.1328385",
   "lat": 19.4367982,
   "lng": -99.1328385,
   "halalFriendly": false,
   "bookingUrl": "https://maps.google.com/?q=19.4367982,-99.1328385",
   "source": "osm"
  },
  {
   "nom": "Hotel Patria",
   "categorie": "Hôtel",
   "priceRange": "€€",
   "mapsUrl": "https://maps.google.com/?q=19.4287764,-99.1312007",
   "lat": 19.4287764,
   "lng": -99.1312007,
   "halalFriendly": false,
   "bookingUrl": "https://hotel-patria.com/",
   "source": "osm"
  },
  {
   "nom": "Hostal Amigo",
   "categorie": "Auberge",
   "priceRange": "€€",
   "mapsUrl": "https://maps.google.com/?q=19.4300827,-99.1368674",
   "lat": 19.4300827,
   "lng": -99.1368674,
   "halalFriendly": false,
   "bookingUrl": "https://maps.google.com/?q=19.4300827,-99.1368674",
   "source": "osm"
  },
  {
   "nom": "Hotel Isabel",
   "categorie": "Hôtel",
   "priceRange": "€€",
   "mapsUrl": "https://maps.google.com/?q=19.4299193,-99.1369075",
   "lat": 19.4299193,
   "lng": -99.1369075,
   "halalFriendly": false,
   "bookingUrl": "http://www.hotel-isabel.com.mx/",
   "source": "osm"
  },
  {
   "nom": "Hotel Ritz",
   "categorie": "Hôtel",
   "priceRange": "€€",
   "mapsUrl": "https://maps.google.com/?q=19.4338058,-99.1378811",
   "lat": 19.4338058,
   "lng": -99.1378811,
   "halalFriendly": false,
   "bookingUrl": "https://maps.google.com/?q=19.4338058,-99.1378811",
   "source": "osm"
  },
  {
   "nom": "Punto MX",
   "categorie": "Hôtel",
   "priceRange": "€€",
   "mapsUrl": "https://maps.google.com/?q=19.4305567,-99.1376",
   "lat": 19.4305567,
   "lng": -99.1376,
   "halalFriendly": false,
   "bookingUrl": "https://maps.google.com/?q=19.4305567,-99.1376",
   "source": "osm"
  },
  {
   "nom": "Casa San Ildefonso",
   "categorie": "Hôtel",
   "priceRange": "€€",
   "mapsUrl": "https://maps.google.com/?q=19.4365013,-99.1304444",
   "lat": 19.4365013,
   "lng": -99.1304444,
   "halalFriendly": false,
   "bookingUrl": "https://maps.google.com/?q=19.4365013,-99.1304444",
   "source": "osm"
  },
  {
   "nom": "Viajero CDMX Centro",
   "categorie": "Auberge",
   "priceRange": "€€",
   "mapsUrl": "https://maps.google.com/?q=19.4365414,-99.1304074",
   "lat": 19.4365414,
   "lng": -99.1304074,
   "halalFriendly": false,
   "bookingUrl": "https://www.viajerohostels.com/en/destinations-mexico/mexico-city/",
   "source": "osm"
  },
  {
   "nom": "Hotel Templo Mayor",
   "categorie": "Hôtel",
   "priceRange": "€€",
   "mapsUrl": "https://maps.google.com/?q=19.4361914,-99.1297162",
   "lat": 19.4361914,
   "lng": -99.1297162,
   "halalFriendly": false,
   "bookingUrl": "https://maps.google.com/?q=19.4361914,-99.1297162",
   "source": "osm"
  },
  {
   "nom": "Hotel Principal",
   "categorie": "Hôtel",
   "priceRange": "€€",
   "mapsUrl": "https://maps.google.com/?q=19.4329089,-99.1385759",
   "lat": 19.4329089,
   "lng": -99.1385759,
   "halalFriendly": false,
   "bookingUrl": "https://hotelprincipal.com/",
   "source": "osm"
  },
  {
   "nom": "Hostal Regina",
   "categorie": "Auberge",
   "priceRange": "€€",
   "mapsUrl": "https://maps.google.com/?q=19.4277509,-99.1351814",
   "lat": 19.4277509,
   "lng": -99.1351814,
   "halalFriendly": false,
   "bookingUrl": "https://maps.google.com/?q=19.4277509,-99.1351814",
   "source": "osm"
  },
  {
   "nom": "Hotel Niza",
   "categorie": "Hôtel",
   "priceRange": "€€",
   "mapsUrl": "https://maps.google.com/?q=19.4283419,-99.1364214",
   "lat": 19.4283419,
   "lng": -99.1364214,
   "halalFriendly": false,
   "bookingUrl": "https://hotelniza.mxhotel.site/",
   "source": "osm"
  }
 ],
 "mosqueesPrincipales": [
  {
   "id": "m158032446",
   "nom": "Iglesia de San Francisco",
   "type": "Mosquée",
   "adresse": "Calle Francisco I. Madero, Ciudad de México",
   "description": "Lieu de prière (OpenStreetMap).",
   "mapsUrl": "https://maps.google.com/?q=19.433486,-99.1399939",
   "lat": 19.433486,
   "lng": -99.1399939,
   "source": "osm"
  },
  {
   "id": "m1238112250",
   "nom": "Mezquita Baitul Áfiyat",
   "type": "Mosquée",
   "adresse": "Avenida Insurgentes Norte, CDMX",
   "description": "Lieu de prière (OpenStreetMap).",
   "mapsUrl": "https://maps.google.com/?q=19.4606746,-99.1467119",
   "lat": 19.4606746,
   "lng": -99.1467119,
   "source": "osm"
  },
  {
   "id": "m120733641",
   "nom": "Basílica de Santa María de Guadalupe",
   "type": "Mosquée",
   "adresse": "",
   "description": "Lieu de prière (OpenStreetMap).",
   "mapsUrl": "https://maps.google.com/?q=19.4848445,-99.1178568",
   "lat": 19.4848445,
   "lng": -99.1178568,
   "source": "osm"
  }
 ],
 "activites": [
  {
   "id": "a13087996382",
   "nom": "Balcón Presidencial",
   "categorie": "attraction",
   "description": "",
   "prix": "",
   "duree": "",
   "mapsUrl": "https://maps.google.com/?q=19.4325572,-99.1319688",
   "lat": 19.4325572,
   "lng": -99.1319688,
   "source": "osm"
  },
  {
   "id": "a10972922370",
   "nom": "Museo Salón de Cabildos",
   "categorie": "museum",
   "description": "",
   "prix": "",
   "duree": "",
   "mapsUrl": "https://maps.google.com/?q=19.4317186,-99.1340079",
   "lat": 19.4317186,
   "lng": -99.1340079,
   "source": "osm"
  },
  {
   "id": "a10125131762",
   "nom": "Monumento hipsográfico",
   "categorie": "memorial",
   "description": "",
   "prix": "",
   "duree": "",
   "mapsUrl": "https://maps.google.com/?q=19.4339423,-99.1338696",
   "lat": 19.4339423,
   "lng": -99.1338696,
   "source": "osm"
  },
  {
   "id": "a11016353568",
   "nom": "Monumento a la Mexicanidad",
   "categorie": "memorial",
   "description": "",
   "prix": "",
   "duree": "",
   "mapsUrl": "https://maps.google.com/?q=19.4311923,-99.1324678",
   "lat": 19.4311923,
   "lng": -99.1324678,
   "source": "osm"
  },
  {
   "id": "a13086077152",
   "nom": "Museo UNAM Hoy",
   "categorie": "museum",
   "description": "",
   "prix": "",
   "duree": "",
   "mapsUrl": "https://maps.google.com/?q=19.4337182,-99.131851",
   "lat": 19.4337182,
   "lng": -99.131851,
   "source": "osm"
  },
  {
   "id": "a13086077153",
   "nom": "Fundación Herdez",
   "categorie": "museum",
   "description": "",
   "prix": "",
   "duree": "",
   "mapsUrl": "https://maps.google.com/?q=19.4338104,-99.1318398",
   "lat": 19.4338104,
   "lng": -99.1318398,
   "source": "osm"
  },
  {
   "id": "a9049361313",
   "nom": "Juan Pablo II",
   "categorie": "memorial",
   "description": "",
   "prix": "",
   "duree": "",
   "mapsUrl": "https://maps.google.com/?q=19.4343663,-99.1334027",
   "lat": 19.4343663,
   "lng": -99.1334027,
   "source": "osm"
  },
  {
   "id": "a13086077147",
   "nom": "Museo de la Secretaría de Hacienda y Crédito Público",
   "categorie": "museum",
   "description": "",
   "prix": "",
   "duree": "",
   "mapsUrl": "https://maps.google.com/?q=19.4336654,-99.131352",
   "lat": 19.4336654,
   "lng": -99.131352,
   "source": "osm"
  },
  {
   "id": "a217317617",
   "nom": "Casa de la Primera Imprenta de América",
   "categorie": "museum",
   "description": "",
   "prix": "",
   "duree": "",
   "mapsUrl": "https://maps.google.com/?q=19.4336753,-99.1307843",
   "lat": 19.4336753,
   "lng": -99.1307843,
   "source": "osm"
  },
  {
   "id": "a5675720122",
   "nom": "Archivo de la Fotografía",
   "categorie": "museum",
   "description": "",
   "prix": "",
   "duree": "",
   "mapsUrl": "https://maps.google.com/?q=19.4350046,-99.1321427",
   "lat": 19.4350046,
   "lng": -99.1321427,
   "source": "osm"
  },
  {
   "id": "a6081141093",
   "nom": "Calle Madero",
   "categorie": "attraction",
   "description": "",
   "prix": "",
   "duree": "",
   "mapsUrl": "https://maps.google.com/?q=19.4334111,-99.1358477",
   "lat": 19.4334111,
   "lng": -99.1358477,
   "source": "osm"
  },
  {
   "id": "a13076849597",
   "nom": "Galería de la SHCP",
   "categorie": "gallery",
   "description": "",
   "prix": "",
   "duree": "",
   "mapsUrl": "https://maps.google.com/?q=19.4352312,-99.1334951",
   "lat": 19.4352312,
   "lng": -99.1334951,
   "source": "osm"
  },
  {
   "id": "a13086110272",
   "nom": "Ex Teresa Arte Actual",
   "categorie": "museum",
   "description": "",
   "prix": "",
   "duree": "",
   "mapsUrl": "https://maps.google.com/?q=19.4340858,-99.1306533",
   "lat": 19.4340858,
   "lng": -99.1306533,
   "source": "osm"
  },
  {
   "id": "a217323406",
   "nom": "Museo Estanquillo",
   "categorie": "museum",
   "description": "",
   "prix": "",
   "duree": "",
   "mapsUrl": "https://maps.google.com/?q=19.4332642,-99.1361213",
   "lat": 19.4332642,
   "lng": -99.1361213,
   "source": "osm"
  },
  {
   "id": "a13710468810",
   "nom": "Museo Foro Valparaíso",
   "categorie": "museum",
   "description": "",
   "prix": "",
   "duree": "",
   "mapsUrl": "https://maps.google.com/?q=19.4316354,-99.136248",
   "lat": 19.4316354,
   "lng": -99.136248,
   "source": "osm"
  },
  {
   "id": "a217316690",
   "nom": "Museo de la Caricatura",
   "categorie": "museum",
   "description": "",
   "prix": "",
   "duree": "",
   "mapsUrl": "https://maps.google.com/?q=19.435663,-99.1326739",
   "lat": 19.435663,
   "lng": -99.1326739,
   "source": "osm"
  },
  {
   "id": "a217324707",
   "nom": "Museo de la Ciudad de México",
   "categorie": "museum",
   "description": "",
   "prix": "",
   "duree": "",
   "mapsUrl": "https://maps.google.com/?q=19.4292631,-99.1321346",
   "lat": 19.4292631,
   "lng": -99.1321346,
   "source": "osm"
  },
  {
   "id": "a1421957023",
   "nom": "Museo Templo Mayor",
   "categorie": "museum",
   "description": "",
   "prix": "",
   "duree": "",
   "mapsUrl": "https://maps.google.com/?q=19.4349037,-99.1303",
   "lat": 19.4349037,
   "lng": -99.1303,
   "source": "osm"
  },
  {
   "id": "a1869125358",
   "nom": "Museo Interactivo Bimbo",
   "categorie": "museum",
   "description": "",
   "prix": "",
   "duree": "",
   "mapsUrl": "https://maps.google.com/?q=19.4311749,-99.1368205",
   "lat": 19.4311749,
   "lng": -99.1368205,
   "source": "osm"
  },
  {
   "id": "a1421957001",
   "nom": "Museo José Luis Cuevas",
   "categorie": "museum",
   "description": "",
   "prix": "",
   "duree": "",
   "mapsUrl": "https://maps.google.com/?q=19.4336695,-99.1291324",
   "lat": 19.4336695,
   "lng": -99.1291324,
   "source": "osm"
  },
  {
   "id": "a1421957132",
   "nom": "Antigua Academia de San Carlos",
   "categorie": "museum",
   "description": "",
   "prix": "",
   "duree": "",
   "mapsUrl": "https://maps.google.com/?q=19.4329774,-99.1284853",
   "lat": 19.4329774,
   "lng": -99.1284853,
   "source": "osm"
  },
  {
   "id": "a13538873814",
   "nom": "Museo Vivo del Muralismo",
   "categorie": "museum",
   "description": "",
   "prix": "",
   "duree": "",
   "mapsUrl": "https://maps.google.com/?q=19.436962,-99.1316145",
   "lat": 19.436962,
   "lng": -99.1316145,
   "source": "osm"
  },
  {
   "id": "a5117909174",
   "nom": "Casa San Idelfonso",
   "categorie": "museum",
   "description": "",
   "prix": "",
   "duree": "",
   "mapsUrl": "https://maps.google.com/?q=19.4364864,-99.1305102",
   "lat": 19.4364864,
   "lng": -99.1305102,
   "source": "osm"
  },
  {
   "id": "a6816091585",
   "nom": "Museo del Calzado El Borceguí",
   "categorie": "museum",
   "description": "",
   "prix": "",
   "duree": "",
   "mapsUrl": "https://maps.google.com/?q=19.4331077,-99.1385286",
   "lat": 19.4331077,
   "lng": -99.1385286,
   "source": "osm"
  },
  {
   "id": "a4511105864",
   "nom": "Museo Casa de la Memoria Indómita",
   "categorie": "museum",
   "description": "",
   "prix": "",
   "duree": "",
   "mapsUrl": "https://maps.google.com/?q=19.4277059,-99.1347999",
   "lat": 19.4277059,
   "lng": -99.1347999,
   "source": "osm"
  },
  {
   "id": "a9758534117",
   "nom": "Antigua sede de La Inquisición",
   "categorie": "attraction",
   "description": "",
   "prix": "",
   "duree": "",
   "mapsUrl": "https://maps.google.com/?q=19.4377405,-99.1334512",
   "lat": 19.4377405,
   "lng": -99.1334512,
   "source": "osm"
  },
  {
   "id": "a13054773631",
   "nom": "Museo de la Cancillería",
   "categorie": "museum",
   "description": "",
   "prix": "",
   "duree": "",
   "mapsUrl": "https://maps.google.com/?q=19.4297923,-99.138172",
   "lat": 19.4297923,
   "lng": -99.138172,
   "source": "osm"
  },
  {
   "id": "a526228482",
   "nom": "Museo de las Constituciones",
   "categorie": "museum",
   "description": "",
   "prix": "",
   "duree": "",
   "mapsUrl": "https://maps.google.com/?q=19.4367199,-99.1292275",
   "lat": 19.4367199,
   "lng": -99.1292275,
   "source": "osm"
  },
  {
   "id": "a158032454",
   "nom": "Palacio de Iturbide",
   "categorie": "attraction",
   "description": "",
   "prix": "",
   "duree": "",
   "mapsUrl": "https://maps.google.com/?q=19.4336182,-99.1390405",
   "lat": 19.4336182,
   "lng": -99.1390405,
   "source": "osm"
  },
  {
   "id": "a217319058",
   "nom": "Casa de Leona Vicario",
   "categorie": "museum",
   "description": "",
   "prix": "",
   "duree": "",
   "mapsUrl": "https://maps.google.com/?q=19.4383488,-99.1332193",
   "lat": 19.4383488,
   "lng": -99.1332193,
   "source": "osm"
  }
 ],
 "scoreIndicatif": true,
 "osmEnriched": true,
 "osmEnrichedAt": "2026-06-30"
}
