{
 "slug": "mexico",
 "nom": "Mexico",
 "pays": "Mexique",
 "pays_slug": "mexique",
 "continent": "Amérique du Nord",
 "region": "Mexique",
 "coordonnees": {
  "lat": 19.4326,
  "lng": -99.1332
 },
 "codeISO": "MX",
 "score_halal": 2.9,
 "halalScore": 5.8,
 "villeNonMusulmane": true,
 "description": "Mégapole d'altitude à l'histoire riche. Offre halal modeste et centre islamique dans la capitale.",
 "metaDescription": "Mégapole d'altitude à l'histoire riche. Offre halal modeste et centre islamique dans la capitale.",
 "image": "https://upload.wikimedia.org/wikipedia/commons/thumb/4/4f/Sobrevuelos_CDMX_HJ2A4913_%2825514321687%29_%28cropped%29.jpg/1600px-Sobrevuelos_CDMX_HJ2A4913_%2825514321687%29_%28cropped%29.jpg",
 "image_hero": "https://upload.wikimedia.org/wikipedia/commons/thumb/4/4f/Sobrevuelos_CDMX_HJ2A4913_%2825514321687%29_%28cropped%29.jpg/1600px-Sobrevuelos_CDMX_HJ2A4913_%2825514321687%29_%28cropped%29.jpg",
 "imageCredit": "Wikimedia Commons",
 "statistiques": {
  "restaurants_halal": 16,
  "mosquees": 4,
  "hotels": 120
 },
 "infoPratique": {
  "transport": "Accessible par avion et transports en commun locaux.",
  "meilleureEpoque": "Printemps et automne (climat tempéré).",
  "conseilHalal": "Ville non-musulmane : repérez les restaurants halal certifiés et les mosquées via l'application avant votre visite."
 },
 "tags": [
  "halal",
  "ville non-musulmane",
  "amérique du nord"
 ],
 "restaurants": [
  {
   "nom": "La cinco de mayo",
   "type": "kebab, mexican",
   "priceRange": "€€",
   "mapsUrl": "https://maps.google.com/?q=19.4342711,-99.1377013",
   "lat": 19.4342711,
   "lng": -99.1377013,
   "halalConfidence": "likely",
   "source": "osm"
  },
  {
   "nom": "Helus",
   "type": "lebanese",
   "priceRange": "€€",
   "mapsUrl": "https://maps.google.com/?q=19.4286004,-99.1298986",
   "lat": 19.4286004,
   "lng": -99.1298986,
   "halalConfidence": "likely",
   "source": "osm"
  },
  {
   "nom": "al-Andalus",
   "type": "lebanese",
   "priceRange": "€€",
   "mapsUrl": "https://maps.google.com/?q=19.4277282,-99.1290975",
   "lat": 19.4277282,
   "lng": -99.1290975,
   "halalConfidence": "likely",
   "source": "osm"
  },
  {
   "nom": "Al Diwan",
   "type": "lebanese",
   "priceRange": "€€",
   "mapsUrl": "https://maps.google.com/?q=19.4174154,-99.1568604",
   "lat": 19.4174154,
   "lng": -99.1568604,
   "halalConfidence": "likely",
   "source": "osm"
  },
  {
   "nom": "Meramiyeh",
   "type": "lebanese",
   "priceRange": "€€",
   "mapsUrl": "https://maps.google.com/?q=19.4146138,-99.1619536",
   "lat": 19.4146138,
   "lng": -99.1619536,
   "halalConfidence": "likely",
   "source": "osm"
  },
  {
   "nom": "El Jamil",
   "type": "lebanese",
   "priceRange": "€€",
   "mapsUrl": "https://maps.google.com/?q=19.4141665,-99.166988",
   "lat": 19.4141665,
   "lng": -99.166988,
   "halalConfidence": "likely",
   "source": "osm"
  },
  {
   "nom": "Delicias de Líbano",
   "type": "arab",
   "priceRange": "€€",
   "mapsUrl": "https://maps.google.com/?q=19.3964674,-99.1475538",
   "lat": 19.3964674,
   "lng": -99.1475538,
   "halalConfidence": "likely",
   "source": "osm"
  },
  {
   "nom": "Falafelito",
   "type": "lebanese",
   "priceRange": "€€",
   "mapsUrl": "https://maps.google.com/?q=19.410245,-99.1692808",
   "lat": 19.410245,
   "lng": -99.1692808,
   "halalConfidence": "likely",
   "source": "osm"
  },
  {
   "nom": "Hayito",
   "type": "arab",
   "priceRange": "€€",
   "mapsUrl": "https://maps.google.com/?q=19.3928977,-99.1508563",
   "lat": 19.3928977,
   "lng": -99.1508563,
   "halalConfidence": "likely",
   "source": "osm"
  },
  {
   "nom": "Taqueria Don Eraki",
   "type": "arab",
   "priceRange": "€€",
   "mapsUrl": "https://maps.google.com/?q=19.3934245,-99.1531522",
   "lat": 19.3934245,
   "lng": -99.1531522,
   "halalConfidence": "likely",
   "source": "osm"
  },
  {
   "nom": "Pitas Saleh",
   "type": "arab",
   "priceRange": "€€",
   "mapsUrl": "https://maps.google.com/?q=19.3829971,-99.1569351",
   "lat": 19.3829971,
   "lng": -99.1569351,
   "halalConfidence": "likely",
   "source": "osm"
  },
  {
   "nom": "Alibaba",
   "type": "arab",
   "priceRange": "€€",
   "mapsUrl": "https://maps.google.com/?q=19.3872647,-99.1715562",
   "lat": 19.3872647,
   "lng": -99.1715562,
   "halalConfidence": "likely",
   "source": "osm"
  },
  {
   "nom": "Nahnu -Tacos Árabes",
   "type": "kebab",
   "priceRange": "€€",
   "mapsUrl": "https://maps.google.com/?q=19.4307866,-99.1969708",
   "lat": 19.4307866,
   "lng": -99.1969708,
   "halalConfidence": "likely",
   "source": "osm"
  },
  {
   "nom": "El Sheik",
   "type": "arab",
   "priceRange": "€€",
   "mapsUrl": "https://maps.google.com/?q=19.3566113,-99.1684555",
   "lat": 19.3566113,
   "lng": -99.1684555,
   "halalConfidence": "likely",
   "source": "osm"
  },
  {
   "nom": "Alminar",
   "type": "arab",
   "priceRange": "€€",
   "mapsUrl": "https://maps.google.com/?q=19.3445062,-99.1498275",
   "lat": 19.3445062,
   "lng": -99.1498275,
   "halalConfidence": "likely",
   "source": "osm"
  },
  {
   "nom": "La Fenicia",
   "type": "arab",
   "priceRange": "€€",
   "mapsUrl": "https://maps.google.com/?q=19.3439258,-99.1572679",
   "lat": 19.3439258,
   "lng": -99.1572679,
   "halalConfidence": "likely",
   "source": "osm"
  }
 ],
 "hotels": [
  {
   "nom": "Best Western Hotel Majestic",
   "categorie": "Hôtel",
   "priceRange": "€€€€",
   "score": 4,
   "mapsUrl": "https://maps.google.com/?q=19.4329711,-99.1343673",
   "lat": 19.4329711,
   "lng": -99.1343673,
   "halalFriendly": false,
   "bookingUrl": "https://hotelmajestic.com.mx/",
   "source": "osm"
  },
  {
   "nom": "Gran Hotel Ciudad de México",
   "categorie": "Hôtel",
   "priceRange": "€€",
   "mapsUrl": "https://maps.google.com/?q=19.4322694,-99.13468",
   "lat": 19.4322694,
   "lng": -99.13468,
   "halalFriendly": false,
   "bookingUrl": "https://granhoteldelaciudaddemexico.com.mx/",
   "source": "osm"
  },
  {
   "nom": "Zócalo Central",
   "categorie": "Hôtel",
   "priceRange": "€€",
   "mapsUrl": "https://maps.google.com/?q=19.4338373,-99.1342979",
   "lat": 19.4338373,
   "lng": -99.1342979,
   "halalFriendly": false,
   "bookingUrl": "https://maps.google.com/?q=19.4338373,-99.1342979",
   "source": "osm"
  },
  {
   "nom": "Balcón del Zócalo",
   "categorie": "Hôtel",
   "priceRange": "€€",
   "mapsUrl": "https://maps.google.com/?q=19.4338757,-99.1345995",
   "lat": 19.4338757,
   "lng": -99.1345995,
   "halalFriendly": false,
   "bookingUrl": "https://maps.google.com/?q=19.4338757,-99.1345995",
   "source": "osm"
  },
  {
   "nom": "Casa Herrmann",
   "categorie": "Hôtel",
   "priceRange": "€€",
   "mapsUrl": "https://maps.google.com/?q=19.4323991,-99.1354462",
   "lat": 19.4323991,
   "lng": -99.1354462,
   "halalFriendly": false,
   "bookingUrl": "https://www.casaherrmann.com.mx/",
   "source": "osm"
  },
  {
   "nom": "NH Collection Mexico City Centro Histórico",
   "categorie": "Hôtel",
   "priceRange": "€€",
   "mapsUrl": "https://maps.google.com/?q=19.4315917,-99.135338",
   "lat": 19.4315917,
   "lng": -99.135338,
   "halalFriendly": false,
   "bookingUrl": "https://www.nh-hotels.com/en/hotel/nh-collection-mexico-city-centro-historico",
   "source": "osm"
  },
  {
   "nom": "Zocalo Rooms",
   "categorie": "Hôtel",
   "priceRange": "€€",
   "mapsUrl": "https://maps.google.com/?q=19.4304094,-99.1325453",
   "lat": 19.4304094,
   "lng": -99.1325453,
   "halalFriendly": false,
   "bookingUrl": "https://maps.google.com/?q=19.4304094,-99.1325453",
   "source": "osm"
  },
  {
   "nom": "MX zócalo",
   "categorie": "Hôtel",
   "priceRange": "€€",
   "mapsUrl": "https://maps.google.com/?q=19.4337529,-99.1355272",
   "lat": 19.4337529,
   "lng": -99.1355272,
   "halalFriendly": false,
   "bookingUrl": "https://www.hotelesmx.com/mx-zocalo",
   "source": "osm"
  },
  {
   "nom": "Circulo Mexicano",
   "categorie": "Hôtel",
   "priceRange": "€€",
   "mapsUrl": "https://maps.google.com/?q=19.4351439,-99.1328504",
   "lat": 19.4351439,
   "lng": -99.1328504,
   "halalFriendly": false,
   "bookingUrl": "https://maps.google.com/?q=19.4351439,-99.1328504",
   "source": "osm"
  },
  {
   "nom": "Hotel Moneda",
   "categorie": "Hôtel",
   "priceRange": "€€",
   "mapsUrl": "https://maps.google.com/?q=19.4335756,-99.1306817",
   "lat": 19.4335756,
   "lng": -99.1306817,
   "halalFriendly": false,
   "bookingUrl": "https://maps.google.com/?q=19.4335756,-99.1306817",
   "source": "osm"
  },
  {
   "nom": "Casa Pepe",
   "categorie": "Hôtel",
   "priceRange": "€€",
   "mapsUrl": "https://maps.google.com/?q=19.4303338,-99.1344888",
   "lat": 19.4303338,
   "lng": -99.1344888,
   "halalFriendly": false,
   "bookingUrl": "https://casapepe.mx/casa-pepe-cdmx/",
   "source": "osm"
  },
  {
   "nom": "Hotel Washington",
   "categorie": "Hôtel",
   "priceRange": "€€",
   "mapsUrl": "https://maps.google.com/?q=19.4343034,-99.1352563",
   "lat": 19.4343034,
   "lng": -99.1352563,
   "halalFriendly": false,
   "bookingUrl": "https://maps.google.com/?q=19.4343034,-99.1352563",
   "source": "osm"
  },
  {
   "nom": "Hostel Mundo Joven Catedral",
   "categorie": "Auberge",
   "priceRange": "€€",
   "mapsUrl": "https://maps.google.com/?q=19.435202,-99.133603",
   "lat": 19.435202,
   "lng": -99.133603,
   "halalFriendly": false,
   "bookingUrl": "https://maps.google.com/?q=19.435202,-99.133603",
   "source": "osm"
  },
  {
   "nom": "Roble",
   "categorie": "Hôtel",
   "priceRange": "€€",
   "mapsUrl": "https://maps.google.com/?q=19.4298939,-99.1327841",
   "lat": 19.4298939,
   "lng": -99.1327841,
   "halalFriendly": false,
   "bookingUrl": "https://maps.google.com/?q=19.4298939,-99.1327841",
   "source": "osm"
  },
  {
   "nom": "Hotel Zamora",
   "categorie": "Hôtel",
   "priceRange": "€€",
   "mapsUrl": "https://maps.google.com/?q=19.4343336,-99.1354917",
   "lat": 19.4343336,
   "lng": -99.1354917,
   "halalFriendly": false,
   "bookingUrl": "https://maps.google.com/?q=19.4343336,-99.1354917",
   "source": "osm"
  },
  {
   "nom": "Hotel Canada Central",
   "categorie": "Hôtel",
   "priceRange": "€€",
   "mapsUrl": "https://maps.google.com/?q=19.4340694,-99.1357174",
   "lat": 19.4340694,
   "lng": -99.1357174,
   "halalFriendly": false,
   "bookingUrl": "https://www.centralhoteles.com/hotels/canada-central-rooftop/",
   "source": "osm"
  },
  {
   "nom": "Hotel Rioja",
   "categorie": "Hôtel",
   "priceRange": "€€",
   "mapsUrl": "https://maps.google.com/?q=19.4340783,-99.13583",
   "lat": 19.4340783,
   "lng": -99.13583,
   "halalFriendly": false,
   "bookingUrl": "https://www.hotelrioja.com.mx/",
   "source": "osm"
  },
  {
   "nom": "Hampton Inn",
   "categorie": "Hôtel",
   "priceRange": "€€",
   "mapsUrl": "https://maps.google.com/?q=19.4299764,-99.1345745",
   "lat": 19.4299764,
   "lng": -99.1345745,
   "halalFriendly": false,
   "bookingUrl": "http://www.hamptonmexicocity.com",
   "source": "osm"
  },
  {
   "nom": "Casa de la Luz",
   "categorie": "Hôtel",
   "priceRange": "€€",
   "mapsUrl": "https://maps.google.com/?q=19.4295807,-99.1330363",
   "lat": 19.4295807,
   "lng": -99.1330363,
   "halalFriendly": false,
   "bookingUrl": "https://maps.google.com/?q=19.4295807,-99.1330363",
   "source": "osm"
  },
  {
   "nom": "Juarez",
   "categorie": "Hôtel",
   "priceRange": "€€",
   "mapsUrl": "https://maps.google.com/?q=19.4346584,-99.1355678",
   "lat": 19.4346584,
   "lng": -99.1355678,
   "halalFriendly": false,
   "bookingUrl": "https://maps.google.com/?q=19.4346584,-99.1355678",
   "source": "osm"
  },
  {
   "nom": "Mexico City Hostel",
   "categorie": "Auberge",
   "priceRange": "€€",
   "mapsUrl": "https://maps.google.com/?q=19.4356304,-99.1335944",
   "lat": 19.4356304,
   "lng": -99.1335944,
   "halalFriendly": false,
   "bookingUrl": "https://maps.google.com/?q=19.4356304,-99.1335944",
   "source": "osm"
  },
  {
   "nom": "Hotel Catedral",
   "categorie": "Hôtel",
   "priceRange": "€€",
   "mapsUrl": "https://maps.google.com/?q=19.4357717,-99.1330672",
   "lat": 19.4357717,
   "lng": -99.1330672,
   "halalFriendly": false,
   "bookingUrl": "https://maps.google.com/?q=19.4357717,-99.1330672",
   "source": "osm"
  },
  {
   "nom": "Hotel Gillow",
   "categorie": "Hôtel",
   "priceRange": "€€",
   "mapsUrl": "https://maps.google.com/?q=19.4340053,-99.1362735",
   "lat": 19.4340053,
   "lng": -99.1362735,
   "halalFriendly": false,
   "bookingUrl": "https://hotelgillow.com.mx/",
   "source": "osm"
  },
  {
   "nom": "Hostal Historico",
   "categorie": "Auberge",
   "priceRange": "€€",
   "mapsUrl": "https://maps.google.com/?q=19.4358286,-99.1338962",
   "lat": 19.4358286,
   "lng": -99.1338962,
   "halalFriendly": false,
   "bookingUrl": "https://maps.google.com/?q=19.4358286,-99.1338962",
   "source": "osm"
  },
  {
   "nom": "Hotel Montecarlo",
   "categorie": "Hôtel",
   "priceRange": "€€",
   "mapsUrl": "https://maps.google.com/?q=19.4302987,-99.1360753",
   "lat": 19.4302987,
   "lng": -99.1360753,
   "halalFriendly": false,
   "bookingUrl": "https://maps.google.com/?q=19.4302987,-99.1360753",
   "source": "osm"
  },
  {
   "nom": "Hotel Azores",
   "categorie": "Hôtel",
   "priceRange": "€€",
   "mapsUrl": "https://maps.google.com/?q=19.4365505,-99.1336007",
   "lat": 19.4365505,
   "lng": -99.1336007,
   "halalFriendly": false,
   "bookingUrl": "https://maps.google.com/?q=19.4365505,-99.1336007",
   "source": "osm"
  },
  {
   "nom": "Hostel Amigo Suites Downtown",
   "categorie": "Auberge",
   "priceRange": "€€",
   "mapsUrl": "https://maps.google.com/?q=19.4366015,-99.1328413",
   "lat": 19.4366015,
   "lng": -99.1328413,
   "halalFriendly": false,
   "bookingUrl": "https://maps.google.com/?q=19.4366015,-99.1328413",
   "source": "osm"
  },
  {
   "nom": "Apapacho Hostel",
   "categorie": "Auberge",
   "priceRange": "€€",
   "mapsUrl": "https://maps.google.com/?q=19.4287426,-99.1349627",
   "lat": 19.4287426,
   "lng": -99.1349627,
   "halalFriendly": false,
   "bookingUrl": "https://apapachohostel.com/es/inicio/",
   "source": "osm"
  },
  {
   "nom": "Hostel Amigo Suites",
   "categorie": "Auberge",
   "priceRange": "€€",
   "mapsUrl": "https://maps.google.com/?q=19.4367982,-99.1328385",
   "lat": 19.4367982,
   "lng": -99.1328385,
   "halalFriendly": false,
   "bookingUrl": "https://maps.google.com/?q=19.4367982,-99.1328385",
   "source": "osm"
  },
  {
   "nom": "Hotel Patria",
   "categorie": "Hôtel",
   "priceRange": "€€",
   "mapsUrl": "https://maps.google.com/?q=19.4287764,-99.1312007",
   "lat": 19.4287764,
   "lng": -99.1312007,
   "halalFriendly": false,
   "bookingUrl": "https://hotel-patria.com/",
   "source": "osm"
  },
  {
   "nom": "Hostal Amigo",
   "categorie": "Auberge",
   "priceRange": "€€",
   "mapsUrl": "https://maps.google.com/?q=19.4300827,-99.1368674",
   "lat": 19.4300827,
   "lng": -99.1368674,
   "halalFriendly": false,
   "bookingUrl": "https://maps.google.com/?q=19.4300827,-99.1368674",
   "source": "osm"
  },
  {
   "nom": "Hotel Isabel",
   "categorie": "Hôtel",
   "priceRange": "€€",
   "mapsUrl": "https://maps.google.com/?q=19.4299193,-99.1369075",
   "lat": 19.4299193,
   "lng": -99.1369075,
   "halalFriendly": false,
   "bookingUrl": "http://www.hotel-isabel.com.mx/",
   "source": "osm"
  },
  {
   "nom": "Hotel Ritz",
   "categorie": "Hôtel",
   "priceRange": "€€",
   "mapsUrl": "https://maps.google.com/?q=19.4338058,-99.1378811",
   "lat": 19.4338058,
   "lng": -99.1378811,
   "halalFriendly": false,
   "bookingUrl": "https://maps.google.com/?q=19.4338058,-99.1378811",
   "source": "osm"
  },
  {
   "nom": "Punto MX",
   "categorie": "Hôtel",
   "priceRange": "€€",
   "mapsUrl": "https://maps.google.com/?q=19.4305567,-99.1376",
   "lat": 19.4305567,
   "lng": -99.1376,
   "halalFriendly": false,
   "bookingUrl": "https://maps.google.com/?q=19.4305567,-99.1376",
   "source": "osm"
  },
  {
   "nom": "Casa San Ildefonso",
   "categorie": "Hôtel",
   "priceRange": "€€",
   "mapsUrl": "https://maps.google.com/?q=19.4365013,-99.1304444",
   "lat": 19.4365013,
   "lng": -99.1304444,
   "halalFriendly": false,
   "bookingUrl": "https://maps.google.com/?q=19.4365013,-99.1304444",
   "source": "osm"
  },
  {
   "nom": "Viajero CDMX Centro",
   "categorie": "Auberge",
   "priceRange": "€€",
   "mapsUrl": "https://maps.google.com/?q=19.4365414,-99.1304074",
   "lat": 19.4365414,
   "lng": -99.1304074,
   "halalFriendly": false,
   "bookingUrl": "https://www.viajerohostels.com/en/destinations-mexico/mexico-city/",
   "source": "osm"
  },
  {
   "nom": "Hotel Templo Mayor",
   "categorie": "Hôtel",
   "priceRange": "€€",
   "mapsUrl": "https://maps.google.com/?q=19.4361914,-99.1297162",
   "lat": 19.4361914,
   "lng": -99.1297162,
   "halalFriendly": false,
   "bookingUrl": "https://maps.google.com/?q=19.4361914,-99.1297162",
   "source": "osm"
  },
  {
   "nom": "Hotel Principal",
   "categorie": "Hôtel",
   "priceRange": "€€",
   "mapsUrl": "https://maps.google.com/?q=19.4329089,-99.1385759",
   "lat": 19.4329089,
   "lng": -99.1385759,
   "halalFriendly": false,
   "bookingUrl": "https://hotelprincipal.com/",
   "source": "osm"
  },
  {
   "nom": "Hostal Regina",
   "categorie": "Auberge",
   "priceRange": "€€",
   "mapsUrl": "https://maps.google.com/?q=19.4277509,-99.1351814",
   "lat": 19.4277509,
   "lng": -99.1351814,
   "halalFriendly": false,
   "bookingUrl": "https://maps.google.com/?q=19.4277509,-99.1351814",
   "source": "osm"
  },
  {
   "nom": "Hotel Niza",
   "categorie": "Hôtel",
   "priceRange": "€€",
   "mapsUrl": "https://maps.google.com/?q=19.4283419,-99.1364214",
   "lat": 19.4283419,
   "lng": -99.1364214,
   "halalFriendly": false,
   "bookingUrl": "https://hotelniza.mxhotel.site/",
   "source": "osm"
  },
  {
   "nom": "Chillout",
   "categorie": "Maison d'hôtes",
   "priceRange": "€€",
   "mapsUrl": "https://maps.google.com/?q=19.4353994,-99.1379773",
   "lat": 19.4353994,
   "lng": -99.1379773,
   "halalFriendly": false,
   "bookingUrl": "https://www.chilloutflat.com.mx/",
   "source": "osm"
  },
  {
   "nom": "Barrio Downtown Mexico City Hostel",
   "categorie": "Hôtel",
   "priceRange": "€€",
   "mapsUrl": "https://maps.google.com/?q=19.4306356,-99.1386571",
   "lat": 19.4306356,
   "lng": -99.1386571,
   "halalFriendly": false,
   "bookingUrl": "https://maps.google.com/?q=19.4306356,-99.1386571",
   "source": "osm"
  },
  {
   "nom": "Hotel Castropol",
   "categorie": "Hôtel",
   "priceRange": "€€",
   "mapsUrl": "https://maps.google.com/?q=19.426969,-99.1325495",
   "lat": 19.426969,
   "lng": -99.1325495,
   "halalFriendly": false,
   "bookingUrl": "https://maps.google.com/?q=19.426969,-99.1325495",
   "source": "osm"
  },
  {
   "nom": "F Hotel",
   "categorie": "Hôtel",
   "priceRange": "€€",
   "mapsUrl": "https://maps.google.com/?q=19.4378477,-99.1359774",
   "lat": 19.4378477,
   "lng": -99.1359774,
   "halalFriendly": false,
   "bookingUrl": "https://maps.google.com/?q=19.4378477,-99.1359774",
   "source": "osm"
  },
  {
   "nom": "Be Mate Donceles",
   "categorie": "Appartement",
   "priceRange": "€€",
   "mapsUrl": "https://maps.google.com/?q=19.4367099,-99.1379062",
   "lat": 19.4367099,
   "lng": -99.1379062,
   "halalFriendly": false,
   "bookingUrl": "https://maps.google.com/?q=19.4367099,-99.1379062",
   "source": "osm"
  },
  {
   "nom": "Hotel Regina",
   "categorie": "Hôtel",
   "priceRange": "€€",
   "mapsUrl": "https://maps.google.com/?q=19.4268591,-99.1303407",
   "lat": 19.4268591,
   "lng": -99.1303407,
   "halalFriendly": false,
   "bookingUrl": "https://maps.google.com/?q=19.4268591,-99.1303407",
   "source": "osm"
  },
  {
   "nom": "Hotel Parque",
   "categorie": "Hôtel",
   "priceRange": "€€",
   "mapsUrl": "https://maps.google.com/?q=19.4259957,-99.1316188",
   "lat": 19.4259957,
   "lng": -99.1316188,
   "halalFriendly": false,
   "bookingUrl": "https://maps.google.com/?q=19.4259957,-99.1316188",
   "source": "osm"
  },
  {
   "nom": "Hotel Atlanta",
   "categorie": "Hôtel",
   "priceRange": "€€",
   "mapsUrl": "https://maps.google.com/?q=19.4380782,-99.1374738",
   "lat": 19.4380782,
   "lng": -99.1374738,
   "halalFriendly": false,
   "bookingUrl": "https://maps.google.com/?q=19.4380782,-99.1374738",
   "source": "osm"
  },
  {
   "nom": "Hotel Mexico Mexico nuevo",
   "categorie": "Auberge",
   "priceRange": "€€",
   "mapsUrl": "https://maps.google.com/?q=19.4334602,-99.1259387",
   "lat": 19.4334602,
   "lng": -99.1259387,
   "halalFriendly": false,
   "bookingUrl": "https://maps.google.com/?q=19.4334602,-99.1259387",
   "source": "osm"
  },
  {
   "nom": "MyPlace Donceles",
   "categorie": "Appartement",
   "priceRange": "€€",
   "mapsUrl": "https://maps.google.com/?q=19.436981,-99.1392106",
   "lat": 19.436981,
   "lng": -99.1392106,
   "halalFriendly": false,
   "bookingUrl": "https://maps.google.com/?q=19.436981,-99.1392106",
   "source": "osm"
  },
  {
   "nom": "Hotel El Salvador",
   "categorie": "Hôtel",
   "priceRange": "€€",
   "mapsUrl": "https://maps.google.com/?q=19.4303044,-99.1405528",
   "lat": 19.4303044,
   "lng": -99.1405528,
   "halalFriendly": false,
   "bookingUrl": "https://maps.google.com/?q=19.4303044,-99.1405528",
   "source": "osm"
  },
  {
   "nom": "Continental",
   "categorie": "Hôtel",
   "priceRange": "€€",
   "mapsUrl": "https://maps.google.com/?q=19.4332341,-99.1252562",
   "lat": 19.4332341,
   "lng": -99.1252562,
   "halalFriendly": false,
   "bookingUrl": "https://maps.google.com/?q=19.4332341,-99.1252562",
   "source": "osm"
  },
  {
   "nom": "Hotel Sonora",
   "categorie": "Hôtel",
   "priceRange": "€€",
   "mapsUrl": "https://maps.google.com/?q=19.4393015,-99.1370464",
   "lat": 19.4393015,
   "lng": -99.1370464,
   "halalFriendly": false,
   "bookingUrl": "https://maps.google.com/?q=19.4393015,-99.1370464",
   "source": "osm"
  },
  {
   "nom": "Hostal Ciudad de México",
   "categorie": "Auberge",
   "priceRange": "€€",
   "mapsUrl": "https://maps.google.com/?q=19.4261792,-99.1376261",
   "lat": 19.4261792,
   "lng": -99.1376261,
   "halalFriendly": false,
   "bookingUrl": "https://maps.google.com/?q=19.4261792,-99.1376261",
   "source": "osm"
  },
  {
   "nom": "Hotel Flamencos",
   "categorie": "Hôtel",
   "priceRange": "€€",
   "mapsUrl": "https://maps.google.com/?q=19.4247619,-99.1337299",
   "lat": 19.4247619,
   "lng": -99.1337299,
   "halalFriendly": false,
   "bookingUrl": "https://maps.google.com/?q=19.4247619,-99.1337299",
   "source": "osm"
  },
  {
   "nom": "Hotel Menara",
   "categorie": "Hôtel",
   "priceRange": "€€",
   "mapsUrl": "https://maps.google.com/?q=19.4254955,-99.1378843",
   "lat": 19.4254955,
   "lng": -99.1378843,
   "halalFriendly": false,
   "bookingUrl": "https://maps.google.com/?q=19.4254955,-99.1378843",
   "source": "osm"
  },
  {
   "nom": "Hotel Único SA de CV",
   "categorie": "Hôtel",
   "priceRange": "€€",
   "mapsUrl": "https://maps.google.com/?q=19.4244203,-99.1306949",
   "lat": 19.4244203,
   "lng": -99.1306949,
   "halalFriendly": false,
   "bookingUrl": "https://maps.google.com/?q=19.4244203,-99.1306949",
   "source": "osm"
  },
  {
   "nom": "Hotel Diligencias",
   "categorie": "Hôtel",
   "priceRange": "€€",
   "mapsUrl": "https://maps.google.com/?q=19.4388201,-99.1396106",
   "lat": 19.4388201,
   "lng": -99.1396106,
   "halalFriendly": false,
   "bookingUrl": "https://www.hoteldiligencias.com/",
   "source": "osm"
  },
  {
   "nom": "Hotel Marlowe",
   "categorie": "Hôtel",
   "priceRange": "€€",
   "mapsUrl": "https://maps.google.com/?q=19.4329144,-99.1424561",
   "lat": 19.4329144,
   "lng": -99.1424561,
   "halalFriendly": false,
   "bookingUrl": "https://maps.google.com/?q=19.4329144,-99.1424561",
   "source": "osm"
  },
  {
   "nom": "MX garibaldi",
   "categorie": "Auberge",
   "priceRange": "€€",
   "mapsUrl": "https://maps.google.com/?q=19.4406431,-99.1378116",
   "lat": 19.4406431,
   "lng": -99.1378116,
   "halalFriendly": false,
   "bookingUrl": "https://maps.google.com/?q=19.4406431,-99.1378116",
   "source": "osm"
  },
  {
   "nom": "Hotel Virreyes",
   "categorie": "Hôtel",
   "priceRange": "€€",
   "mapsUrl": "https://maps.google.com/?q=19.4269621,-99.1414714",
   "lat": 19.4269621,
   "lng": -99.1414714,
   "halalFriendly": false,
   "bookingUrl": "https://maps.google.com/?q=19.4269621,-99.1414714",
   "source": "osm"
  },
  {
   "nom": "Hotel Hidalgo",
   "categorie": "Hôtel",
   "priceRange": "€€€",
   "score": 3,
   "mapsUrl": "https://maps.google.com/?q=19.4375115,-99.1421244",
   "lat": 19.4375115,
   "lng": -99.1421244,
   "halalFriendly": false,
   "bookingUrl": "https://maps.google.com/?q=19.4375115,-99.1421244",
   "source": "osm"
  },
  {
   "nom": "Hotel Dos Naciones",
   "categorie": "Hôtel",
   "priceRange": "€€",
   "mapsUrl": "https://maps.google.com/?q=19.4390436,-99.1413192",
   "lat": 19.4390436,
   "lng": -99.1413192,
   "halalFriendly": false,
   "bookingUrl": "https://www.hoteldosnaciones.com.mx/",
   "source": "osm"
  },
  {
   "nom": "Hotel Covandonga",
   "categorie": "Hôtel",
   "priceRange": "€€",
   "mapsUrl": "https://maps.google.com/?q=19.4386212,-99.1418648",
   "lat": 19.4386212,
   "lng": -99.1418648,
   "halalFriendly": false,
   "bookingUrl": "http://hcovadonga.homelinux.net/",
   "source": "osm"
  },
  {
   "nom": "Mexico hostel",
   "categorie": "Auberge",
   "priceRange": "€€",
   "mapsUrl": "https://maps.google.com/?q=19.433225,-99.1444063",
   "lat": 19.433225,
   "lng": -99.1444063,
   "halalFriendly": false,
   "bookingUrl": "https://maps.google.com/?q=19.433225,-99.1444063",
   "source": "osm"
  },
  {
   "nom": "Hotel Riva Palacio",
   "categorie": "Hôtel",
   "priceRange": "€€",
   "mapsUrl": "https://maps.google.com/?q=19.4407128,-99.1405074",
   "lat": 19.4407128,
   "lng": -99.1405074,
   "halalFriendly": false,
   "bookingUrl": "https://maps.google.com/?q=19.4407128,-99.1405074",
   "source": "osm"
  },
  {
   "nom": "Hotel Emperador",
   "categorie": "Hôtel",
   "priceRange": "€€",
   "mapsUrl": "https://maps.google.com/?q=19.4414478,-99.1395648",
   "lat": 19.4414478,
   "lng": -99.1395648,
   "halalFriendly": false,
   "bookingUrl": "https://maps.google.com/?q=19.4414478,-99.1395648",
   "source": "osm"
  },
  {
   "nom": "Hotel San Francisco",
   "categorie": "Hôtel",
   "priceRange": "€€",
   "mapsUrl": "https://maps.google.com/?q=19.4342335,-99.1450314",
   "lat": 19.4342335,
   "lng": -99.1450314,
   "halalFriendly": false,
   "bookingUrl": "https://maps.google.com/?q=19.4342335,-99.1450314",
   "source": "osm"
  },
  {
   "nom": "Hotel Magnolia",
   "categorie": "Hôtel",
   "priceRange": "€€",
   "mapsUrl": "https://maps.google.com/?q=19.4419774,-99.1400713",
   "lat": 19.4419774,
   "lng": -99.1400713,
   "halalFriendly": false,
   "bookingUrl": "https://maps.google.com/?q=19.4419774,-99.1400713",
   "source": "osm"
  },
  {
   "nom": "Hotel Metropol",
   "categorie": "Hôtel",
   "priceRange": "€€€€",
   "score": 4,
   "mapsUrl": "https://maps.google.com/?q=19.4329486,-99.1453126",
   "lat": 19.4329486,
   "lng": -99.1453126,
   "halalFriendly": false,
   "bookingUrl": "https://hotelmetropol.com.mx/",
   "source": "osm"
  },
  {
   "nom": "Hotel Guadalajara",
   "categorie": "Hôtel",
   "priceRange": "€€",
   "mapsUrl": "https://maps.google.com/?q=19.444043,-99.1364266",
   "lat": 19.444043,
   "lng": -99.1364266,
   "halalFriendly": false,
   "bookingUrl": "https://maps.google.com/?q=19.444043,-99.1364266",
   "source": "osm"
  },
  {
   "nom": "Hotel MX Lagunilla",
   "categorie": "Hôtel",
   "priceRange": "€€",
   "mapsUrl": "https://maps.google.com/?q=19.4426032,-99.1399763",
   "lat": 19.4426032,
   "lng": -99.1399763,
   "halalFriendly": false,
   "bookingUrl": "https://maps.google.com/?q=19.4426032,-99.1399763",
   "source": "osm"
  },
  {
   "nom": "Hotel Seoul",
   "categorie": "Hôtel",
   "priceRange": "€€",
   "mapsUrl": "https://maps.google.com/?q=19.4370064,-99.1214588",
   "lat": 19.4370064,
   "lng": -99.1214588,
   "halalFriendly": false,
   "bookingUrl": "https://maps.google.com/?q=19.4370064,-99.1214588",
   "source": "osm"
  },
  {
   "nom": "Hotel San Diego",
   "categorie": "Hôtel",
   "priceRange": "€€",
   "mapsUrl": "https://maps.google.com/?q=19.4289591,-99.1456165",
   "lat": 19.4289591,
   "lng": -99.1456165,
   "halalFriendly": false,
   "bookingUrl": "https://maps.google.com/?q=19.4289591,-99.1456165",
   "source": "osm"
  },
  {
   "nom": "City Express by Marriott Ciudad de México Alameda",
   "categorie": "Hôtel",
   "priceRange": "€€",
   "mapsUrl": "https://maps.google.com/?q=19.4333557,-99.1462493",
   "lat": 19.4333557,
   "lng": -99.1462493,
   "halalFriendly": false,
   "bookingUrl": "https://www.marriott.com/es/hotels/mexxd-city-express-ciudad-de-mexico-alameda/overview/",
   "source": "osm"
  },
  {
   "nom": "Hilton Mexico City Reforma",
   "categorie": "Hôtel",
   "priceRange": "€€",
   "mapsUrl": "https://maps.google.com/?q=19.4345173,-99.1462783",
   "lat": 19.4345173,
   "lng": -99.1462783,
   "halalFriendly": false,
   "bookingUrl": "https://www.hilton.com/en/hotels/mexrfhh-hilton-mexico-city-reforma/",
   "source": "osm"
  },
  {
   "nom": "Hotel Fleming",
   "categorie": "Hôtel",
   "priceRange": "€€",
   "mapsUrl": "https://maps.google.com/?q=19.432554,-99.146473",
   "lat": 19.432554,
   "lng": -99.146473,
   "halalFriendly": false,
   "bookingUrl": "https://www.hotelfleming.com.mx/",
   "source": "osm"
  },
  {
   "nom": "Hotel Centra2",
   "categorie": "Hôtel",
   "priceRange": "€€",
   "mapsUrl": "https://maps.google.com/?q=19.42983,-99.1463601",
   "lat": 19.42983,
   "lng": -99.1463601,
   "halalFriendly": false,
   "bookingUrl": "https://maps.google.com/?q=19.42983,-99.1463601",
   "source": "osm"
  },
  {
   "nom": "Massiosare El Hostel",
   "categorie": "Auberge",
   "priceRange": "€€",
   "mapsUrl": "https://maps.google.com/?q=19.4318193,-99.1466891",
   "lat": 19.4318193,
   "lng": -99.1466891,
   "halalFriendly": false,
   "bookingUrl": "https://maps.google.com/?q=19.4318193,-99.1466891",
   "source": "osm"
  },
  {
   "nom": "Hotel Cadena",
   "categorie": "Hôtel",
   "priceRange": "€€",
   "mapsUrl": "https://maps.google.com/?q=19.4209993,-99.1393678",
   "lat": 19.4209993,
   "lng": -99.1393678,
   "halalFriendly": false,
   "bookingUrl": "https://maps.google.com/?q=19.4209993,-99.1393678",
   "source": "osm"
  },
  {
   "nom": "Fiesta Inn Centro Histórico",
   "categorie": "Hôtel",
   "priceRange": "€€",
   "mapsUrl": "https://maps.google.com/?q=19.4345016,-99.1470672",
   "lat": 19.4345016,
   "lng": -99.1470672,
   "halalFriendly": false,
   "bookingUrl": "https://maps.google.com/?q=19.4345016,-99.1470672",
   "source": "osm"
  },
  {
   "nom": "CASA MX alameda",
   "categorie": "Auberge",
   "priceRange": "€€",
   "mapsUrl": "https://maps.google.com/?q=19.4401377,-99.1447465",
   "lat": 19.4401377,
   "lng": -99.1447465,
   "halalFriendly": false,
   "bookingUrl": "https://maps.google.com/?q=19.4401377,-99.1447465",
   "source": "osm"
  },
  {
   "nom": "Hotel Las Américas",
   "categorie": "Hôtel",
   "priceRange": "€€",
   "mapsUrl": "https://maps.google.com/?q=19.4427135,-99.1425294",
   "lat": 19.4427135,
   "lng": -99.1425294,
   "halalFriendly": false,
   "bookingUrl": "https://maps.google.com/?q=19.4427135,-99.1425294",
   "source": "osm"
  },
  {
   "nom": "Hotel Catalina",
   "categorie": "Hôtel",
   "priceRange": "€€",
   "mapsUrl": "https://maps.google.com/?q=19.4237282,-99.1438694",
   "lat": 19.4237282,
   "lng": -99.1438694,
   "halalFriendly": false,
   "bookingUrl": "https://maps.google.com/?q=19.4237282,-99.1438694",
   "source": "osm"
  },
  {
   "nom": "Kali Ciudadela",
   "categorie": "Hôtel",
   "priceRange": "€€",
   "mapsUrl": "https://maps.google.com/?q=19.4284989,-99.1469799",
   "lat": 19.4284989,
   "lng": -99.1469799,
   "halalFriendly": false,
   "bookingUrl": "https://kalihoteles.com/hotel/ciudadela/",
   "source": "osm"
  },
  {
   "nom": "One Ciudad de México Alameda",
   "categorie": "Hôtel",
   "priceRange": "€€",
   "mapsUrl": "https://maps.google.com/?q=19.4349224,-99.147812",
   "lat": 19.4349224,
   "lng": -99.147812,
   "halalFriendly": false,
   "bookingUrl": "https://www.onehotels.com/one-ciudad-de-mexico-alameda/overview",
   "source": "osm"
  },
  {
   "nom": "Hotel Fontan Reforma",
   "categorie": "Hôtel",
   "priceRange": "€€€€",
   "score": 4,
   "mapsUrl": "https://maps.google.com/?q=19.4362989,-99.1476716",
   "lat": 19.4362989,
   "lng": -99.1476716,
   "halalFriendly": false,
   "bookingUrl": "https://www.hotelfontanreforma.com",
   "source": "osm"
  },
  {
   "nom": "Hôtel Fabiola",
   "categorie": "Hôtel",
   "priceRange": "€€",
   "mapsUrl": "https://maps.google.com/?q=19.4187951,-99.1381207",
   "lat": 19.4187951,
   "lng": -99.1381207,
   "halalFriendly": false,
   "bookingUrl": "https://maps.google.com/?q=19.4187951,-99.1381207",
   "source": "osm"
  },
  {
   "nom": "Faro",
   "categorie": "Hôtel",
   "priceRange": "€€",
   "mapsUrl": "https://maps.google.com/?q=19.4220688,-99.1438904",
   "lat": 19.4220688,
   "lng": -99.1438904,
   "halalFriendly": false,
   "bookingUrl": "https://maps.google.com/?q=19.4220688,-99.1438904",
   "source": "osm"
  },
  {
   "nom": "Hotel B Urban Xaman",
   "categorie": "Hôtel",
   "priceRange": "€€€€",
   "score": 5,
   "mapsUrl": "https://maps.google.com/?q=19.4356,-99.1484276",
   "lat": 19.4356,
   "lng": -99.1484276,
   "halalFriendly": false,
   "bookingUrl": "https://www.hotelburbanxaman.com",
   "source": "osm"
  },
  {
   "nom": "San Fernando",
   "categorie": "Hôtel",
   "priceRange": "€€",
   "mapsUrl": "https://maps.google.com/?q=19.4386256,-99.147803",
   "lat": 19.4386256,
   "lng": -99.147803,
   "halalFriendly": false,
   "bookingUrl": "https://maps.google.com/?q=19.4386256,-99.147803",
   "source": "osm"
  },
  {
   "nom": "Managua",
   "categorie": "Hôtel",
   "priceRange": "€€",
   "mapsUrl": "https://maps.google.com/?q=19.4385059,-99.1482429",
   "lat": 19.4385059,
   "lng": -99.1482429,
   "halalFriendly": false,
   "bookingUrl": "https://maps.google.com/?q=19.4385059,-99.1482429",
   "source": "osm"
  },
  {
   "nom": "Hotel",
   "categorie": "Hôtel",
   "priceRange": "€€",
   "mapsUrl": "https://maps.google.com/?q=19.4202346,-99.144475",
   "lat": 19.4202346,
   "lng": -99.144475,
   "halalFriendly": false,
   "bookingUrl": "https://maps.google.com/?q=19.4202346,-99.144475",
   "source": "osm"
  },
  {
   "nom": "Hotel Mónaco Ciudad de México",
   "categorie": "Hôtel",
   "priceRange": "€€",
   "mapsUrl": "https://maps.google.com/?q=19.4387399,-99.1493264",
   "lat": 19.4387399,
   "lng": -99.1493264,
   "halalFriendly": false,
   "bookingUrl": "https://maps.google.com/?q=19.4387399,-99.1493264",
   "source": "osm"
  },
  {
   "nom": "Suites DF Hostel",
   "categorie": "Auberge",
   "priceRange": "€€",
   "mapsUrl": "https://maps.google.com/?q=19.4362313,-99.1507145",
   "lat": 19.4362313,
   "lng": -99.1507145,
   "halalFriendly": false,
   "bookingUrl": "https://hostelsuitesdf.com/",
   "source": "osm"
  },
  {
   "nom": "Barceló México Reforma",
   "categorie": "Hôtel",
   "priceRange": "€€",
   "mapsUrl": "https://maps.google.com/?q=19.4352748,-99.1509654",
   "lat": 19.4352748,
   "lng": -99.1509654,
   "halalFriendly": false,
   "bookingUrl": "https://www.barcelo.com/en-us/barcelo-hotels/hotels/mexico/ciudad-de-mexico/barcelo-mexico-reforma/",
   "source": "osm"
  },
  {
   "nom": "Ramada Reforma",
   "categorie": "Hôtel",
   "priceRange": "€€",
   "mapsUrl": "https://maps.google.com/?q=19.4376354,-99.1504197",
   "lat": 19.4376354,
   "lng": -99.1504197,
   "halalFriendly": false,
   "bookingUrl": "https://maps.google.com/?q=19.4376354,-99.1504197",
   "source": "osm"
  },
  {
   "nom": "Airbnb Maty&Bato",
   "categorie": "Appartement",
   "priceRange": "€€",
   "mapsUrl": "https://maps.google.com/?q=19.4194286,-99.1446867",
   "lat": 19.4194286,
   "lng": -99.1446867,
   "halalFriendly": false,
   "bookingUrl": "https://maps.google.com/?q=19.4194286,-99.1446867",
   "source": "osm"
  },
  {
   "nom": "Hotel Plaza Revolución",
   "categorie": "Hôtel",
   "priceRange": "€€",
   "mapsUrl": "https://maps.google.com/?q=19.4362911,-99.1510466",
   "lat": 19.4362911,
   "lng": -99.1510466,
   "halalFriendly": false,
   "bookingUrl": "https://maps.google.com/?q=19.4362911,-99.1510466",
   "source": "osm"
  },
  {
   "nom": "HOM Balderas",
   "categorie": "Auberge",
   "priceRange": "€€",
   "mapsUrl": "https://maps.google.com/?q=19.4269785,-99.1507365",
   "lat": 19.4269785,
   "lng": -99.1507365,
   "halalFriendly": false,
   "bookingUrl": "https://www.homhostel.com/balderas.html",
   "source": "osm"
  },
  {
   "nom": "Airbnb Rodrigo",
   "categorie": "Appartement",
   "priceRange": "€€",
   "mapsUrl": "https://maps.google.com/?q=19.416656,-99.1418381",
   "lat": 19.416656,
   "lng": -99.1418381,
   "halalFriendly": false,
   "bookingUrl": "https://maps.google.com/?q=19.416656,-99.1418381",
   "source": "osm"
  },
  {
   "nom": "Gran Hotel Amazonas",
   "categorie": "Hôtel",
   "priceRange": "€€",
   "mapsUrl": "https://maps.google.com/?q=19.4143378,-99.1352839",
   "lat": 19.4143378,
   "lng": -99.1352839,
   "halalFriendly": false,
   "bookingUrl": "https://maps.google.com/?q=19.4143378,-99.1352839",
   "source": "osm"
  },
  {
   "nom": "Hotel Goya",
   "categorie": "Hôtel",
   "priceRange": "€€",
   "mapsUrl": "https://maps.google.com/?q=19.4144918,-99.1364875",
   "lat": 19.4144918,
   "lng": -99.1364875,
   "halalFriendly": false,
   "bookingUrl": "https://maps.google.com/?q=19.4144918,-99.1364875",
   "source": "osm"
  },
  {
   "nom": "Hotel Lepanto",
   "categorie": "Hôtel",
   "priceRange": "€€",
   "mapsUrl": "https://maps.google.com/?q=19.4462828,-99.1469724",
   "lat": 19.4462828,
   "lng": -99.1469724,
   "halalFriendly": false,
   "bookingUrl": "https://maps.google.com/?q=19.4462828,-99.1469724",
   "source": "osm"
  },
  {
   "nom": "Hotel Eco",
   "categorie": "Hôtel",
   "priceRange": "€€",
   "mapsUrl": "https://maps.google.com/?q=19.4439778,-99.1492897",
   "lat": 19.4439778,
   "lng": -99.1492897,
   "halalFriendly": false,
   "bookingUrl": "https://maps.google.com/?q=19.4439778,-99.1492897",
   "source": "osm"
  },
  {
   "nom": "Dharma",
   "categorie": "Hôtel",
   "priceRange": "€€",
   "mapsUrl": "https://maps.google.com/?q=19.4453441,-99.1481208",
   "lat": 19.4453441,
   "lng": -99.1481208,
   "halalFriendly": false,
   "bookingUrl": "https://maps.google.com/?q=19.4453441,-99.1481208",
   "source": "osm"
  },
  {
   "nom": "Hotel San Alfonso",
   "categorie": "Hôtel",
   "priceRange": "€€",
   "mapsUrl": "https://maps.google.com/?q=19.4409501,-99.1148802",
   "lat": 19.4409501,
   "lng": -99.1148802,
   "halalFriendly": false,
   "bookingUrl": "https://maps.google.com/?q=19.4409501,-99.1148802",
   "source": "osm"
  },
  {
   "nom": "Hotel Imperial Reforma",
   "categorie": "Hôtel",
   "priceRange": "€€",
   "mapsUrl": "https://maps.google.com/?q=19.4332409,-99.1535837",
   "lat": 19.4332409,
   "lng": -99.1535837,
   "halalFriendly": false,
   "bookingUrl": "https://www.hotelimperial.mx/",
   "source": "osm"
  },
  {
   "nom": "Hotel Norte",
   "categorie": "Hôtel",
   "priceRange": "€€",
   "mapsUrl": "https://maps.google.com/?q=19.4457264,-99.148652",
   "lat": 19.4457264,
   "lng": -99.148652,
   "halalFriendly": false,
   "bookingUrl": "https://maps.google.com/?q=19.4457264,-99.148652",
   "source": "osm"
  },
  {
   "nom": "Le Méridien Mexico City",
   "categorie": "Hôtel",
   "priceRange": "€€",
   "mapsUrl": "https://maps.google.com/?q=19.4336592,-99.1542515",
   "lat": 19.4336592,
   "lng": -99.1542515,
   "halalFriendly": false,
   "bookingUrl": "https://www.marriott.com/es/hotels/mexdm-le-meridien-mexico-city/overview/",
   "source": "osm"
  },
  {
   "nom": "펜션 아미고",
   "categorie": "Auberge",
   "priceRange": "€€",
   "mapsUrl": "https://maps.google.com/?q=19.4380222,-99.153539",
   "lat": 19.4380222,
   "lng": -99.153539,
   "halalFriendly": false,
   "bookingUrl": "https://maps.google.com/?q=19.4380222,-99.153539",
   "source": "osm"
  },
  {
   "nom": "Quinta Bugambilias",
   "categorie": "Hôtel",
   "priceRange": "€€",
   "mapsUrl": "https://maps.google.com/?q=19.4130393,-99.1289145",
   "lat": 19.4130393,
   "lng": -99.1289145,
   "halalFriendly": false,
   "bookingUrl": "https://maps.google.com/?q=19.4130393,-99.1289145",
   "source": "osm"
  },
  {
   "nom": "Hotel Lona",
   "categorie": "Hôtel",
   "priceRange": "€€",
   "mapsUrl": "https://maps.google.com/?q=19.4388549,-99.1534223",
   "lat": 19.4388549,
   "lng": -99.1534223,
   "halalFriendly": false,
   "bookingUrl": "https://maps.google.com/?q=19.4388549,-99.1534223",
   "source": "osm"
  },
  {
   "nom": "Fiesta Americana Reforma",
   "categorie": "Hôtel",
   "priceRange": "€€",
   "mapsUrl": "https://maps.google.com/?q=19.4322691,-99.1547343",
   "lat": 19.4322691,
   "lng": -99.1547343,
   "halalFriendly": false,
   "bookingUrl": "https://maps.google.com/?q=19.4322691,-99.1547343",
   "source": "osm"
  },
  {
   "nom": "Hotel Palace",
   "categorie": "Hôtel",
   "priceRange": "€€",
   "mapsUrl": "https://maps.google.com/?q=19.4350404,-99.1548226",
   "lat": 19.4350404,
   "lng": -99.1548226,
   "halalFriendly": false,
   "bookingUrl": "https://www.hotel-palace.mx/",
   "source": "osm"
  },
  {
   "nom": "Hotel Polo",
   "categorie": "Hôtel",
   "priceRange": "€€",
   "mapsUrl": "https://maps.google.com/?q=19.41641,-99.1468855",
   "lat": 19.41641,
   "lng": -99.1468855,
   "halalFriendly": false,
   "bookingUrl": "https://maps.google.com/?q=19.41641,-99.1468855",
   "source": "osm"
  },
  {
   "nom": "Hotel Mala Vecindad",
   "categorie": "Hôtel",
   "priceRange": "€€",
   "mapsUrl": "https://maps.google.com/?q=19.4400772,-99.1540032",
   "lat": 19.4400772,
   "lng": -99.1540032,
   "halalFriendly": false,
   "bookingUrl": "https://www.malavecindad.com/",
   "source": "osm"
  },
  {
   "nom": "Casa Prim",
   "categorie": "Hôtel",
   "priceRange": "€€",
   "mapsUrl": "https://maps.google.com/?q=19.4304743,-99.1553983",
   "lat": 19.4304743,
   "lng": -99.1553983,
   "halalFriendly": false,
   "bookingUrl": "https://casaprim.com.mx/",
   "source": "osm"
  },
  {
   "nom": "Julio",
   "categorie": "Auberge",
   "priceRange": "€€",
   "mapsUrl": "https://maps.google.com/?q=19.4114317,-99.1315063",
   "lat": 19.4114317,
   "lng": -99.1315063,
   "halalFriendly": false,
   "bookingUrl": "https://maps.google.com/?q=19.4114317,-99.1315063",
   "source": "osm"
  },
  {
   "nom": "Sevilla Palace",
   "categorie": "Hôtel",
   "priceRange": "€€",
   "mapsUrl": "https://maps.google.com/?q=19.4330449,-99.1564123",
   "lat": 19.4330449,
   "lng": -99.1564123,
   "halalFriendly": false,
   "bookingUrl": "https://maps.google.com/?q=19.4330449,-99.1564123",
   "source": "osm"
  }
 ],
 "mosqueesPrincipales": [
  {
   "id": "m158032446",
   "nom": "Iglesia de San Francisco",
   "type": "Mosquée",
   "adresse": "Calle Francisco I. Madero, Ciudad de México",
   "description": "Lieu de prière (OpenStreetMap).",
   "mapsUrl": "https://maps.google.com/?q=19.433486,-99.1399939",
   "lat": 19.433486,
   "lng": -99.1399939,
   "source": "osm"
  },
  {
   "id": "m1238112250",
   "nom": "Mezquita Baitul Áfiyat",
   "type": "Mosquée",
   "adresse": "Avenida Insurgentes Norte, CDMX",
   "description": "Lieu de prière (OpenStreetMap).",
   "mapsUrl": "https://maps.google.com/?q=19.4606746,-99.1467119",
   "lat": 19.4606746,
   "lng": -99.1467119,
   "source": "osm"
  },
  {
   "id": "m120733641",
   "nom": "Basílica de Santa María de Guadalupe",
   "type": "Mosquée",
   "adresse": "",
   "description": "Lieu de prière (OpenStreetMap).",
   "mapsUrl": "https://maps.google.com/?q=19.4848445,-99.1178568",
   "lat": 19.4848445,
   "lng": -99.1178568,
   "source": "osm"
  },
  {
   "id": "m219478032",
   "nom": "Parroquia de la Santísima Trinidad",
   "type": "Mosquée",
   "adresse": "",
   "description": "Lieu de prière (OpenStreetMap).",
   "mapsUrl": "https://maps.google.com/?q=19.4018311,-99.1919584",
   "lat": 19.4018311,
   "lng": -99.1919584,
   "source": "osm"
  }
 ],
 "activites": [
  {
   "id": "a1251764015",
   "nom": "Ventana Arquelógica",
   "categorie": "archaeological site",
   "description": "",
   "prix": "",
   "duree": "",
   "mapsUrl": "https://maps.google.com/?q=19.4336503,-99.1331683",
   "lat": 19.4336503,
   "lng": -99.1331683,
   "source": "osm"
  },
  {
   "id": "a862397807",
   "nom": "Ventana Arquelógica",
   "categorie": "archaeological site",
   "description": "",
   "prix": "",
   "duree": "",
   "mapsUrl": "https://maps.google.com/?q=19.433671,-99.1332792",
   "lat": 19.433671,
   "lng": -99.1332792,
   "source": "osm"
  },
  {
   "id": "a863345060",
   "nom": "Ventana Arquel'ogica",
   "categorie": "archaeological site",
   "description": "",
   "prix": "",
   "duree": "",
   "mapsUrl": "https://maps.google.com/?q=19.433671,-99.1332792",
   "lat": 19.433671,
   "lng": -99.1332792,
   "source": "osm"
  },
  {
   "id": "a862397808",
   "nom": "Ventana Arquelógica",
   "categorie": "archaeological site",
   "description": "",
   "prix": "",
   "duree": "",
   "mapsUrl": "https://maps.google.com/?q=19.4336811,-99.1333788",
   "lat": 19.4336811,
   "lng": -99.1333788,
   "source": "osm"
  },
  {
   "id": "a863345061",
   "nom": "Ventana Arquel'ogica",
   "categorie": "archaeological site",
   "description": "",
   "prix": "",
   "duree": "",
   "mapsUrl": "https://maps.google.com/?q=19.4336811,-99.1333788",
   "lat": 19.4336811,
   "lng": -99.1333788,
   "source": "osm"
  },
  {
   "id": "a862397809",
   "nom": "Ventana Arquelógica",
   "categorie": "archaeological site",
   "description": "",
   "prix": "",
   "duree": "",
   "mapsUrl": "https://maps.google.com/?q=19.4337325,-99.1334659",
   "lat": 19.4337325,
   "lng": -99.1334659,
   "source": "osm"
  },
  {
   "id": "a863345062",
   "nom": "Ventana Arquelógica",
   "categorie": "archaeological site",
   "description": "",
   "prix": "",
   "duree": "",
   "mapsUrl": "https://maps.google.com/?q=19.4337325,-99.1334659",
   "lat": 19.4337325,
   "lng": -99.1334659,
   "source": "osm"
  },
  {
   "id": "a13087996382",
   "nom": "Balcón Presidencial",
   "categorie": "attraction",
   "description": "",
   "prix": "",
   "duree": "",
   "mapsUrl": "https://maps.google.com/?q=19.4325572,-99.1319688",
   "lat": 19.4325572,
   "lng": -99.1319688,
   "source": "osm"
  },
  {
   "id": "a10972922370",
   "nom": "Museo Salón de Cabildos",
   "categorie": "museum",
   "description": "",
   "prix": "",
   "duree": "",
   "mapsUrl": "https://maps.google.com/?q=19.4317186,-99.1340079",
   "lat": 19.4317186,
   "lng": -99.1340079,
   "source": "osm"
  },
  {
   "id": "a10125131762",
   "nom": "Monumento hipsográfico",
   "categorie": "memorial",
   "description": "",
   "prix": "",
   "duree": "",
   "mapsUrl": "https://maps.google.com/?q=19.4339423,-99.1338696",
   "lat": 19.4339423,
   "lng": -99.1338696,
   "source": "osm"
  },
  {
   "id": "a11016353568",
   "nom": "Monumento a la Mexicanidad",
   "categorie": "memorial",
   "description": "",
   "prix": "",
   "duree": "",
   "mapsUrl": "https://maps.google.com/?q=19.4311923,-99.1324678",
   "lat": 19.4311923,
   "lng": -99.1324678,
   "source": "osm"
  },
  {
   "id": "a13086077152",
   "nom": "Museo UNAM Hoy",
   "categorie": "museum",
   "description": "",
   "prix": "",
   "duree": "",
   "mapsUrl": "https://maps.google.com/?q=19.4337182,-99.131851",
   "lat": 19.4337182,
   "lng": -99.131851,
   "source": "osm"
  },
  {
   "id": "a13086077153",
   "nom": "Fundación Herdez",
   "categorie": "museum",
   "description": "",
   "prix": "",
   "duree": "",
   "mapsUrl": "https://maps.google.com/?q=19.4338104,-99.1318398",
   "lat": 19.4338104,
   "lng": -99.1318398,
   "source": "osm"
  },
  {
   "id": "a9049361313",
   "nom": "Juan Pablo II",
   "categorie": "memorial",
   "description": "",
   "prix": "",
   "duree": "",
   "mapsUrl": "https://maps.google.com/?q=19.4343663,-99.1334027",
   "lat": 19.4343663,
   "lng": -99.1334027,
   "source": "osm"
  },
  {
   "id": "a9049361315",
   "nom": "Próspero María Alarcón y Sánchez de la Barquera",
   "categorie": "artwork",
   "description": "",
   "prix": "",
   "duree": "",
   "mapsUrl": "https://maps.google.com/?q=19.4345629,-99.1333835",
   "lat": 19.4345629,
   "lng": -99.1333835,
   "source": "osm"
  },
  {
   "id": "a9049361314",
   "nom": "León XIII",
   "categorie": "artwork",
   "description": "",
   "prix": "",
   "duree": "",
   "mapsUrl": "https://maps.google.com/?q=19.4345675,-99.1334289",
   "lat": 19.4345675,
   "lng": -99.1334289,
   "source": "osm"
  },
  {
   "id": "a13086077147",
   "nom": "Museo de la Secretaría de Hacienda y Crédito Público",
   "categorie": "museum",
   "description": "",
   "prix": "",
   "duree": "",
   "mapsUrl": "https://maps.google.com/?q=19.4336654,-99.131352",
   "lat": 19.4336654,
   "lng": -99.131352,
   "source": "osm"
  },
  {
   "id": "a11016353572",
   "nom": "Recinto de Homenaje a Don Benito Juárez",
   "categorie": "artwork",
   "description": "",
   "prix": "",
   "duree": "",
   "mapsUrl": "https://maps.google.com/?q=19.4332038,-99.1309912",
   "lat": 19.4332038,
   "lng": -99.1309912,
   "source": "osm"
  },
  {
   "id": "a1423779940",
   "nom": "Maqueta",
   "categorie": "artwork",
   "description": "",
   "prix": "",
   "duree": "",
   "mapsUrl": "https://maps.google.com/?q=19.4345208,-99.1320464",
   "lat": 19.4345208,
   "lng": -99.1320464,
   "source": "osm"
  },
  {
   "id": "a1423779938",
   "nom": "Maqueta",
   "categorie": "artwork",
   "description": "",
   "prix": "",
   "duree": "",
   "mapsUrl": "https://maps.google.com/?q=19.4346249,-99.1320382",
   "lat": 19.4346249,
   "lng": -99.1320382,
   "source": "osm"
  },
  {
   "id": "a1423779939",
   "nom": "Maqueta",
   "categorie": "artwork",
   "description": "",
   "prix": "",
   "duree": "",
   "mapsUrl": "https://maps.google.com/?q=19.4347457,-99.1320196",
   "lat": 19.4347457,
   "lng": -99.1320196,
   "source": "osm"
  },
  {
   "id": "a217317617",
   "nom": "Casa de la Primera Imprenta de América",
   "categorie": "museum",
   "description": "",
   "prix": "",
   "duree": "",
   "mapsUrl": "https://maps.google.com/?q=19.4336753,-99.1307843",
   "lat": 19.4336753,
   "lng": -99.1307843,
   "source": "osm"
  },
  {
   "id": "a10003160223",
   "nom": "Capilla de Talabarteros (desaparecida)",
   "categorie": "ruins",
   "description": "",
   "prix": "",
   "duree": "",
   "mapsUrl": "https://maps.google.com/?q=19.4351031,-99.1338686",
   "lat": 19.4351031,
   "lng": -99.1338686,
   "source": "osm"
  },
  {
   "id": "a5675720122",
   "nom": "Archivo de la Fotografía",
   "categorie": "museum",
   "description": "",
   "prix": "",
   "duree": "",
   "mapsUrl": "https://maps.google.com/?q=19.4350046,-99.1321427",
   "lat": 19.4350046,
   "lng": -99.1321427,
   "source": "osm"
  },
  {
   "id": "a6081141093",
   "nom": "Calle Madero",
   "categorie": "attraction",
   "description": "",
   "prix": "",
   "duree": "",
   "mapsUrl": "https://maps.google.com/?q=19.4334111,-99.1358477",
   "lat": 19.4334111,
   "lng": -99.1358477,
   "source": "osm"
  },
  {
   "id": "a13076849597",
   "nom": "Galería de la SHCP",
   "categorie": "gallery",
   "description": "",
   "prix": "",
   "duree": "",
   "mapsUrl": "https://maps.google.com/?q=19.4352312,-99.1334951",
   "lat": 19.4352312,
   "lng": -99.1334951,
   "source": "osm"
  },
  {
   "id": "a1423779942",
   "nom": "Coyolxauhqui",
   "categorie": "artwork",
   "description": "",
   "prix": "",
   "duree": "",
   "mapsUrl": "https://maps.google.com/?q=19.4348543,-99.1316862",
   "lat": 19.4348543,
   "lng": -99.1316862,
   "source": "osm"
  },
  {
   "id": "a13086110272",
   "nom": "Ex Teresa Arte Actual",
   "categorie": "museum",
   "description": "",
   "prix": "",
   "duree": "",
   "mapsUrl": "https://maps.google.com/?q=19.4340858,-99.1306533",
   "lat": 19.4340858,
   "lng": -99.1306533,
   "source": "osm"
  },
  {
   "id": "a1423783282",
   "nom": "Templo Mayor",
   "categorie": "ruins",
   "description": "",
   "prix": "",
   "duree": "",
   "mapsUrl": "https://maps.google.com/?q=19.4349171,-99.1314871",
   "lat": 19.4349171,
   "lng": -99.1314871,
   "source": "osm"
  },
  {
   "id": "a217323406",
   "nom": "Museo Estanquillo",
   "categorie": "museum",
   "description": "",
   "prix": "",
   "duree": "",
   "mapsUrl": "https://maps.google.com/?q=19.4332642,-99.1361213",
   "lat": 19.4332642,
   "lng": -99.1361213,
   "source": "osm"
  },
  {
   "id": "a13086070247",
   "nom": "Capilla de Huitzilopochtli",
   "categorie": "artwork",
   "description": "",
   "prix": "",
   "duree": "",
   "mapsUrl": "https://maps.google.com/?q=19.4348532,-99.1313446",
   "lat": 19.4348532,
   "lng": -99.1313446,
   "source": "osm"
  },
  {
   "id": "a13086070246",
   "nom": "Capilla de Tláloc",
   "categorie": "artwork",
   "description": "",
   "prix": "",
   "duree": "",
   "mapsUrl": "https://maps.google.com/?q=19.4349843,-99.13133",
   "lat": 19.4349843,
   "lng": -99.13133,
   "source": "osm"
  },
  {
   "id": "a1040120541",
   "nom": "Zona arqueológica del Templo Mayor",
   "categorie": "archaeological site",
   "description": "",
   "prix": "",
   "duree": "",
   "mapsUrl": "https://maps.google.com/?q=19.435004,-99.1312606",
   "lat": 19.435004,
   "lng": -99.1312606,
   "source": "osm"
  },
  {
   "id": "a13710468810",
   "nom": "Museo Foro Valparaíso",
   "categorie": "museum",
   "description": "",
   "prix": "",
   "duree": "",
   "mapsUrl": "https://maps.google.com/?q=19.4316354,-99.136248",
   "lat": 19.4316354,
   "lng": -99.136248,
   "source": "osm"
  },
  {
   "id": "a217316690",
   "nom": "Museo de la Caricatura",
   "categorie": "museum",
   "description": "",
   "prix": "",
   "duree": "",
   "mapsUrl": "https://maps.google.com/?q=19.435663,-99.1326739",
   "lat": 19.435663,
   "lng": -99.1326739,
   "source": "osm"
  },
  {
   "id": "a13086073184",
   "nom": "Adoratorio",
   "categorie": "artwork",
   "description": "",
   "prix": "",
   "duree": "",
   "mapsUrl": "https://maps.google.com/?q=19.4353313,-99.1315351",
   "lat": 19.4353313,
   "lng": -99.1315351,
   "source": "osm"
  },
  {
   "id": "a13086073185",
   "nom": "Altar Tzompantli",
   "categorie": "artwork",
   "description": "",
   "prix": "",
   "duree": "",
   "mapsUrl": "https://maps.google.com/?q=19.4353189,-99.1313902",
   "lat": 19.4353189,
   "lng": -99.1313902,
   "source": "osm"
  },
  {
   "id": "a217324707",
   "nom": "Museo de la Ciudad de México",
   "categorie": "museum",
   "description": "",
   "prix": "",
   "duree": "",
   "mapsUrl": "https://maps.google.com/?q=19.4292631,-99.1321346",
   "lat": 19.4292631,
   "lng": -99.1321346,
   "source": "osm"
  },
  {
   "id": "a1421957023",
   "nom": "Museo Templo Mayor",
   "categorie": "museum",
   "description": "",
   "prix": "",
   "duree": "",
   "mapsUrl": "https://maps.google.com/?q=19.4349037,-99.1303",
   "lat": 19.4349037,
   "lng": -99.1303,
   "source": "osm"
  },
  {
   "id": "a1869125358",
   "nom": "Museo Interactivo Bimbo",
   "categorie": "museum",
   "description": "",
   "prix": "",
   "duree": "",
   "mapsUrl": "https://maps.google.com/?q=19.4311749,-99.1368205",
   "lat": 19.4311749,
   "lng": -99.1368205,
   "source": "osm"
  },
  {
   "id": "a1421957001",
   "nom": "Museo José Luis Cuevas",
   "categorie": "museum",
   "description": "",
   "prix": "",
   "duree": "",
   "mapsUrl": "https://maps.google.com/?q=19.4336695,-99.1291324",
   "lat": 19.4336695,
   "lng": -99.1291324,
   "source": "osm"
  },
  {
   "id": "a8235927317",
   "nom": "Arte callejero",
   "categorie": "artwork",
   "description": "",
   "prix": "",
   "duree": "",
   "mapsUrl": "https://maps.google.com/?q=19.4337657,-99.1374988",
   "lat": 19.4337657,
   "lng": -99.1374988,
   "source": "osm"
  },
  {
   "id": "a1421957132",
   "nom": "Antigua Academia de San Carlos",
   "categorie": "museum",
   "description": "",
   "prix": "",
   "duree": "",
   "mapsUrl": "https://maps.google.com/?q=19.4329774,-99.1284853",
   "lat": 19.4329774,
   "lng": -99.1284853,
   "source": "osm"
  },
  {
   "id": "a13538873814",
   "nom": "Museo Vivo del Muralismo",
   "categorie": "museum",
   "description": "",
   "prix": "",
   "duree": "",
   "mapsUrl": "https://maps.google.com/?q=19.436962,-99.1316145",
   "lat": 19.436962,
   "lng": -99.1316145,
   "source": "osm"
  },
  {
   "id": "a5117909174",
   "nom": "Casa San Idelfonso",
   "categorie": "museum",
   "description": "",
   "prix": "",
   "duree": "",
   "mapsUrl": "https://maps.google.com/?q=19.4364864,-99.1305102",
   "lat": 19.4364864,
   "lng": -99.1305102,
   "source": "osm"
  },
  {
   "id": "a6816091585",
   "nom": "Museo del Calzado El Borceguí",
   "categorie": "museum",
   "description": "",
   "prix": "",
   "duree": "",
   "mapsUrl": "https://maps.google.com/?q=19.4331077,-99.1385286",
   "lat": 19.4331077,
   "lng": -99.1385286,
   "source": "osm"
  },
  {
   "id": "a4511105864",
   "nom": "Museo Casa de la Memoria Indómita",
   "categorie": "museum",
   "description": "",
   "prix": "",
   "duree": "",
   "mapsUrl": "https://maps.google.com/?q=19.4277059,-99.1347999",
   "lat": 19.4277059,
   "lng": -99.1347999,
   "source": "osm"
  },
  {
   "id": "a9758534117",
   "nom": "Antigua sede de La Inquisición",
   "categorie": "attraction",
   "description": "",
   "prix": "",
   "duree": "",
   "mapsUrl": "https://maps.google.com/?q=19.4377405,-99.1334512",
   "lat": 19.4377405,
   "lng": -99.1334512,
   "source": "osm"
  },
  {
   "id": "a8232756717",
   "nom": "Street Art",
   "categorie": "artwork",
   "description": "",
   "prix": "",
   "duree": "",
   "mapsUrl": "https://maps.google.com/?q=19.427754,-99.1353862",
   "lat": 19.427754,
   "lng": -99.1353862,
   "source": "osm"
  },
  {
   "id": "a8228762917",
   "nom": "Street Art",
   "categorie": "artwork",
   "description": "",
   "prix": "",
   "duree": "",
   "mapsUrl": "https://maps.google.com/?q=19.4275031,-99.134696",
   "lat": 19.4275031,
   "lng": -99.134696,
   "source": "osm"
  },
  {
   "id": "a8232756617",
   "nom": "Street Art",
   "categorie": "artwork",
   "description": "",
   "prix": "",
   "duree": "",
   "mapsUrl": "https://maps.google.com/?q=19.4278719,-99.1358962",
   "lat": 19.4278719,
   "lng": -99.1358962,
   "source": "osm"
  },
  {
   "id": "a13054773631",
   "nom": "Museo de la Cancillería",
   "categorie": "museum",
   "description": "",
   "prix": "",
   "duree": "",
   "mapsUrl": "https://maps.google.com/?q=19.4297923,-99.138172",
   "lat": 19.4297923,
   "lng": -99.138172,
   "source": "osm"
  },
  {
   "id": "a526228482",
   "nom": "Museo de las Constituciones",
   "categorie": "museum",
   "description": "",
   "prix": "",
   "duree": "",
   "mapsUrl": "https://maps.google.com/?q=19.4367199,-99.1292275",
   "lat": 19.4367199,
   "lng": -99.1292275,
   "source": "osm"
  },
  {
   "id": "a8232756517",
   "nom": "Street Art",
   "categorie": "artwork",
   "description": "",
   "prix": "",
   "duree": "",
   "mapsUrl": "https://maps.google.com/?q=19.4278755,-99.1363412",
   "lat": 19.4278755,
   "lng": -99.1363412,
   "source": "osm"
  },
  {
   "id": "a158032454",
   "nom": "Palacio de Iturbide",
   "categorie": "attraction",
   "description": "",
   "prix": "",
   "duree": "",
   "mapsUrl": "https://maps.google.com/?q=19.4336182,-99.1390405",
   "lat": 19.4336182,
   "lng": -99.1390405,
   "source": "osm"
  },
  {
   "id": "a11016387631",
   "nom": "Alonso García Bravo",
   "categorie": "artwork",
   "description": "",
   "prix": "",
   "duree": "",
   "mapsUrl": "https://maps.google.com/?q=19.4299398,-99.1278587",
   "lat": 19.4299398,
   "lng": -99.1278587,
   "source": "osm"
  },
  {
   "id": "a217319058",
   "nom": "Casa de Leona Vicario",
   "categorie": "museum",
   "description": "",
   "prix": "",
   "duree": "",
   "mapsUrl": "https://maps.google.com/?q=19.4383488,-99.1332193",
   "lat": 19.4383488,
   "lng": -99.1332193,
   "source": "osm"
  },
  {
   "id": "a4569459989",
   "nom": "Museo de la tortura",
   "categorie": "museum",
   "description": "",
   "prix": "",
   "duree": "",
   "mapsUrl": "https://maps.google.com/?q=19.4356143,-99.1385099",
   "lat": 19.4356143,
   "lng": -99.1385099,
   "source": "osm"
  },
  {
   "id": "a526236375",
   "nom": "Museo del Ejército y Fuerza Aérea Mexicanos Bethlemitas",
   "categorie": "museum",
   "description": "",
   "prix": "",
   "duree": "",
   "mapsUrl": "https://maps.google.com/?q=19.435382,-99.138988",
   "lat": 19.435382,
   "lng": -99.138988,
   "source": "osm"
  },
  {
   "id": "a12010299623",
   "nom": "Totoquihuatzin",
   "categorie": "artwork",
   "description": "",
   "prix": "",
   "duree": "",
   "mapsUrl": "https://maps.google.com/?q=19.4355148,-99.1390101",
   "lat": 19.4355148,
   "lng": -99.1390101,
   "source": "osm"
  },
  {
   "id": "a12010299622",
   "nom": "Nezahualcóyotl",
   "categorie": "artwork",
   "description": "",
   "prix": "",
   "duree": "",
   "mapsUrl": "https://maps.google.com/?q=19.4355824,-99.1389893",
   "lat": 19.4355824,
   "lng": -99.1389893,
   "source": "osm"
  },
  {
   "id": "a4434602325",
   "nom": "Estatua de Sor Juana Ines de la Cruz",
   "categorie": "memorial",
   "description": "",
   "prix": "",
   "duree": "",
   "mapsUrl": "https://maps.google.com/?q=19.42695,-99.1359902",
   "lat": 19.42695,
   "lng": -99.1359902,
   "source": "osm"
  },
  {
   "id": "a12010299625",
   "nom": "Jardín de la Triple Alianza",
   "categorie": "memorial",
   "description": "",
   "prix": "",
   "duree": "",
   "mapsUrl": "https://maps.google.com/?q=19.4356362,-99.1389793",
   "lat": 19.4356362,
   "lng": -99.1389793,
   "source": "osm"
  },
  {
   "id": "a12010299624",
   "nom": "Don Filomeno Mata",
   "categorie": "artwork",
   "description": "",
   "prix": "",
   "duree": "",
   "mapsUrl": "https://maps.google.com/?q=19.4356551,-99.1389752",
   "lat": 19.4356551,
   "lng": -99.1389752,
   "source": "osm"
  },
  {
   "id": "a12010299621",
   "nom": "Izcoatl",
   "categorie": "artwork",
   "description": "",
   "prix": "",
   "duree": "",
   "mapsUrl": "https://maps.google.com/?q=19.4357165,-99.1389665",
   "lat": 19.4357165,
   "lng": -99.1389665,
   "source": "osm"
  },
  {
   "id": "a1677215786",
   "nom": "Museo del Telégrafo",
   "categorie": "museum",
   "description": "",
   "prix": "",
   "duree": "",
   "mapsUrl": "https://maps.google.com/?q=19.4361764,-99.1390444",
   "lat": 19.4361764,
   "lng": -99.1390444,
   "source": "osm"
  },
  {
   "id": "a12010301335",
   "nom": "Sebastián Lerdo de Tejada",
   "categorie": "artwork",
   "description": "",
   "prix": "",
   "duree": "",
   "mapsUrl": "https://maps.google.com/?q=19.4366145,-99.1388502",
   "lat": 19.4366145,
   "lng": -99.1388502,
   "source": "osm"
  },
  {
   "id": "a158032444",
   "nom": "Casa de los Azulejos",
   "categorie": "attraction",
   "description": "",
   "prix": "",
   "duree": "",
   "mapsUrl": "https://maps.google.com/?q=19.4343516,-99.1401225",
   "lat": 19.4343516,
   "lng": -99.1401225,
   "source": "osm"
  },
  {
   "id": "a1421923370",
   "nom": "Museo Del Sitio Del Antiguo Hospital Concepción Béistegui",
   "categorie": "museum",
   "description": "",
   "prix": "",
   "duree": "",
   "mapsUrl": "https://maps.google.com/?q=19.4278019,-99.1383067",
   "lat": 19.4278019,
   "lng": -99.1383067,
   "source": "osm"
  },
  {
   "id": "a217407196",
   "nom": "El Caballito",
   "categorie": "artwork",
   "description": "",
   "prix": "",
   "duree": "",
   "mapsUrl": "https://maps.google.com/?q=19.4360586,-99.1394783",
   "lat": 19.4360586,
   "lng": -99.1394783,
   "source": "osm"
  },
  {
   "id": "a5559888847",
   "nom": "El Caballito",
   "categorie": "memorial",
   "description": "",
   "prix": "",
   "duree": "",
   "mapsUrl": "https://maps.google.com/?q=19.4360709,-99.1394778",
   "lat": 19.4360709,
   "lng": -99.1394778,
   "source": "osm"
  },
  {
   "id": "a6081141104",
   "nom": "Casa de los Azulejos",
   "categorie": "museum",
   "description": "",
   "prix": "",
   "duree": "",
   "mapsUrl": "https://maps.google.com/?q=19.4342545,-99.1403016",
   "lat": 19.4342545,
   "lng": -99.1403016,
   "source": "osm"
  },
  {
   "id": "a157051114",
   "nom": "Palacio Postal",
   "categorie": "attraction",
   "description": "",
   "prix": "",
   "duree": "",
   "mapsUrl": "https://maps.google.com/?q=19.4356249,-99.1402953",
   "lat": 19.4356249,
   "lng": -99.1402953,
   "source": "osm"
  },
  {
   "id": "a1677195610",
   "nom": "Museo Histórico Naval de la Ciudad de México",
   "categorie": "museum",
   "description": "",
   "prix": "",
   "duree": "",
   "mapsUrl": "https://maps.google.com/?q=19.4357528,-99.1402642",
   "lat": 19.4357528,
   "lng": -99.1402642,
   "source": "osm"
  },
  {
   "id": "a5509017257",
   "nom": "El Aguilita",
   "categorie": "artwork",
   "description": "",
   "prix": "",
   "duree": "",
   "mapsUrl": "https://maps.google.com/?q=19.4272223,-99.1277569",
   "lat": 19.4272223,
   "lng": -99.1277569,
   "source": "osm"
  },
  {
   "id": "a1427423882",
   "nom": "Museo de la Charrería",
   "categorie": "museum",
   "description": "",
   "prix": "",
   "duree": "",
   "mapsUrl": "https://maps.google.com/?q=19.4260448,-99.1371376",
   "lat": 19.4260448,
   "lng": -99.1371376,
   "source": "osm"
  },
  {
   "id": "a1422175786",
   "nom": "Museo Numismático Nacional",
   "categorie": "museum",
   "description": "",
   "prix": "",
   "duree": "",
   "mapsUrl": "https://maps.google.com/?q=19.4396397,-99.1303454",
   "lat": 19.4396397,
   "lng": -99.1303454,
   "source": "osm"
  },
  {
   "id": "a12010322696",
   "nom": "Pegaso",
   "categorie": "artwork",
   "description": "",
   "prix": "",
   "duree": "",
   "mapsUrl": "https://maps.google.com/?q=19.4348497,-99.1410847",
   "lat": 19.4348497,
   "lng": -99.1410847,
   "source": "osm"
  },
  {
   "id": "a1282587358",
   "nom": "Monumento a Ho Chi Minh",
   "categorie": "memorial",
   "description": "",
   "prix": "",
   "duree": "",
   "mapsUrl": "https://maps.google.com/?q=19.4248333,-99.134075",
   "lat": 19.4248333,
   "lng": -99.134075,
   "source": "osm"
  },
  {
   "id": "a4594486253",
   "nom": "Pegaso",
   "categorie": "artwork",
   "description": "",
   "prix": "",
   "duree": "",
   "mapsUrl": "https://maps.google.com/?q=19.434412,-99.1412722",
   "lat": 19.434412,
   "lng": -99.1412722,
   "source": "osm"
  },
  {
   "id": "a1163985765",
   "nom": "Museo Agrario",
   "categorie": "museum",
   "description": "",
   "prix": "",
   "duree": "",
   "mapsUrl": "https://maps.google.com/?q=19.4247244,-99.1319922",
   "lat": 19.4247244,
   "lng": -99.1319922,
   "source": "osm"
  },
  {
   "id": "a13199955984",
   "nom": "Museo Nacional de Arquitectura",
   "categorie": "museum",
   "description": "",
   "prix": "",
   "duree": "",
   "mapsUrl": "https://maps.google.com/?q=19.4353295,-99.1411333",
   "lat": 19.4353295,
   "lng": -99.1411333,
   "source": "osm"
  },
  {
   "id": "a8501268613",
   "nom": "Antimonumenta Ni Una Más",
   "categorie": "memorial",
   "description": "",
   "prix": "",
   "duree": "",
   "mapsUrl": "https://maps.google.com/?q=19.4341994,-99.1414968",
   "lat": 19.4341994,
   "lng": -99.1414968,
   "source": "osm"
  },
  {
   "id": "a4594486254",
   "nom": "Pegaso",
   "categorie": "artwork",
   "description": "",
   "prix": "",
   "duree": "",
   "mapsUrl": "https://maps.google.com/?q=19.4344535,-99.1415561",
   "lat": 19.4344535,
   "lng": -99.1415561,
   "source": "osm"
  },
  {
   "id": "a13199936006",
   "nom": "Museo del Palacio de Bellas Artes",
   "categorie": "museum",
   "description": "",
   "prix": "",
   "duree": "",
   "mapsUrl": "https://maps.google.com/?q=19.4354684,-99.141263",
   "lat": 19.4354684,
   "lng": -99.141263,
   "source": "osm"
  },
  {
   "id": "a12010322695",
   "nom": "Pegaso",
   "categorie": "artwork",
   "description": "",
   "prix": "",
   "duree": "",
   "mapsUrl": "https://maps.google.com/?q=19.4349245,-99.1416153",
   "lat": 19.4349245,
   "lng": -99.1416153,
   "source": "osm"
  },
  {
   "id": "a2812596391",
   "nom": "Monumento a Francisco I. Madero",
   "categorie": "monument",
   "description": "",
   "prix": "",
   "duree": "",
   "mapsUrl": "https://maps.google.com/?q=19.4345871,-99.1420542",
   "lat": 19.4345871,
   "lng": -99.1420542,
   "source": "osm"
  },
  {
   "id": "a12010374744",
   "nom": "Aquiles Serdán",
   "categorie": "artwork",
   "description": "",
   "prix": "",
   "duree": "",
   "mapsUrl": "https://maps.google.com/?q=19.4379539,-99.1405638",
   "lat": 19.4379539,
   "lng": -99.1405638,
   "source": "osm"
  },
  {
   "id": "a9173471229",
   "nom": "Monumento a Beethoven",
   "categorie": "artwork",
   "description": "",
   "prix": "",
   "duree": "",
   "mapsUrl": "https://maps.google.com/?q=19.435407,-99.1421277",
   "lat": 19.435407,
   "lng": -99.1421277,
   "source": "osm"
  },
  {
   "id": "a12010374745",
   "nom": "María Victoria",
   "categorie": "artwork",
   "description": "",
   "prix": "",
   "duree": "",
   "mapsUrl": "https://maps.google.com/?q=19.4384603,-99.1404856",
   "lat": 19.4384603,
   "lng": -99.1404856,
   "source": "osm"
  },
  {
   "id": "a8544962218",
   "nom": "Arte callejero",
   "categorie": "artwork",
   "description": "",
   "prix": "",
   "duree": "",
   "mapsUrl": "https://maps.google.com/?q=19.4342579,-99.1426533",
   "lat": 19.4342579,
   "lng": -99.1426533,
   "source": "osm"
  },
  {
   "id": "a8228450317",
   "nom": "Arte callejero",
   "categorie": "artwork",
   "description": "",
   "prix": "",
   "duree": "",
   "mapsUrl": "https://maps.google.com/?q=19.4418568,-99.1334566",
   "lat": 19.4418568,
   "lng": -99.1334566,
   "source": "osm"
  },
  {
   "id": "a4629093193",
   "nom": "Barrio Chino",
   "categorie": "attraction",
   "description": "",
   "prix": "",
   "duree": "",
   "mapsUrl": "https://maps.google.com/?q=19.433015,-99.14305",
   "lat": 19.433015,
   "lng": -99.14305,
   "source": "osm"
  },
  {
   "id": "a9721627817",
   "nom": "Street Art",
   "categorie": "artwork",
   "description": "",
   "prix": "",
   "duree": "",
   "mapsUrl": "https://maps.google.com/?q=19.4409342,-99.1380831",
   "lat": 19.4409342,
   "lng": -99.1380831,
   "source": "osm"
  },
  {
   "id": "a176472989",
   "nom": "Museo Nacional de la Estampa",
   "categorie": "museum",
   "description": "",
   "prix": "",
   "duree": "",
   "mapsUrl": "https://maps.google.com/?q=19.4370437,-99.1427091",
   "lat": 19.4370437,
   "lng": -99.1427091,
   "source": "osm"
  },
  {
   "id": "a217322480",
   "nom": "Museo del Tequila y el Mezcal",
   "categorie": "museum",
   "description": "",
   "prix": "",
   "duree": "",
   "mapsUrl": "https://maps.google.com/?q=19.4406779,-99.1395512",
   "lat": 19.4406779,
   "lng": -99.1395512,
   "source": "osm"
  },
  {
   "id": "a13148267379",
   "nom": "Benjamín Carrión",
   "categorie": "artwork",
   "description": "",
   "prix": "",
   "duree": "",
   "mapsUrl": "https://maps.google.com/?q=19.4369486,-99.142858",
   "lat": 19.4369486,
   "lng": -99.142858,
   "source": "osm"
  },
  {
   "id": "a217392914",
   "nom": "Fuente de Salto del Agua",
   "categorie": "attraction",
   "description": "",
   "prix": "",
   "duree": "",
   "mapsUrl": "https://maps.google.com/?q=19.4267637,-99.1422679",
   "lat": 19.4267637,
   "lng": -99.1422679,
   "source": "osm"
  },
  {
   "id": "a992941278",
   "nom": "Hemiciclo a Juárez",
   "categorie": "attraction",
   "description": "",
   "prix": "",
   "duree": "",
   "mapsUrl": "https://maps.google.com/?q=19.4350423,-99.1441081",
   "lat": 19.4350423,
   "lng": -99.1441081,
   "source": "osm"
  },
  {
   "id": "a10603208979",
   "nom": "Velocidad",
   "categorie": "artwork",
   "description": "",
   "prix": "",
   "duree": "",
   "mapsUrl": "https://maps.google.com/?q=19.4345149,-99.1445261",
   "lat": 19.4345149,
   "lng": -99.1445261,
   "source": "osm"
  }
 ],
 "scoreIndicatif": true,
 "osmEnriched": true,
 "osmEnrichedAt": "2026-06-30"
}
