{
  "slug": "milan",
  "nom": "Milan",
  "pays": "Italie",
  "pays_slug": "italie",
  "continent": "Europe",
  "region": "Italie",
  "coordonnees": {
    "lat": 45.4642,
    "lng": 9.19
  },
  "codeISO": "IT",
  "score_halal": 3.4,
  "halalScore": 6.8,
  "villeNonMusulmane": true,
  "description": "Capitale italienne de la mode et du design. Communauté musulmane active autour de Porta Venezia et Via Padova, avec une offre halal en croissance et plusieurs lieux de prière.",
  "metaDescription": "Capitale italienne de la mode et du design. Communauté musulmane active autour de Porta Venezia et Via Padova, avec une offre halal en croissance et plusieurs lieux de prière.",
  "image": "https://upload.wikimedia.org/wikipedia/commons/6/60/Milan.Proper.Wikipedia.Image.jpg",
  "image_hero": "https://upload.wikimedia.org/wikipedia/commons/6/60/Milan.Proper.Wikipedia.Image.jpg",
  "imageCredit": "Wikimedia Commons",
  "statistiques": {
    "restaurants_halal": 200,
    "mosquees": 37,
    "hotels": 120
  },
  "infoPratique": {
    "transport": "Accessible par avion et transports en commun locaux.",
    "meilleureEpoque": "Printemps et automne (climat tempéré).",
    "conseilHalal": "Ville non-musulmane : repérez les restaurants halal certifiés et les mosquées via l'application avant votre visite."
  },
  "tags": [
    "halal",
    "ville non-musulmane",
    "europe"
  ],
  "restaurants": [
    {
      "nom": "Turkish Kebap-Pizza",
      "type": "kebab, falafel, pizza",
      "priceRange": "€€",
      "mapsUrl": "https://maps.google.com/?q=45.4763156,9.2062089",
      "lat": 45.4763156,
      "lng": 9.2062089,
      "halalConfidence": "yes",
      "source": "osm"
    },
    {
      "nom": "Tandoori Kebab",
      "type": "pakistani",
      "priceRange": "€€",
      "mapsUrl": "https://maps.google.com/?q=45.482356,9.207048",
      "lat": 45.482356,
      "lng": 9.207048,
      "halalConfidence": "only",
      "source": "osm"
    },
    {
      "nom": "Kashmir Grill",
      "type": "indian",
      "priceRange": "€€",
      "mapsUrl": "https://maps.google.com/?q=45.4828821,9.2092508",
      "lat": 45.4828821,
      "lng": 9.2092508,
      "halalConfidence": "yes",
      "source": "osm"
    },
    {
      "nom": "Gandhi",
      "type": "indian",
      "priceRange": "€€",
      "mapsUrl": "https://maps.google.com/?q=45.4830203,9.209645",
      "lat": 45.4830203,
      "lng": 9.209645,
      "halalConfidence": "yes",
      "source": "osm"
    },
    {
      "nom": "Sofra",
      "type": "turkish",
      "priceRange": "€€",
      "mapsUrl": "https://maps.google.com/?q=45.4860035,9.2325328",
      "lat": 45.4860035,
      "lng": 9.2325328,
      "halalConfidence": "only",
      "source": "osm"
    },
    {
      "nom": "Istanbul Ayasofia",
      "type": "kebab, turkish, pizza",
      "priceRange": "€€",
      "mapsUrl": "https://maps.google.com/?q=45.5005921,9.2212598",
      "lat": 45.5005921,
      "lng": 9.2212598,
      "halalConfidence": "yes",
      "source": "osm"
    },
    {
      "nom": "Karma Pizza",
      "type": "pizza",
      "priceRange": "€€",
      "mapsUrl": "https://maps.google.com/?q=45.5531311,9.2276374",
      "lat": 45.5531311,
      "lng": 9.2276374,
      "halalConfidence": "yes",
      "source": "osm"
    },
    {
      "nom": "ILK",
      "type": "kebab",
      "priceRange": "€€",
      "mapsUrl": "https://maps.google.com/?q=45.4646248,9.1871737",
      "lat": 45.4646248,
      "lng": 9.1871737,
      "halalConfidence": "likely",
      "source": "osm"
    },
    {
      "nom": "Pizzeria Grill",
      "type": "pizza, kebab",
      "priceRange": "€€",
      "mapsUrl": "https://maps.google.com/?q=45.4610477,9.1844691",
      "lat": 45.4610477,
      "lng": 9.1844691,
      "halalConfidence": "likely",
      "source": "osm"
    },
    {
      "nom": "Istanbul Ayasofya",
      "type": "kebab, pizza, falafel",
      "priceRange": "€€",
      "mapsUrl": "https://maps.google.com/?q=45.4675903,9.1825326",
      "lat": 45.4675903,
      "lng": 9.1825326,
      "halalConfidence": "likely",
      "source": "osm"
    },
    {
      "nom": "Bali’s turkish kebap",
      "type": "kebab, pizza",
      "priceRange": "€€",
      "mapsUrl": "https://maps.google.com/?q=45.4596731,9.1813469",
      "lat": 45.4596731,
      "lng": 9.1813469,
      "halalConfidence": "likely",
      "source": "osm"
    },
    {
      "nom": "Pasa Döner",
      "type": "kebab",
      "priceRange": "€€",
      "mapsUrl": "https://maps.google.com/?q=45.4669234,9.2004141",
      "lat": 45.4669234,
      "lng": 9.2004141,
      "halalConfidence": "likely",
      "source": "osm"
    },
    {
      "nom": "Noor",
      "type": "lebanese",
      "priceRange": "€€",
      "mapsUrl": "https://maps.google.com/?q=45.4715844,9.1849653",
      "lat": 45.4715844,
      "lng": 9.1849653,
      "halalConfidence": "likely",
      "source": "osm"
    },
    {
      "nom": "Giza",
      "type": "sandwich, egyptian, dessert",
      "priceRange": "€€",
      "mapsUrl": "https://maps.google.com/?q=45.4567517,9.1809077",
      "lat": 45.4567517,
      "lng": 9.1809077,
      "halalConfidence": "likely",
      "source": "osm"
    },
    {
      "nom": "Champion Turkish Kebap",
      "type": "kebab",
      "priceRange": "€€",
      "mapsUrl": "https://maps.google.com/?q=45.4559198,9.1808111",
      "lat": 45.4559198,
      "lng": 9.1808111,
      "halalConfidence": "likely",
      "source": "osm"
    },
    {
      "nom": "Milano Kebap house",
      "type": "turkish",
      "priceRange": "€€",
      "mapsUrl": "https://maps.google.com/?q=45.4754953,9.1844002",
      "lat": 45.4754953,
      "lng": 9.1844002,
      "halalConfidence": "likely",
      "source": "osm"
    },
    {
      "nom": "Turkish Kebab Pizzeria",
      "type": "kebab, pizza",
      "priceRange": "€€",
      "mapsUrl": "https://maps.google.com/?q=45.4758825,9.193887",
      "lat": 45.4758825,
      "lng": 9.193887,
      "halalConfidence": "likely",
      "source": "osm"
    },
    {
      "nom": "Pizzeria Sant'Ambrogio",
      "type": "pizza, kebab",
      "priceRange": "€€",
      "mapsUrl": "https://maps.google.com/?q=45.4593705,9.1739023",
      "lat": 45.4593705,
      "lng": 9.1739023,
      "halalConfidence": "likely",
      "source": "osm"
    },
    {
      "nom": "Shalto",
      "type": "persian",
      "priceRange": "€€",
      "mapsUrl": "https://maps.google.com/?q=45.4525567,9.1824511",
      "lat": 45.4525567,
      "lng": 9.1824511,
      "halalConfidence": "likely",
      "source": "osm"
    },
    {
      "nom": "Pitador",
      "type": "lebanese",
      "priceRange": "€€",
      "mapsUrl": "https://maps.google.com/?q=45.4531572,9.1797425",
      "lat": 45.4531572,
      "lng": 9.1797425,
      "halalConfidence": "likely",
      "source": "osm"
    },
    {
      "nom": "Ceci",
      "type": "lebanese",
      "priceRange": "€€",
      "mapsUrl": "https://maps.google.com/?q=45.4523134,9.1817371",
      "lat": 45.4523134,
      "lng": 9.1817371,
      "halalConfidence": "likely",
      "source": "osm"
    },
    {
      "nom": "Cose Turche",
      "type": "turkish",
      "priceRange": "€€",
      "mapsUrl": "https://maps.google.com/?q=45.4571373,9.1740487",
      "lat": 45.4571373,
      "lng": 9.1740487,
      "halalConfidence": "likely",
      "source": "osm"
    },
    {
      "nom": "Mondial Kebap",
      "type": "turkish",
      "priceRange": "€€",
      "mapsUrl": "https://maps.google.com/?q=45.4774598,9.1854387",
      "lat": 45.4774598,
      "lng": 9.1854387,
      "halalConfidence": "likely",
      "source": "osm"
    },
    {
      "nom": "Senza Cipolla",
      "type": "pizza, kebab",
      "priceRange": "€€",
      "mapsUrl": "https://maps.google.com/?q=45.4508455,9.1958761",
      "lat": 45.4508455,
      "lng": 9.1958761,
      "halalConfidence": "likely",
      "source": "osm"
    },
    {
      "nom": "Kebhouze",
      "type": "kebab",
      "priceRange": "€€",
      "mapsUrl": "https://maps.google.com/?q=45.461258,9.2095498",
      "lat": 45.461258,
      "lng": 9.2095498,
      "halalConfidence": "likely",
      "source": "osm"
    },
    {
      "nom": "Le Presine Volanti",
      "type": "kebab, tapas, soup",
      "priceRange": "€€",
      "mapsUrl": "https://maps.google.com/?q=45.4610738,9.2097855",
      "lat": 45.4610738,
      "lng": 9.2097855,
      "halalConfidence": "likely",
      "source": "osm"
    },
    {
      "nom": "Mido",
      "type": "arab",
      "priceRange": "€€",
      "mapsUrl": "https://maps.google.com/?q=45.4510942,9.1819458",
      "lat": 45.4510942,
      "lng": 9.1819458,
      "halalConfidence": "likely",
      "source": "osm"
    },
    {
      "nom": "Papiniano pizzeria kebab",
      "type": "kebab",
      "priceRange": "€€",
      "mapsUrl": "https://maps.google.com/?q=45.4566932,9.1725827",
      "lat": 45.4566932,
      "lng": 9.1725827,
      "halalConfidence": "likely",
      "source": "osm"
    },
    {
      "nom": "Mezè",
      "type": "lebanese",
      "priceRange": "€€",
      "mapsUrl": "https://maps.google.com/?q=45.4659757,9.2105595",
      "lat": 45.4659757,
      "lng": 9.2105595,
      "halalConfidence": "likely",
      "source": "osm"
    },
    {
      "nom": "Nay",
      "type": "lebanese",
      "priceRange": "€€",
      "mapsUrl": "https://maps.google.com/?q=45.4661844,9.2111456",
      "lat": 45.4661844,
      "lng": 9.2111456,
      "halalConfidence": "likely",
      "source": "osm"
    },
    {
      "nom": "Pizzeria Kebab Santa Maria",
      "type": "kebab, pizza",
      "priceRange": "€€",
      "mapsUrl": "https://maps.google.com/?q=45.460573,9.2111549",
      "lat": 45.460573,
      "lng": 9.2111549,
      "halalConfidence": "likely",
      "source": "osm"
    },
    {
      "nom": "Istambul Kebab Pizza",
      "type": "kebab, pizza",
      "priceRange": "€€",
      "mapsUrl": "https://maps.google.com/?q=45.4549673,9.1724154",
      "lat": 45.4549673,
      "lng": 9.1724154,
      "halalConfidence": "likely",
      "source": "osm"
    },
    {
      "nom": "Pizza Kebab San Gottardo",
      "type": "pizza, kebab",
      "priceRange": "€€",
      "mapsUrl": "https://maps.google.com/?q=45.4502724,9.1800732",
      "lat": 45.4502724,
      "lng": 9.1800732,
      "halalConfidence": "likely",
      "source": "osm"
    },
    {
      "nom": "CiccioMatto1",
      "type": "kebab",
      "priceRange": "€€",
      "mapsUrl": "https://maps.google.com/?q=45.4484074,9.1866931",
      "lat": 45.4484074,
      "lng": 9.1866931,
      "halalConfidence": "likely",
      "source": "osm"
    },
    {
      "nom": "Pizzeria Naviglio",
      "type": "kebab, pizza",
      "priceRange": "€€",
      "mapsUrl": "https://maps.google.com/?q=45.4517353,9.1754513",
      "lat": 45.4517353,
      "lng": 9.1754513,
      "halalConfidence": "likely",
      "source": "osm"
    },
    {
      "nom": "City Istanbul",
      "type": "kebab",
      "priceRange": "€€",
      "mapsUrl": "https://maps.google.com/?q=45.4706073,9.2113892",
      "lat": 45.4706073,
      "lng": 9.2113892,
      "halalConfidence": "likely",
      "source": "osm"
    },
    {
      "nom": "pizzeria kebap",
      "type": "kebab",
      "priceRange": "€€",
      "mapsUrl": "https://maps.google.com/?q=45.4578039,9.1685789",
      "lat": 45.4578039,
      "lng": 9.1685789,
      "halalConfidence": "likely",
      "source": "osm"
    },
    {
      "nom": "Amina",
      "type": "moroccan",
      "priceRange": "€€",
      "mapsUrl": "https://maps.google.com/?q=45.4488631,9.1995304",
      "lat": 45.4488631,
      "lng": 9.1995304,
      "halalConfidence": "likely",
      "source": "osm"
    },
    {
      "nom": "Davet",
      "type": "kebab, pizza",
      "priceRange": "€€",
      "mapsUrl": "https://maps.google.com/?q=45.4538366,9.1703474",
      "lat": 45.4538366,
      "lng": 9.1703474,
      "halalConfidence": "likely",
      "source": "osm"
    },
    {
      "nom": "Wadi Rum Viale Tunisia",
      "type": "lebanese",
      "priceRange": "€€",
      "mapsUrl": "https://maps.google.com/?q=45.4781611,9.2046771",
      "lat": 45.4781611,
      "lng": 9.2046771,
      "halalConfidence": "likely",
      "source": "osm"
    },
    {
      "nom": "Ryad Yacout",
      "type": "moroccan",
      "priceRange": "€€",
      "mapsUrl": "https://maps.google.com/?q=45.457869,9.2132536",
      "lat": 45.457869,
      "lng": 9.2132536,
      "halalConfidence": "likely",
      "source": "osm"
    },
    {
      "nom": "Persianissimo",
      "type": "persian",
      "priceRange": "€€",
      "mapsUrl": "https://maps.google.com/?q=45.4516519,9.2074178",
      "lat": 45.4516519,
      "lng": 9.2074178,
      "halalConfidence": "likely",
      "source": "osm"
    },
    {
      "nom": "Lyr",
      "type": "lebanese",
      "priceRange": "€€",
      "mapsUrl": "https://maps.google.com/?q=45.4511964,9.1729152",
      "lat": 45.4511964,
      "lng": 9.1729152,
      "halalConfidence": "likely",
      "source": "osm"
    },
    {
      "nom": "Kebest",
      "type": "kebab",
      "priceRange": "€€",
      "mapsUrl": "https://maps.google.com/?q=45.4552967,9.1680365",
      "lat": 45.4552967,
      "lng": 9.1680365,
      "halalConfidence": "likely",
      "source": "osm"
    },
    {
      "nom": "La Perla",
      "type": "kebab",
      "priceRange": "€€",
      "mapsUrl": "https://maps.google.com/?q=45.4484296,9.2030224",
      "lat": 45.4484296,
      "lng": 9.2030224,
      "halalConfidence": "likely",
      "source": "osm"
    },
    {
      "nom": "Le Petit Prince",
      "type": "pizza, kebab",
      "priceRange": "€€",
      "mapsUrl": "https://maps.google.com/?q=45.481922,9.1834987",
      "lat": 45.481922,
      "lng": 9.1834987,
      "halalConfidence": "likely",
      "source": "osm"
    },
    {
      "nom": "Riad Majorelle",
      "type": "moroccan",
      "priceRange": "€€",
      "mapsUrl": "https://maps.google.com/?q=45.4800755,9.2031723",
      "lat": 45.4800755,
      "lng": 9.2031723,
      "halalConfidence": "likely",
      "source": "osm"
    },
    {
      "nom": "Mevlana Pizza Kebab",
      "type": "kebab, pizza",
      "priceRange": "€€",
      "mapsUrl": "https://maps.google.com/?q=45.4551267,9.167065",
      "lat": 45.4551267,
      "lng": 9.167065,
      "halalConfidence": "likely",
      "source": "osm"
    },
    {
      "nom": "Mekan",
      "type": "kebab",
      "priceRange": "€€",
      "mapsUrl": "https://maps.google.com/?q=45.4822823,9.1821689",
      "lat": 45.4822823,
      "lng": 9.1821689,
      "halalConfidence": "likely",
      "source": "osm"
    },
    {
      "nom": "NUN - taste of middle east",
      "type": "international, arab, oriental, asian, mediterranean, kebab, falafel, lebanese",
      "priceRange": "€€",
      "mapsUrl": "https://maps.google.com/?q=45.4776453,9.2091915",
      "lat": 45.4776453,
      "lng": 9.2091915,
      "halalConfidence": "likely",
      "source": "osm"
    },
    {
      "nom": "Due Tradizioni",
      "type": "italian pizza, lebanese",
      "priceRange": "€€",
      "mapsUrl": "https://maps.google.com/?q=45.4473424,9.1767349",
      "lat": 45.4473424,
      "lng": 9.1767349,
      "halalConfidence": "likely",
      "source": "osm"
    },
    {
      "nom": "Falastar",
      "type": "lebanese, pita",
      "priceRange": "€€",
      "mapsUrl": "https://maps.google.com/?q=45.4531894,9.1670979",
      "lat": 45.4531894,
      "lng": 9.1670979,
      "halalConfidence": "likely",
      "source": "osm"
    },
    {
      "nom": "Fairouz",
      "type": "lebanese",
      "priceRange": "€€",
      "mapsUrl": "https://maps.google.com/?q=45.4830461,9.197284",
      "lat": 45.4830461,
      "lng": 9.197284,
      "halalConfidence": "likely",
      "source": "osm"
    },
    {
      "nom": "Il Moro 2",
      "type": "pizza, italian, egyptian",
      "priceRange": "€€",
      "mapsUrl": "https://maps.google.com/?q=45.4568863,9.1639985",
      "lat": 45.4568863,
      "lng": 9.1639985,
      "halalConfidence": "likely",
      "source": "osm"
    },
    {
      "nom": "Istanbul Meda",
      "type": "kebab, mediterranean, turkish",
      "priceRange": "€€",
      "mapsUrl": "https://maps.google.com/?q=45.4457815,9.1792254",
      "lat": 45.4457815,
      "lng": 9.1792254,
      "halalConfidence": "likely",
      "source": "osm"
    },
    {
      "nom": "Suqsu",
      "type": "arab",
      "priceRange": "€€",
      "mapsUrl": "https://maps.google.com/?q=45.4463955,9.176963",
      "lat": 45.4463955,
      "lng": 9.176963,
      "halalConfidence": "likely",
      "source": "osm"
    },
    {
      "nom": "Kebabbar",
      "type": "kebab",
      "priceRange": "€€",
      "mapsUrl": "https://maps.google.com/?q=45.4620084,9.2190588",
      "lat": 45.4620084,
      "lng": 9.2190588,
      "halalConfidence": "likely",
      "source": "osm"
    },
    {
      "nom": "Fly Pizza Kebab",
      "type": "kebab, pizza",
      "priceRange": "€€",
      "mapsUrl": "https://maps.google.com/?q=45.4453522,9.1779885",
      "lat": 45.4453522,
      "lng": 9.1779885,
      "halalConfidence": "likely",
      "source": "osm"
    },
    {
      "nom": "Beirut",
      "type": "lebanese",
      "priceRange": "€€",
      "mapsUrl": "https://maps.google.com/?q=45.4525484,9.2151177",
      "lat": 45.4525484,
      "lng": 9.2151177,
      "halalConfidence": "likely",
      "source": "osm"
    },
    {
      "nom": "Sultan Kebab",
      "type": "kebab",
      "priceRange": "€€",
      "mapsUrl": "https://maps.google.com/?q=45.481789,9.2075751",
      "lat": 45.481789,
      "lng": 9.2075751,
      "halalConfidence": "likely",
      "source": "osm"
    },
    {
      "nom": "Pasa Doner Kebap",
      "type": "kebab",
      "priceRange": "€€",
      "mapsUrl": "https://maps.google.com/?q=45.4438747,9.179181",
      "lat": 45.4438747,
      "lng": 9.179181,
      "halalConfidence": "likely",
      "source": "osm"
    },
    {
      "nom": "Mister Pizza",
      "type": "burger, kebab, pizza",
      "priceRange": "€€",
      "mapsUrl": "https://maps.google.com/?q=45.4521614,9.2160126",
      "lat": 45.4521614,
      "lng": 9.2160126,
      "halalConfidence": "likely",
      "source": "osm"
    },
    {
      "nom": "Kebab Pizza Cleopatra",
      "type": "kebab",
      "priceRange": "€€",
      "mapsUrl": "https://maps.google.com/?q=45.4834298,9.2049564",
      "lat": 45.4834298,
      "lng": 9.2049564,
      "halalConfidence": "likely",
      "source": "osm"
    },
    {
      "nom": "Centrale",
      "type": "kebab",
      "priceRange": "€€",
      "mapsUrl": "https://maps.google.com/?q=45.4839747,9.2046296",
      "lat": 45.4839747,
      "lng": 9.2046296,
      "halalConfidence": "likely",
      "source": "osm"
    },
    {
      "nom": "El Jadida",
      "type": "arab",
      "priceRange": "€€",
      "mapsUrl": "https://maps.google.com/?q=45.4418392,9.188131",
      "lat": 45.4418392,
      "lng": 9.188131,
      "halalConfidence": "likely",
      "source": "osm"
    },
    {
      "nom": "Pizzeria Pomodorino Basilico",
      "type": "kebab, pizza",
      "priceRange": "€€",
      "mapsUrl": "https://maps.google.com/?q=45.456033,9.1600473",
      "lat": 45.456033,
      "lng": 9.1600473,
      "halalConfidence": "likely",
      "source": "osm"
    },
    {
      "nom": "Ward",
      "type": "arab",
      "priceRange": "€€",
      "mapsUrl": "https://maps.google.com/?q=45.4804805,9.2123332",
      "lat": 45.4804805,
      "lng": 9.2123332,
      "halalConfidence": "likely",
      "source": "osm"
    },
    {
      "nom": "Dawali",
      "type": "lebanese",
      "priceRange": "€€",
      "mapsUrl": "https://maps.google.com/?q=45.4411713,9.1902314",
      "lat": 45.4411713,
      "lng": 9.1902314,
      "halalConfidence": "likely",
      "source": "osm"
    },
    {
      "nom": "Turkish Kebab Pizza Grill",
      "type": "kebab, pizza",
      "priceRange": "€€",
      "mapsUrl": "https://maps.google.com/?q=45.4419967,9.1790069",
      "lat": 45.4419967,
      "lng": 9.1790069,
      "halalConfidence": "likely",
      "source": "osm"
    },
    {
      "nom": "Pizzeria Karinans",
      "type": "kebab, pizza",
      "priceRange": "€€",
      "mapsUrl": "https://maps.google.com/?q=45.4686008,9.223435",
      "lat": 45.4686008,
      "lng": 9.223435,
      "halalConfidence": "likely",
      "source": "osm"
    },
    {
      "nom": "Taj Mahal",
      "type": "indian, bangladeshi",
      "priceRange": "€€",
      "mapsUrl": "https://maps.google.com/?q=45.4837293,9.2097268",
      "lat": 45.4837293,
      "lng": 9.2097268,
      "halalConfidence": "likely",
      "source": "osm"
    },
    {
      "nom": "Pizza Italiana",
      "type": "kebab, pizza",
      "priceRange": "€€",
      "mapsUrl": "https://maps.google.com/?q=45.4871393,9.2012042",
      "lat": 45.4871393,
      "lng": 9.2012042,
      "halalConfidence": "likely",
      "source": "osm"
    },
    {
      "nom": "Snubar",
      "type": "lebanese",
      "priceRange": "€€",
      "mapsUrl": "https://maps.google.com/?q=45.4644895,9.1553658",
      "lat": 45.4644895,
      "lng": 9.1553658,
      "halalConfidence": "likely",
      "source": "osm"
    },
    {
      "nom": "Turkish Kebap",
      "type": "turkish",
      "priceRange": "€€",
      "mapsUrl": "https://maps.google.com/?q=45.4887237,9.18914",
      "lat": 45.4887237,
      "lng": 9.18914,
      "halalConfidence": "likely",
      "source": "osm"
    },
    {
      "nom": "Kebab Istanbul Uskudar",
      "type": "kebab",
      "priceRange": "€€",
      "mapsUrl": "https://maps.google.com/?q=45.4716257,9.2234715",
      "lat": 45.4716257,
      "lng": 9.2234715,
      "halalConfidence": "likely",
      "source": "osm"
    },
    {
      "nom": "Kebap Molise",
      "type": "kebab",
      "priceRange": "€€",
      "mapsUrl": "https://maps.google.com/?q=45.4560056,9.2236537",
      "lat": 45.4560056,
      "lng": 9.2236537,
      "halalConfidence": "likely",
      "source": "osm"
    },
    {
      "nom": "Fairouz Gerusalemme",
      "type": "lebanese",
      "priceRange": "€€",
      "mapsUrl": "https://maps.google.com/?q=45.4837136,9.1671546",
      "lat": 45.4837136,
      "lng": 9.1671546,
      "halalConfidence": "likely",
      "source": "osm"
    },
    {
      "nom": "A Romolo",
      "type": "kebab, pizza",
      "priceRange": "€€",
      "mapsUrl": "https://maps.google.com/?q=45.4444364,9.1672258",
      "lat": 45.4444364,
      "lng": 9.1672258,
      "halalConfidence": "likely",
      "source": "osm"
    },
    {
      "nom": "4 Stelle",
      "type": "kebab, pizza",
      "priceRange": "€€",
      "mapsUrl": "https://maps.google.com/?q=45.4894388,9.1836838",
      "lat": 45.4894388,
      "lng": 9.1836838,
      "halalConfidence": "likely",
      "source": "osm"
    },
    {
      "nom": "Washington 80",
      "type": "kebab, pizza",
      "priceRange": "€€",
      "mapsUrl": "https://maps.google.com/?q=45.4582785,9.1543375",
      "lat": 45.4582785,
      "lng": 9.1543375,
      "halalConfidence": "likely",
      "source": "osm"
    },
    {
      "nom": "Pizzeria Kebab kohky",
      "type": "kebab",
      "priceRange": "€€",
      "mapsUrl": "https://maps.google.com/?q=45.483525,9.1656387",
      "lat": 45.483525,
      "lng": 9.1656387,
      "halalConfidence": "likely",
      "source": "osm"
    },
    {
      "nom": "Mr. Poli",
      "type": "kebab",
      "priceRange": "€€",
      "mapsUrl": "https://maps.google.com/?q=45.4757106,9.2231432",
      "lat": 45.4757106,
      "lng": 9.2231432,
      "halalConfidence": "likely",
      "source": "osm"
    },
    {
      "nom": "Pizzeria Grazie Italia",
      "type": "kebab, pizza",
      "priceRange": "€€",
      "mapsUrl": "https://maps.google.com/?q=45.4517378,9.2224778",
      "lat": 45.4517378,
      "lng": 9.2224778,
      "halalConfidence": "likely",
      "source": "osm"
    },
    {
      "nom": "Turkish Direzionale Bar Kepab",
      "type": "kebab",
      "priceRange": "€€",
      "mapsUrl": "https://maps.google.com/?q=45.488656,9.2036301",
      "lat": 45.488656,
      "lng": 9.2036301,
      "halalConfidence": "likely",
      "source": "osm"
    },
    {
      "nom": "Scewin",
      "type": "moroccan",
      "priceRange": "€€",
      "mapsUrl": "https://maps.google.com/?q=45.4901159,9.1835739",
      "lat": 45.4901159,
      "lng": 9.1835739,
      "halalConfidence": "likely",
      "source": "osm"
    },
    {
      "nom": "Cassala",
      "type": "kebab",
      "priceRange": "€€",
      "mapsUrl": "https://maps.google.com/?q=45.4451894,9.1637145",
      "lat": 45.4451894,
      "lng": 9.1637145,
      "halalConfidence": "likely",
      "source": "osm"
    },
    {
      "nom": "Pita d'or",
      "type": "lebanese",
      "priceRange": "€€",
      "mapsUrl": "https://maps.google.com/?q=45.4841111,9.2150921",
      "lat": 45.4841111,
      "lng": 9.2150921,
      "halalConfidence": "likely",
      "source": "osm"
    },
    {
      "nom": "Sapori Reali",
      "type": "kebab",
      "priceRange": "€€",
      "mapsUrl": "https://maps.google.com/?q=45.4760202,9.2240466",
      "lat": 45.4760202,
      "lng": 9.2240466,
      "halalConfidence": "likely",
      "source": "osm"
    },
    {
      "nom": "Foppa Kebap",
      "type": "kebab, pizza",
      "priceRange": "€€",
      "mapsUrl": "https://maps.google.com/?q=45.4557518,9.1539242",
      "lat": 45.4557518,
      "lng": 9.1539242,
      "halalConfidence": "likely",
      "source": "osm"
    },
    {
      "nom": "Kebhouze - Marghera",
      "type": "kebab",
      "priceRange": "€€",
      "mapsUrl": "https://maps.google.com/?q=45.466885,9.1520127",
      "lat": 45.466885,
      "lng": 9.1520127,
      "halalConfidence": "likely",
      "source": "osm"
    },
    {
      "nom": "Pizzeria del Naviglio",
      "type": "kebab, pizza",
      "priceRange": "€€",
      "mapsUrl": "https://maps.google.com/?q=45.4482413,9.1589776",
      "lat": 45.4482413,
      "lng": 9.1589776,
      "halalConfidence": "likely",
      "source": "osm"
    },
    {
      "nom": "Pizzeria il Veliero",
      "type": "kebab",
      "priceRange": "€€",
      "mapsUrl": "https://maps.google.com/?q=45.4778799,9.2233429",
      "lat": 45.4778799,
      "lng": 9.2233429,
      "halalConfidence": "likely",
      "source": "osm"
    },
    {
      "nom": "Göz Istanbul",
      "type": "kebab",
      "priceRange": "€€",
      "mapsUrl": "https://maps.google.com/?q=45.4867739,9.2114603",
      "lat": 45.4867739,
      "lng": 9.2114603,
      "halalConfidence": "likely",
      "source": "osm"
    },
    {
      "nom": "Number One: Pizzeria - Kebab",
      "type": "kebab",
      "priceRange": "€€",
      "mapsUrl": "https://maps.google.com/?q=45.476317,9.2247114",
      "lat": 45.476317,
      "lng": 9.2247114,
      "halalConfidence": "likely",
      "source": "osm"
    },
    {
      "nom": "Star Turkish",
      "type": "kebab",
      "priceRange": "€€",
      "mapsUrl": "https://maps.google.com/?q=45.4371288,9.19366",
      "lat": 45.4371288,
      "lng": 9.19366,
      "halalConfidence": "likely",
      "source": "osm"
    },
    {
      "nom": "Wa Di Rum",
      "type": "lebanese",
      "priceRange": "€€",
      "mapsUrl": "https://maps.google.com/?q=45.4605039,9.1514957",
      "lat": 45.4605039,
      "lng": 9.1514957,
      "halalConfidence": "likely",
      "source": "osm"
    },
    {
      "nom": "Mevlana",
      "type": "kebab",
      "priceRange": "€€",
      "mapsUrl": "https://maps.google.com/?q=45.4847928,9.2155216",
      "lat": 45.4847928,
      "lng": 9.2155216,
      "halalConfidence": "likely",
      "source": "osm"
    },
    {
      "nom": "Istanbul Taxim Uno",
      "type": "kebab, pizza",
      "priceRange": "€€",
      "mapsUrl": "https://maps.google.com/?q=45.4380652,9.1784991",
      "lat": 45.4380652,
      "lng": 9.1784991,
      "halalConfidence": "likely",
      "source": "osm"
    },
    {
      "nom": "A'Vucciaria",
      "type": "turkish",
      "priceRange": "€€",
      "mapsUrl": "https://maps.google.com/?q=45.4850244,9.2153421",
      "lat": 45.4850244,
      "lng": 9.2153421,
      "halalConfidence": "likely",
      "source": "osm"
    },
    {
      "nom": "1.5",
      "type": "turkish",
      "priceRange": "€€",
      "mapsUrl": "https://maps.google.com/?q=45.4835992,9.2177897",
      "lat": 45.4835992,
      "lng": 9.2177897,
      "halalConfidence": "likely",
      "source": "osm"
    },
    {
      "nom": "Aysima",
      "type": "kebab, pizza",
      "priceRange": "€€",
      "mapsUrl": "https://maps.google.com/?q=45.4369867,9.1833432",
      "lat": 45.4369867,
      "lng": 9.1833432,
      "halalConfidence": "likely",
      "source": "osm"
    },
    {
      "nom": "Mekan Kebab",
      "type": "kebab",
      "priceRange": "€€",
      "mapsUrl": "https://maps.google.com/?q=45.4514283,9.1545385",
      "lat": 45.4514283,
      "lng": 9.1545385,
      "halalConfidence": "likely",
      "source": "osm"
    },
    {
      "nom": "TK Kebap Pizza Grill",
      "type": "pizza, kebab",
      "priceRange": "€€",
      "mapsUrl": "https://maps.google.com/?q=45.4924078,9.1922404",
      "lat": 45.4924078,
      "lng": 9.1922404,
      "halalConfidence": "likely",
      "source": "osm"
    },
    {
      "nom": "Beladi",
      "type": "moroccan",
      "priceRange": "€€",
      "mapsUrl": "https://maps.google.com/?q=45.492401,9.1960676",
      "lat": 45.492401,
      "lng": 9.1960676,
      "halalConfidence": "likely",
      "source": "osm"
    },
    {
      "nom": "Aksaray Istanbul",
      "type": "kebab",
      "priceRange": "€€",
      "mapsUrl": "https://maps.google.com/?q=45.4430344,9.2175288",
      "lat": 45.4430344,
      "lng": 9.2175288,
      "halalConfidence": "likely",
      "source": "osm"
    },
    {
      "nom": "Pasa",
      "type": "kebab",
      "priceRange": "€€",
      "mapsUrl": "https://maps.google.com/?q=45.4905315,9.2061925",
      "lat": 45.4905315,
      "lng": 9.2061925,
      "halalConfidence": "likely",
      "source": "osm"
    },
    {
      "nom": "Dilan Istanbul",
      "type": "kebab",
      "priceRange": "€€",
      "mapsUrl": "https://maps.google.com/?q=45.4364227,9.2004107",
      "lat": 45.4364227,
      "lng": 9.2004107,
      "halalConfidence": "likely",
      "source": "osm"
    },
    {
      "nom": "Il muretto",
      "type": "kebab",
      "priceRange": "€€",
      "mapsUrl": "https://maps.google.com/?q=45.4727384,9.2291234",
      "lat": 45.4727384,
      "lng": 9.2291234,
      "halalConfidence": "likely",
      "source": "osm"
    },
    {
      "nom": "Al Baraka Griglieria",
      "type": "arab, barbecue",
      "priceRange": "€€",
      "mapsUrl": "https://maps.google.com/?q=45.4412723,9.2162188",
      "lat": 45.4412723,
      "lng": 9.2162188,
      "halalConfidence": "likely",
      "source": "osm"
    },
    {
      "nom": "Anatolia Kebab & Pizza",
      "type": "kebab, pizza",
      "priceRange": "€€",
      "mapsUrl": "https://maps.google.com/?q=45.4513833,9.1513774",
      "lat": 45.4513833,
      "lng": 9.1513774,
      "halalConfidence": "likely",
      "source": "osm"
    },
    {
      "nom": "Istanbul Piola Turkish Kebap Pizzeria",
      "type": "italian, turkish",
      "priceRange": "€€",
      "mapsUrl": "https://maps.google.com/?q=45.4811485,9.2252561",
      "lat": 45.4811485,
      "lng": 9.2252561,
      "halalConfidence": "likely",
      "source": "osm"
    },
    {
      "nom": "Viva l'Italia",
      "type": "pizza, kebab",
      "priceRange": "€€",
      "mapsUrl": "https://maps.google.com/?q=45.4727886,9.2313027",
      "lat": 45.4727886,
      "lng": 9.2313027,
      "halalConfidence": "likely",
      "source": "osm"
    },
    {
      "nom": "Imperator Turkish Kebap - Pizza",
      "type": "kebab, pizza",
      "priceRange": "€€",
      "mapsUrl": "https://maps.google.com/?q=45.4351813,9.1778428",
      "lat": 45.4351813,
      "lng": 9.1778428,
      "halalConfidence": "likely",
      "source": "osm"
    },
    {
      "nom": "Pizza Kebap Tripoli",
      "type": "kebab, pizza",
      "priceRange": "€€",
      "mapsUrl": "https://maps.google.com/?q=45.4591186,9.1474619",
      "lat": 45.4591186,
      "lng": 9.1474619,
      "halalConfidence": "likely",
      "source": "osm"
    },
    {
      "nom": "Mashti",
      "type": "persian",
      "priceRange": "€€",
      "mapsUrl": "https://maps.google.com/?q=45.4872614,9.1617489",
      "lat": 45.4872614,
      "lng": 9.1617489,
      "halalConfidence": "likely",
      "source": "osm"
    },
    {
      "nom": "Kebab Nada",
      "type": "kebab",
      "priceRange": "€€",
      "mapsUrl": "https://maps.google.com/?q=45.4421022,9.2202832",
      "lat": 45.4421022,
      "lng": 9.2202832,
      "halalConfidence": "likely",
      "source": "osm"
    },
    {
      "nom": "Pizza Kebab",
      "type": "kebab",
      "priceRange": "€€",
      "mapsUrl": "https://maps.google.com/?q=45.4666388,9.1458727",
      "lat": 45.4666388,
      "lng": 9.1458727,
      "halalConfidence": "likely",
      "source": "osm"
    },
    {
      "nom": "Istanbul Monte Ararat",
      "type": "turkish, pizza",
      "priceRange": "€€",
      "mapsUrl": "https://maps.google.com/?q=45.4888166,9.2172931",
      "lat": 45.4888166,
      "lng": 9.2172931,
      "halalConfidence": "likely",
      "source": "osm"
    },
    {
      "nom": "Bella Vista Istanbul",
      "type": "kebab, pizza, turkish",
      "priceRange": "€€",
      "mapsUrl": "https://maps.google.com/?q=45.4445488,9.1543658",
      "lat": 45.4445488,
      "lng": 9.1543658,
      "halalConfidence": "likely",
      "source": "osm"
    },
    {
      "nom": "MAVI Istanbul",
      "type": "kebab, pizza, steak house, turkish",
      "priceRange": "€€",
      "mapsUrl": "https://maps.google.com/?q=45.4962396,9.1927184",
      "lat": 45.4962396,
      "lng": 9.1927184,
      "halalConfidence": "likely",
      "source": "osm"
    },
    {
      "nom": "Gioia Pizzeria da Asporto",
      "type": "pizza, kebab",
      "priceRange": "€€",
      "mapsUrl": "https://maps.google.com/?q=45.4950023,9.2044748",
      "lat": 45.4950023,
      "lng": 9.2044748,
      "halalConfidence": "likely",
      "source": "osm"
    },
    {
      "nom": "Punto pizza",
      "type": "kebab, pizza",
      "priceRange": "€€",
      "mapsUrl": "https://maps.google.com/?q=45.4945212,9.2074423",
      "lat": 45.4945212,
      "lng": 9.2074423,
      "halalConfidence": "likely",
      "source": "osm"
    },
    {
      "nom": "da Hakim",
      "type": "egyptian, pizza",
      "priceRange": "€€",
      "mapsUrl": "https://maps.google.com/?q=45.4843221,9.2269126",
      "lat": 45.4843221,
      "lng": 9.2269126,
      "halalConfidence": "likely",
      "source": "osm"
    },
    {
      "nom": "Bella Pizza",
      "type": "pizza, italian, kebab",
      "priceRange": "€€",
      "mapsUrl": "https://maps.google.com/?q=45.4970425,9.1932776",
      "lat": 45.4970425,
      "lng": 9.1932776,
      "halalConfidence": "likely",
      "source": "osm"
    },
    {
      "nom": "Santa Maria",
      "type": "turkish",
      "priceRange": "€€",
      "mapsUrl": "https://maps.google.com/?q=45.4645569,9.1425696",
      "lat": 45.4645569,
      "lng": 9.1425696,
      "halalConfidence": "likely",
      "source": "osm"
    },
    {
      "nom": "Istanbul",
      "type": "kebab",
      "priceRange": "€€",
      "mapsUrl": "https://maps.google.com/?q=45.4419283,9.1547579",
      "lat": 45.4419283,
      "lng": 9.1547579,
      "halalConfidence": "likely",
      "source": "osm"
    },
    {
      "nom": "Le Piramidi",
      "type": "kebab, pizza",
      "priceRange": "€€",
      "mapsUrl": "https://maps.google.com/?q=45.4807444,9.2313895",
      "lat": 45.4807444,
      "lng": 9.2313895,
      "halalConfidence": "likely",
      "source": "osm"
    },
    {
      "nom": "Babylon",
      "type": "arab",
      "priceRange": "€€",
      "mapsUrl": "https://maps.google.com/?q=45.4383998,9.22041",
      "lat": 45.4383998,
      "lng": 9.22041,
      "halalConfidence": "likely",
      "source": "osm"
    },
    {
      "nom": "Turkuaz",
      "type": "turkish",
      "priceRange": "€€",
      "mapsUrl": "https://maps.google.com/?q=45.4912404,9.1617858",
      "lat": 45.4912404,
      "lng": 9.1617858,
      "halalConfidence": "likely",
      "source": "osm"
    },
    {
      "nom": "Istanbul Maciachini",
      "type": "kebab",
      "priceRange": "€€",
      "mapsUrl": "https://maps.google.com/?q=45.497492,9.1829457",
      "lat": 45.497492,
      "lng": 9.1829457,
      "halalConfidence": "likely",
      "source": "osm"
    },
    {
      "nom": "Istanbul Girasole",
      "type": "kebab",
      "priceRange": "€€",
      "mapsUrl": "https://maps.google.com/?q=45.4916264,9.2181355",
      "lat": 45.4916264,
      "lng": 9.2181355,
      "halalConfidence": "likely",
      "source": "osm"
    },
    {
      "nom": "Cleopatra",
      "type": "kebab",
      "priceRange": "€€",
      "mapsUrl": "https://maps.google.com/?q=45.4898515,9.2214506",
      "lat": 45.4898515,
      "lng": 9.2214506,
      "halalConfidence": "likely",
      "source": "osm"
    },
    {
      "nom": "Turkish Santa Sofya Kebap",
      "type": "kebab, pizza",
      "priceRange": "€€",
      "mapsUrl": "https://maps.google.com/?q=45.4859495,9.2271198",
      "lat": 45.4859495,
      "lng": 9.2271198,
      "halalConfidence": "likely",
      "source": "osm"
    },
    {
      "nom": "Marvelous",
      "type": "kebab, pizza, burger",
      "priceRange": "€€",
      "mapsUrl": "https://maps.google.com/?q=45.4861778,9.2273442",
      "lat": 45.4861778,
      "lng": 9.2273442,
      "halalConfidence": "likely",
      "source": "osm"
    },
    {
      "nom": "Kebap e Pizza Zara",
      "type": "kebab, pizza, turkish",
      "priceRange": "€€",
      "mapsUrl": "https://maps.google.com/?q=45.4983515,9.1964987",
      "lat": 45.4983515,
      "lng": 9.1964987,
      "halalConfidence": "likely",
      "source": "osm"
    },
    {
      "nom": "Rashid",
      "type": "moroccan",
      "priceRange": "€€",
      "mapsUrl": "https://maps.google.com/?q=45.4903287,9.2220866",
      "lat": 45.4903287,
      "lng": 9.2220866,
      "halalConfidence": "likely",
      "source": "osm"
    },
    {
      "nom": "Bali's",
      "type": "kebab",
      "priceRange": "€€",
      "mapsUrl": "https://maps.google.com/?q=45.4306909,9.1783901",
      "lat": 45.4306909,
      "lng": 9.1783901,
      "halalConfidence": "likely",
      "source": "osm"
    },
    {
      "nom": "Al Madina",
      "type": "lebanese",
      "priceRange": "€€",
      "mapsUrl": "https://maps.google.com/?q=45.4903395,9.222436",
      "lat": 45.4903395,
      "lng": 9.222436,
      "halalConfidence": "likely",
      "source": "osm"
    },
    {
      "nom": "Goha",
      "type": "kebab, pizza, burger",
      "priceRange": "€€",
      "mapsUrl": "https://maps.google.com/?q=45.4903767,9.2224746",
      "lat": 45.4903767,
      "lng": 9.2224746,
      "halalConfidence": "likely",
      "source": "osm"
    },
    {
      "nom": "Istanbul Frattini Kebap & Pizza",
      "type": "kebab, pizza",
      "priceRange": "€€",
      "mapsUrl": "https://maps.google.com/?q=45.4523346,9.1431383",
      "lat": 45.4523346,
      "lng": 9.1431383,
      "halalConfidence": "likely",
      "source": "osm"
    },
    {
      "nom": "Pizzeria Kebab San Giorgio",
      "type": "kebab",
      "priceRange": "€€",
      "mapsUrl": "https://maps.google.com/?q=45.4898857,9.2239242",
      "lat": 45.4898857,
      "lng": 9.2239242,
      "halalConfidence": "likely",
      "source": "osm"
    },
    {
      "nom": "Chefchaouen",
      "type": "moroccan",
      "priceRange": "€€",
      "mapsUrl": "https://maps.google.com/?q=45.4492357,9.1447328",
      "lat": 45.4492357,
      "lng": 9.1447328,
      "halalConfidence": "likely",
      "source": "osm"
    },
    {
      "nom": "Istanbul Giambellino",
      "type": "kebab, pizza",
      "priceRange": "€€",
      "mapsUrl": "https://maps.google.com/?q=45.4494649,9.144087",
      "lat": 45.4494649,
      "lng": 9.144087,
      "halalConfidence": "likely",
      "source": "osm"
    },
    {
      "nom": "Panino Kebab",
      "type": "kebab",
      "priceRange": "€€",
      "mapsUrl": "https://maps.google.com/?q=45.4994055,9.1839261",
      "lat": 45.4994055,
      "lng": 9.1839261,
      "halalConfidence": "likely",
      "source": "osm"
    },
    {
      "nom": "Il Ciclone 2",
      "type": "kebab, pizza",
      "priceRange": "€€",
      "mapsUrl": "https://maps.google.com/?q=45.4337597,9.1639885",
      "lat": 45.4337597,
      "lng": 9.1639885,
      "halalConfidence": "likely",
      "source": "osm"
    },
    {
      "nom": "Accademia Libanese",
      "type": "lebanese",
      "priceRange": "€€",
      "mapsUrl": "https://maps.google.com/?q=45.4879244,9.2278123",
      "lat": 45.4879244,
      "lng": 9.2278123,
      "halalConfidence": "likely",
      "source": "osm"
    },
    {
      "nom": "Oliva",
      "type": "kebab",
      "priceRange": "€€",
      "mapsUrl": "https://maps.google.com/?q=45.4934915,9.2191279",
      "lat": 45.4934915,
      "lng": 9.2191279,
      "halalConfidence": "likely",
      "source": "osm"
    },
    {
      "nom": "Marmara Turkish Kebap – Pizza",
      "type": "kebab",
      "priceRange": "€€",
      "mapsUrl": "https://maps.google.com/?q=45.4617092,9.1380304",
      "lat": 45.4617092,
      "lng": 9.1380304,
      "halalConfidence": "likely",
      "source": "osm"
    },
    {
      "nom": "Saray",
      "type": "kebab",
      "priceRange": "€€",
      "mapsUrl": "https://maps.google.com/?q=45.4374843,9.1540796",
      "lat": 45.4374843,
      "lng": 9.1540796,
      "halalConfidence": "likely",
      "source": "osm"
    },
    {
      "nom": "Saray Pizza Grill Kebap",
      "type": "kebab, pizza",
      "priceRange": "€€",
      "mapsUrl": "https://maps.google.com/?q=45.4374841,9.1540615",
      "lat": 45.4374841,
      "lng": 9.1540615,
      "halalConfidence": "likely",
      "source": "osm"
    },
    {
      "nom": "San Tommaso",
      "type": "kebab",
      "priceRange": "€€",
      "mapsUrl": "https://maps.google.com/?q=45.4295956,9.1718175",
      "lat": 45.4295956,
      "lng": 9.1718175,
      "halalConfidence": "likely",
      "source": "osm"
    },
    {
      "nom": "Lo Scoglio sul Naviglio",
      "type": "pizza, italian, mediterranean, egyptian",
      "priceRange": "€€",
      "mapsUrl": "https://maps.google.com/?q=45.4451644,9.1445164",
      "lat": 45.4451644,
      "lng": 9.1445164,
      "halalConfidence": "likely",
      "source": "osm"
    },
    {
      "nom": "Instanbul City",
      "type": "kebab, pizza",
      "priceRange": "€€",
      "mapsUrl": "https://maps.google.com/?q=45.485987,9.2330187",
      "lat": 45.485987,
      "lng": 9.2330187,
      "halalConfidence": "likely",
      "source": "osm"
    },
    {
      "nom": "Baba Sultan Restaurant Pizza & Turkish Kebab",
      "type": "pizza, kebab",
      "priceRange": "€€",
      "mapsUrl": "https://maps.google.com/?q=45.4934968,9.1572447",
      "lat": 45.4934968,
      "lng": 9.1572447,
      "halalConfidence": "likely",
      "source": "osm"
    },
    {
      "nom": "Pizzeria Santa Maria",
      "type": "kebab, pizza",
      "priceRange": "€€",
      "mapsUrl": "https://maps.google.com/?q=45.4816535,9.2369366",
      "lat": 45.4816535,
      "lng": 9.2369366,
      "halalConfidence": "likely",
      "source": "osm"
    },
    {
      "nom": "Galata Pizzeria Kebap",
      "type": "kebab, pizza",
      "priceRange": "€€",
      "mapsUrl": "https://maps.google.com/?q=45.4909587,9.1524825",
      "lat": 45.4909587,
      "lng": 9.1524825,
      "halalConfidence": "likely",
      "source": "osm"
    },
    {
      "nom": "Mangal Ibo",
      "type": "kebab",
      "priceRange": "€€",
      "mapsUrl": "https://maps.google.com/?q=45.4918415,9.1538019",
      "lat": 45.4918415,
      "lng": 9.1538019,
      "halalConfidence": "likely",
      "source": "osm"
    },
    {
      "nom": "Istanbul in Europa",
      "type": "kebab",
      "priceRange": "€€",
      "mapsUrl": "https://maps.google.com/?q=45.4891035,9.1495965",
      "lat": 45.4891035,
      "lng": 9.1495965,
      "halalConfidence": "likely",
      "source": "osm"
    },
    {
      "nom": "Mevlana Kebap",
      "type": "kebab",
      "priceRange": "€€",
      "mapsUrl": "https://maps.google.com/?q=45.4853984,9.2354675",
      "lat": 45.4853984,
      "lng": 9.2354675,
      "halalConfidence": "likely",
      "source": "osm"
    },
    {
      "nom": "L'ottava meraviglia",
      "type": "kebab, pizza",
      "priceRange": "€€",
      "mapsUrl": "https://maps.google.com/?q=45.4695316,9.1358548",
      "lat": 45.4695316,
      "lng": 9.1358548,
      "halalConfidence": "likely",
      "source": "osm"
    },
    {
      "nom": "Halal",
      "type": "burger, kebab",
      "priceRange": "€€",
      "mapsUrl": "https://maps.google.com/?q=45.4506543,9.1382002",
      "lat": 45.4506543,
      "lng": 9.1382002,
      "halalConfidence": "likely",
      "source": "osm"
    },
    {
      "nom": "King food",
      "type": "kebab",
      "priceRange": "€€",
      "mapsUrl": "https://maps.google.com/?q=45.4937882,9.227003",
      "lat": 45.4937882,
      "lng": 9.227003,
      "halalConfidence": "likely",
      "source": "osm"
    },
    {
      "nom": "White & Reso Kebab",
      "type": "kebab",
      "priceRange": "€€",
      "mapsUrl": "https://maps.google.com/?q=45.5027262,9.1768463",
      "lat": 45.5027262,
      "lng": 9.1768463,
      "halalConfidence": "likely",
      "source": "osm"
    },
    {
      "nom": "Rambo",
      "type": "kebab",
      "priceRange": "€€",
      "mapsUrl": "https://maps.google.com/?q=45.499814,9.1651665",
      "lat": 45.499814,
      "lng": 9.1651665,
      "halalConfidence": "likely",
      "source": "osm"
    },
    {
      "nom": "La Regina",
      "type": "kebab, pizza, panzerotti",
      "priceRange": "€€",
      "mapsUrl": "https://maps.google.com/?q=45.4586755,9.2463973",
      "lat": 45.4586755,
      "lng": 9.2463973,
      "halalConfidence": "likely",
      "source": "osm"
    },
    {
      "nom": "La Pizzeria di Brasilia",
      "type": "pizza, kebab",
      "priceRange": "€€",
      "mapsUrl": "https://maps.google.com/?q=45.4512914,9.135573",
      "lat": 45.4512914,
      "lng": 9.135573,
      "halalConfidence": "likely",
      "source": "osm"
    },
    {
      "nom": "Heidi",
      "type": "kebab",
      "priceRange": "€€",
      "mapsUrl": "https://maps.google.com/?q=45.5003206,9.1641955",
      "lat": 45.5003206,
      "lng": 9.1641955,
      "halalConfidence": "likely",
      "source": "osm"
    },
    {
      "nom": "Greco Turkish Kebap Pizza",
      "type": "kebab",
      "priceRange": "€€",
      "mapsUrl": "https://maps.google.com/?q=45.502067,9.2113321",
      "lat": 45.502067,
      "lng": 9.2113321,
      "halalConfidence": "likely",
      "source": "osm"
    },
    {
      "nom": "La montagnetta tris",
      "type": "kebab",
      "priceRange": "€€",
      "mapsUrl": "https://maps.google.com/?q=45.5053525,9.1974369",
      "lat": 45.5053525,
      "lng": 9.1974369,
      "halalConfidence": "likely",
      "source": "osm"
    },
    {
      "nom": "Pizzeria Santa Maria Pizza & Kebab",
      "type": "kebab, pizza",
      "priceRange": "€€",
      "mapsUrl": "https://maps.google.com/?q=45.5067767,9.193032",
      "lat": 45.5067767,
      "lng": 9.193032,
      "halalConfidence": "likely",
      "source": "osm"
    },
    {
      "nom": "Charlie Brown",
      "type": "kebab, pizza",
      "priceRange": "€€",
      "mapsUrl": "https://maps.google.com/?q=45.5027695,9.1637105",
      "lat": 45.5027695,
      "lng": 9.1637105,
      "halalConfidence": "likely",
      "source": "osm"
    },
    {
      "nom": "Mela Rossa",
      "type": "kebab",
      "priceRange": "€€",
      "mapsUrl": "https://maps.google.com/?q=45.505995,9.1741616",
      "lat": 45.505995,
      "lng": 9.1741616,
      "halalConfidence": "likely",
      "source": "osm"
    },
    {
      "nom": "Kebap Bovisa",
      "type": "kebab",
      "priceRange": "€€",
      "mapsUrl": "https://maps.google.com/?q=45.502725,9.1613623",
      "lat": 45.502725,
      "lng": 9.1613623,
      "halalConfidence": "likely",
      "source": "osm"
    },
    {
      "nom": "Pizzeria Kebapperia",
      "type": "pizza, kebab",
      "priceRange": "€€",
      "mapsUrl": "https://maps.google.com/?q=45.5071531,9.1785317",
      "lat": 45.5071531,
      "lng": 9.1785317,
      "halalConfidence": "likely",
      "source": "osm"
    },
    {
      "nom": "Ristorante Pizzeria Desert Rose",
      "type": "pizza, kebab",
      "priceRange": "€€",
      "mapsUrl": "https://maps.google.com/?q=45.448649,9.1315513",
      "lat": 45.448649,
      "lng": 9.1315513,
      "halalConfidence": "likely",
      "source": "osm"
    },
    {
      "nom": "Mar Rosso",
      "type": "pizza, kebab, falafel",
      "priceRange": "€€",
      "mapsUrl": "https://maps.google.com/?q=45.4345174,9.2364756",
      "lat": 45.4345174,
      "lng": 9.2364756,
      "halalConfidence": "likely",
      "source": "osm"
    },
    {
      "nom": "Turkish Kebab",
      "type": "kebab",
      "priceRange": "€€",
      "mapsUrl": "https://maps.google.com/?q=45.4457117,9.2476935",
      "lat": 45.4457117,
      "lng": 9.2476935,
      "halalConfidence": "likely",
      "source": "osm"
    },
    {
      "nom": "Istanbul Ozkan",
      "type": "kebab",
      "priceRange": "€€",
      "mapsUrl": "https://maps.google.com/?q=45.49626,9.2350722",
      "lat": 45.49626,
      "lng": 9.2350722,
      "halalConfidence": "likely",
      "source": "osm"
    },
    {
      "nom": "PoliBov Istanbul Kebap",
      "type": "kebab, pizza",
      "priceRange": "€€",
      "mapsUrl": "https://maps.google.com/?q=45.5023842,9.1538688",
      "lat": 45.5023842,
      "lng": 9.1538688,
      "halalConfidence": "likely",
      "source": "osm"
    },
    {
      "nom": "Star Zagros",
      "type": "kebab, pizza",
      "priceRange": "€€",
      "mapsUrl": "https://maps.google.com/?q=45.5041312,9.2223497",
      "lat": 45.5041312,
      "lng": 9.2223497,
      "halalConfidence": "likely",
      "source": "osm"
    },
    {
      "nom": "Hela",
      "type": "kebab",
      "priceRange": "€€",
      "mapsUrl": "https://maps.google.com/?q=45.4986378,9.2334029",
      "lat": 45.4986378,
      "lng": 9.2334029,
      "halalConfidence": "likely",
      "source": "osm"
    },
    {
      "nom": "Tirana",
      "type": "kebab, pizza, turkish",
      "priceRange": "€€",
      "mapsUrl": "https://maps.google.com/?q=45.4444677,9.1300197",
      "lat": 45.4444677,
      "lng": 9.1300197,
      "halalConfidence": "likely",
      "source": "osm"
    },
    {
      "nom": "Bella Alice",
      "type": "pizza, kebab",
      "priceRange": "€€",
      "mapsUrl": "https://maps.google.com/?q=45.4493706,9.2532814",
      "lat": 45.4493706,
      "lng": 9.2532814,
      "halalConfidence": "likely",
      "source": "osm"
    },
    {
      "nom": "El Basha",
      "type": "turkish",
      "priceRange": "€€",
      "mapsUrl": "https://maps.google.com/?q=45.4997171,9.2345117",
      "lat": 45.4997171,
      "lng": 9.2345117,
      "halalConfidence": "likely",
      "source": "osm"
    },
    {
      "nom": "Pizzeria Sant'Angelo",
      "type": "pizza, kebab, ",
      "priceRange": "€€",
      "mapsUrl": "https://maps.google.com/?q=45.4948599,9.137941",
      "lat": 45.4948599,
      "lng": 9.137941,
      "halalConfidence": "likely",
      "source": "osm"
    },
    {
      "nom": "Lorenteggio Kebap",
      "type": "kebab",
      "priceRange": "€€",
      "mapsUrl": "https://maps.google.com/?q=45.4461407,9.1242446",
      "lat": 45.4461407,
      "lng": 9.1242446,
      "halalConfidence": "likely",
      "source": "osm"
    },
    {
      "nom": "Lucy Food",
      "type": "kebab, pizza",
      "priceRange": "€€",
      "mapsUrl": "https://maps.google.com/?q=45.4992404,9.2405934",
      "lat": 45.4992404,
      "lng": 9.2405934,
      "halalConfidence": "likely",
      "source": "osm"
    }
  ],
  "hotels": [
    {
      "nom": "TownHouse Duomo Milano",
      "categorie": "Hôtel",
      "priceRange": "€€€€",
      "score": 5,
      "mapsUrl": "https://maps.google.com/?q=45.4649448,9.1893721",
      "lat": 45.4649448,
      "lng": 9.1893721,
      "halalFriendly": false,
      "bookingUrl": "https://duomo.townhousehotels.com/",
      "source": "osm"
    },
    {
      "nom": "Room Mate Giulia Hotel",
      "categorie": "Hôtel",
      "priceRange": "€€€€",
      "score": 4,
      "mapsUrl": "https://maps.google.com/?q=45.4651195,9.1893543",
      "lat": 45.4651195,
      "lng": 9.1893543,
      "halalFriendly": false,
      "bookingUrl": "https://room-matehotels.com/en/giulia/",
      "source": "osm"
    },
    {
      "nom": "Sheva Boutique Hotel",
      "categorie": "Hôtel",
      "priceRange": "€",
      "score": 1,
      "mapsUrl": "https://maps.google.com/?q=45.463225,9.1887883",
      "lat": 45.463225,
      "lng": 9.1887883,
      "halalFriendly": false,
      "bookingUrl": "https://maps.google.com/?q=45.463225,9.1887883",
      "source": "osm"
    },
    {
      "nom": "ODSweet Hotel",
      "categorie": "Hôtel",
      "priceRange": "€€€€",
      "score": 4,
      "mapsUrl": "https://maps.google.com/?q=45.4634714,9.1884012",
      "lat": 45.4634714,
      "lng": 9.1884012,
      "halalFriendly": false,
      "bookingUrl": "https://www.odsweethotel.com/",
      "source": "osm"
    },
    {
      "nom": "Straf Hotel",
      "categorie": "Hôtel",
      "priceRange": "€€€€",
      "score": 4,
      "mapsUrl": "https://maps.google.com/?q=45.465228,9.1912446",
      "lat": 45.465228,
      "lng": 9.1912446,
      "halalFriendly": false,
      "bookingUrl": "https://www.straf.it/",
      "source": "osm"
    },
    {
      "nom": "Unahotels Maison Milano",
      "categorie": "Hôtel",
      "priceRange": "€€€€",
      "score": 4,
      "mapsUrl": "https://maps.google.com/?q=45.4633181,9.1883932",
      "lat": 45.4633181,
      "lng": 9.1883932,
      "halalFriendly": false,
      "bookingUrl": "https://www.gruppouna.it/esperienze/maison-milano",
      "source": "osm"
    },
    {
      "nom": "Apart Hotel dei Mercanti",
      "categorie": "Appartement",
      "priceRange": "€€",
      "mapsUrl": "https://maps.google.com/?q=45.464318,9.1878906",
      "lat": 45.464318,
      "lng": 9.1878906,
      "halalFriendly": false,
      "bookingUrl": "https://www.aparthoteldeimercanti.com/",
      "source": "osm"
    },
    {
      "nom": "Hotel Rio",
      "categorie": "Hôtel",
      "priceRange": "€€€",
      "score": 3,
      "mapsUrl": "https://maps.google.com/?q=45.4631056,9.1883935",
      "lat": 45.4631056,
      "lng": 9.1883935,
      "halalFriendly": false,
      "bookingUrl": "https://hotelriomilano.it/",
      "source": "osm"
    },
    {
      "nom": "Galleria Vik Milano",
      "categorie": "Hôtel",
      "priceRange": "€€€€",
      "score": 5,
      "mapsUrl": "https://maps.google.com/?q=45.4657526,9.1893633",
      "lat": 45.4657526,
      "lng": 9.1893633,
      "halalFriendly": false,
      "bookingUrl": "https://galleriavikmilano.com/it/",
      "source": "osm"
    },
    {
      "nom": "Hotel La Madonnina",
      "categorie": "Hôtel",
      "priceRange": "€€€",
      "score": 3,
      "mapsUrl": "https://maps.google.com/?q=45.4630365,9.1883675",
      "lat": 45.4630365,
      "lng": 9.1883675,
      "halalFriendly": false,
      "bookingUrl": "https://www.hotellamadonninamilano.it/",
      "source": "osm"
    },
    {
      "nom": "The Gray",
      "categorie": "Hôtel",
      "priceRange": "€€€€",
      "score": 5,
      "mapsUrl": "https://maps.google.com/?q=45.4655497,9.1913912",
      "lat": 45.4655497,
      "lng": 9.1913912,
      "halalFriendly": false,
      "bookingUrl": "https://www.sinahotels.com/en/h/sina-the-gray-milan/",
      "source": "osm"
    },
    {
      "nom": "Speronari Suites",
      "categorie": "Appartement",
      "priceRange": "€€",
      "mapsUrl": "https://maps.google.com/?q=45.4628775,9.188091",
      "lat": 45.4628775,
      "lng": 9.188091,
      "halalFriendly": false,
      "bookingUrl": "https://www.speronarisuites.it/",
      "source": "osm"
    },
    {
      "nom": "The Street Milano Duomo",
      "categorie": "Hôtel",
      "priceRange": "€€€€",
      "score": 4,
      "mapsUrl": "https://maps.google.com/?q=45.4656854,9.1917188",
      "lat": 45.4656854,
      "lng": 9.1917188,
      "halalFriendly": false,
      "bookingUrl": "https://www.thestreetmilano.com/",
      "source": "osm"
    },
    {
      "nom": "Victor Boutique Hotel",
      "categorie": "Hôtel",
      "priceRange": "€",
      "score": 1,
      "mapsUrl": "https://maps.google.com/?q=45.4638788,9.1870608",
      "lat": 45.4638788,
      "lng": 9.1870608,
      "halalFriendly": false,
      "bookingUrl": "https://www.victorboutiquehotel.com/",
      "source": "osm"
    },
    {
      "nom": "Matilde Boutique Hotel",
      "categorie": "Hôtel",
      "priceRange": "€€€€",
      "score": 4,
      "mapsUrl": "https://maps.google.com/?q=45.4632726,9.1873133",
      "lat": 45.4632726,
      "lng": 9.1873133,
      "halalFriendly": false,
      "bookingUrl": "https://www.matildeboutiquehotel.it/",
      "source": "osm"
    },
    {
      "nom": "Hotel Spadari al Duomo",
      "categorie": "Hôtel",
      "priceRange": "€€€€",
      "score": 4,
      "mapsUrl": "https://maps.google.com/?q=45.4636231,9.1868743",
      "lat": 45.4636231,
      "lng": 9.1868743,
      "halalFriendly": false,
      "bookingUrl": "https://www.spadarihotel.com/",
      "source": "osm"
    },
    {
      "nom": "Sina de la Ville",
      "categorie": "Hôtel",
      "priceRange": "€€€€",
      "score": 4,
      "mapsUrl": "https://maps.google.com/?q=45.4659559,9.1922395",
      "lat": 45.4659559,
      "lng": 9.1922395,
      "halalFriendly": false,
      "bookingUrl": "https://www.sinahotels.com/en/h/sina-de-la-ville-milan/",
      "source": "osm"
    },
    {
      "nom": "Palazzo Cordusio Gran Meliá",
      "categorie": "Hôtel",
      "priceRange": "€€",
      "mapsUrl": "https://maps.google.com/?q=45.4651551,9.1867772",
      "lat": 45.4651551,
      "lng": 9.1867772,
      "halalFriendly": false,
      "bookingUrl": "https://www.melia.com/it/hotels/italia/milano/palazzo-cordusio-gran-melia",
      "source": "osm"
    },
    {
      "nom": "AHD Rooms",
      "categorie": "Hôtel",
      "priceRange": "€",
      "score": 1,
      "mapsUrl": "https://maps.google.com/?q=45.4652292,9.193271",
      "lat": 45.4652292,
      "lng": 9.193271,
      "halalFriendly": false,
      "bookingUrl": "https://www.aparthotelduomo.com/ahd-rooms/",
      "source": "osm"
    },
    {
      "nom": "M20 Boutique Hotel",
      "categorie": "Hôtel",
      "priceRange": "€€€",
      "score": 3,
      "mapsUrl": "https://maps.google.com/?q=45.4617413,9.1883269",
      "lat": 45.4617413,
      "lng": 9.1883269,
      "halalFriendly": false,
      "bookingUrl": "https://m20milano.com/",
      "source": "osm"
    },
    {
      "nom": "Starhotels Rosa Grand Hotel",
      "categorie": "Hôtel",
      "priceRange": "€€€€",
      "score": 4,
      "mapsUrl": "https://maps.google.com/?q=45.4638794,9.1940241",
      "lat": 45.4638794,
      "lng": 9.1940241,
      "halalFriendly": false,
      "bookingUrl": "https://collezione.starhotels.com/it/i-nostri-hotel/rosa-grand-milano/",
      "source": "osm"
    },
    {
      "nom": "Duomo Hotel & Apartments",
      "categorie": "Appartement",
      "priceRange": "€€",
      "mapsUrl": "https://maps.google.com/?q=45.4659928,9.193166",
      "lat": 45.4659928,
      "lng": 9.193166,
      "halalFriendly": false,
      "bookingUrl": "https://maps.google.com/?q=45.4659928,9.193166",
      "source": "osm"
    },
    {
      "nom": "Heart Milan Apartments",
      "categorie": "Appartement",
      "priceRange": "€€",
      "mapsUrl": "https://maps.google.com/?q=45.4616875,9.1880206",
      "lat": 45.4616875,
      "lng": 9.1880206,
      "halalFriendly": false,
      "bookingUrl": "https://www.heartmilanapartments.com",
      "source": "osm"
    },
    {
      "nom": "Enjoy Duomo",
      "categorie": "Appartement",
      "priceRange": "€€",
      "mapsUrl": "https://maps.google.com/?q=45.4614171,9.1911798",
      "lat": 45.4614171,
      "lng": 9.1911798,
      "halalFriendly": false,
      "bookingUrl": "https://maps.google.com/?q=45.4614171,9.1911798",
      "source": "osm"
    },
    {
      "nom": "The Corner Duomo Hotel",
      "categorie": "Hôtel",
      "priceRange": "€€€€",
      "score": 4,
      "mapsUrl": "https://maps.google.com/?q=45.4668075,9.1920595",
      "lat": 45.4668075,
      "lng": 9.1920595,
      "halalFriendly": false,
      "bookingUrl": "https://www.thecornerduomo.com/",
      "source": "osm"
    },
    {
      "nom": "Missori Suites",
      "categorie": "Maison d'hôtes",
      "priceRange": "€€",
      "mapsUrl": "https://maps.google.com/?q=45.4614088,9.1881281",
      "lat": 45.4614088,
      "lng": 9.1881281,
      "halalFriendly": false,
      "bookingUrl": "https://www.missorisuites.com",
      "source": "osm"
    },
    {
      "nom": "Hotel Nuovo Milano",
      "categorie": "Hôtel",
      "priceRange": "€",
      "score": 1,
      "mapsUrl": "https://maps.google.com/?q=45.4642415,9.19452",
      "lat": 45.4642415,
      "lng": 9.19452,
      "halalFriendly": false,
      "bookingUrl": "https://www.hotelnuovomilan.com/",
      "source": "osm"
    },
    {
      "nom": "Hotel Brunelleschi",
      "categorie": "Hôtel",
      "priceRange": "€€€€",
      "score": 4,
      "mapsUrl": "https://maps.google.com/?q=45.4611333,9.1911546",
      "lat": 45.4611333,
      "lng": 9.1911546,
      "halalFriendly": false,
      "bookingUrl": "https://www.hotelbrunelleschi.net/",
      "source": "osm"
    },
    {
      "nom": "Glamour Apartments Milano",
      "categorie": "Appartement",
      "priceRange": "€€",
      "mapsUrl": "https://maps.google.com/?q=45.4649824,9.1945063",
      "lat": 45.4649824,
      "lng": 9.1945063,
      "halalFriendly": false,
      "bookingUrl": "https://glamour-apartments.hotels-milan.net/it/",
      "source": "osm"
    },
    {
      "nom": "Hotel Gran Duca di York",
      "categorie": "Hôtel",
      "priceRange": "€€€",
      "score": 3,
      "mapsUrl": "https://maps.google.com/?q=45.4636285,9.1853083",
      "lat": 45.4636285,
      "lng": 9.1853083,
      "halalFriendly": false,
      "bookingUrl": "https://www.ducadiyork.com/",
      "source": "osm"
    },
    {
      "nom": "Loft suite Milano in Duomo",
      "categorie": "Appartement",
      "priceRange": "€€",
      "mapsUrl": "https://maps.google.com/?q=45.4618569,9.1865971",
      "lat": 45.4618569,
      "lng": 9.1865971,
      "halalFriendly": false,
      "bookingUrl": "https://airbtc.online/properties/loft-suite-milano-in-duomo/",
      "source": "osm"
    },
    {
      "nom": "Hotel dei Cavalieri",
      "categorie": "Hôtel",
      "priceRange": "€€€€",
      "score": 4,
      "mapsUrl": "https://maps.google.com/?q=45.460908,9.1886889",
      "lat": 45.460908,
      "lng": 9.1886889,
      "halalFriendly": false,
      "bookingUrl": "https://www.hoteldeicavalieri.com/",
      "source": "osm"
    },
    {
      "nom": "Hotel The Square Milano Duomo",
      "categorie": "Hôtel",
      "priceRange": "€€€€",
      "score": 4,
      "mapsUrl": "https://maps.google.com/?q=45.4607835,9.1893098",
      "lat": 45.4607835,
      "lng": 9.1893098,
      "halalFriendly": false,
      "bookingUrl": "https://www.thesquaremilano.com/",
      "source": "osm"
    },
    {
      "nom": "Hotel Ambasciatori",
      "categorie": "Hôtel",
      "priceRange": "€€€€",
      "score": 4,
      "mapsUrl": "https://maps.google.com/?q=45.4644571,9.1952874",
      "lat": 45.4644571,
      "lng": 9.1952874,
      "halalFriendly": false,
      "bookingUrl": "https://ih-hotels.com/it/i-nostri-aberghi/ih-hotels-milano-ambasciatori.html",
      "source": "osm"
    },
    {
      "nom": "Clerici Boutique Hotel",
      "categorie": "Hôtel",
      "priceRange": "€€€€",
      "score": 4,
      "mapsUrl": "https://maps.google.com/?q=45.467393,9.186805",
      "lat": 45.467393,
      "lng": 9.186805,
      "halalFriendly": false,
      "bookingUrl": "https://www.clericiboutiquehotel.it/",
      "source": "osm"
    },
    {
      "nom": "Hotel Star",
      "categorie": "Hôtel",
      "priceRange": "€€€",
      "score": 3,
      "mapsUrl": "https://maps.google.com/?q=45.4673954,9.186184",
      "lat": 45.4673954,
      "lng": 9.186184,
      "halalFriendly": false,
      "bookingUrl": "https://www.hotelstar.it/",
      "source": "osm"
    },
    {
      "nom": "Galileo",
      "categorie": "Hôtel",
      "priceRange": "€€€€",
      "score": 4,
      "mapsUrl": "https://maps.google.com/?q=45.4642102,9.1961443",
      "lat": 45.4642102,
      "lng": 9.1961443,
      "halalFriendly": false,
      "bookingUrl": "https://www.galileohotelmilan.com/italiano/",
      "source": "osm"
    },
    {
      "nom": "The Place - Suite Manzoni",
      "categorie": "Appartement",
      "priceRange": "€€",
      "mapsUrl": "https://maps.google.com/?q=45.4686296,9.1904128",
      "lat": 45.4686296,
      "lng": 9.1904128,
      "halalFriendly": false,
      "bookingUrl": "http://www.the-place.it",
      "source": "osm"
    },
    {
      "nom": "San Pietro all'Orto 6",
      "categorie": "Appartement",
      "priceRange": "€€",
      "mapsUrl": "https://maps.google.com/?q=45.4661574,9.1957087",
      "lat": 45.4661574,
      "lng": 9.1957087,
      "halalFriendly": false,
      "bookingUrl": "https://www.allegroitalia.it/struttura/milano-centro/",
      "source": "osm"
    },
    {
      "nom": "Santa Marta Suites",
      "categorie": "Hôtel",
      "priceRange": "€€€€",
      "score": 4,
      "mapsUrl": "https://maps.google.com/?q=45.4631498,9.1836214",
      "lat": 45.4631498,
      "lng": 9.1836214,
      "halalFriendly": false,
      "bookingUrl": "http://santamartasuites.com/",
      "source": "osm"
    },
    {
      "nom": "Hotel Milano Castello",
      "categorie": "Hôtel",
      "priceRange": "€€€",
      "score": 3,
      "mapsUrl": "https://maps.google.com/?q=45.4673662,9.1850179",
      "lat": 45.4673662,
      "lng": 9.1850179,
      "halalFriendly": false,
      "bookingUrl": "https://www.hotelmilanocastello.com/",
      "source": "osm"
    },
    {
      "nom": "B&B Hotel Milano City Center Duomo",
      "categorie": "Hôtel",
      "priceRange": "€€€",
      "score": 3,
      "mapsUrl": "https://maps.google.com/?q=45.4673424,9.1849392",
      "lat": 45.4673424,
      "lng": 9.1849392,
      "halalFriendly": false,
      "bookingUrl": "https://www.hotel-bb.com/it/hotel/milano-city-center-duomo",
      "source": "osm"
    },
    {
      "nom": "Milano Suites",
      "categorie": "Appartement",
      "priceRange": "€€",
      "mapsUrl": "https://maps.google.com/?q=45.4673117,9.1847646",
      "lat": 45.4673117,
      "lng": 9.1847646,
      "halalFriendly": false,
      "bookingUrl": "https://www.milanosuites.it/",
      "source": "osm"
    },
    {
      "nom": "Antica Locanda dei Mercanti",
      "categorie": "Hôtel",
      "priceRange": "€€€€",
      "score": 4,
      "mapsUrl": "https://maps.google.com/?q=45.4672963,9.1847222",
      "lat": 45.4672963,
      "lng": 9.1847222,
      "halalFriendly": false,
      "bookingUrl": "https://www.locanda.it/",
      "source": "osm"
    },
    {
      "nom": "Palazzo Segreti",
      "categorie": "Hôtel",
      "priceRange": "€€€€",
      "score": 4,
      "mapsUrl": "https://maps.google.com/?q=45.467207,9.184176",
      "lat": 45.467207,
      "lng": 9.184176,
      "halalFriendly": false,
      "bookingUrl": "http://www.palazzosegreti.it/",
      "source": "osm"
    },
    {
      "nom": "Hotel London",
      "categorie": "Hôtel",
      "priceRange": "€€",
      "score": 2,
      "mapsUrl": "https://maps.google.com/?q=45.4674045,9.1842451",
      "lat": 45.4674045,
      "lng": 9.1842451,
      "halalFriendly": false,
      "bookingUrl": "https://maps.google.com/?q=45.4674045,9.1842451",
      "source": "osm"
    },
    {
      "nom": "Mandarin Oriental Milano",
      "categorie": "Hôtel",
      "priceRange": "€€€€",
      "score": null,
      "mapsUrl": "https://maps.google.com/?q=45.4694631,9.1909801",
      "lat": 45.4694631,
      "lng": 9.1909801,
      "halalFriendly": false,
      "bookingUrl": "https://www.mandarinoriental.com/milan/la-scala/luxury-hotel",
      "source": "osm"
    },
    {
      "nom": "Sweet Inn - Osti II",
      "categorie": "Appartement",
      "priceRange": "€€",
      "mapsUrl": "https://maps.google.com/?q=45.4591026,9.1921704",
      "lat": 45.4591026,
      "lng": 9.1921704,
      "halalFriendly": false,
      "bookingUrl": "https://www.sweetinn.com/milano/missori/osti-ii",
      "source": "osm"
    },
    {
      "nom": "Radisson Collection Hotel Palazzo Touring Club Milan",
      "categorie": "Hôtel",
      "priceRange": "€€€€",
      "score": 5,
      "mapsUrl": "https://maps.google.com/?q=45.4589615,9.1877174",
      "lat": 45.4589615,
      "lng": 9.1877174,
      "halalFriendly": false,
      "bookingUrl": "https://www.radissonhotels.com/it-it/hotel/radisson-collection-milan-palazzo-touring-club",
      "source": "osm"
    },
    {
      "nom": "Hotel Vecchia Milano",
      "categorie": "Hôtel",
      "priceRange": "€€€",
      "score": 3,
      "mapsUrl": "https://maps.google.com/?q=45.4642098,9.181985",
      "lat": 45.4642098,
      "lng": 9.181985,
      "halalFriendly": false,
      "bookingUrl": "https://www.hotelvecchiamilan.com/",
      "source": "osm"
    },
    {
      "nom": "NH Collection Milano President",
      "categorie": "Hôtel",
      "priceRange": "€€€€",
      "score": 5,
      "mapsUrl": "https://maps.google.com/?q=45.4630676,9.1978864",
      "lat": 45.4630676,
      "lng": 9.1978864,
      "halalFriendly": false,
      "bookingUrl": "https://www.nh-hotels.com/hotel/nh-collection-milano-president",
      "source": "osm"
    },
    {
      "nom": "Milhouse Suites Duomo",
      "categorie": "Appartement",
      "priceRange": "€€",
      "mapsUrl": "https://maps.google.com/?q=45.4650812,9.1981026",
      "lat": 45.4650812,
      "lng": 9.1981026,
      "halalFriendly": false,
      "bookingUrl": "https://maps.google.com/?q=45.4650812,9.1981026",
      "source": "osm"
    },
    {
      "nom": "Sonder Missori",
      "categorie": "Hôtel",
      "priceRange": "€€€",
      "score": 3,
      "mapsUrl": "https://maps.google.com/?q=45.4586125,9.187908",
      "lat": 45.4586125,
      "lng": 9.187908,
      "halalFriendly": false,
      "bookingUrl": "https://www.sonder.com/",
      "source": "osm"
    },
    {
      "nom": "Bulgari Hotel Milano",
      "categorie": "Hôtel",
      "priceRange": "€€€€",
      "score": 5,
      "mapsUrl": "https://maps.google.com/?q=45.4700904,9.1892977",
      "lat": 45.4700904,
      "lng": 9.1892977,
      "halalFriendly": false,
      "bookingUrl": "https://www.bulgarihotels.cohttps://www.bulgarihotels.com/en_US/milan",
      "source": "osm"
    },
    {
      "nom": "Grand Hotel Et De Milan",
      "categorie": "Hôtel",
      "priceRange": "€€€€",
      "score": null,
      "mapsUrl": "https://maps.google.com/?q=45.4699226,9.1924982",
      "lat": 45.4699226,
      "lng": 9.1924982,
      "halalFriendly": false,
      "bookingUrl": "https://www.grandhoteletdemilan.it/",
      "source": "osm"
    },
    {
      "nom": "Genius Hotel Downtown",
      "categorie": "Hôtel",
      "priceRange": "€€€",
      "score": 3,
      "mapsUrl": "https://maps.google.com/?q=45.4671478,9.182442",
      "lat": 45.4671478,
      "lng": 9.182442,
      "halalFriendly": false,
      "bookingUrl": "https://www.geniushoteldowntown.com/",
      "source": "osm"
    },
    {
      "nom": "Hotel Ascot",
      "categorie": "Hôtel",
      "priceRange": "€€€€",
      "score": 4,
      "mapsUrl": "https://maps.google.com/?q=45.4580657,9.1914371",
      "lat": 45.4580657,
      "lng": 9.1914371,
      "halalFriendly": false,
      "bookingUrl": "https://www.hotelascotmilano.it/",
      "source": "osm"
    },
    {
      "nom": "RTA Residence",
      "categorie": "Appartement",
      "priceRange": "€€€€",
      "score": 4,
      "mapsUrl": "https://maps.google.com/?q=45.470362,9.1917777",
      "lat": 45.470362,
      "lng": 9.1917777,
      "halalFriendly": false,
      "bookingUrl": "https://maps.google.com/?q=45.470362,9.1917777",
      "source": "osm"
    },
    {
      "nom": "Hotel Mentana",
      "categorie": "Hôtel",
      "priceRange": "€€€€",
      "score": 4,
      "mapsUrl": "https://maps.google.com/?q=45.4623346,9.1814375",
      "lat": 45.4623346,
      "lng": 9.1814375,
      "halalFriendly": false,
      "bookingUrl": "https://www.hotelmentanamilano.it/",
      "source": "osm"
    },
    {
      "nom": "Unahotels Cusani",
      "categorie": "Hôtel",
      "priceRange": "€€€€",
      "score": 4,
      "mapsUrl": "https://maps.google.com/?q=45.4685138,9.1833756",
      "lat": 45.4685138,
      "lng": 9.1833756,
      "halalFriendly": false,
      "bookingUrl": "https://www.gruppouna.it/unahotels/unahotels-cusani-milano",
      "source": "osm"
    },
    {
      "nom": "Lloyd Hotel",
      "categorie": "Hôtel",
      "priceRange": "€€€€",
      "score": 4,
      "mapsUrl": "https://maps.google.com/?q=45.4580557,9.1923042",
      "lat": 45.4580557,
      "lng": 9.1923042,
      "halalFriendly": false,
      "bookingUrl": "https://www.lloydhotelmilano.it/",
      "source": "osm"
    },
    {
      "nom": "Four Seasons",
      "categorie": "Hôtel",
      "priceRange": "€€€€",
      "score": 5,
      "mapsUrl": "https://maps.google.com/?q=45.469414,9.195302",
      "lat": 45.469414,
      "lng": 9.195302,
      "halalFriendly": false,
      "bookingUrl": "https://www.fourseasons.com/milan/",
      "source": "osm"
    },
    {
      "nom": "Armani Hotel Milano",
      "categorie": "Hôtel",
      "priceRange": "€€€€",
      "score": null,
      "mapsUrl": "https://maps.google.com/?q=45.4705667,9.1930102",
      "lat": 45.4705667,
      "lng": 9.1930102,
      "halalFriendly": false,
      "bookingUrl": "https://www.armanihotelmilano.com/",
      "source": "osm"
    },
    {
      "nom": "Uptown Palace",
      "categorie": "Hôtel",
      "priceRange": "€€€€",
      "score": 4,
      "mapsUrl": "https://maps.google.com/?q=45.4574898,9.1919471",
      "lat": 45.4574898,
      "lng": 9.1919471,
      "halalFriendly": false,
      "bookingUrl": "https://www.uptownpalace.com/",
      "source": "osm"
    },
    {
      "nom": "Hotel Canada",
      "categorie": "Hôtel",
      "priceRange": "€€€",
      "score": 3,
      "mapsUrl": "https://maps.google.com/?q=45.4573757,9.1910934",
      "lat": 45.4573757,
      "lng": 9.1910934,
      "halalFriendly": false,
      "bookingUrl": "https://www.canadahotel.it/",
      "source": "osm"
    },
    {
      "nom": "The Couper Sant'Andrea",
      "categorie": "Hôtel",
      "priceRange": "€€€€",
      "score": 4,
      "mapsUrl": "https://maps.google.com/?q=45.4691451,9.1973105",
      "lat": 45.4691451,
      "lng": 9.1973105,
      "halalFriendly": false,
      "bookingUrl": "https://www.thecouper.it/the-couper-sant-andrea/index",
      "source": "osm"
    },
    {
      "nom": "Hotel Ariston",
      "categorie": "Hôtel",
      "priceRange": "€€€",
      "score": 3,
      "mapsUrl": "https://maps.google.com/?q=45.4605208,9.1812895",
      "lat": 45.4605208,
      "lng": 9.1812895,
      "halalFriendly": false,
      "bookingUrl": "https://www.aristonhotel.com/",
      "source": "osm"
    },
    {
      "nom": "Hotel Manzoni",
      "categorie": "Hôtel",
      "priceRange": "€€€€",
      "score": 4,
      "mapsUrl": "https://maps.google.com/?q=45.4702704,9.1954104",
      "lat": 45.4702704,
      "lng": 9.1954104,
      "halalFriendly": false,
      "bookingUrl": "https://hotelmanzoni.com/",
      "source": "osm"
    },
    {
      "nom": "Ostello Bello",
      "categorie": "Auberge",
      "priceRange": "€€",
      "mapsUrl": "https://maps.google.com/?q=45.4606852,9.1811069",
      "lat": 45.4606852,
      "lng": 9.1811069,
      "halalFriendly": false,
      "bookingUrl": "https://ostellobello.com/en/hostel/milan-duomo/",
      "source": "osm"
    },
    {
      "nom": "RH Rent House",
      "categorie": "Appartement",
      "priceRange": "€€",
      "mapsUrl": "https://maps.google.com/?q=45.4655696,9.1797055",
      "lat": 45.4655696,
      "lng": 9.1797055,
      "halalFriendly": false,
      "bookingUrl": "https://maps.google.com/?q=45.4655696,9.1797055",
      "source": "osm"
    },
    {
      "nom": "Residence di corso Italia",
      "categorie": "Appartement",
      "priceRange": "€€",
      "mapsUrl": "https://maps.google.com/?q=45.4567506,9.1873103",
      "lat": 45.4567506,
      "lng": 9.1873103,
      "halalFriendly": false,
      "bookingUrl": "https://maps.google.com/?q=45.4567506,9.1873103",
      "source": "osm"
    },
    {
      "nom": "Montenapoleone Suites",
      "categorie": "Appartement",
      "priceRange": "€€",
      "mapsUrl": "https://maps.google.com/?q=45.4672762,9.2001076",
      "lat": 45.4672762,
      "lng": 9.2001076,
      "halalFriendly": false,
      "bookingUrl": "https://www.montenapoleonesuites.com/",
      "source": "osm"
    },
    {
      "nom": "The Carlton Milano",
      "categorie": "Hôtel",
      "priceRange": "€€",
      "mapsUrl": "https://maps.google.com/?q=45.4692053,9.1984661",
      "lat": 45.4692053,
      "lng": 9.1984661,
      "halalFriendly": false,
      "bookingUrl": "https://maps.google.com/?q=45.4692053,9.1984661",
      "source": "osm"
    },
    {
      "nom": "Tne Unique Hotel",
      "categorie": "Hôtel",
      "priceRange": "€€€€",
      "score": 5,
      "mapsUrl": "https://maps.google.com/?q=45.4708783,9.1840372",
      "lat": 45.4708783,
      "lng": 9.1840372,
      "halalFriendly": false,
      "bookingUrl": "https://www.hoteltheunique.com",
      "source": "osm"
    },
    {
      "nom": "Radisson Collection Santa Sofia",
      "categorie": "Hôtel",
      "priceRange": "€€",
      "mapsUrl": "https://maps.google.com/?q=45.4559046,9.1876933",
      "lat": 45.4559046,
      "lng": 9.1876933,
      "halalFriendly": false,
      "bookingUrl": "https://maps.google.com/?q=45.4559046,9.1876933",
      "source": "osm"
    },
    {
      "nom": "Petit Palais",
      "categorie": "Hôtel",
      "priceRange": "€€€€",
      "score": 4,
      "mapsUrl": "https://maps.google.com/?q=45.4559634,9.1872445",
      "lat": 45.4559634,
      "lng": 9.1872445,
      "halalFriendly": false,
      "bookingUrl": "https://www.petitpalais.it/",
      "source": "osm"
    },
    {
      "nom": "Molino Comfy Flat",
      "categorie": "Maison d'hôtes",
      "priceRange": "€€",
      "mapsUrl": "https://maps.google.com/?q=45.456087,9.1865056",
      "lat": 45.456087,
      "lng": 9.1865056,
      "halalFriendly": false,
      "bookingUrl": "https://maps.google.com/?q=45.456087,9.1865056",
      "source": "osm"
    },
    {
      "nom": "Senato Hotel Milano",
      "categorie": "Hôtel",
      "priceRange": "€€€€",
      "score": 4,
      "mapsUrl": "https://maps.google.com/?q=45.471378,9.1964607",
      "lat": 45.471378,
      "lng": 9.1964607,
      "halalFriendly": false,
      "bookingUrl": "https://www.senatohotelmilano.it/",
      "source": "osm"
    },
    {
      "nom": "Hotel Regina",
      "categorie": "Hôtel",
      "priceRange": "€€€€",
      "score": 4,
      "mapsUrl": "https://maps.google.com/?q=45.4595643,9.1797242",
      "lat": 45.4595643,
      "lng": 9.1797242,
      "halalFriendly": false,
      "bookingUrl": "https://www.hotelregina.it/",
      "source": "osm"
    },
    {
      "nom": "King Mokinba Hotel",
      "categorie": "Hôtel",
      "priceRange": "€€€€",
      "score": 4,
      "mapsUrl": "https://maps.google.com/?q=45.4656506,9.1778515",
      "lat": 45.4656506,
      "lng": 9.1778515,
      "halalFriendly": false,
      "bookingUrl": "https://www.hotelkingmilano.com/",
      "source": "osm"
    },
    {
      "nom": "Casa Baglioni - Milan",
      "categorie": "Hôtel",
      "priceRange": "€€",
      "mapsUrl": "https://maps.google.com/?q=45.4727419,9.1924022",
      "lat": 45.4727419,
      "lng": 9.1924022,
      "halalFriendly": false,
      "bookingUrl": "https://milan.baglionihotels.com/",
      "source": "osm"
    },
    {
      "nom": "Hotel Indigo Milan",
      "categorie": "Hôtel",
      "priceRange": "€€€€",
      "score": 4,
      "mapsUrl": "https://maps.google.com/?q=45.4672257,9.2018747",
      "lat": 45.4672257,
      "lng": 9.2018747,
      "halalFriendly": false,
      "bookingUrl": "https://www.indigomilano.it/it/",
      "source": "osm"
    },
    {
      "nom": "Milan Royal Suites-Centro",
      "categorie": "Maison d'hôtes",
      "priceRange": "€€",
      "mapsUrl": "https://maps.google.com/?q=45.4728256,9.1933456",
      "lat": 45.4728256,
      "lng": 9.1933456,
      "halalFriendly": false,
      "bookingUrl": "https://www.milanroyalsuites.com/",
      "source": "osm"
    },
    {
      "nom": "Hotel Cavour",
      "categorie": "Hôtel",
      "priceRange": "€€€€",
      "score": 4,
      "mapsUrl": "https://maps.google.com/?q=45.4726681,9.1943755",
      "lat": 45.4726681,
      "lng": 9.1943755,
      "halalFriendly": false,
      "bookingUrl": "https://www.hotelcavour.it/",
      "source": "osm"
    },
    {
      "nom": "Palazzo Parigi",
      "categorie": "Hôtel",
      "priceRange": "€€€€",
      "score": 5,
      "mapsUrl": "https://maps.google.com/?q=45.4733994,9.1911115",
      "lat": 45.4733994,
      "lng": 9.1911115,
      "halalFriendly": false,
      "bookingUrl": "https://www.palazzoparigi.com/",
      "source": "osm"
    },
    {
      "nom": "Babila Hostel",
      "categorie": "Auberge",
      "priceRange": "€€",
      "mapsUrl": "https://maps.google.com/?q=45.4641609,9.2033209",
      "lat": 45.4641609,
      "lng": 9.2033209,
      "halalFriendly": false,
      "bookingUrl": "https://www.babilahostel.it",
      "source": "osm"
    },
    {
      "nom": "Hotel Pierre",
      "categorie": "Hôtel",
      "priceRange": "€€€€",
      "score": 5,
      "mapsUrl": "https://maps.google.com/?q=45.4595211,9.1769569",
      "lat": 45.4595211,
      "lng": 9.1769569,
      "halalFriendly": false,
      "bookingUrl": "https://www.hotelpierremilano.it/",
      "source": "osm"
    },
    {
      "nom": "Hotel Pavone",
      "categorie": "Hôtel",
      "priceRange": "€€€",
      "score": 3,
      "mapsUrl": "https://maps.google.com/?q=45.4627218,9.2045697",
      "lat": 45.4627218,
      "lng": 9.2045697,
      "halalFriendly": false,
      "bookingUrl": "https://www.hotelpavone.com/",
      "source": "osm"
    },
    {
      "nom": "Cadorna house",
      "categorie": "Maison d'hôtes",
      "priceRange": "€€",
      "mapsUrl": "https://maps.google.com/?q=45.4677407,9.1761203",
      "lat": 45.4677407,
      "lng": 9.1761203,
      "halalFriendly": false,
      "bookingUrl": "https://maps.google.com/?q=45.4677407,9.1761203",
      "source": "osm"
    },
    {
      "nom": "Hotel Manin",
      "categorie": "Hôtel",
      "priceRange": "€€€€",
      "score": 4,
      "mapsUrl": "https://maps.google.com/?q=45.4740024,9.1960177",
      "lat": 45.4740024,
      "lng": 9.1960177,
      "halalFriendly": false,
      "bookingUrl": "https://www.hotelmanin.it/",
      "source": "osm"
    },
    {
      "nom": "Casa Cipriani",
      "categorie": "Hôtel",
      "priceRange": "€€",
      "mapsUrl": "https://maps.google.com/?q=45.4719431,9.2019241",
      "lat": 45.4719431,
      "lng": 9.2019241,
      "halalFriendly": false,
      "bookingUrl": "https://maps.google.com/?q=45.4719431,9.2019241",
      "source": "osm"
    },
    {
      "nom": "New Generation Hostel Urban Brera",
      "categorie": "Auberge",
      "priceRange": "€€",
      "mapsUrl": "https://maps.google.com/?q=45.4755225,9.1922616",
      "lat": 45.4755225,
      "lng": 9.1922616,
      "halalFriendly": false,
      "bookingUrl": "https://urbanbrera.newgenerationhostel.it/",
      "source": "osm"
    },
    {
      "nom": "The Plein Hotel",
      "categorie": "Hôtel",
      "priceRange": "€€",
      "mapsUrl": "https://maps.google.com/?q=45.4747324,9.1965334",
      "lat": 45.4747324,
      "lng": 9.1965334,
      "halalFriendly": false,
      "bookingUrl": "https://maps.google.com/?q=45.4747324,9.1965334",
      "source": "osm"
    },
    {
      "nom": "New generation Hostel Navigli",
      "categorie": "Auberge",
      "priceRange": "€€",
      "mapsUrl": "https://maps.google.com/?q=45.4532848,9.184479",
      "lat": 45.4532848,
      "lng": 9.184479,
      "halalFriendly": false,
      "bookingUrl": "https://maps.google.com/?q=45.4532848,9.184479",
      "source": "osm"
    },
    {
      "nom": "Foresteria Monforte",
      "categorie": "Maison d'hôtes",
      "priceRange": "€€",
      "mapsUrl": "https://maps.google.com/?q=45.4674897,9.2062493",
      "lat": 45.4674897,
      "lng": 9.2062493,
      "halalFriendly": false,
      "bookingUrl": "http://www.foresteriamonforte.it",
      "source": "osm"
    },
    {
      "nom": "Bianca Maria Palace Hotel",
      "categorie": "Hôtel",
      "priceRange": "€€€€",
      "score": 4,
      "mapsUrl": "https://maps.google.com/?q=45.4635486,9.2069192",
      "lat": 45.4635486,
      "lng": 9.2069192,
      "halalFriendly": false,
      "bookingUrl": "https://www.biancamariapalace.com/",
      "source": "osm"
    },
    {
      "nom": "QUO Hostel",
      "categorie": "Auberge",
      "priceRange": "€€",
      "mapsUrl": "https://maps.google.com/?q=45.4582226,9.2047312",
      "lat": 45.4582226,
      "lng": 9.2047312,
      "halalFriendly": false,
      "bookingUrl": "https://quomilano.com",
      "source": "osm"
    },
    {
      "nom": "Cadorna Luxury Hotel",
      "categorie": "Hôtel",
      "priceRange": "€",
      "score": 1,
      "mapsUrl": "https://maps.google.com/?q=45.4686615,9.1740884",
      "lat": 45.4686615,
      "lng": 9.1740884,
      "halalFriendly": false,
      "bookingUrl": "https://www.cadornaluxuryhotel.com/it/index.php",
      "source": "osm"
    },
    {
      "nom": "Crivi's Hotel",
      "categorie": "Hôtel",
      "priceRange": "€€€€",
      "score": 4,
      "mapsUrl": "https://maps.google.com/?q=45.4529583,9.1961593",
      "lat": 45.4529583,
      "lng": 9.1961593,
      "halalFriendly": false,
      "bookingUrl": "https://crivis.com",
      "source": "osm"
    },
    {
      "nom": "The B village",
      "categorie": "Appartement",
      "priceRange": "€€",
      "mapsUrl": "https://maps.google.com/?q=45.4682645,9.1737506",
      "lat": 45.4682645,
      "lng": 9.1737506,
      "halalFriendly": false,
      "bookingUrl": "https://maps.google.com/?q=45.4682645,9.1737506",
      "source": "osm"
    },
    {
      "nom": "Hotel Cinque Giornate",
      "categorie": "Hôtel",
      "priceRange": "€€€",
      "score": 3,
      "mapsUrl": "https://maps.google.com/?q=45.4617375,9.2070426",
      "lat": 45.4617375,
      "lng": 9.2070426,
      "halalFriendly": false,
      "bookingUrl": "https://maps.google.com/?q=45.4617375,9.2070426",
      "source": "osm"
    },
    {
      "nom": "Garibaldi Palace",
      "categorie": "Hôtel",
      "priceRange": "€€€",
      "score": 3,
      "mapsUrl": "https://maps.google.com/?q=45.4762321,9.1841228",
      "lat": 45.4762321,
      "lng": 9.1841228,
      "halalFriendly": false,
      "bookingUrl": "https://maps.google.com/?q=45.4762321,9.1841228",
      "source": "osm"
    },
    {
      "nom": "Hotel Atena",
      "categorie": "Hôtel",
      "priceRange": "€€",
      "score": 2,
      "mapsUrl": "https://maps.google.com/?q=45.4692345,9.2066757",
      "lat": 45.4692345,
      "lng": 9.2066757,
      "halalFriendly": false,
      "bookingUrl": "https://www.hotelatenamilano.com/",
      "source": "osm"
    },
    {
      "nom": "Hotel Milano Navigli",
      "categorie": "Hôtel",
      "priceRange": "€€€",
      "score": 3,
      "mapsUrl": "https://maps.google.com/?q=45.4532344,9.1805175",
      "lat": 45.4532344,
      "lng": 9.1805175,
      "halalFriendly": false,
      "bookingUrl": "https://www.hotelmilanonavigli.it/",
      "source": "osm"
    },
    {
      "nom": "Bruzzanese",
      "categorie": "Appartement",
      "priceRange": "€€",
      "mapsUrl": "https://maps.google.com/?q=45.4521834,9.1834086",
      "lat": 45.4521834,
      "lng": 9.1834086,
      "halalFriendly": false,
      "bookingUrl": "https://maps.google.com/?q=45.4521834,9.1834086",
      "source": "osm"
    },
    {
      "nom": "Chateau Monfort",
      "categorie": "Hôtel",
      "priceRange": "€€€€",
      "score": 5,
      "mapsUrl": "https://maps.google.com/?q=45.4682205,9.2074416",
      "lat": 45.4682205,
      "lng": 9.2074416,
      "halalFriendly": false,
      "bookingUrl": "https://www.hotelchateaumonfort.com/it/",
      "source": "osm"
    },
    {
      "nom": "Hotel Dover",
      "categorie": "Hôtel",
      "priceRange": "€€",
      "score": 2,
      "mapsUrl": "https://maps.google.com/?q=45.4654847,9.2087583",
      "lat": 45.4654847,
      "lng": 9.2087583,
      "halalFriendly": false,
      "bookingUrl": "https://www.hoteldovermilan.com/",
      "source": "osm"
    },
    {
      "nom": "Hotel D'Este",
      "categorie": "Hôtel",
      "priceRange": "€€€€",
      "score": 4,
      "mapsUrl": "https://maps.google.com/?q=45.4510581,9.1920958",
      "lat": 45.4510581,
      "lng": 9.1920958,
      "halalFriendly": false,
      "bookingUrl": "https://www.hoteldestemilano.it/",
      "source": "osm"
    },
    {
      "nom": "Fifty House",
      "categorie": "Hôtel",
      "priceRange": "€€€€",
      "score": 5,
      "mapsUrl": "https://maps.google.com/?q=45.4640859,9.2089295",
      "lat": 45.4640859,
      "lng": 9.2089295,
      "halalFriendly": false,
      "bookingUrl": "https://www.fiftyhouse.com/",
      "source": "osm"
    },
    {
      "nom": "Urban Hive",
      "categorie": "Hôtel",
      "priceRange": "€€€€",
      "score": 4,
      "mapsUrl": "https://maps.google.com/?q=45.4770811,9.1844946",
      "lat": 45.4770811,
      "lng": 9.1844946,
      "halalFriendly": false,
      "bookingUrl": "https://www.urbanhivehotels.com/milano/",
      "source": "osm"
    },
    {
      "nom": "NH Milano Touring",
      "categorie": "Hôtel",
      "priceRange": "€€€€",
      "score": 4,
      "mapsUrl": "https://maps.google.com/?q=45.4768221,9.1967233",
      "lat": 45.4768221,
      "lng": 9.1967233,
      "halalFriendly": false,
      "bookingUrl": "https://www.nh-hotels.it/hotel/nh-milano-touring",
      "source": "osm"
    },
    {
      "nom": "Aethos Milan",
      "categorie": "Hôtel",
      "priceRange": "€€€€",
      "score": 4,
      "mapsUrl": "https://maps.google.com/?q=45.4531418,9.1789612",
      "lat": 45.4531418,
      "lng": 9.1789612,
      "halalFriendly": false,
      "bookingUrl": "https://www.aethoshotels.com/milan/",
      "source": "osm"
    },
    {
      "nom": "Vmaison Hotel Milano",
      "categorie": "Hôtel",
      "priceRange": "€€€€",
      "score": 5,
      "mapsUrl": "https://maps.google.com/?q=45.4765649,9.1821107",
      "lat": 45.4765649,
      "lng": 9.1821107,
      "halalFriendly": false,
      "bookingUrl": "https://www.vmaison.it/",
      "source": "osm"
    },
    {
      "nom": "Hotel La Vignetta",
      "categorie": "Hôtel",
      "priceRange": "€",
      "score": 1,
      "mapsUrl": "https://maps.google.com/?q=45.4516684,9.1818804",
      "lat": 45.4516684,
      "lng": 9.1818804,
      "halalFriendly": false,
      "bookingUrl": "https://www.lavignettahotel.it/",
      "source": "osm"
    },
    {
      "nom": "JR Hotels Bocconi Milano",
      "categorie": "Hôtel",
      "priceRange": "€€€€",
      "score": 4,
      "mapsUrl": "https://maps.google.com/?q=45.4508286,9.1947501",
      "lat": 45.4508286,
      "lng": 9.1947501,
      "halalFriendly": false,
      "bookingUrl": "https://jr-hotels.com/en/collection/jr-hotels-bocconi-milano",
      "source": "osm"
    },
    {
      "nom": "Antica Locanda Solferino",
      "categorie": "Hôtel",
      "priceRange": "€€",
      "score": 2,
      "mapsUrl": "https://maps.google.com/?q=45.4781292,9.1884156",
      "lat": 45.4781292,
      "lng": 9.1884156,
      "halalFriendly": false,
      "bookingUrl": "https://www.anticalocandasolferino.com/",
      "source": "osm"
    },
    {
      "nom": "Traveller's Loft",
      "categorie": "Appartement",
      "priceRange": "€€",
      "mapsUrl": "https://maps.google.com/?q=45.458591,9.1715306",
      "lat": 45.458591,
      "lng": 9.1715306,
      "halalFriendly": false,
      "bookingUrl": "https://maps.google.com/?q=45.458591,9.1715306",
      "source": "osm"
    },
    {
      "nom": "Hotel Vittoria",
      "categorie": "Hôtel",
      "priceRange": "€€€€",
      "score": 4,
      "mapsUrl": "https://maps.google.com/?q=45.4632952,9.2102036",
      "lat": 45.4632952,
      "lng": 9.2102036,
      "halalFriendly": false,
      "bookingUrl": "https://www.hotelvittoriamilano.it/it/index.html",
      "source": "osm"
    },
    {
      "nom": "bellaMi",
      "categorie": "Maison d'hôtes",
      "priceRange": "€€",
      "mapsUrl": "https://maps.google.com/?q=45.4670111,9.2100487",
      "lat": 45.4670111,
      "lng": 9.2100487,
      "halalFriendly": false,
      "bookingUrl": "https://maps.google.com/?q=45.4670111,9.2100487",
      "source": "osm"
    },
    {
      "nom": "B&B Hotel Milano Sant'Ambrogio",
      "categorie": "Hôtel",
      "priceRange": "€€€",
      "score": 3,
      "mapsUrl": "https://maps.google.com/?q=45.4628112,9.1695565",
      "lat": 45.4628112,
      "lng": 9.1695565,
      "halalFriendly": false,
      "bookingUrl": "https://www.hotel-bb.com/it/hotel/milano-sant-ambrogio.htm",
      "source": "osm"
    }
  ],
  "mosqueesPrincipales": [
    {
      "id": "m204329261",
      "nom": "Chiesa di San Gottardo in Corte",
      "type": "Mosquée",
      "adresse": "",
      "description": "Lieu de prière (OpenStreetMap).",
      "mapsUrl": "https://maps.google.com/?q=45.4627934,9.191938",
      "lat": 45.4627934,
      "lng": 9.191938,
      "source": "osm"
    },
    {
      "id": "m45671470",
      "nom": "Santa Maria presso San Satiro",
      "type": "Mosquée",
      "adresse": "",
      "description": "Lieu de prière (OpenStreetMap).",
      "mapsUrl": "https://maps.google.com/?q=45.4627033,9.1877699",
      "lat": 45.4627033,
      "lng": 9.1877699,
      "source": "osm"
    },
    {
      "id": "m23227442",
      "nom": "Chiesa di San Fedele",
      "type": "Mosquée",
      "adresse": "",
      "description": "Lieu de prière (OpenStreetMap).",
      "mapsUrl": "https://maps.google.com/?q=45.4667518,9.1915661",
      "lat": 45.4667518,
      "lng": 9.1915661,
      "source": "osm"
    },
    {
      "id": "m39349468",
      "nom": "Chiesa di San Bernardino alle Ossa",
      "type": "Mosquée",
      "adresse": "",
      "description": "Lieu de prière (OpenStreetMap).",
      "mapsUrl": "https://maps.google.com/?q=45.4626047,9.1955551",
      "lat": 45.4626047,
      "lng": 9.1955551,
      "source": "osm"
    },
    {
      "id": "m44601409",
      "nom": "Basilica di San Carlo al Corso",
      "type": "Mosquée",
      "adresse": "",
      "description": "Lieu de prière (OpenStreetMap).",
      "mapsUrl": "https://maps.google.com/?q=45.4662872,9.1961842",
      "lat": 45.4662872,
      "lng": 9.1961842,
      "source": "osm"
    },
    {
      "id": "m24971631",
      "nom": "Basilica San Nazaro in Brolo",
      "type": "Mosquée",
      "adresse": "",
      "description": "Lieu de prière (OpenStreetMap).",
      "mapsUrl": "https://maps.google.com/?q=45.4587606,9.192706",
      "lat": 45.4587606,
      "lng": 9.192706,
      "source": "osm"
    },
    {
      "id": "m44448850",
      "nom": "Basilica di San Babila",
      "type": "Mosquée",
      "adresse": "",
      "description": "Lieu de prière (OpenStreetMap).",
      "mapsUrl": "https://maps.google.com/?q=45.4669666,9.1983716",
      "lat": 45.4669666,
      "lng": 9.1983716,
      "source": "osm"
    },
    {
      "id": "m43705671",
      "nom": "Chiesa di Santa Maria del Carmine",
      "type": "Mosquée",
      "adresse": "",
      "description": "Lieu de prière (OpenStreetMap).",
      "mapsUrl": "https://maps.google.com/?q=45.4704529,9.1860185",
      "lat": 45.4704529,
      "lng": 9.1860185,
      "source": "osm"
    },
    {
      "id": "m46103655",
      "nom": "San Maurizio al Monastero Maggiore",
      "type": "Mosquée",
      "adresse": "",
      "description": "Lieu de prière (OpenStreetMap).",
      "mapsUrl": "https://maps.google.com/?q=45.4654398,9.1789528",
      "lat": 45.4654398,
      "lng": 9.1789528,
      "source": "osm"
    },
    {
      "id": "m204612496",
      "nom": "Basilica di San Calimero",
      "type": "Mosquée",
      "adresse": "",
      "description": "Lieu de prière (OpenStreetMap).",
      "mapsUrl": "https://maps.google.com/?q=45.4566291,9.1931481",
      "lat": 45.4566291,
      "lng": 9.1931481,
      "source": "osm"
    },
    {
      "id": "m27596084",
      "nom": "Chiesa di San Pietro in Gessate",
      "type": "Mosquée",
      "adresse": "",
      "description": "Lieu de prière (OpenStreetMap).",
      "mapsUrl": "https://maps.google.com/?q=45.4631012,9.2014986",
      "lat": 45.4631012,
      "lng": 9.2014986,
      "source": "osm"
    },
    {
      "id": "m190036557",
      "nom": "San Bernardino alle Monache",
      "type": "Mosquée",
      "adresse": "",
      "description": "Lieu de prière (OpenStreetMap).",
      "mapsUrl": "https://maps.google.com/?q=45.4602702,9.1785601",
      "lat": 45.4602702,
      "lng": 9.1785601,
      "source": "osm"
    },
    {
      "id": "m42106021",
      "nom": "Chiesa parrocchiale di San Marco",
      "type": "Mosquée",
      "adresse": "",
      "description": "Lieu de prière (OpenStreetMap).",
      "mapsUrl": "https://maps.google.com/?q=45.4733152,9.1889557",
      "lat": 45.4733152,
      "lng": 9.1889557,
      "source": "osm"
    },
    {
      "id": "m164070432",
      "nom": "Chiesa di Santa Maria della Passione",
      "type": "Mosquée",
      "adresse": "",
      "description": "Lieu de prière (OpenStreetMap).",
      "mapsUrl": "https://maps.google.com/?q=45.4652561,9.2037772",
      "lat": 45.4652561,
      "lng": 9.2037772,
      "source": "osm"
    },
    {
      "id": "m38000599",
      "nom": "Basilica di San Simpliciano",
      "type": "Mosquée",
      "adresse": "",
      "description": "Lieu de prière (OpenStreetMap).",
      "mapsUrl": "https://maps.google.com/?q=45.473986,9.1846892",
      "lat": 45.473986,
      "lng": 9.1846892,
      "source": "osm"
    },
    {
      "id": "m165882138",
      "nom": "Basilica di Sant'Eustorgio",
      "type": "Mosquée",
      "adresse": "",
      "description": "Lieu de prière (OpenStreetMap).",
      "mapsUrl": "https://maps.google.com/?q=45.4539651,9.1814953",
      "lat": 45.4539651,
      "lng": 9.1814953,
      "source": "osm"
    },
    {
      "id": "m376051694",
      "nom": "Basilica di San Vincenzo in Prato",
      "type": "Mosquée",
      "adresse": "",
      "description": "Lieu de prière (OpenStreetMap).",
      "mapsUrl": "https://maps.google.com/?q=45.457663,9.1739902",
      "lat": 45.457663,
      "lng": 9.1739902,
      "source": "osm"
    },
    {
      "id": "m42220363",
      "nom": "Chiesa di Santa Maria Incoronata",
      "type": "Mosquée",
      "adresse": "",
      "description": "Lieu de prière (OpenStreetMap).",
      "mapsUrl": "https://maps.google.com/?q=45.4794465,9.1866131",
      "lat": 45.4794465,
      "lng": 9.1866131,
      "source": "osm"
    },