{
 "slug": "milan",
 "nom": "Milan",
 "pays": "Italie",
 "pays_slug": "italie",
 "continent": "Europe",
 "region": "Italie",
 "coordonnees": {
  "lat": 45.4642,
  "lng": 9.19
 },
 "codeISO": "IT",
 "score_halal": 3.4,
 "halalScore": 6.8,
 "villeNonMusulmane": true,
 "description": "Capitale italienne de la mode et du design. Communauté musulmane active autour de Porta Venezia et Via Padova, avec une offre halal en croissance et plusieurs lieux de prière.",
 "metaDescription": "Capitale italienne de la mode et du design. Communauté musulmane active autour de Porta Venezia et Via Padova, avec une offre halal en croissance et plusieurs lieux de prière.",
 "image": "https://upload.wikimedia.org/wikipedia/commons/6/60/Milan.Proper.Wikipedia.Image.jpg",
 "image_hero": "https://upload.wikimedia.org/wikipedia/commons/6/60/Milan.Proper.Wikipedia.Image.jpg",
 "imageCredit": "Wikimedia Commons",
 "statistiques": {
  "restaurants_halal": 60,
  "mosquees": 32,
  "hotels": 40
 },
 "infoPratique": {
  "transport": "Accessible par avion et transports en commun locaux.",
  "meilleureEpoque": "Printemps et automne (climat tempéré).",
  "conseilHalal": "Ville non-musulmane : repérez les restaurants halal certifiés et les mosquées via l'application avant votre visite."
 },
 "tags": [
  "halal",
  "ville non-musulmane",
  "europe"
 ],
 "restaurants": [
  {
   "nom": "Turkish Kebap-Pizza",
   "type": "kebab, falafel, pizza",
   "priceRange": "€€",
   "mapsUrl": "https://maps.google.com/?q=45.4763156,9.2062089",
   "lat": 45.4763156,
   "lng": 9.2062089,
   "halalConfidence": "yes",
   "source": "osm"
  },
  {
   "nom": "Tandoori Kebab",
   "type": "pakistani",
   "priceRange": "€€",
   "mapsUrl": "https://maps.google.com/?q=45.482356,9.207048",
   "lat": 45.482356,
   "lng": 9.207048,
   "halalConfidence": "only",
   "source": "osm"
  },
  {
   "nom": "Kashmir Grill",
   "type": "indian",
   "priceRange": "€€",
   "mapsUrl": "https://maps.google.com/?q=45.4828821,9.2092508",
   "lat": 45.4828821,
   "lng": 9.2092508,
   "halalConfidence": "yes",
   "source": "osm"
  },
  {
   "nom": "Gandhi",
   "type": "indian",
   "priceRange": "€€",
   "mapsUrl": "https://maps.google.com/?q=45.4830203,9.209645",
   "lat": 45.4830203,
   "lng": 9.209645,
   "halalConfidence": "yes",
   "source": "osm"
  },
  {
   "nom": "Sofra",
   "type": "turkish",
   "priceRange": "€€",
   "mapsUrl": "https://maps.google.com/?q=45.4860035,9.2325328",
   "lat": 45.4860035,
   "lng": 9.2325328,
   "halalConfidence": "only",
   "source": "osm"
  },
  {
   "nom": "Istanbul Ayasofia",
   "type": "kebab, turkish, pizza",
   "priceRange": "€€",
   "mapsUrl": "https://maps.google.com/?q=45.5005921,9.2212598",
   "lat": 45.5005921,
   "lng": 9.2212598,
   "halalConfidence": "yes",
   "source": "osm"
  },
  {
   "nom": "ILK",
   "type": "kebab",
   "priceRange": "€€",
   "mapsUrl": "https://maps.google.com/?q=45.4646248,9.1871737",
   "lat": 45.4646248,
   "lng": 9.1871737,
   "halalConfidence": "likely",
   "source": "osm"
  },
  {
   "nom": "Pizzeria Grill",
   "type": "pizza, kebab",
   "priceRange": "€€",
   "mapsUrl": "https://maps.google.com/?q=45.4610477,9.1844691",
   "lat": 45.4610477,
   "lng": 9.1844691,
   "halalConfidence": "likely",
   "source": "osm"
  },
  {
   "nom": "Istanbul Ayasofya",
   "type": "kebab, pizza, falafel",
   "priceRange": "€€",
   "mapsUrl": "https://maps.google.com/?q=45.4675903,9.1825326",
   "lat": 45.4675903,
   "lng": 9.1825326,
   "halalConfidence": "likely",
   "source": "osm"
  },
  {
   "nom": "Bali’s turkish kebap",
   "type": "kebab, pizza",
   "priceRange": "€€",
   "mapsUrl": "https://maps.google.com/?q=45.4596731,9.1813469",
   "lat": 45.4596731,
   "lng": 9.1813469,
   "halalConfidence": "likely",
   "source": "osm"
  },
  {
   "nom": "Pasa Döner",
   "type": "kebab",
   "priceRange": "€€",
   "mapsUrl": "https://maps.google.com/?q=45.4669234,9.2004141",
   "lat": 45.4669234,
   "lng": 9.2004141,
   "halalConfidence": "likely",
   "source": "osm"
  },
  {
   "nom": "Noor",
   "type": "lebanese",
   "priceRange": "€€",
   "mapsUrl": "https://maps.google.com/?q=45.4715844,9.1849653",
   "lat": 45.4715844,
   "lng": 9.1849653,
   "halalConfidence": "likely",
   "source": "osm"
  },
  {
   "nom": "Giza",
   "type": "sandwich, egyptian, dessert",
   "priceRange": "€€",
   "mapsUrl": "https://maps.google.com/?q=45.4567517,9.1809077",
   "lat": 45.4567517,
   "lng": 9.1809077,
   "halalConfidence": "likely",
   "source": "osm"
  },
  {
   "nom": "Turkish kebap pizza",
   "type": "kebab",
   "priceRange": "€€",
   "mapsUrl": "https://maps.google.com/?q=45.4592892,9.1778786",
   "lat": 45.4592892,
   "lng": 9.1778786,
   "halalConfidence": "likely",
   "source": "osm"
  },
  {
   "nom": "Champion Turkish Kebap",
   "type": "kebab",
   "priceRange": "€€",
   "mapsUrl": "https://maps.google.com/?q=45.4559198,9.1808111",
   "lat": 45.4559198,
   "lng": 9.1808111,
   "halalConfidence": "likely",
   "source": "osm"
  },
  {
   "nom": "Milano Kebap house",
   "type": "turkish",
   "priceRange": "€€",
   "mapsUrl": "https://maps.google.com/?q=45.4754953,9.1844002",
   "lat": 45.4754953,
   "lng": 9.1844002,
   "halalConfidence": "likely",
   "source": "osm"
  },
  {
   "nom": "Turkish Kebab Pizzeria",
   "type": "kebab, pizza",
   "priceRange": "€€",
   "mapsUrl": "https://maps.google.com/?q=45.4758825,9.193887",
   "lat": 45.4758825,
   "lng": 9.193887,
   "halalConfidence": "likely",
   "source": "osm"
  },
  {
   "nom": "Pizzeria Sant'Ambrogio",
   "type": "pizza, kebab",
   "priceRange": "€€",
   "mapsUrl": "https://maps.google.com/?q=45.4593705,9.1739023",
   "lat": 45.4593705,
   "lng": 9.1739023,
   "halalConfidence": "likely",
   "source": "osm"
  },
  {
   "nom": "Shalto",
   "type": "persian",
   "priceRange": "€€",
   "mapsUrl": "https://maps.google.com/?q=45.4525567,9.1824511",
   "lat": 45.4525567,
   "lng": 9.1824511,
   "halalConfidence": "likely",
   "source": "osm"
  },
  {
   "nom": "Pitador",
   "type": "lebanese",
   "priceRange": "€€",
   "mapsUrl": "https://maps.google.com/?q=45.4531572,9.1797425",
   "lat": 45.4531572,
   "lng": 9.1797425,
   "halalConfidence": "likely",
   "source": "osm"
  },
  {
   "nom": "Ceci",
   "type": "lebanese",
   "priceRange": "€€",
   "mapsUrl": "https://maps.google.com/?q=45.4523134,9.1817371",
   "lat": 45.4523134,
   "lng": 9.1817371,
   "halalConfidence": "likely",
   "source": "osm"
  },
  {
   "nom": "Cose Turche",
   "type": "turkish",
   "priceRange": "€€",
   "mapsUrl": "https://maps.google.com/?q=45.4571373,9.1740487",
   "lat": 45.4571373,
   "lng": 9.1740487,
   "halalConfidence": "likely",
   "source": "osm"
  },
  {
   "nom": "Mondial Kebap",
   "type": "turkish",
   "priceRange": "€€",
   "mapsUrl": "https://maps.google.com/?q=45.4774598,9.1854387",
   "lat": 45.4774598,
   "lng": 9.1854387,
   "halalConfidence": "likely",
   "source": "osm"
  },
  {
   "nom": "Senza Cipolla",
   "type": "pizza, kebab",
   "priceRange": "€€",
   "mapsUrl": "https://maps.google.com/?q=45.4508455,9.1958761",
   "lat": 45.4508455,
   "lng": 9.1958761,
   "halalConfidence": "likely",
   "source": "osm"
  },
  {
   "nom": "Kebhouze",
   "type": "kebab",
   "priceRange": "€€",
   "mapsUrl": "https://maps.google.com/?q=45.461258,9.2095498",
   "lat": 45.461258,
   "lng": 9.2095498,
   "halalConfidence": "likely",
   "source": "osm"
  },
  {
   "nom": "Le Presine Volanti",
   "type": "kebab, tapas, soup",
   "priceRange": "€€",
   "mapsUrl": "https://maps.google.com/?q=45.4610738,9.2097855",
   "lat": 45.4610738,
   "lng": 9.2097855,
   "halalConfidence": "likely",
   "source": "osm"
  },
  {
   "nom": "Mido",
   "type": "arab",
   "priceRange": "€€",
   "mapsUrl": "https://maps.google.com/?q=45.4510942,9.1819458",
   "lat": 45.4510942,
   "lng": 9.1819458,
   "halalConfidence": "likely",
   "source": "osm"
  },
  {
   "nom": "Papiniano pizzeria kebab",
   "type": "kebab",
   "priceRange": "€€",
   "mapsUrl": "https://maps.google.com/?q=45.4566932,9.1725827",
   "lat": 45.4566932,
   "lng": 9.1725827,
   "halalConfidence": "likely",
   "source": "osm"
  },
  {
   "nom": "Mezè",
   "type": "lebanese",
   "priceRange": "€€",
   "mapsUrl": "https://maps.google.com/?q=45.4659757,9.2105595",
   "lat": 45.4659757,
   "lng": 9.2105595,
   "halalConfidence": "likely",
   "source": "osm"
  },
  {
   "nom": "Nay",
   "type": "lebanese",
   "priceRange": "€€",
   "mapsUrl": "https://maps.google.com/?q=45.4661844,9.2111456",
   "lat": 45.4661844,
   "lng": 9.2111456,
   "halalConfidence": "likely",
   "source": "osm"
  },
  {
   "nom": "Pizzeria Kebab Santa Maria",
   "type": "kebab, pizza",
   "priceRange": "€€",
   "mapsUrl": "https://maps.google.com/?q=45.460573,9.2111549",
   "lat": 45.460573,
   "lng": 9.2111549,
   "halalConfidence": "likely",
   "source": "osm"
  },
  {
   "nom": "Istambul Kebab Pizza",
   "type": "kebab, pizza",
   "priceRange": "€€",
   "mapsUrl": "https://maps.google.com/?q=45.4549673,9.1724154",
   "lat": 45.4549673,
   "lng": 9.1724154,
   "halalConfidence": "likely",
   "source": "osm"
  },
  {
   "nom": "Pizza Kebab San Gottardo",
   "type": "pizza, kebab",
   "priceRange": "€€",
   "mapsUrl": "https://maps.google.com/?q=45.4502724,9.1800732",
   "lat": 45.4502724,
   "lng": 9.1800732,
   "halalConfidence": "likely",
   "source": "osm"
  },
  {
   "nom": "CiccioMatto1",
   "type": "kebab",
   "priceRange": "€€",
   "mapsUrl": "https://maps.google.com/?q=45.4484074,9.1866931",
   "lat": 45.4484074,
   "lng": 9.1866931,
   "halalConfidence": "likely",
   "source": "osm"
  },
  {
   "nom": "Pizzeria Naviglio",
   "type": "kebab, pizza",
   "priceRange": "€€",
   "mapsUrl": "https://maps.google.com/?q=45.4517353,9.1754513",
   "lat": 45.4517353,
   "lng": 9.1754513,
   "halalConfidence": "likely",
   "source": "osm"
  },
  {
   "nom": "City Istanbul",
   "type": "kebab",
   "priceRange": "€€",
   "mapsUrl": "https://maps.google.com/?q=45.4706073,9.2113892",
   "lat": 45.4706073,
   "lng": 9.2113892,
   "halalConfidence": "likely",
   "source": "osm"
  },
  {
   "nom": "pizzeria kebap",
   "type": "kebab",
   "priceRange": "€€",
   "mapsUrl": "https://maps.google.com/?q=45.4578039,9.1685789",
   "lat": 45.4578039,
   "lng": 9.1685789,
   "halalConfidence": "likely",
   "source": "osm"
  },
  {
   "nom": "Amina",
   "type": "moroccan",
   "priceRange": "€€",
   "mapsUrl": "https://maps.google.com/?q=45.4488631,9.1995304",
   "lat": 45.4488631,
   "lng": 9.1995304,
   "halalConfidence": "likely",
   "source": "osm"
  },
  {
   "nom": "Davet",
   "type": "kebab, pizza",
   "priceRange": "€€",
   "mapsUrl": "https://maps.google.com/?q=45.4538366,9.1703474",
   "lat": 45.4538366,
   "lng": 9.1703474,
   "halalConfidence": "likely",
   "source": "osm"
  },
  {
   "nom": "Kebhouze",
   "type": "kebab",
   "priceRange": "€€",
   "mapsUrl": "https://maps.google.com/?q=45.4530522,9.1712083",
   "lat": 45.4530522,
   "lng": 9.1712083,
   "halalConfidence": "likely",
   "source": "osm"
  },
  {
   "nom": "Wadi Rum Viale Tunisia",
   "type": "lebanese",
   "priceRange": "€€",
   "mapsUrl": "https://maps.google.com/?q=45.4781611,9.2046771",
   "lat": 45.4781611,
   "lng": 9.2046771,
   "halalConfidence": "likely",
   "source": "osm"
  },
  {
   "nom": "Ryad Yacout",
   "type": "moroccan",
   "priceRange": "€€",
   "mapsUrl": "https://maps.google.com/?q=45.457869,9.2132536",
   "lat": 45.457869,
   "lng": 9.2132536,
   "halalConfidence": "likely",
   "source": "osm"
  },
  {
   "nom": "Persianissimo",
   "type": "persian",
   "priceRange": "€€",
   "mapsUrl": "https://maps.google.com/?q=45.4516519,9.2074178",
   "lat": 45.4516519,
   "lng": 9.2074178,
   "halalConfidence": "likely",
   "source": "osm"
  },
  {
   "nom": "Lyr",
   "type": "lebanese",
   "priceRange": "€€",
   "mapsUrl": "https://maps.google.com/?q=45.4511964,9.1729152",
   "lat": 45.4511964,
   "lng": 9.1729152,
   "halalConfidence": "likely",
   "source": "osm"
  },
  {
   "nom": "Kebest",
   "type": "kebab",
   "priceRange": "€€",
   "mapsUrl": "https://maps.google.com/?q=45.4552967,9.1680365",
   "lat": 45.4552967,
   "lng": 9.1680365,
   "halalConfidence": "likely",
   "source": "osm"
  },
  {
   "nom": "La Perla",
   "type": "kebab",
   "priceRange": "€€",
   "mapsUrl": "https://maps.google.com/?q=45.4484296,9.2030224",
   "lat": 45.4484296,
   "lng": 9.2030224,
   "halalConfidence": "likely",
   "source": "osm"
  },
  {
   "nom": "Le Petit Prince",
   "type": "pizza, kebab",
   "priceRange": "€€",
   "mapsUrl": "https://maps.google.com/?q=45.481922,9.1834987",
   "lat": 45.481922,
   "lng": 9.1834987,
   "halalConfidence": "likely",
   "source": "osm"
  },
  {
   "nom": "Riad Majorelle",
   "type": "moroccan",
   "priceRange": "€€",
   "mapsUrl": "https://maps.google.com/?q=45.4800755,9.2031723",
   "lat": 45.4800755,
   "lng": 9.2031723,
   "halalConfidence": "likely",
   "source": "osm"
  },
  {
   "nom": "Mevlana Pizza Kebab",
   "type": "kebab, pizza",
   "priceRange": "€€",
   "mapsUrl": "https://maps.google.com/?q=45.4551267,9.167065",
   "lat": 45.4551267,
   "lng": 9.167065,
   "halalConfidence": "likely",
   "source": "osm"
  },
  {
   "nom": "Mekan",
   "type": "kebab",
   "priceRange": "€€",
   "mapsUrl": "https://maps.google.com/?q=45.4822823,9.1821689",
   "lat": 45.4822823,
   "lng": 9.1821689,
   "halalConfidence": "likely",
   "source": "osm"
  },
  {
   "nom": "NUN - taste of middle east",
   "type": "international, arab, oriental, asian, mediterranean, kebab, falafel, lebanese",
   "priceRange": "€€",
   "mapsUrl": "https://maps.google.com/?q=45.4776453,9.2091915",
   "lat": 45.4776453,
   "lng": 9.2091915,
   "halalConfidence": "likely",
   "source": "osm"
  },
  {
   "nom": "Due Tradizioni",
   "type": "italian pizza, lebanese",
   "priceRange": "€€",
   "mapsUrl": "https://maps.google.com/?q=45.4473424,9.1767349",
   "lat": 45.4473424,
   "lng": 9.1767349,
   "halalConfidence": "likely",
   "source": "osm"
  },
  {
   "nom": "Falastar",
   "type": "lebanese, pita",
   "priceRange": "€€",
   "mapsUrl": "https://maps.google.com/?q=45.4531894,9.1670979",
   "lat": 45.4531894,
   "lng": 9.1670979,
   "halalConfidence": "likely",
   "source": "osm"
  },
  {
   "nom": "Fairouz",
   "type": "lebanese",
   "priceRange": "€€",
   "mapsUrl": "https://maps.google.com/?q=45.4830461,9.197284",
   "lat": 45.4830461,
   "lng": 9.197284,
   "halalConfidence": "likely",
   "source": "osm"
  },
  {
   "nom": "Il Moro 2",
   "type": "pizza, italian, egyptian",
   "priceRange": "€€",
   "mapsUrl": "https://maps.google.com/?q=45.4568863,9.1639985",
   "lat": 45.4568863,
   "lng": 9.1639985,
   "halalConfidence": "likely",
   "source": "osm"
  },
  {
   "nom": "Istanbul Meda",
   "type": "kebab, mediterranean, turkish",
   "priceRange": "€€",
   "mapsUrl": "https://maps.google.com/?q=45.4457815,9.1792254",
   "lat": 45.4457815,
   "lng": 9.1792254,
   "halalConfidence": "likely",
   "source": "osm"
  },
  {
   "nom": "Suqsu",
   "type": "arab",
   "priceRange": "€€",
   "mapsUrl": "https://maps.google.com/?q=45.4463955,9.176963",
   "lat": 45.4463955,
   "lng": 9.176963,
   "halalConfidence": "likely",
   "source": "osm"
  },
  {
   "nom": "Kebabbar",
   "type": "kebab",
   "priceRange": "€€",
   "mapsUrl": "https://maps.google.com/?q=45.4620084,9.2190588",
   "lat": 45.4620084,
   "lng": 9.2190588,
   "halalConfidence": "likely",
   "source": "osm"
  },
  {
   "nom": "Fly Pizza Kebab",
   "type": "kebab, pizza",
   "priceRange": "€€",
   "mapsUrl": "https://maps.google.com/?q=45.4453522,9.1779885",
   "lat": 45.4453522,
   "lng": 9.1779885,
   "halalConfidence": "likely",
   "source": "osm"
  },
  {
   "nom": "Kebhouze",
   "type": "kebab",
   "priceRange": "€€",
   "mapsUrl": "https://maps.google.com/?q=45.481093,9.1728847",
   "lat": 45.481093,
   "lng": 9.1728847,
   "halalConfidence": "likely",
   "source": "osm"
  }
 ],
 "hotels": [
  {
   "nom": "TownHouse Duomo Milano",
   "categorie": "Hôtel",
   "priceRange": "€€€€",
   "score": 5,
   "mapsUrl": "https://maps.google.com/?q=45.4649448,9.1893721",
   "lat": 45.4649448,
   "lng": 9.1893721,
   "halalFriendly": false,
   "bookingUrl": "https://duomo.townhousehotels.com/",
   "source": "osm"
  },
  {
   "nom": "Room Mate Giulia Hotel",
   "categorie": "Hôtel",
   "priceRange": "€€€€",
   "score": 4,
   "mapsUrl": "https://maps.google.com/?q=45.4651195,9.1893543",
   "lat": 45.4651195,
   "lng": 9.1893543,
   "halalFriendly": false,
   "bookingUrl": "https://room-matehotels.com/en/giulia/",
   "source": "osm"
  },
  {
   "nom": "Sheva Boutique Hotel",
   "categorie": "Hôtel",
   "priceRange": "€",
   "score": 1,
   "mapsUrl": "https://maps.google.com/?q=45.463225,9.1887883",
   "lat": 45.463225,
   "lng": 9.1887883,
   "halalFriendly": false,
   "bookingUrl": "https://maps.google.com/?q=45.463225,9.1887883",
   "source": "osm"
  },
  {
   "nom": "ODSweet Hotel",
   "categorie": "Hôtel",
   "priceRange": "€€€€",
   "score": 4,
   "mapsUrl": "https://maps.google.com/?q=45.4634714,9.1884012",
   "lat": 45.4634714,
   "lng": 9.1884012,
   "halalFriendly": false,
   "bookingUrl": "https://www.odsweethotel.com/",
   "source": "osm"
  },
  {
   "nom": "Straf Hotel",
   "categorie": "Hôtel",
   "priceRange": "€€€€",
   "score": 4,
   "mapsUrl": "https://maps.google.com/?q=45.465228,9.1912446",
   "lat": 45.465228,
   "lng": 9.1912446,
   "halalFriendly": false,
   "bookingUrl": "https://www.straf.it/",
   "source": "osm"
  },
  {
   "nom": "Unahotels Maison Milano",
   "categorie": "Hôtel",
   "priceRange": "€€€€",
   "score": 4,
   "mapsUrl": "https://maps.google.com/?q=45.4633181,9.1883932",
   "lat": 45.4633181,
   "lng": 9.1883932,
   "halalFriendly": false,
   "bookingUrl": "https://www.gruppouna.it/esperienze/maison-milano",
   "source": "osm"
  },
  {
   "nom": "Apart Hotel dei Mercanti",
   "categorie": "Appartement",
   "priceRange": "€€",
   "mapsUrl": "https://maps.google.com/?q=45.464318,9.1878906",
   "lat": 45.464318,
   "lng": 9.1878906,
   "halalFriendly": false,
   "bookingUrl": "https://www.aparthoteldeimercanti.com/",
   "source": "osm"
  },
  {
   "nom": "Hotel Rio",
   "categorie": "Hôtel",
   "priceRange": "€€€",
   "score": 3,
   "mapsUrl": "https://maps.google.com/?q=45.4631056,9.1883935",
   "lat": 45.4631056,
   "lng": 9.1883935,
   "halalFriendly": false,
   "bookingUrl": "https://hotelriomilano.it/",
   "source": "osm"
  },
  {
   "nom": "Galleria Vik Milano",
   "categorie": "Hôtel",
   "priceRange": "€€€€",
   "score": 5,
   "mapsUrl": "https://maps.google.com/?q=45.4657526,9.1893633",
   "lat": 45.4657526,
   "lng": 9.1893633,
   "halalFriendly": false,
   "bookingUrl": "https://galleriavikmilano.com/it/",
   "source": "osm"
  },
  {
   "nom": "Hotel La Madonnina",
   "categorie": "Hôtel",
   "priceRange": "€€€",
   "score": 3,
   "mapsUrl": "https://maps.google.com/?q=45.4630365,9.1883675",
   "lat": 45.4630365,
   "lng": 9.1883675,
   "halalFriendly": false,
   "bookingUrl": "https://www.hotellamadonninamilano.it/",
   "source": "osm"
  },
  {
   "nom": "The Gray",
   "categorie": "Hôtel",
   "priceRange": "€€€€",
   "score": 5,
   "mapsUrl": "https://maps.google.com/?q=45.4655497,9.1913912",
   "lat": 45.4655497,
   "lng": 9.1913912,
   "halalFriendly": false,
   "bookingUrl": "https://www.sinahotels.com/en/h/sina-the-gray-milan/",
   "source": "osm"
  },
  {
   "nom": "Speronari Suites",
   "categorie": "Appartement",
   "priceRange": "€€",
   "mapsUrl": "https://maps.google.com/?q=45.4628775,9.188091",
   "lat": 45.4628775,
   "lng": 9.188091,
   "halalFriendly": false,
   "bookingUrl": "https://www.speronarisuites.it/",
   "source": "osm"
  },
  {
   "nom": "The Street Milano Duomo",
   "categorie": "Hôtel",
   "priceRange": "€€€€",
   "score": 4,
   "mapsUrl": "https://maps.google.com/?q=45.4656854,9.1917188",
   "lat": 45.4656854,
   "lng": 9.1917188,
   "halalFriendly": false,
   "bookingUrl": "https://www.thestreetmilano.com/",
   "source": "osm"
  },
  {
   "nom": "Victor Boutique Hotel",
   "categorie": "Hôtel",
   "priceRange": "€",
   "score": 1,
   "mapsUrl": "https://maps.google.com/?q=45.4638788,9.1870608",
   "lat": 45.4638788,
   "lng": 9.1870608,
   "halalFriendly": false,
   "bookingUrl": "https://www.victorboutiquehotel.com/",
   "source": "osm"
  },
  {
   "nom": "Matilde Boutique Hotel",
   "categorie": "Hôtel",
   "priceRange": "€€€€",
   "score": 4,
   "mapsUrl": "https://maps.google.com/?q=45.4632726,9.1873133",
   "lat": 45.4632726,
   "lng": 9.1873133,
   "halalFriendly": false,
   "bookingUrl": "https://www.matildeboutiquehotel.it/",
   "source": "osm"
  },
  {
   "nom": "Hotel Spadari al Duomo",
   "categorie": "Hôtel",
   "priceRange": "€€€€",
   "score": 4,
   "mapsUrl": "https://maps.google.com/?q=45.4636231,9.1868743",
   "lat": 45.4636231,
   "lng": 9.1868743,
   "halalFriendly": false,
   "bookingUrl": "https://www.spadarihotel.com/",
   "source": "osm"
  },
  {
   "nom": "Sina de la Ville",
   "categorie": "Hôtel",
   "priceRange": "€€€€",
   "score": 4,
   "mapsUrl": "https://maps.google.com/?q=45.4659559,9.1922395",
   "lat": 45.4659559,
   "lng": 9.1922395,
   "halalFriendly": false,
   "bookingUrl": "https://www.sinahotels.com/en/h/sina-de-la-ville-milan/",
   "source": "osm"
  },
  {
   "nom": "Palazzo Cordusio Gran Meliá",
   "categorie": "Hôtel",
   "priceRange": "€€",
   "mapsUrl": "https://maps.google.com/?q=45.4651551,9.1867772",
   "lat": 45.4651551,
   "lng": 9.1867772,
   "halalFriendly": false,
   "bookingUrl": "https://www.melia.com/it/hotels/italia/milano/palazzo-cordusio-gran-melia",
   "source": "osm"
  },
  {
   "nom": "AHD Rooms",
   "categorie": "Hôtel",
   "priceRange": "€",
   "score": 1,
   "mapsUrl": "https://maps.google.com/?q=45.4652292,9.193271",
   "lat": 45.4652292,
   "lng": 9.193271,
   "halalFriendly": false,
   "bookingUrl": "https://www.aparthotelduomo.com/ahd-rooms/",
   "source": "osm"
  },
  {
   "nom": "M20 Boutique Hotel",
   "categorie": "Hôtel",
   "priceRange": "€€€",
   "score": 3,
   "mapsUrl": "https://maps.google.com/?q=45.4617413,9.1883269",
   "lat": 45.4617413,
   "lng": 9.1883269,
   "halalFriendly": false,
   "bookingUrl": "https://m20milano.com/",
   "source": "osm"
  },
  {
   "nom": "Starhotels Rosa Grand Hotel",
   "categorie": "Hôtel",
   "priceRange": "€€€€",
   "score": 4,
   "mapsUrl": "https://maps.google.com/?q=45.4638794,9.1940241",
   "lat": 45.4638794,
   "lng": 9.1940241,
   "halalFriendly": false,
   "bookingUrl": "https://collezione.starhotels.com/it/i-nostri-hotel/rosa-grand-milano/",
   "source": "osm"
  },
  {
   "nom": "Duomo Hotel & Apartments",
   "categorie": "Appartement",
   "priceRange": "€€",
   "mapsUrl": "https://maps.google.com/?q=45.4659928,9.193166",
   "lat": 45.4659928,
   "lng": 9.193166,
   "halalFriendly": false,
   "bookingUrl": "https://maps.google.com/?q=45.4659928,9.193166",
   "source": "osm"
  },
  {
   "nom": "Heart Milan Apartments",
   "categorie": "Appartement",
   "priceRange": "€€",
   "mapsUrl": "https://maps.google.com/?q=45.4616875,9.1880206",
   "lat": 45.4616875,
   "lng": 9.1880206,
   "halalFriendly": false,
   "bookingUrl": "https://www.heartmilanapartments.com",
   "source": "osm"
  },
  {
   "nom": "Enjoy Duomo",
   "categorie": "Appartement",
   "priceRange": "€€",
   "mapsUrl": "https://maps.google.com/?q=45.4614171,9.1911798",
   "lat": 45.4614171,
   "lng": 9.1911798,
   "halalFriendly": false,
   "bookingUrl": "https://maps.google.com/?q=45.4614171,9.1911798",
   "source": "osm"
  },
  {
   "nom": "The Corner Duomo Hotel",
   "categorie": "Hôtel",
   "priceRange": "€€€€",
   "score": 4,
   "mapsUrl": "https://maps.google.com/?q=45.4668075,9.1920595",
   "lat": 45.4668075,
   "lng": 9.1920595,
   "halalFriendly": false,
   "bookingUrl": "https://www.thecornerduomo.com/",
   "source": "osm"
  },
  {
   "nom": "Missori Suites",
   "categorie": "Maison d'hôtes",
   "priceRange": "€€",
   "mapsUrl": "https://maps.google.com/?q=45.4614088,9.1881281",
   "lat": 45.4614088,
   "lng": 9.1881281,
   "halalFriendly": false,
   "bookingUrl": "https://www.missorisuites.com",
   "source": "osm"
  },
  {
   "nom": "Hotel Nuovo Milano",
   "categorie": "Hôtel",
   "priceRange": "€",
   "score": 1,
   "mapsUrl": "https://maps.google.com/?q=45.4642415,9.19452",
   "lat": 45.4642415,
   "lng": 9.19452,
   "halalFriendly": false,
   "bookingUrl": "https://www.hotelnuovomilan.com/",
   "source": "osm"
  },
  {
   "nom": "Hotel Brunelleschi",
   "categorie": "Hôtel",
   "priceRange": "€€€€",
   "score": 4,
   "mapsUrl": "https://maps.google.com/?q=45.4611333,9.1911546",
   "lat": 45.4611333,
   "lng": 9.1911546,
   "halalFriendly": false,
   "bookingUrl": "https://www.hotelbrunelleschi.net/",
   "source": "osm"
  },
  {
   "nom": "Glamour Apartments Milano",
   "categorie": "Appartement",
   "priceRange": "€€",
   "mapsUrl": "https://maps.google.com/?q=45.4649824,9.1945063",
   "lat": 45.4649824,
   "lng": 9.1945063,
   "halalFriendly": false,
   "bookingUrl": "https://glamour-apartments.hotels-milan.net/it/",
   "source": "osm"
  },
  {
   "nom": "Hotel Gran Duca di York",
   "categorie": "Hôtel",
   "priceRange": "€€€",
   "score": 3,
   "mapsUrl": "https://maps.google.com/?q=45.4636285,9.1853083",
   "lat": 45.4636285,
   "lng": 9.1853083,
   "halalFriendly": false,
   "bookingUrl": "https://www.ducadiyork.com/",
   "source": "osm"
  },
  {
   "nom": "Loft suite Milano in Duomo",
   "categorie": "Appartement",
   "priceRange": "€€",
   "mapsUrl": "https://maps.google.com/?q=45.4618569,9.1865971",
   "lat": 45.4618569,
   "lng": 9.1865971,
   "halalFriendly": false,
   "bookingUrl": "https://airbtc.online/properties/loft-suite-milano-in-duomo/",
   "source": "osm"
  },
  {
   "nom": "Hotel dei Cavalieri",
   "categorie": "Hôtel",
   "priceRange": "€€€€",
   "score": 4,
   "mapsUrl": "https://maps.google.com/?q=45.460908,9.1886889",
   "lat": 45.460908,
   "lng": 9.1886889,
   "halalFriendly": false,
   "bookingUrl": "https://www.hoteldeicavalieri.com/",
   "source": "osm"
  },
  {
   "nom": "Hotel The Square Milano Duomo",
   "categorie": "Hôtel",
   "priceRange": "€€€€",
   "score": 4,
   "mapsUrl": "https://maps.google.com/?q=45.4607835,9.1893098",
   "lat": 45.4607835,
   "lng": 9.1893098,
   "halalFriendly": false,
   "bookingUrl": "https://www.thesquaremilano.com/",
   "source": "osm"
  },
  {
   "nom": "Hotel Ambasciatori",
   "categorie": "Hôtel",
   "priceRange": "€€€€",
   "score": 4,
   "mapsUrl": "https://maps.google.com/?q=45.4644571,9.1952874",
   "lat": 45.4644571,
   "lng": 9.1952874,
   "halalFriendly": false,
   "bookingUrl": "https://ih-hotels.com/it/i-nostri-aberghi/ih-hotels-milano-ambasciatori.html",
   "source": "osm"
  },
  {
   "nom": "Clerici Boutique Hotel",
   "categorie": "Hôtel",
   "priceRange": "€€€€",
   "score": 4,
   "mapsUrl": "https://maps.google.com/?q=45.467393,9.186805",
   "lat": 45.467393,
   "lng": 9.186805,
   "halalFriendly": false,
   "bookingUrl": "https://www.clericiboutiquehotel.it/",
   "source": "osm"
  },
  {
   "nom": "Hotel Star",
   "categorie": "Hôtel",
   "priceRange": "€€€",
   "score": 3,
   "mapsUrl": "https://maps.google.com/?q=45.4673954,9.186184",
   "lat": 45.4673954,
   "lng": 9.186184,
   "halalFriendly": false,
   "bookingUrl": "https://www.hotelstar.it/",
   "source": "osm"
  },
  {
   "nom": "Galileo",
   "categorie": "Hôtel",
   "priceRange": "€€€€",
   "score": 4,
   "mapsUrl": "https://maps.google.com/?q=45.4642102,9.1961443",
   "lat": 45.4642102,
   "lng": 9.1961443,
   "halalFriendly": false,
   "bookingUrl": "https://www.galileohotelmilan.com/italiano/",
   "source": "osm"
  },
  {
   "nom": "The Place - Suite Manzoni",
   "categorie": "Appartement",
   "priceRange": "€€",
   "mapsUrl": "https://maps.google.com/?q=45.4686296,9.1904128",
   "lat": 45.4686296,
   "lng": 9.1904128,
   "halalFriendly": false,
   "bookingUrl": "http://www.the-place.it",
   "source": "osm"
  },
  {
   "nom": "San Pietro all'Orto 6",
   "categorie": "Appartement",
   "priceRange": "€€",
   "mapsUrl": "https://maps.google.com/?q=45.4661574,9.1957087",
   "lat": 45.4661574,
   "lng": 9.1957087,
   "halalFriendly": false,
   "bookingUrl": "https://www.allegroitalia.it/struttura/milano-centro/",
   "source": "osm"
  },
  {
   "nom": "Santa Marta Suites",
   "categorie": "Hôtel",
   "priceRange": "€€€€",
   "score": 4,
   "mapsUrl": "https://maps.google.com/?q=45.4631498,9.1836214",
   "lat": 45.4631498,
   "lng": 9.1836214,
   "halalFriendly": false,
   "bookingUrl": "http://santamartasuites.com/",
   "source": "osm"
  }
 ],
 "mosqueesPrincipales": [
  {
   "id": "m204329261",
   "nom": "Chiesa di San Gottardo in Corte",
   "type": "Mosquée",
   "adresse": "",
   "description": "Lieu de prière (OpenStreetMap).",
   "mapsUrl": "https://maps.google.com/?q=45.4627934,9.191938",
   "lat": 45.4627934,
   "lng": 9.191938,
   "source": "osm"
  },
  {
   "id": "m45671470",
   "nom": "Santa Maria presso San Satiro",
   "type": "Mosquée",
   "adresse": "",
   "description": "Lieu de prière (OpenStreetMap).",
   "mapsUrl": "https://maps.google.com/?q=45.4627033,9.1877699",
   "lat": 45.4627033,
   "lng": 9.1877699,
   "source": "osm"
  },
  {
   "id": "m23227442",
   "nom": "Chiesa di San Fedele",
   "type": "Mosquée",
   "adresse": "",
   "description": "Lieu de prière (OpenStreetMap).",
   "mapsUrl": "https://maps.google.com/?q=45.4667518,9.1915661",
   "lat": 45.4667518,
   "lng": 9.1915661,
   "source": "osm"
  },
  {
   "id": "m39349468",
   "nom": "Chiesa di San Bernardino alle Ossa",
   "type": "Mosquée",
   "adresse": "",
   "description": "Lieu de prière (OpenStreetMap).",
   "mapsUrl": "https://maps.google.com/?q=45.4626047,9.1955551",
   "lat": 45.4626047,
   "lng": 9.1955551,
   "source": "osm"
  },
  {
   "id": "m44601409",
   "nom": "Basilica di San Carlo al Corso",
   "type": "Mosquée",
   "adresse": "",
   "description": "Lieu de prière (OpenStreetMap).",
   "mapsUrl": "https://maps.google.com/?q=45.4662872,9.1961842",
   "lat": 45.4662872,
   "lng": 9.1961842,
   "source": "osm"
  },
  {
   "id": "m24971631",
   "nom": "Basilica San Nazaro in Brolo",
   "type": "Mosquée",
   "adresse": "",
   "description": "Lieu de prière (OpenStreetMap).",
   "mapsUrl": "https://maps.google.com/?q=45.4587606,9.192706",
   "lat": 45.4587606,
   "lng": 9.192706,
   "source": "osm"
  },
  {
   "id": "m44448850",
   "nom": "Basilica di San Babila",
   "type": "Mosquée",
   "adresse": "",
   "description": "Lieu de prière (OpenStreetMap).",
   "mapsUrl": "https://maps.google.com/?q=45.4669666,9.1983716",
   "lat": 45.4669666,
   "lng": 9.1983716,
   "source": "osm"
  },
  {
   "id": "m43705671",
   "nom": "Chiesa di Santa Maria del Carmine",
   "type": "Mosquée",
   "adresse": "",
   "description": "Lieu de prière (OpenStreetMap).",
   "mapsUrl": "https://maps.google.com/?q=45.4704529,9.1860185",
   "lat": 45.4704529,
   "lng": 9.1860185,
   "source": "osm"
  },
  {
   "id": "m46103655",
   "nom": "San Maurizio al Monastero Maggiore",
   "type": "Mosquée",
   "adresse": "",
   "description": "Lieu de prière (OpenStreetMap).",
   "mapsUrl": "https://maps.google.com/?q=45.4654398,9.1789528",
   "lat": 45.4654398,
   "lng": 9.1789528,
   "source": "osm"
  },
  {
   "id": "m204612496",
   "nom": "Basilica di San Calimero",
   "type": "Mosquée",
   "adresse": "",
   "description": "Lieu de prière (OpenStreetMap).",
   "mapsUrl": "https://maps.google.com/?q=45.4566291,9.1931481",
   "lat": 45.4566291,
   "lng": 9.1931481,
   "source": "osm"
  },
  {
   "id": "m27596084",
   "nom": "Chiesa di San Pietro in Gessate",
   "type": "Mosquée",
   "adresse": "",
   "description": "Lieu de prière (OpenStreetMap).",
   "mapsUrl": "https://maps.google.com/?q=45.4631012,9.2014986",
   "lat": 45.4631012,
   "lng": 9.2014986,
   "source": "osm"
  },
  {
   "id": "m190036557",
   "nom": "San Bernardino alle Monache",
   "type": "Mosquée",
   "adresse": "",
   "description": "Lieu de prière (OpenStreetMap).",
   "mapsUrl": "https://maps.google.com/?q=45.4602702,9.1785601",
   "lat": 45.4602702,
   "lng": 9.1785601,
   "source": "osm"
  },
  {
   "id": "m42106021",
   "nom": "Chiesa parrocchiale di San Marco",
   "type": "Mosquée",
   "adresse": "",
   "description": "Lieu de prière (OpenStreetMap).",
   "mapsUrl": "https://maps.google.com/?q=45.4733152,9.1889557",
   "lat": 45.4733152,
   "lng": 9.1889557,
   "source": "osm"
  },
  {
   "id": "m164070432",
   "nom": "Chiesa di Santa Maria della Passione",
   "type": "Mosquée",
   "adresse": "",
   "description": "Lieu de prière (OpenStreetMap).",
   "mapsUrl": "https://maps.google.com/?q=45.4652561,9.2037772",
   "lat": 45.4652561,
   "lng": 9.2037772,
   "source": "osm"
  },
  {
   "id": "m38000599",
   "nom": "Basilica di San Simpliciano",
   "type": "Mosquée",
   "adresse": "",
   "description": "Lieu de prière (OpenStreetMap).",
   "mapsUrl": "https://maps.google.com/?q=45.473986,9.1846892",
   "lat": 45.473986,
   "lng": 9.1846892,
   "source": "osm"
  },
  {
   "id": "m165882138",
   "nom": "Basilica di Sant'Eustorgio",
   "type": "Mosquée",
   "adresse": "",
   "description": "Lieu de prière (OpenStreetMap).",
   "mapsUrl": "https://maps.google.com/?q=45.4539651,9.1814953",
   "lat": 45.4539651,
   "lng": 9.1814953,
   "source": "osm"
  },
  {
   "id": "m376051694",
   "nom": "Basilica di San Vincenzo in Prato",
   "type": "Mosquée",
   "adresse": "",
   "description": "Lieu de prière (OpenStreetMap).",
   "mapsUrl": "https://maps.google.com/?q=45.457663,9.1739902",
   "lat": 45.457663,
   "lng": 9.1739902,
   "source": "osm"
  },
  {
   "id": "m42220363",
   "nom": "Chiesa di Santa Maria Incoronata",
   "type": "Mosquée",
   "adresse": "",
   "description": "Lieu de prière (OpenStreetMap).",
   "mapsUrl": "https://maps.google.com/?q=45.4794465,9.1866131",
   "lat": 45.4794465,
   "lng": 9.1866131,
   "source": "osm"
  },
  {
   "id": "m37651830",
   "nom": "Chiesa di San Carlo al Lazzaretto",
   "type": "Mosquée",
   "adresse": "",
   "description": "Lieu de prière (OpenStreetMap).",
   "mapsUrl": "https://maps.google.com/?q=45.4772357,9.2045525",
   "lat": 45.4772357,
   "lng": 9.2045525,
   "source": "osm"
  },
  {
   "id": "m21773667",
   "nom": "Chiesa di Santa Maria delle Grazie al Naviglio",
   "type": "Mosquée",
   "adresse": "",
   "description": "Lieu de prière (OpenStreetMap).",
   "mapsUrl": "https://maps.google.com/?q=45.4518896,9.1730621",
   "lat": 45.4518896,
   "lng": 9.1730621,
   "source": "osm"
  },
  {
   "id": "m13663381207",
   "nom": "Centro Culturale Imam Alì",
   "type": "Mosquée",
   "adresse": "",
   "description": "Lieu de prière (OpenStreetMap).",
   "mapsUrl": "https://maps.google.com/?q=45.4428837,9.1690434",
   "lat": 45.4428837,
   "lng": 9.1690434,
   "source": "osm"
  },
  {
   "id": "m129909305",
   "nom": "Associazione Culturale Al Nur",
   "type": "Mosquée",
   "adresse": "Via Giacomo Carissimi, Milano",
   "description": "Lieu de prière (OpenStreetMap).",
   "mapsUrl": "https://maps.google.com/?q=45.4915215,9.2008696",
   "lat": 45.4915215,
   "lng": 9.2008696,
   "source": "osm"
  },
  {
   "id": "m24048692",
   "nom": "Chiesa di San Cristoforo sul Naviglio",
   "type": "Mosquée",
   "adresse": "",
   "description": "Lieu de prière (OpenStreetMap).",
   "mapsUrl": "https://maps.google.com/?q=45.4477457,9.1548331",
   "lat": 45.4477457,
   "lng": 9.1548331,
   "source": "osm"
  },
  {
   "id": "m12789595383",
   "nom": "Mosque",
   "type": "Mosquée",
   "adresse": "Viale Marche, Milano",
   "description": "Lieu de prière (OpenStreetMap).",
   "mapsUrl": "https://maps.google.com/?q=45.4959822,9.193871",
   "lat": 45.4959822,
   "lng": 9.193871,
   "source": "osm"
  },
  {
   "id": "m13575386583",
   "nom": "Centro Islamico La Pace di Milano",
   "type": "Mosquée",
   "adresse": "Via Carlo Farini, Milano",
   "description": "Lieu de prière (OpenStreetMap).",
   "mapsUrl": "https://maps.google.com/?q=45.4960382,9.1854174",
   "lat": 45.4960382,
   "lng": 9.1854174,
   "source": "osm"
  },
  {
   "id": "m467780615",
   "nom": "Milan Muslim Center",
   "type": "Mosquée",
   "adresse": "Via Guido Cavalcanti, Milano",
   "description": "Lieu de prière (OpenStreetMap).",
   "mapsUrl": "https://maps.google.com/?q=45.492432,9.2133125",
   "lat": 45.492432,
   "lng": 9.2133125,
   "source": "osm"
  },
  {
   "id": "m12791057790",
   "nom": "Islamic Cultural Institute Onlus",
   "type": "Mosquée",
   "adresse": "Viale Edoardo Jenner, Milano",
   "description": "Lieu de prière (OpenStreetMap).",
   "mapsUrl": "https://maps.google.com/?q=45.4968263,9.1752255",
   "lat": 45.4968263,
   "lng": 9.1752255,
   "source": "osm"
  },
  {
   "id": "m12793357589",
   "nom": "Shah Jalal Mosque",
   "type": "Mosquée",
   "adresse": "Via privata Giovanni Zambelli, Milano",
   "description": "Lieu de prière (OpenStreetMap).",
   "mapsUrl": "https://maps.google.com/?q=45.5070998,9.1769553",
   "lat": 45.5070998,
   "lng": 9.1769553,
   "source": "osm"
  },
  {
   "id": "m9353157893",
   "nom": "Chiesa di San Dionigi in Santi Clemente e Guido",
   "type": "Mosquée",
   "adresse": "",
   "description": "Lieu de prière (OpenStreetMap).",
   "mapsUrl": "https://maps.google.com/?q=45.5084995,9.1987271",
   "lat": 45.5084995,
   "lng": 9.1987271,
   "source": "osm"
  },
  {
   "id": "m3393914349",
   "nom": "Casa della Cultura Musulmana",
   "type": "Mosquée",
   "adresse": "Via Padova, Milano",
   "description": "Lieu de prière (OpenStreetMap).",
   "mapsUrl": "https://maps.google.com/?q=45.4980593,9.2328025",
   "lat": 45.4980593,
   "lng": 9.2328025,
   "source": "osm"
  },
  {
   "id": "m1097849757",
   "nom": "Moschea al-Rahmàn",
   "type": "Mosquée",
   "adresse": "",
   "description": "Lieu de prière (OpenStreetMap).",
   "mapsUrl": "https://maps.google.com/?q=45.4905012,9.2609841",
   "lat": 45.4905012,
   "lng": 9.2609841,
   "source": "osm"
  },
  {
   "id": "m12789714260",
   "nom": "Moschea Quarto Oggiaro",
   "type": "Mosquée",
   "adresse": "Via Sabatino Lopez, Milano",
   "description": "Lieu de prière (OpenStreetMap).",
   "mapsUrl": "https://maps.google.com/?q=45.5154135,9.1455598",
   "lat": 45.5154135,
   "lng": 9.1455598,
   "source": "osm"
  }
 ],
 "activites": [
  {
   "id": "a4141759289",
   "nom": "Battistero di San Giovanni alle Fonti",
   "categorie": "attraction",
   "description": "",
   "prix": "",
   "duree": "",
   "mapsUrl": "https://maps.google.com/?q=45.4644431,9.1903007",
   "lat": 45.4644431,
   "lng": 9.1903007,
   "source": "osm"
  },
  {
   "id": "a163757278",
   "nom": "Galleria Vittorio Emanuele Secondo",
   "categorie": "attraction",
   "description": "",
   "prix": "",
   "duree": "",
   "mapsUrl": "https://maps.google.com/?q=45.4647182,9.1900275",
   "lat": 45.4647182,
   "lng": 9.1900275,
   "source": "osm"
  },
  {
   "id": "a1261410658",
   "nom": "Galleria Vittorio Emanuele Secondo",
   "categorie": "attraction",
   "description": "",
   "prix": "",
   "duree": "",
   "mapsUrl": "https://maps.google.com/?q=45.4647868,9.1900262",
   "lat": 45.4647868,
   "lng": 9.1900262,
   "source": "osm"
  },
  {
   "id": "a4714788078",
   "nom": "Highline Galleria",
   "categorie": "viewpoint",
   "description": "",
   "prix": "",
   "duree": "",
   "mapsUrl": "https://maps.google.com/?q=45.4650094,9.1899605",
   "lat": 45.4650094,
   "lng": 9.1899605,
   "source": "osm"
  },
  {
   "id": "a1223091032",
   "nom": "Museo del Novecento",
   "categorie": "museum",
   "description": "",
   "prix": "",
   "duree": "",
   "mapsUrl": "https://maps.google.com/?q=45.4633932,9.1902304",
   "lat": 45.4633932,
   "lng": 9.1902304,
   "source": "osm"
  },
  {
   "id": "a13001316570",
   "nom": "Osservatorio Fondazione Prada",
   "categorie": "museum",
   "description": "",
   "prix": "",
   "duree": "",
   "mapsUrl": "https://maps.google.com/?q=45.4653777,9.1901311",
   "lat": 45.4653777,
   "lng": 9.1901311,
   "source": "osm"
  },
  {
   "id": "a166623693",
   "nom": "Galleria Vittorio Emanuele Secondo",
   "categorie": "attraction",
   "description": "",
   "prix": "",
   "duree": "",
   "mapsUrl": "https://maps.google.com/?q=45.4656112,9.1900061",
   "lat": 45.4656112,
   "lng": 9.1900061,
   "source": "osm"
  },
  {
   "id": "a166623705",
   "nom": "Galleria Vittorio Emanuele Secondo",
   "categorie": "attraction",
   "description": "",
   "prix": "",
   "duree": "",
   "mapsUrl": "https://maps.google.com/?q=45.4656413,9.1900051",
   "lat": 45.4656413,
   "lng": 9.1900051,
   "source": "osm"
  },
  {
   "id": "a204721782",
   "nom": "Grande Museo del Duomo di Milano",
   "categorie": "museum",
   "description": "",
   "prix": "",
   "duree": "",
   "mapsUrl": "https://maps.google.com/?q=45.4634401,9.1917494",
   "lat": 45.4634401,
   "lng": 9.1917494,
   "source": "osm"
  },
  {
   "id": "a331883966",
   "nom": "Galleria Vittorio Emanuele Secondo",
   "categorie": "attraction",
   "description": "",
   "prix": "",
   "duree": "",
   "mapsUrl": "https://maps.google.com/?q=45.4656801,9.1900223",
   "lat": 45.4656801,
   "lng": 9.1900223,
   "source": "osm"
  },
  {
   "id": "a11727500373",
   "nom": "Simbolo Scrofa Semilanuta",
   "categorie": "monument",
   "description": "",
   "prix": "",
   "duree": "",
   "mapsUrl": "https://maps.google.com/?q=45.464796,9.1879973",
   "lat": 45.464796,
   "lng": 9.1879973,
   "source": "osm"
  },
  {
   "id": "a2075188888",
   "nom": "Milano per la Resistenza",
   "categorie": "memorial",
   "description": "",
   "prix": "",
   "duree": "",
   "mapsUrl": "https://maps.google.com/?q=45.4648785,9.1878086",
   "lat": 45.4648785,
   "lng": 9.1878086,
   "source": "osm"
  },
  {
   "id": "a1295261412",
   "nom": "Carlo Cattaneo",
   "categorie": "memorial",
   "description": "",
   "prix": "",
   "duree": "",
   "mapsUrl": "https://maps.google.com/?q=45.4657668,9.1884152",
   "lat": 45.4657668,
   "lng": 9.1884152,
   "source": "osm"
  },
  {
   "id": "a4897708750",
   "nom": "Leonardo3 Museum - Il Mondo di Leonardo",
   "categorie": "museum",
   "description": "",
   "prix": "",
   "duree": "",
   "mapsUrl": "https://maps.google.com/?q=45.4665338,9.1897113",
   "lat": 45.4665338,
   "lng": 9.1897113,
   "source": "osm"
  },
  {
   "id": "a4381972510",
   "nom": "Cinque giornate di Milano",
   "categorie": "memorial",
   "description": "",
   "prix": "",
   "duree": "",
   "mapsUrl": "https://maps.google.com/?q=45.4665974,9.1901907",
   "lat": 45.4665974,
   "lng": 9.1901907,
   "source": "osm"
  },
  {
   "id": "a9571030769",
   "nom": "Museo San fedele",
   "categorie": "museum",
   "description": "",
   "prix": "",
   "duree": "",
   "mapsUrl": "https://maps.google.com/?q=45.4666443,9.1914503",
   "lat": 45.4666443,
   "lng": 9.1914503,
   "source": "osm"
  },
  {
   "id": "a1277284761",
   "nom": "Statua di Leonardo da Vinci",
   "categorie": "monument",
   "description": "",
   "prix": "",
   "duree": "",
   "mapsUrl": "https://maps.google.com/?q=45.4669725,9.1900063",
   "lat": 45.4669725,
   "lng": 9.1900063,
   "source": "osm"
  },
  {
   "id": "a2535087543",
   "nom": "Pinacoteca Ambrosiana",
   "categorie": "museum",
   "description": "",
   "prix": "",
   "duree": "",
   "mapsUrl": "https://maps.google.com/?q=45.4636401,9.1860073",
   "lat": 45.4636401,
   "lng": 9.1860073,
   "source": "osm"
  },
  {
   "id": "a2324825968",
   "nom": "Gallerie d'Italia",
   "categorie": "museum",
   "description": "",
   "prix": "",
   "duree": "",
   "mapsUrl": "https://maps.google.com/?q=45.467265,9.1905257",
   "lat": 45.467265,
   "lng": 9.1905257,
   "source": "osm"
  },
  {
   "id": "a4170018996",
   "nom": "Lapide in ricordo della strage di Piazza Fontana",
   "categorie": "memorial",
   "description": "",
   "prix": "",
   "duree": "",
   "mapsUrl": "https://maps.google.com/?q=45.4632186,9.194183",
   "lat": 45.4632186,
   "lng": 9.194183,
   "source": "osm"
  },
  {
   "id": "a1828890767",
   "nom": "Museo Teatrale alla Scala",
   "categorie": "museum",
   "description": "",
   "prix": "",
   "duree": "",
   "mapsUrl": "https://maps.google.com/?q=45.4673111,9.1892579",
   "lat": 45.4673111,
   "lng": 9.1892579,
   "source": "osm"
  },
  {
   "id": "a4209403195",
   "nom": "Foro Romano",
   "categorie": "attraction",
   "description": "",
   "prix": "",
   "duree": "",
   "mapsUrl": "https://maps.google.com/?q=45.4635818,9.1855224",
   "lat": 45.4635818,
   "lng": 9.1855224,
   "source": "osm"
  },
  {
   "id": "a1828995188",
   "nom": "Cripta di San Giovanni in Conca",
   "categorie": "attraction",
   "description": "",
   "prix": "",
   "duree": "",
   "mapsUrl": "https://maps.google.com/?q=45.4610928,9.1888764",
   "lat": 45.4610928,
   "lng": 9.1888764,
   "source": "osm"
  },
  {
   "id": "a13836290401",
   "nom": "Saverio Saltarelli",
   "categorie": "memorial",
   "description": "",
   "prix": "",
   "duree": "",
   "mapsUrl": "https://maps.google.com/?q=45.4622929,9.1938736",
   "lat": 45.4622929,
   "lng": 9.1938736,
   "source": "osm"
  },
  {
   "id": "a611066173",
   "nom": "Monumento a Giuseppe Missori",
   "categorie": "memorial",
   "description": "",
   "prix": "",
   "duree": "",
   "mapsUrl": "https://maps.google.com/?q=45.4610703,9.1880999",
   "lat": 45.4610703,
   "lng": 9.1880999,
   "source": "osm"
  },
  {
   "id": "a207101070",
   "nom": "Casa degli Omenoni",
   "categorie": "attraction",
   "description": "",
   "prix": "",
   "duree": "",
   "mapsUrl": "https://maps.google.com/?q=45.4673639,9.1919032",
   "lat": 45.4673639,
   "lng": 9.1919032,
   "source": "osm"
  },
  {
   "id": "a1836751671",
   "nom": "Museo Mangini Bonomi",
   "categorie": "museum",
   "description": "",
   "prix": "",
   "duree": "",
   "mapsUrl": "https://maps.google.com/?q=45.4634581,9.1851679",
   "lat": 45.4634581,
   "lng": 9.1851679,
   "source": "osm"
  },
  {
   "id": "a9266428493",
   "nom": "Giovanni Battista Prandina",
   "categorie": "memorial",
   "description": "",
   "prix": "",
   "duree": "",
   "mapsUrl": "https://maps.google.com/?q=45.4617207,9.1865092",
   "lat": 45.4617207,
   "lng": 9.1865092,
   "source": "osm"
  },
  {
   "id": "a11879389710",
   "nom": "The Roof Milano Bar & Restaurant",
   "categorie": "viewpoint",
   "description": "",
   "prix": "",
   "duree": "",
   "mapsUrl": "https://maps.google.com/?q=45.4608254,9.1886983",
   "lat": 45.4608254,
   "lng": 9.1886983,
   "source": "osm"
  },
  {
   "id": "a12487076872",
   "nom": "Thaddaeus Ropac",
   "categorie": "gallery",
   "description": "",
   "prix": "",
   "duree": "",
   "mapsUrl": "https://maps.google.com/?q=45.4674895,9.1926427",
   "lat": 45.4674895,
   "lng": 9.1926427,
   "source": "osm"
  }
 ],
 "scoreIndicatif": true,
 "osmEnriched": true,
 "osmEnrichedAt": "2026-06-30"
}
