{
 "slug": "milan",
 "nom": "Milan",
 "pays": "Italie",
 "pays_slug": "italie",
 "continent": "Europe",
 "region": "Italie",
 "coordonnees": {
  "lat": 45.4642,
  "lng": 9.19
 },
 "codeISO": "IT",
 "score_halal": 3.4,
 "halalScore": 6.8,
 "villeNonMusulmane": true,
 "description": "Capitale italienne de la mode et du design. Communauté musulmane active autour de Porta Venezia et Via Padova, avec une offre halal en croissance et plusieurs lieux de prière.",
 "metaDescription": "Capitale italienne de la mode et du design. Communauté musulmane active autour de Porta Venezia et Via Padova, avec une offre halal en croissance et plusieurs lieux de prière.",
 "image": "https://upload.wikimedia.org/wikipedia/commons/6/60/Milan.Proper.Wikipedia.Image.jpg",
 "image_hero": "https://upload.wikimedia.org/wikipedia/commons/6/60/Milan.Proper.Wikipedia.Image.jpg",
 "imageCredit": "Wikimedia Commons",
 "statistiques": {
  "restaurants_halal": 40,
  "mosquees": 20,
  "hotels": 0
 },
 "infoPratique": {
  "transport": "Accessible par avion et transports en commun locaux.",
  "meilleureEpoque": "Printemps et automne (climat tempéré).",
  "conseilHalal": "Ville non-musulmane : repérez les restaurants halal certifiés et les mosquées via l'application avant votre visite."
 },
 "tags": [
  "halal",
  "ville non-musulmane",
  "europe"
 ],
 "restaurants": [
  {
   "nom": "Turkish Kebap-Pizza",
   "type": "kebab, falafel, pizza",
   "priceRange": "€€",
   "mapsUrl": "https://maps.google.com/?q=45.4763156,9.2062089",
   "lat": 45.4763156,
   "lng": 9.2062089,
   "halalConfidence": "yes",
   "source": "osm"
  },
  {
   "nom": "Tandoori Kebab",
   "type": "pakistani",
   "priceRange": "€€",
   "mapsUrl": "https://maps.google.com/?q=45.482356,9.207048",
   "lat": 45.482356,
   "lng": 9.207048,
   "halalConfidence": "only",
   "source": "osm"
  },
  {
   "nom": "Kashmir Grill",
   "type": "indian",
   "priceRange": "€€",
   "mapsUrl": "https://maps.google.com/?q=45.4828821,9.2092508",
   "lat": 45.4828821,
   "lng": 9.2092508,
   "halalConfidence": "yes",
   "source": "osm"
  },
  {
   "nom": "Gandhi",
   "type": "indian",
   "priceRange": "€€",
   "mapsUrl": "https://maps.google.com/?q=45.4830203,9.209645",
   "lat": 45.4830203,
   "lng": 9.209645,
   "halalConfidence": "yes",
   "source": "osm"
  },
  {
   "nom": "Sofra",
   "type": "turkish",
   "priceRange": "€€",
   "mapsUrl": "https://maps.google.com/?q=45.4860035,9.2325328",
   "lat": 45.4860035,
   "lng": 9.2325328,
   "halalConfidence": "only",
   "source": "osm"
  },
  {
   "nom": "Istanbul Ayasofia",
   "type": "kebab, turkish, pizza",
   "priceRange": "€€",
   "mapsUrl": "https://maps.google.com/?q=45.5005921,9.2212598",
   "lat": 45.5005921,
   "lng": 9.2212598,
   "halalConfidence": "yes",
   "source": "osm"
  },
  {
   "nom": "ILK",
   "type": "kebab",
   "priceRange": "€€",
   "mapsUrl": "https://maps.google.com/?q=45.4646248,9.1871737",
   "lat": 45.4646248,
   "lng": 9.1871737,
   "halalConfidence": "likely",
   "source": "osm"
  },
  {
   "nom": "Pizzeria Grill",
   "type": "pizza, kebab",
   "priceRange": "€€",
   "mapsUrl": "https://maps.google.com/?q=45.4610477,9.1844691",
   "lat": 45.4610477,
   "lng": 9.1844691,
   "halalConfidence": "likely",
   "source": "osm"
  },
  {
   "nom": "Istanbul Ayasofya",
   "type": "kebab, pizza, falafel",
   "priceRange": "€€",
   "mapsUrl": "https://maps.google.com/?q=45.4675903,9.1825326",
   "lat": 45.4675903,
   "lng": 9.1825326,
   "halalConfidence": "likely",
   "source": "osm"
  },
  {
   "nom": "Bali’s turkish kebap",
   "type": "kebab, pizza",
   "priceRange": "€€",
   "mapsUrl": "https://maps.google.com/?q=45.4596731,9.1813469",
   "lat": 45.4596731,
   "lng": 9.1813469,
   "halalConfidence": "likely",
   "source": "osm"
  },
  {
   "nom": "Pasa Döner",
   "type": "kebab",
   "priceRange": "€€",
   "mapsUrl": "https://maps.google.com/?q=45.4669234,9.2004141",
   "lat": 45.4669234,
   "lng": 9.2004141,
   "halalConfidence": "likely",
   "source": "osm"
  },
  {
   "nom": "Noor",
   "type": "lebanese",
   "priceRange": "€€",
   "mapsUrl": "https://maps.google.com/?q=45.4715844,9.1849653",
   "lat": 45.4715844,
   "lng": 9.1849653,
   "halalConfidence": "likely",
   "source": "osm"
  },
  {
   "nom": "Giza",
   "type": "sandwich, egyptian, dessert",
   "priceRange": "€€",
   "mapsUrl": "https://maps.google.com/?q=45.4567517,9.1809077",
   "lat": 45.4567517,
   "lng": 9.1809077,
   "halalConfidence": "likely",
   "source": "osm"
  },
  {
   "nom": "Turkish kebap pizza",
   "type": "kebab",
   "priceRange": "€€",
   "mapsUrl": "https://maps.google.com/?q=45.4592892,9.1778786",
   "lat": 45.4592892,
   "lng": 9.1778786,
   "halalConfidence": "likely",
   "source": "osm"
  },
  {
   "nom": "Champion Turkish Kebap",
   "type": "kebab",
   "priceRange": "€€",
   "mapsUrl": "https://maps.google.com/?q=45.4559198,9.1808111",
   "lat": 45.4559198,
   "lng": 9.1808111,
   "halalConfidence": "likely",
   "source": "osm"
  },
  {
   "nom": "Milano Kebap house",
   "type": "turkish",
   "priceRange": "€€",
   "mapsUrl": "https://maps.google.com/?q=45.4754953,9.1844002",
   "lat": 45.4754953,
   "lng": 9.1844002,
   "halalConfidence": "likely",
   "source": "osm"
  },
  {
   "nom": "Turkish Kebab Pizzeria",
   "type": "kebab, pizza",
   "priceRange": "€€",
   "mapsUrl": "https://maps.google.com/?q=45.4758825,9.193887",
   "lat": 45.4758825,
   "lng": 9.193887,
   "halalConfidence": "likely",
   "source": "osm"
  },
  {
   "nom": "Pizzeria Sant'Ambrogio",
   "type": "pizza, kebab",
   "priceRange": "€€",
   "mapsUrl": "https://maps.google.com/?q=45.4593705,9.1739023",
   "lat": 45.4593705,
   "lng": 9.1739023,
   "halalConfidence": "likely",
   "source": "osm"
  },
  {
   "nom": "Shalto",
   "type": "persian",
   "priceRange": "€€",
   "mapsUrl": "https://maps.google.com/?q=45.4525567,9.1824511",
   "lat": 45.4525567,
   "lng": 9.1824511,
   "halalConfidence": "likely",
   "source": "osm"
  },
  {
   "nom": "Pitador",
   "type": "lebanese",
   "priceRange": "€€",
   "mapsUrl": "https://maps.google.com/?q=45.4531572,9.1797425",
   "lat": 45.4531572,
   "lng": 9.1797425,
   "halalConfidence": "likely",
   "source": "osm"
  },
  {
   "nom": "Ceci",
   "type": "lebanese",
   "priceRange": "€€",
   "mapsUrl": "https://maps.google.com/?q=45.4523134,9.1817371",
   "lat": 45.4523134,
   "lng": 9.1817371,
   "halalConfidence": "likely",
   "source": "osm"
  },
  {
   "nom": "Cose Turche",
   "type": "turkish",
   "priceRange": "€€",
   "mapsUrl": "https://maps.google.com/?q=45.4571373,9.1740487",
   "lat": 45.4571373,
   "lng": 9.1740487,
   "halalConfidence": "likely",
   "source": "osm"
  },
  {
   "nom": "Mondial Kebap",
   "type": "turkish",
   "priceRange": "€€",
   "mapsUrl": "https://maps.google.com/?q=45.4774598,9.1854387",
   "lat": 45.4774598,
   "lng": 9.1854387,
   "halalConfidence": "likely",
   "source": "osm"
  },
  {
   "nom": "Senza Cipolla",
   "type": "pizza, kebab",
   "priceRange": "€€",
   "mapsUrl": "https://maps.google.com/?q=45.4508455,9.1958761",
   "lat": 45.4508455,
   "lng": 9.1958761,
   "halalConfidence": "likely",
   "source": "osm"
  },
  {
   "nom": "Kebhouze",
   "type": "kebab",
   "priceRange": "€€",
   "mapsUrl": "https://maps.google.com/?q=45.461258,9.2095498",
   "lat": 45.461258,
   "lng": 9.2095498,
   "halalConfidence": "likely",
   "source": "osm"
  },
  {
   "nom": "Le Presine Volanti",
   "type": "kebab, tapas, soup",
   "priceRange": "€€",
   "mapsUrl": "https://maps.google.com/?q=45.4610738,9.2097855",
   "lat": 45.4610738,
   "lng": 9.2097855,
   "halalConfidence": "likely",
   "source": "osm"
  },
  {
   "nom": "Mido",
   "type": "arab",
   "priceRange": "€€",
   "mapsUrl": "https://maps.google.com/?q=45.4510942,9.1819458",
   "lat": 45.4510942,
   "lng": 9.1819458,
   "halalConfidence": "likely",
   "source": "osm"
  },
  {
   "nom": "Papiniano pizzeria kebab",
   "type": "kebab",
   "priceRange": "€€",
   "mapsUrl": "https://maps.google.com/?q=45.4566932,9.1725827",
   "lat": 45.4566932,
   "lng": 9.1725827,
   "halalConfidence": "likely",
   "source": "osm"
  },
  {
   "nom": "Mezè",
   "type": "lebanese",
   "priceRange": "€€",
   "mapsUrl": "https://maps.google.com/?q=45.4659757,9.2105595",
   "lat": 45.4659757,
   "lng": 9.2105595,
   "halalConfidence": "likely",
   "source": "osm"
  },
  {
   "nom": "Nay",
   "type": "lebanese",
   "priceRange": "€€",
   "mapsUrl": "https://maps.google.com/?q=45.4661844,9.2111456",
   "lat": 45.4661844,
   "lng": 9.2111456,
   "halalConfidence": "likely",
   "source": "osm"
  },
  {
   "nom": "Pizzeria Kebab Santa Maria",
   "type": "kebab, pizza",
   "priceRange": "€€",
   "mapsUrl": "https://maps.google.com/?q=45.460573,9.2111549",
   "lat": 45.460573,
   "lng": 9.2111549,
   "halalConfidence": "likely",
   "source": "osm"
  },
  {
   "nom": "Istambul Kebab Pizza",
   "type": "kebab, pizza",
   "priceRange": "€€",
   "mapsUrl": "https://maps.google.com/?q=45.4549673,9.1724154",
   "lat": 45.4549673,
   "lng": 9.1724154,
   "halalConfidence": "likely",
   "source": "osm"
  },
  {
   "nom": "Pizza Kebab San Gottardo",
   "type": "pizza, kebab",
   "priceRange": "€€",
   "mapsUrl": "https://maps.google.com/?q=45.4502724,9.1800732",
   "lat": 45.4502724,
   "lng": 9.1800732,
   "halalConfidence": "likely",
   "source": "osm"
  },
  {
   "nom": "CiccioMatto1",
   "type": "kebab",
   "priceRange": "€€",
   "mapsUrl": "https://maps.google.com/?q=45.4484074,9.1866931",
   "lat": 45.4484074,
   "lng": 9.1866931,
   "halalConfidence": "likely",
   "source": "osm"
  },
  {
   "nom": "Pizzeria Naviglio",
   "type": "kebab, pizza",
   "priceRange": "€€",
   "mapsUrl": "https://maps.google.com/?q=45.4517353,9.1754513",
   "lat": 45.4517353,
   "lng": 9.1754513,
   "halalConfidence": "likely",
   "source": "osm"
  },
  {
   "nom": "City Istanbul",
   "type": "kebab",
   "priceRange": "€€",
   "mapsUrl": "https://maps.google.com/?q=45.4706073,9.2113892",
   "lat": 45.4706073,
   "lng": 9.2113892,
   "halalConfidence": "likely",
   "source": "osm"
  },
  {
   "nom": "pizzeria kebap",
   "type": "kebab",
   "priceRange": "€€",
   "mapsUrl": "https://maps.google.com/?q=45.4578039,9.1685789",
   "lat": 45.4578039,
   "lng": 9.1685789,
   "halalConfidence": "likely",
   "source": "osm"
  },
  {
   "nom": "Amina",
   "type": "moroccan",
   "priceRange": "€€",
   "mapsUrl": "https://maps.google.com/?q=45.4488631,9.1995304",
   "lat": 45.4488631,
   "lng": 9.1995304,
   "halalConfidence": "likely",
   "source": "osm"
  },
  {
   "nom": "Davet",
   "type": "kebab, pizza",
   "priceRange": "€€",
   "mapsUrl": "https://maps.google.com/?q=45.4538366,9.1703474",
   "lat": 45.4538366,
   "lng": 9.1703474,
   "halalConfidence": "likely",
   "source": "osm"
  },
  {
   "nom": "Kebhouze",
   "type": "kebab",
   "priceRange": "€€",
   "mapsUrl": "https://maps.google.com/?q=45.4530522,9.1712083",
   "lat": 45.4530522,
   "lng": 9.1712083,
   "halalConfidence": "likely",
   "source": "osm"
  }
 ],
 "hotels": [],
 "mosqueesPrincipales": [
  {
   "id": "m204329261",
   "nom": "Chiesa di San Gottardo in Corte",
   "type": "Mosquée",
   "adresse": "",
   "description": "Lieu de prière (OpenStreetMap).",
   "mapsUrl": "https://maps.google.com/?q=45.4627934,9.191938",
   "lat": 45.4627934,
   "lng": 9.191938,
   "source": "osm"
  },
  {
   "id": "m45671470",
   "nom": "Santa Maria presso San Satiro",
   "type": "Mosquée",
   "adresse": "",
   "description": "Lieu de prière (OpenStreetMap).",
   "mapsUrl": "https://maps.google.com/?q=45.4627033,9.1877699",
   "lat": 45.4627033,
   "lng": 9.1877699,
   "source": "osm"
  },
  {
   "id": "m23227442",
   "nom": "Chiesa di San Fedele",
   "type": "Mosquée",
   "adresse": "",
   "description": "Lieu de prière (OpenStreetMap).",
   "mapsUrl": "https://maps.google.com/?q=45.4667518,9.1915661",
   "lat": 45.4667518,
   "lng": 9.1915661,
   "source": "osm"
  },
  {
   "id": "m39349468",
   "nom": "Chiesa di San Bernardino alle Ossa",
   "type": "Mosquée",
   "adresse": "",
   "description": "Lieu de prière (OpenStreetMap).",
   "mapsUrl": "https://maps.google.com/?q=45.4626047,9.1955551",
   "lat": 45.4626047,
   "lng": 9.1955551,
   "source": "osm"
  },
  {
   "id": "m44601409",
   "nom": "Basilica di San Carlo al Corso",
   "type": "Mosquée",
   "adresse": "",
   "description": "Lieu de prière (OpenStreetMap).",
   "mapsUrl": "https://maps.google.com/?q=45.4662872,9.1961842",
   "lat": 45.4662872,
   "lng": 9.1961842,
   "source": "osm"
  },
  {
   "id": "m24971631",
   "nom": "Basilica San Nazaro in Brolo",
   "type": "Mosquée",
   "adresse": "",
   "description": "Lieu de prière (OpenStreetMap).",
   "mapsUrl": "https://maps.google.com/?q=45.4587606,9.192706",
   "lat": 45.4587606,
   "lng": 9.192706,
   "source": "osm"
  },
  {
   "id": "m44448850",
   "nom": "Basilica di San Babila",
   "type": "Mosquée",
   "adresse": "",
   "description": "Lieu de prière (OpenStreetMap).",
   "mapsUrl": "https://maps.google.com/?q=45.4669666,9.1983716",
   "lat": 45.4669666,
   "lng": 9.1983716,
   "source": "osm"
  },
  {
   "id": "m43705671",
   "nom": "Chiesa di Santa Maria del Carmine",
   "type": "Mosquée",
   "adresse": "",
   "description": "Lieu de prière (OpenStreetMap).",
   "mapsUrl": "https://maps.google.com/?q=45.4704529,9.1860185",
   "lat": 45.4704529,
   "lng": 9.1860185,
   "source": "osm"
  },
  {
   "id": "m46103655",
   "nom": "San Maurizio al Monastero Maggiore",
   "type": "Mosquée",
   "adresse": "",
   "description": "Lieu de prière (OpenStreetMap).",
   "mapsUrl": "https://maps.google.com/?q=45.4654398,9.1789528",
   "lat": 45.4654398,
   "lng": 9.1789528,
   "source": "osm"
  },
  {
   "id": "m204612496",
   "nom": "Basilica di San Calimero",
   "type": "Mosquée",
   "adresse": "",
   "description": "Lieu de prière (OpenStreetMap).",
   "mapsUrl": "https://maps.google.com/?q=45.4566291,9.1931481",
   "lat": 45.4566291,
   "lng": 9.1931481,
   "source": "osm"
  },
  {
   "id": "m27596084",
   "nom": "Chiesa di San Pietro in Gessate",
   "type": "Mosquée",
   "adresse": "",
   "description": "Lieu de prière (OpenStreetMap).",
   "mapsUrl": "https://maps.google.com/?q=45.4631012,9.2014986",
   "lat": 45.4631012,
   "lng": 9.2014986,
   "source": "osm"
  },
  {
   "id": "m190036557",
   "nom": "San Bernardino alle Monache",
   "type": "Mosquée",
   "adresse": "",
   "description": "Lieu de prière (OpenStreetMap).",
   "mapsUrl": "https://maps.google.com/?q=45.4602702,9.1785601",
   "lat": 45.4602702,
   "lng": 9.1785601,
   "source": "osm"
  },
  {
   "id": "m42106021",
   "nom": "Chiesa parrocchiale di San Marco",
   "type": "Mosquée",
   "adresse": "",
   "description": "Lieu de prière (OpenStreetMap).",
   "mapsUrl": "https://maps.google.com/?q=45.4733152,9.1889557",
   "lat": 45.4733152,
   "lng": 9.1889557,
   "source": "osm"
  },
  {
   "id": "m164070432",
   "nom": "Chiesa di Santa Maria della Passione",
   "type": "Mosquée",
   "adresse": "",
   "description": "Lieu de prière (OpenStreetMap).",
   "mapsUrl": "https://maps.google.com/?q=45.4652561,9.2037772",
   "lat": 45.4652561,
   "lng": 9.2037772,
   "source": "osm"
  },
  {
   "id": "m38000599",
   "nom": "Basilica di San Simpliciano",
   "type": "Mosquée",
   "adresse": "",
   "description": "Lieu de prière (OpenStreetMap).",
   "mapsUrl": "https://maps.google.com/?q=45.473986,9.1846892",
   "lat": 45.473986,
   "lng": 9.1846892,
   "source": "osm"
  },
  {
   "id": "m165882138",
   "nom": "Basilica di Sant'Eustorgio",
   "type": "Mosquée",
   "adresse": "",
   "description": "Lieu de prière (OpenStreetMap).",
   "mapsUrl": "https://maps.google.com/?q=45.4539651,9.1814953",
   "lat": 45.4539651,
   "lng": 9.1814953,
   "source": "osm"
  },
  {
   "id": "m376051694",
   "nom": "Basilica di San Vincenzo in Prato",
   "type": "Mosquée",
   "adresse": "",
   "description": "Lieu de prière (OpenStreetMap).",
   "mapsUrl": "https://maps.google.com/?q=45.457663,9.1739902",
   "lat": 45.457663,
   "lng": 9.1739902,
   "source": "osm"
  },
  {
   "id": "m42220363",
   "nom": "Chiesa di Santa Maria Incoronata",
   "type": "Mosquée",
   "adresse": "",
   "description": "Lieu de prière (OpenStreetMap).",
   "mapsUrl": "https://maps.google.com/?q=45.4794465,9.1866131",
   "lat": 45.4794465,
   "lng": 9.1866131,
   "source": "osm"
  },
  {
   "id": "m37651830",
   "nom": "Chiesa di San Carlo al Lazzaretto",
   "type": "Mosquée",
   "adresse": "",
   "description": "Lieu de prière (OpenStreetMap).",
   "mapsUrl": "https://maps.google.com/?q=45.4772357,9.2045525",
   "lat": 45.4772357,
   "lng": 9.2045525,
   "source": "osm"
  },
  {
   "id": "m21773667",
   "nom": "Chiesa di Santa Maria delle Grazie al Naviglio",
   "type": "Mosquée",
   "adresse": "",
   "description": "Lieu de prière (OpenStreetMap).",
   "mapsUrl": "https://maps.google.com/?q=45.4518896,9.1730621",
   "lat": 45.4518896,
   "lng": 9.1730621,
   "source": "osm"
  }
 ],
 "activites": [
  {
   "id": "a4141759289",
   "nom": "Battistero di San Giovanni alle Fonti",
   "categorie": "attraction",
   "description": "",
   "prix": "",
   "duree": "",
   "mapsUrl": "https://maps.google.com/?q=45.4644431,9.1903007",
   "lat": 45.4644431,
   "lng": 9.1903007,
   "source": "osm"
  },
  {
   "id": "a163757278",
   "nom": "Galleria Vittorio Emanuele Secondo",
   "categorie": "attraction",
   "description": "",
   "prix": "",
   "duree": "",
   "mapsUrl": "https://maps.google.com/?q=45.4647182,9.1900275",
   "lat": 45.4647182,
   "lng": 9.1900275,
   "source": "osm"
  },
  {
   "id": "a1261410658",
   "nom": "Galleria Vittorio Emanuele Secondo",
   "categorie": "attraction",
   "description": "",
   "prix": "",
   "duree": "",
   "mapsUrl": "https://maps.google.com/?q=45.4647868,9.1900262",
   "lat": 45.4647868,
   "lng": 9.1900262,
   "source": "osm"
  },
  {
   "id": "a4714788078",
   "nom": "Highline Galleria",
   "categorie": "viewpoint",
   "description": "",
   "prix": "",
   "duree": "",
   "mapsUrl": "https://maps.google.com/?q=45.4650094,9.1899605",
   "lat": 45.4650094,
   "lng": 9.1899605,
   "source": "osm"
  },
  {
   "id": "a1223091032",
   "nom": "Museo del Novecento",
   "categorie": "museum",
   "description": "",
   "prix": "",
   "duree": "",
   "mapsUrl": "https://maps.google.com/?q=45.4633932,9.1902304",
   "lat": 45.4633932,
   "lng": 9.1902304,
   "source": "osm"
  },
  {
   "id": "a13001316570",
   "nom": "Osservatorio Fondazione Prada",
   "categorie": "museum",
   "description": "",
   "prix": "",
   "duree": "",
   "mapsUrl": "https://maps.google.com/?q=45.4653777,9.1901311",
   "lat": 45.4653777,
   "lng": 9.1901311,
   "source": "osm"
  },
  {
   "id": "a166623693",
   "nom": "Galleria Vittorio Emanuele Secondo",
   "categorie": "attraction",
   "description": "",
   "prix": "",
   "duree": "",
   "mapsUrl": "https://maps.google.com/?q=45.4656112,9.1900061",
   "lat": 45.4656112,
   "lng": 9.1900061,
   "source": "osm"
  },
  {
   "id": "a166623705",
   "nom": "Galleria Vittorio Emanuele Secondo",
   "categorie": "attraction",
   "description": "",
   "prix": "",
   "duree": "",
   "mapsUrl": "https://maps.google.com/?q=45.4656413,9.1900051",
   "lat": 45.4656413,
   "lng": 9.1900051,
   "source": "osm"
  },
  {
   "id": "a204721782",
   "nom": "Grande Museo del Duomo di Milano",
   "categorie": "museum",
   "description": "",
   "prix": "",
   "duree": "",
   "mapsUrl": "https://maps.google.com/?q=45.4634401,9.1917494",
   "lat": 45.4634401,
   "lng": 9.1917494,
   "source": "osm"
  },
  {
   "id": "a331883966",
   "nom": "Galleria Vittorio Emanuele Secondo",
   "categorie": "attraction",
   "description": "",
   "prix": "",
   "duree": "",
   "mapsUrl": "https://maps.google.com/?q=45.4656801,9.1900223",
   "lat": 45.4656801,
   "lng": 9.1900223,
   "source": "osm"
  },
  {
   "id": "a11727500373",
   "nom": "Simbolo Scrofa Semilanuta",
   "categorie": "monument",
   "description": "",
   "prix": "",
   "duree": "",
   "mapsUrl": "https://maps.google.com/?q=45.464796,9.1879973",
   "lat": 45.464796,
   "lng": 9.1879973,
   "source": "osm"
  },
  {
   "id": "a2075188888",
   "nom": "Milano per la Resistenza",
   "categorie": "memorial",
   "description": "",
   "prix": "",
   "duree": "",
   "mapsUrl": "https://maps.google.com/?q=45.4648785,9.1878086",
   "lat": 45.4648785,
   "lng": 9.1878086,
   "source": "osm"
  },
  {
   "id": "a1295261412",
   "nom": "Carlo Cattaneo",
   "categorie": "memorial",
   "description": "",
   "prix": "",
   "duree": "",
   "mapsUrl": "https://maps.google.com/?q=45.4657668,9.1884152",
   "lat": 45.4657668,
   "lng": 9.1884152,
   "source": "osm"
  },
  {
   "id": "a4897708750",
   "nom": "Leonardo3 Museum - Il Mondo di Leonardo",
   "categorie": "museum",
   "description": "",
   "prix": "",
   "duree": "",
   "mapsUrl": "https://maps.google.com/?q=45.4665338,9.1897113",
   "lat": 45.4665338,
   "lng": 9.1897113,
   "source": "osm"
  },
  {
   "id": "a4381972510",
   "nom": "Cinque giornate di Milano",
   "categorie": "memorial",
   "description": "",
   "prix": "",
   "duree": "",
   "mapsUrl": "https://maps.google.com/?q=45.4665974,9.1901907",
   "lat": 45.4665974,
   "lng": 9.1901907,
   "source": "osm"
  },
  {
   "id": "a9571030769",
   "nom": "Museo San fedele",
   "categorie": "museum",
   "description": "",
   "prix": "",
   "duree": "",
   "mapsUrl": "https://maps.google.com/?q=45.4666443,9.1914503",
   "lat": 45.4666443,
   "lng": 9.1914503,
   "source": "osm"
  },
  {
   "id": "a1277284761",
   "nom": "Statua di Leonardo da Vinci",
   "categorie": "monument",
   "description": "",
   "prix": "",
   "duree": "",
   "mapsUrl": "https://maps.google.com/?q=45.4669725,9.1900063",
   "lat": 45.4669725,
   "lng": 9.1900063,
   "source": "osm"
  },
  {
   "id": "a2535087543",
   "nom": "Pinacoteca Ambrosiana",
   "categorie": "museum",
   "description": "",
   "prix": "",
   "duree": "",
   "mapsUrl": "https://maps.google.com/?q=45.4636401,9.1860073",
   "lat": 45.4636401,
   "lng": 9.1860073,
   "source": "osm"
  }
 ],
 "scoreIndicatif": true,
 "osmEnriched": true,
 "osmEnrichedAt": "2026-06-30"
}
