{
  "slug": "najaf",
  "nom": "Nadjaf",
  "pays": "Irak",
  "pays_slug": "irak",
  "continent": "Moyen-Orient",
  "region": "Irak",
  "coordonnees": {
    "lat": 31.9963,
    "lng": 44.3142
  },
  "codeISO": "IQ",
  "score_halal": 4.2,
  "halalScore": 8.4,
  "description": "Nadjaf, Irak. Forte présence musulmane : nombreuses adresses halal et mosquées.",
  "metaDescription": "Nadjaf, Irak. Forte présence musulmane : nombreuses adresses halal et mosquées.",
  "image": "https://upload.wikimedia.org/wikipedia/commons/a/a3/Meshed_ali_usnavy_%28PD%29.jpg",
  "image_hero": "https://upload.wikimedia.org/wikipedia/commons/a/a3/Meshed_ali_usnavy_%28PD%29.jpg",
  "imageCredit": "Wikimedia Commons",
  "scoreIndicatif": true,
  "statistiques": {
    "restaurants_halal": 17,
    "mosquees": 37,
    "hotels": 120
  },
  "infoPratique": {
    "transport": "Accessible par avion et transports locaux.",
    "meilleureEpoque": "Selon la saison.",
    "conseilHalal": "Repérez restaurants halal et mosquées via l'application."
  },
  "tags": [
    "halal",
    "moyen-orient"
  ],
  "restaurants": [
    {
      "nom": "مندي طيبه اليمني",
      "type": "regional",
      "priceRange": "€€",
      "mapsUrl": "https://maps.google.com/?q=31.9958137,44.333319",
      "lat": 31.9958137,
      "lng": 44.333319,
      "halalConfidence": "yes",
      "source": "osm"
    },
    {
      "nom": "كافتيريا العلوم",
      "type": "burger, regional, american, sandwich, kebab",
      "priceRange": "€€",
      "mapsUrl": "https://maps.google.com/?q=32.0258352,44.3706383",
      "lat": 32.0258352,
      "lng": 44.3706383,
      "halalConfidence": "yes",
      "source": "osm"
    },
    {
      "nom": "مطعم الجامعة",
      "type": "pizza, regional, coffee shop, burger, sandwich, chicken, kebab",
      "priceRange": "€€",
      "mapsUrl": "https://maps.google.com/?q=32.021162,44.3736995",
      "lat": 32.021162,
      "lng": 44.3736995,
      "halalConfidence": "yes",
      "source": "osm"
    },
    {
      "nom": "كافتيريا العلوم",
      "type": "regional, burger, sandwich, kebab",
      "priceRange": "€€",
      "mapsUrl": "https://maps.google.com/?q=32.0254847,44.3710137",
      "lat": 32.0254847,
      "lng": 44.3710137,
      "halalConfidence": "yes",
      "source": "osm"
    },
    {
      "nom": "كافتيريا الآداب",
      "type": "pizza, regional, coffee shop, burger, sandwich, chicken, kebab, american, ice cream",
      "priceRange": "€€",
      "mapsUrl": "https://maps.google.com/?q=32.0285012,44.3739794",
      "lat": 32.0285012,
      "lng": 44.3739794,
      "halalConfidence": "yes",
      "source": "osm"
    },
    {
      "nom": "كافتيريا الآداب",
      "type": "burger, regional, coffee shop, pizza, american, kebab, ice cream",
      "priceRange": "€€",
      "mapsUrl": "https://maps.google.com/?q=32.0284492,44.3740843",
      "lat": 32.0284492,
      "lng": 44.3740843,
      "halalConfidence": "yes",
      "source": "osm"
    },
    {
      "nom": "مطعم سوباط",
      "type": "arab",
      "priceRange": "€€",
      "mapsUrl": "https://maps.google.com/?q=32.0078126,44.3471175",
      "lat": 32.0078126,
      "lng": 44.3471175,
      "halalConfidence": "likely",
      "source": "osm"
    },
    {
      "nom": "مطعم مطبخنه",
      "type": "arab",
      "priceRange": "€€",
      "mapsUrl": "https://maps.google.com/?q=32.0007691,44.3534269",
      "lat": 32.0007691,
      "lng": 44.3534269,
      "halalConfidence": "likely",
      "source": "osm"
    },
    {
      "nom": "مطعم الخيمة",
      "type": "arab",
      "priceRange": "€€",
      "mapsUrl": "https://maps.google.com/?q=32.0311377,44.3190959",
      "lat": 32.0311377,
      "lng": 44.3190959,
      "halalConfidence": "likely",
      "source": "osm"
    },
    {
      "nom": "مندي حضرموت اليمني",
      "type": "arab, mediterranean, oriental",
      "priceRange": "€€",
      "mapsUrl": "https://maps.google.com/?q=32.0053865,44.3560398",
      "lat": 32.0053865,
      "lng": 44.3560398,
      "halalConfidence": "likely",
      "source": "osm"
    },
    {
      "nom": "Restaurant albait ALbaghdadi",
      "type": "arab",
      "priceRange": "€€",
      "mapsUrl": "https://maps.google.com/?q=32.0073185,44.3555841",
      "lat": 32.0073185,
      "lng": 44.3555841,
      "halalConfidence": "likely",
      "source": "osm"
    },
    {
      "nom": "مطعم اولاد نزار شنين وحيدر شواكه",
      "type": "burger, sandwich, grill, steak house, beef bowl, donut, pizza, arab, chicken, diner, tea, friture, deli, kebab",
      "priceRange": "€€",
      "mapsUrl": "https://maps.google.com/?q=32.0014205,44.3593079",
      "lat": 32.0014205,
      "lng": 44.3593079,
      "halalConfidence": "likely",
      "source": "osm"
    },
    {
      "nom": "ابو سجاد سكيورتي نجف",
      "type": "beef bowl, kebab, arab, diner, chicken, tea, steak house",
      "priceRange": "€€",
      "mapsUrl": "https://maps.google.com/?q=31.994972,44.3614578",
      "lat": 31.994972,
      "lng": 44.3614578,
      "halalConfidence": "likely",
      "source": "osm"
    },
    {
      "nom": "مطعم عزيز",
      "type": "beef bowl, kebab, steak house",
      "priceRange": "€€",
      "mapsUrl": "https://maps.google.com/?q=32.0254055,44.3517195",
      "lat": 32.0254055,
      "lng": 44.3517195,
      "halalConfidence": "likely",
      "source": "osm"
    },
    {
      "nom": "مطعم تكة",
      "type": "kebab",
      "priceRange": "€€",
      "mapsUrl": "https://maps.google.com/?q=32.0120892,44.3627698",
      "lat": 32.0120892,
      "lng": 44.3627698,
      "halalConfidence": "likely",
      "source": "osm"
    },
    {
      "nom": "مطعم العكايشي Alakaishi restaurant",
      "type": "kebab, regional, coffee shop",
      "priceRange": "€€",
      "mapsUrl": "https://maps.google.com/?q=32.0463781,44.3362578",
      "lat": 32.0463781,
      "lng": 44.3362578,
      "halalConfidence": "likely",
      "source": "osm"
    },
    {
      "nom": "كباب سيد عدنان",
      "type": "kebab",
      "priceRange": "€€",
      "mapsUrl": "https://maps.google.com/?q=32.0324589,44.4068989",
      "lat": 32.0324589,
      "lng": 44.4068989,
      "halalConfidence": "likely",
      "source": "osm"
    },
    {
      "nom": "شارع الهاتف",
      "lat": 31.9941788,
      "lng": 44.3250474,
      "type": "sandwich, donut, chicken, cake, kebab, tea, persian",
      "halalConfidence": "likely",
      "mapsUrl": "https://maps.google.com/?q=31.9941788,44.3250474",
      "source": "osm"
    },
    {
      "nom": "فريندز تايم كوفي شوب",
      "lat": 32.0034442,
      "lng": 44.3382917,
      "type": "american, arab",
      "halalConfidence": "likely",
      "mapsUrl": "https://maps.google.com/?q=32.0034442,44.3382917",
      "source": "osm"
    }
  ],
  "hotels": [
    {
      "nom": "فندق",
      "categorie": "Hôtel",
      "priceRange": "€€",
      "mapsUrl": "https://maps.google.com/?q=31.9966607,44.3126773",
      "lat": 31.9966607,
      "lng": 44.3126773,
      "halalFriendly": false,
      "bookingUrl": "https://maps.google.com/?q=31.9966607,44.3126773",
      "source": "osm"
    },
    {
      "nom": "فندق المشارق",
      "categorie": "Hôtel",
      "priceRange": "€€",
      "mapsUrl": "https://maps.google.com/?q=31.9975855,44.3135606",
      "lat": 31.9975855,
      "lng": 44.3135606,
      "halalFriendly": false,
      "bookingUrl": "https://maps.google.com/?q=31.9975855,44.3135606",
      "source": "osm"
    },
    {
      "nom": "فندق الغدير",
      "categorie": "Hôtel",
      "priceRange": "€€",
      "mapsUrl": "https://maps.google.com/?q=31.9978349,44.3141361",
      "lat": 31.9978349,
      "lng": 44.3141361,
      "halalFriendly": false,
      "bookingUrl": "https://maps.google.com/?q=31.9978349,44.3141361",
      "source": "osm"
    },
    {
      "nom": "فندق غريب كربلاء",
      "categorie": "Hôtel",
      "priceRange": "€€",
      "mapsUrl": "https://maps.google.com/?q=31.9980742,44.3141338",
      "lat": 31.9980742,
      "lng": 44.3141338,
      "halalFriendly": false,
      "bookingUrl": "https://maps.google.com/?q=31.9980742,44.3141338",
      "source": "osm"
    },
    {
      "nom": "فندق الموفق",
      "categorie": "Hôtel",
      "priceRange": "€€",
      "mapsUrl": "https://maps.google.com/?q=31.9946384,44.3149658",
      "lat": 31.9946384,
      "lng": 44.3149658,
      "halalFriendly": false,
      "bookingUrl": "https://maps.google.com/?q=31.9946384,44.3149658",
      "source": "osm"
    },
    {
      "nom": "فندق الامين",
      "categorie": "Hôtel",
      "priceRange": "€€",
      "mapsUrl": "https://maps.google.com/?q=31.9966463,44.3163149",
      "lat": 31.9966463,
      "lng": 44.3163149,
      "halalFriendly": false,
      "bookingUrl": "https://maps.google.com/?q=31.9966463,44.3163149",
      "source": "osm"
    },
    {
      "nom": "فندق الموفق",
      "categorie": "Hôtel",
      "priceRange": "€€",
      "mapsUrl": "https://maps.google.com/?q=31.9945796,44.3149761",
      "lat": 31.9945796,
      "lng": 44.3149761,
      "halalFriendly": false,
      "bookingUrl": "https://maps.google.com/?q=31.9945796,44.3149761",
      "source": "osm"
    },
    {
      "nom": "قصر الضيافه",
      "categorie": "Hôtel",
      "priceRange": "€€",
      "mapsUrl": "https://maps.google.com/?q=31.9950137,44.3126158",
      "lat": 31.9950137,
      "lng": 44.3126158,
      "halalFriendly": false,
      "bookingUrl": "https://maps.google.com/?q=31.9950137,44.3126158",
      "source": "osm"
    },
    {
      "nom": "فندق قصر الصفا",
      "categorie": "Hôtel",
      "priceRange": "€€",
      "mapsUrl": "https://maps.google.com/?q=31.994542,44.3150872",
      "lat": 31.994542,
      "lng": 44.3150872,
      "halalFriendly": false,
      "bookingUrl": "https://maps.google.com/?q=31.994542,44.3150872",
      "source": "osm"
    },
    {
      "nom": "فندق الجميل",
      "categorie": "Hôtel",
      "priceRange": "€€",
      "mapsUrl": "https://maps.google.com/?q=31.9954132,44.3162752",
      "lat": 31.9954132,
      "lng": 44.3162752,
      "halalFriendly": false,
      "bookingUrl": "https://maps.google.com/?q=31.9954132,44.3162752",
      "source": "osm"
    },
    {
      "nom": "فندق ومطعم قصر الدر",
      "categorie": "Hôtel",
      "priceRange": "€€",
      "mapsUrl": "https://maps.google.com/?q=31.9967333,44.3165292",
      "lat": 31.9967333,
      "lng": 44.3165292,
      "halalFriendly": false,
      "bookingUrl": "https://maps.google.com/?q=31.9967333,44.3165292",
      "source": "osm"
    },
    {
      "nom": "مجمع ضيافة الامام الحسن",
      "categorie": "Hôtel",
      "priceRange": "€€",
      "mapsUrl": "https://maps.google.com/?q=31.9944622,44.3131236",
      "lat": 31.9944622,
      "lng": 44.3131236,
      "halalFriendly": false,
      "bookingUrl": "https://maps.google.com/?q=31.9944622,44.3131236",
      "source": "osm"
    },
    {
      "nom": "فندق ومطعم القاسم ع",
      "categorie": "Hôtel",
      "priceRange": "€€",
      "mapsUrl": "https://maps.google.com/?q=31.9943663,44.3150835",
      "lat": 31.9943663,
      "lng": 44.3150835,
      "halalFriendly": false,
      "bookingUrl": "https://maps.google.com/?q=31.9943663,44.3150835",
      "source": "osm"
    },
    {
      "nom": "فندق قصر الدر",
      "categorie": "Hôtel",
      "priceRange": "€€",
      "mapsUrl": "https://maps.google.com/?q=31.9968248,44.3166034",
      "lat": 31.9968248,
      "lng": 44.3166034,
      "halalFriendly": false,
      "bookingUrl": "https://maps.google.com/?q=31.9968248,44.3166034",
      "source": "osm"
    },
    {
      "nom": "فندق النخلة",
      "categorie": "Hôtel",
      "priceRange": "€€",
      "mapsUrl": "https://maps.google.com/?q=31.9982888,44.3132336",
      "lat": 31.9982888,
      "lng": 44.3132336,
      "halalFriendly": false,
      "bookingUrl": "https://maps.google.com/?q=31.9982888,44.3132336",
      "source": "osm"
    },
    {
      "nom": "فندق القاسم",
      "categorie": "Hôtel",
      "priceRange": "€€",
      "mapsUrl": "https://maps.google.com/?q=31.9941675,44.3151074",
      "lat": 31.9941675,
      "lng": 44.3151074,
      "halalFriendly": false,
      "bookingUrl": "https://maps.google.com/?q=31.9941675,44.3151074",
      "source": "osm"
    },
    {
      "nom": "قصر الاسد",
      "categorie": "Hôtel",
      "priceRange": "€€",
      "mapsUrl": "https://maps.google.com/?q=31.9949418,44.3119512",
      "lat": 31.9949418,
      "lng": 44.3119512,
      "halalFriendly": false,
      "bookingUrl": "https://maps.google.com/?q=31.9949418,44.3119512",
      "source": "osm"
    },
    {
      "nom": "فندق الباسم",
      "categorie": "Hôtel",
      "priceRange": "€€",
      "mapsUrl": "https://maps.google.com/?q=31.9987007,44.3145556",
      "lat": 31.9987007,
      "lng": 44.3145556,
      "halalFriendly": false,
      "bookingUrl": "https://maps.google.com/?q=31.9987007,44.3145556",
      "source": "osm"
    },
    {
      "nom": "فندق ومطعم قصر الاسد",
      "categorie": "Hôtel",
      "priceRange": "€€",
      "mapsUrl": "https://maps.google.com/?q=31.9949405,44.3118313",
      "lat": 31.9949405,
      "lng": 44.3118313,
      "halalFriendly": false,
      "bookingUrl": "https://maps.google.com/?q=31.9949405,44.3118313",
      "source": "osm"
    },
    {
      "nom": "ضيوف الرحمن",
      "categorie": "Hôtel",
      "priceRange": "€€",
      "mapsUrl": "https://maps.google.com/?q=31.995512,44.3170024",
      "lat": 31.995512,
      "lng": 44.3170024,
      "halalFriendly": false,
      "bookingUrl": "https://maps.google.com/?q=31.995512,44.3170024",
      "source": "osm"
    },
    {
      "nom": "Qaser Al Molouk",
      "categorie": "Hôtel",
      "priceRange": "€€",
      "mapsUrl": "https://maps.google.com/?q=31.9979683,44.3118379",
      "lat": 31.9979683,
      "lng": 44.3118379,
      "halalFriendly": false,
      "bookingUrl": "https://maps.google.com/?q=31.9979683,44.3118379",
      "source": "osm"
    },
    {
      "nom": "فندق نبع الكوثر",
      "categorie": "Hôtel",
      "priceRange": "€€",
      "mapsUrl": "https://maps.google.com/?q=31.9942797,44.3120992",
      "lat": 31.9942797,
      "lng": 44.3120992,
      "halalFriendly": false,
      "bookingUrl": "https://maps.google.com/?q=31.9942797,44.3120992",
      "source": "osm"
    },
    {
      "nom": "فندق قصر الملوك",
      "categorie": "Hôtel",
      "priceRange": "€€",
      "mapsUrl": "https://maps.google.com/?q=31.998993,44.3140402",
      "lat": 31.998993,
      "lng": 44.3140402,
      "halalFriendly": false,
      "bookingUrl": "https://maps.google.com/?q=31.998993,44.3140402",
      "source": "osm"
    },
    {
      "nom": "فندق قصر البشير",
      "categorie": "Hôtel",
      "priceRange": "€€",
      "mapsUrl": "https://maps.google.com/?q=31.9935372,44.3138771",
      "lat": 31.9935372,
      "lng": 44.3138771,
      "halalFriendly": false,
      "bookingUrl": "https://maps.google.com/?q=31.9935372,44.3138771",
      "source": "osm"
    },
    {
      "nom": "فندق قصر الضيافة (المناهل)",
      "categorie": "Hôtel",
      "priceRange": "€€",
      "mapsUrl": "https://maps.google.com/?q=31.9972217,44.3173407",
      "lat": 31.9972217,
      "lng": 44.3173407,
      "halalFriendly": false,
      "bookingUrl": "https://maps.google.com/?q=31.9972217,44.3173407",
      "source": "osm"
    },
    {
      "nom": "فندق يس - yaseen hotel",
      "categorie": "Hôtel",
      "priceRange": "€€",
      "mapsUrl": "https://maps.google.com/?q=31.9951639,44.3173088",
      "lat": 31.9951639,
      "lng": 44.3173088,
      "halalFriendly": false,
      "bookingUrl": "https://maps.google.com/?q=31.9951639,44.3173088",
      "source": "osm"
    },
    {
      "nom": "فندق ومطعم الحرير",
      "categorie": "Hôtel",
      "priceRange": "€€",
      "mapsUrl": "https://maps.google.com/?q=31.9935907,44.3154103",
      "lat": 31.9935907,
      "lng": 44.3154103,
      "halalFriendly": false,
      "bookingUrl": "https://maps.google.com/?q=31.9935907,44.3154103",
      "source": "osm"
    },
    {
      "nom": "فندق ومطعم النجم الذهبي",
      "categorie": "Hôtel",
      "priceRange": "€€",
      "mapsUrl": "https://maps.google.com/?q=31.9965757,44.3177233",
      "lat": 31.9965757,
      "lng": 44.3177233,
      "halalFriendly": false,
      "bookingUrl": "https://maps.google.com/?q=31.9965757,44.3177233",
      "source": "osm"
    },
    {
      "nom": "البراق",
      "categorie": "Hôtel",
      "priceRange": "€€",
      "mapsUrl": "https://maps.google.com/?q=31.9969235,44.3177141",
      "lat": 31.9969235,
      "lng": 44.3177141,
      "halalFriendly": false,
      "bookingUrl": "https://maps.google.com/?q=31.9969235,44.3177141",
      "source": "osm"
    },
    {
      "nom": "فندق ومطعم قصر النبلاء",
      "categorie": "Hôtel",
      "priceRange": "€€",
      "mapsUrl": "https://maps.google.com/?q=31.9970067,44.3178134",
      "lat": 31.9970067,
      "lng": 44.3178134,
      "halalFriendly": false,
      "bookingUrl": "https://maps.google.com/?q=31.9970067,44.3178134",
      "source": "osm"
    },
    {
      "nom": "فندق رياحين الجنة السياحي",
      "categorie": "Hôtel",
      "priceRange": "€€",
      "mapsUrl": "https://maps.google.com/?q=31.9932128,44.3153212",
      "lat": 31.9932128,
      "lng": 44.3153212,
      "halalFriendly": false,
      "bookingUrl": "https://maps.google.com/?q=31.9932128,44.3153212",
      "source": "osm"
    },
    {
      "nom": "قصر العباس ع",
      "categorie": "Hôtel",
      "priceRange": "€€",
      "mapsUrl": "https://maps.google.com/?q=31.9948407,44.3107265",
      "lat": 31.9948407,
      "lng": 44.3107265,
      "halalFriendly": false,
      "bookingUrl": "https://maps.google.com/?q=31.9948407,44.3107265",
      "source": "osm"
    },
    {
      "nom": "فندق الزهور",
      "categorie": "Hôtel",
      "priceRange": "€€",
      "mapsUrl": "https://maps.google.com/?q=31.9955735,44.3180972",
      "lat": 31.9955735,
      "lng": 44.3180972,
      "halalFriendly": false,
      "bookingUrl": "https://maps.google.com/?q=31.9955735,44.3180972",
      "source": "osm"
    },
    {
      "nom": "فندق الزاهر",
      "categorie": "Hôtel",
      "priceRange": "€€",
      "mapsUrl": "https://maps.google.com/?q=31.9930505,44.3155653",
      "lat": 31.9930505,
      "lng": 44.3155653,
      "halalFriendly": false,
      "bookingUrl": "https://maps.google.com/?q=31.9930505,44.3155653",
      "source": "osm"
    },
    {
      "nom": "فندق ومطعم الضاحيه الجنوبيه",
      "categorie": "Hôtel",
      "priceRange": "€€",
      "mapsUrl": "https://maps.google.com/?q=31.9941975,44.310927",
      "lat": 31.9941975,
      "lng": 44.310927,
      "halalFriendly": false,
      "bookingUrl": "https://maps.google.com/?q=31.9941975,44.310927",
      "source": "osm"
    },
    {
      "nom": "فندق حواء",
      "categorie": "Hôtel",
      "priceRange": "€€",
      "mapsUrl": "https://maps.google.com/?q=31.9929994,44.3155309",
      "lat": 31.9929994,
      "lng": 44.3155309,
      "halalFriendly": false,
      "bookingUrl": "https://maps.google.com/?q=31.9929994,44.3155309",
      "source": "osm"
    },
    {
      "nom": "فندق حواء",
      "categorie": "Hôtel",
      "priceRange": "€€",
      "mapsUrl": "https://maps.google.com/?q=31.9929079,44.3154615",
      "lat": 31.9929079,
      "lng": 44.3154615,
      "halalFriendly": false,
      "bookingUrl": "https://maps.google.com/?q=31.9929079,44.3154615",
      "source": "osm"
    },
    {
      "nom": "فندق قصر العرب",
      "categorie": "Hôtel",
      "priceRange": "€€",
      "mapsUrl": "https://maps.google.com/?q=31.9948126,44.31023",
      "lat": 31.9948126,
      "lng": 44.31023,
      "halalFriendly": false,
      "bookingUrl": "https://maps.google.com/?q=31.9948126,44.31023",
      "source": "osm"
    },
    {
      "nom": "فندق قصر العرب النجف الاشرف",
      "categorie": "Hôtel",
      "priceRange": "€€",
      "mapsUrl": "https://maps.google.com/?q=31.994768,44.3102391",
      "lat": 31.994768,
      "lng": 44.3102391,
      "halalFriendly": false,
      "bookingUrl": "https://maps.google.com/?q=31.994768,44.3102391",
      "source": "osm"
    },
    {
      "nom": "فندق الابرار",
      "categorie": "Hôtel",
      "priceRange": "€€",
      "mapsUrl": "https://maps.google.com/?q=31.9954364,44.3184756",
      "lat": 31.9954364,
      "lng": 44.3184756,
      "halalFriendly": false,
      "bookingUrl": "https://maps.google.com/?q=31.9954364,44.3184756",
      "source": "osm"
    },
    {
      "nom": "فندق ومطعم المقام السياحي",
      "categorie": "Hôtel",
      "priceRange": "€€",
      "mapsUrl": "https://maps.google.com/?q=31.9944539,44.3103491",
      "lat": 31.9944539,
      "lng": 44.3103491,
      "halalFriendly": false,
      "bookingUrl": "https://maps.google.com/?q=31.9944539,44.3103491",
      "source": "osm"
    },
    {
      "nom": "فندق ضيوف الكوثر",
      "categorie": "Hôtel",
      "priceRange": "€€",
      "mapsUrl": "https://maps.google.com/?q=31.9926135,44.315098",
      "lat": 31.9926135,
      "lng": 44.315098,
      "halalFriendly": false,
      "bookingUrl": "https://maps.google.com/?q=31.9926135,44.315098",
      "source": "osm"
    },
    {
      "nom": "Hotel Asadullah",
      "categorie": "Hôtel",
      "priceRange": "€€",
      "mapsUrl": "https://maps.google.com/?q=31.9955709,44.318654",
      "lat": 31.9955709,
      "lng": 44.318654,
      "halalFriendly": false,
      "bookingUrl": "https://maps.google.com/?q=31.9955709,44.318654",
      "source": "osm"
    },
    {
      "nom": "فندق المحسن",
      "categorie": "Hôtel",
      "priceRange": "€€",
      "mapsUrl": "https://maps.google.com/?q=31.9952096,44.3186265",
      "lat": 31.9952096,
      "lng": 44.3186265,
      "halalFriendly": false,
      "bookingUrl": "https://maps.google.com/?q=31.9952096,44.3186265",
      "source": "osm"
    },
    {
      "nom": "فندق المحسن",
      "categorie": "Hôtel",
      "priceRange": "€€",
      "mapsUrl": "https://maps.google.com/?q=31.995164,44.3186439",
      "lat": 31.995164,
      "lng": 44.3186439,
      "halalFriendly": false,
      "bookingUrl": "https://maps.google.com/?q=31.995164,44.3186439",
      "source": "osm"
    },
    {
      "nom": "فندق شمس الشموس",
      "categorie": "Hôtel",
      "priceRange": "€€",
      "mapsUrl": "https://maps.google.com/?q=31.9926108,44.315913",
      "lat": 31.9926108,
      "lng": 44.315913,
      "halalFriendly": false,
      "bookingUrl": "https://maps.google.com/?q=31.9926108,44.315913",
      "source": "osm"
    },
    {
      "nom": "الامام علي",
      "categorie": "Maison d'hôtes",
      "priceRange": "€€",
      "mapsUrl": "https://maps.google.com/?q=31.9924621,44.3155682",
      "lat": 31.9924621,
      "lng": 44.3155682,
      "halalFriendly": false,
      "bookingUrl": "https://maps.google.com/?q=31.9924621,44.3155682",
      "source": "osm"
    },
    {
      "nom": "فندق بلودان السياحي",
      "categorie": "Hôtel",
      "priceRange": "€€",
      "mapsUrl": "https://maps.google.com/?q=31.9967791,44.3094779",
      "lat": 31.9967791,
      "lng": 44.3094779,
      "halalFriendly": false,
      "bookingUrl": "https://maps.google.com/?q=31.9967791,44.3094779",
      "source": "osm"
    },
    {
      "nom": "فندق خيرات طيبة",
      "categorie": "Hôtel",
      "priceRange": "€€",
      "mapsUrl": "https://maps.google.com/?q=31.9922931,44.3159444",
      "lat": 31.9922931,
      "lng": 44.3159444,
      "halalFriendly": false,
      "bookingUrl": "https://maps.google.com/?q=31.9922931,44.3159444",
      "source": "osm"
    },
    {
      "nom": "فندق ومطعم الخير",
      "categorie": "Hôtel",
      "priceRange": "€€",
      "mapsUrl": "https://maps.google.com/?q=31.9923123,44.3161878",
      "lat": 31.9923123,
      "lng": 44.3161878,
      "halalFriendly": false,
      "bookingUrl": "https://maps.google.com/?q=31.9923123,44.3161878",
      "source": "osm"
    },
    {
      "nom": "فندق مجمع زمزم",
      "categorie": "Hôtel",
      "priceRange": "€€",
      "mapsUrl": "https://maps.google.com/?q=31.9944957,44.30949",
      "lat": 31.9944957,
      "lng": 44.30949,
      "halalFriendly": false,
      "bookingUrl": "https://maps.google.com/?q=31.9944957,44.30949",
      "source": "osm"
    },
    {
      "nom": "فندق زمزم",
      "categorie": "Hôtel",
      "priceRange": "€€",
      "mapsUrl": "https://maps.google.com/?q=31.9943286,44.3095088",
      "lat": 31.9943286,
      "lng": 44.3095088,
      "halalFriendly": false,
      "bookingUrl": "https://maps.google.com/?q=31.9943286,44.3095088",
      "source": "osm"
    },
    {
      "nom": "قبر المرحوم استاذ جوهر ويس ادريس",
      "categorie": "Appartement",
      "priceRange": "€€",
      "mapsUrl": "https://maps.google.com/?q=32.0007718,44.313872",
      "lat": 32.0007718,
      "lng": 44.313872,
      "halalFriendly": false,
      "bookingUrl": "https://maps.google.com/?q=32.0007718,44.313872",
      "source": "osm"
    },
    {
      "nom": "فندق النجف الدولي",
      "categorie": "Hôtel",
      "priceRange": "€€",
      "mapsUrl": "https://maps.google.com/?q=31.9934871,44.3100653",
      "lat": 31.9934871,
      "lng": 44.3100653,
      "halalFriendly": false,
      "bookingUrl": "https://maps.google.com/?q=31.9934871,44.3100653",
      "source": "osm"
    },
    {
      "nom": "فندق شجره بحرالنجف",
      "categorie": "Auberge",
      "priceRange": "€€",
      "mapsUrl": "https://maps.google.com/?q=31.9921504,44.3116594",
      "lat": 31.9921504,
      "lng": 44.3116594,
      "halalFriendly": false,
      "bookingUrl": "https://maps.google.com/?q=31.9921504,44.3116594",
      "source": "osm"
    },
    {
      "nom": "ضيوف الإمام 2",
      "categorie": "Hôtel",
      "priceRange": "€€",
      "mapsUrl": "https://maps.google.com/?q=31.9915808,44.3144338",
      "lat": 31.9915808,
      "lng": 44.3144338,
      "halalFriendly": false,
      "bookingUrl": "https://maps.google.com/?q=31.9915808,44.3144338",
      "source": "osm"
    },
    {
      "nom": "فندق بركات الحوراء",
      "categorie": "Hôtel",
      "priceRange": "€€",
      "mapsUrl": "https://maps.google.com/?q=31.9916257,44.3128315",
      "lat": 31.9916257,
      "lng": 44.3128315,
      "halalFriendly": false,
      "bookingUrl": "https://maps.google.com/?q=31.9916257,44.3128315",
      "source": "osm"
    },
    {
      "nom": "Najaf Do Hotel فندق دو النجف",
      "categorie": "Hôtel",
      "priceRange": "€€",
      "mapsUrl": "https://maps.google.com/?q=31.9965174,44.3199152",
      "lat": 31.9965174,
      "lng": 44.3199152,
      "halalFriendly": false,
      "bookingUrl": "https://maps.google.com/?q=31.9965174,44.3199152",
      "source": "osm"
    },
    {
      "nom": "فندق و مطعم البستان السياحي",
      "categorie": "Hôtel",
      "priceRange": "€€",
      "mapsUrl": "https://maps.google.com/?q=31.9925327,44.3178941",
      "lat": 31.9925327,
      "lng": 44.3178941,
      "halalFriendly": false,
      "bookingUrl": "http://ss.jacklaith@yahoo.ir",
      "source": "osm"
    },
    {
      "nom": "فندق اللؤلؤه 9طابق",
      "categorie": "Hôtel",
      "priceRange": "€€",
      "mapsUrl": "https://maps.google.com/?q=31.9916686,44.3161795",
      "lat": 31.9916686,
      "lng": 44.3161795,
      "halalFriendly": false,
      "bookingUrl": "https://maps.google.com/?q=31.9916686,44.3161795",
      "source": "osm"
    },
    {
      "nom": "فندق الروضة",
      "categorie": "Hôtel",
      "priceRange": "€€",
      "mapsUrl": "https://maps.google.com/?q=31.991682,44.3164207",
      "lat": 31.991682,
      "lng": 44.3164207,
      "halalFriendly": false,
      "bookingUrl": "https://maps.google.com/?q=31.991682,44.3164207",
      "source": "osm"
    },
    {
      "nom": "فندق الايوان",
      "categorie": "Hôtel",
      "priceRange": "€€",
      "mapsUrl": "https://maps.google.com/?q=31.9924528,44.3183681",
      "lat": 31.9924528,
      "lng": 44.3183681,
      "halalFriendly": false,
      "bookingUrl": "https://maps.google.com/?q=31.9924528,44.3183681",
      "source": "osm"
    },
    {
      "nom": "فندق ارض السهلة",
      "categorie": "Hôtel",
      "priceRange": "€€",
      "mapsUrl": "https://maps.google.com/?q=31.9914836,44.3166314",
      "lat": 31.9914836,
      "lng": 44.3166314,
      "halalFriendly": false,
      "bookingUrl": "https://maps.google.com/?q=31.9914836,44.3166314",
      "source": "osm"
    },
    {
      "nom": "فندق ام القرى",
      "categorie": "Hôtel",
      "priceRange": "€€",
      "mapsUrl": "https://maps.google.com/?q=31.9965086,44.3204594",
      "lat": 31.9965086,
      "lng": 44.3204594,
      "halalFriendly": false,
      "bookingUrl": "https://maps.google.com/?q=31.9965086,44.3204594",
      "source": "osm"
    },
    {
      "nom": "فندق ارض السهلة",
      "categorie": "Hôtel",
      "priceRange": "€€",
      "mapsUrl": "https://maps.google.com/?q=31.991244,44.3164324",
      "lat": 31.991244,
      "lng": 44.3164324,
      "halalFriendly": false,
      "bookingUrl": "https://maps.google.com/?q=31.991244,44.3164324",
      "source": "osm"
    },
    {
      "nom": "فندق جنة الفائز",
      "categorie": "Hôtel",
      "priceRange": "€€",
      "mapsUrl": "https://maps.google.com/?q=31.9914623,44.317066",
      "lat": 31.9914623,
      "lng": 44.317066,
      "halalFriendly": false,
      "bookingUrl": "https://maps.google.com/?q=31.9914623,44.317066",
      "source": "osm"
    },
    {
      "nom": "فندق ومطعم نجمه النجف",
      "categorie": "Hôtel",
      "priceRange": "€€",
      "mapsUrl": "https://maps.google.com/?q=31.9923669,44.3187437",
      "lat": 31.9923669,
      "lng": 44.3187437,
      "halalFriendly": false,
      "bookingUrl": "https://maps.google.com/?q=31.9923669,44.3187437",
      "source": "osm"
    },
    {
      "nom": "فندق الأبراج السياحي",
      "categorie": "Hôtel",
      "priceRange": "€€",
      "mapsUrl": "https://maps.google.com/?q=31.9910669,44.3165151",
      "lat": 31.9910669,
      "lng": 44.3165151,
      "halalFriendly": false,
      "bookingUrl": "https://maps.google.com/?q=31.9910669,44.3165151",
      "source": "osm"
    },
    {
      "nom": "فندق نسيم النجف",
      "categorie": "Hôtel",
      "priceRange": "€€",
      "mapsUrl": "https://maps.google.com/?q=31.9943544,44.3079847",
      "lat": 31.9943544,
      "lng": 44.3079847,
      "halalFriendly": false,
      "bookingUrl": "https://maps.google.com/?q=31.9943544,44.3079847",
      "source": "osm"
    },
    {
      "nom": "فندق الاعراف",
      "categorie": "Hôtel",
      "priceRange": "€€",
      "mapsUrl": "https://maps.google.com/?q=31.994919,44.3207359",
      "lat": 31.994919,
      "lng": 44.3207359,
      "halalFriendly": false,
      "bookingUrl": "https://maps.google.com/?q=31.994919,44.3207359",
      "source": "osm"
    },
    {
      "nom": "فندق الخيام",
      "categorie": "Hôtel",
      "priceRange": "€€",
      "mapsUrl": "https://maps.google.com/?q=31.9916571,44.3183747",
      "lat": 31.9916571,
      "lng": 44.3183747,
      "halalFriendly": false,
      "bookingUrl": "https://maps.google.com/?q=31.9916571,44.3183747",
      "source": "osm"
    },
    {
      "nom": "فندق سفينة الحسين",
      "categorie": "Hôtel",
      "priceRange": "€€",
      "mapsUrl": "https://maps.google.com/?q=31.9939817,44.3205508",
      "lat": 31.9939817,
      "lng": 44.3205508,
      "halalFriendly": false,
      "bookingUrl": "https://maps.google.com/?q=31.9939817,44.3205508",
      "source": "osm"
    },
    {
      "nom": "فندق الثقلين السياحي",
      "categorie": "Hôtel",
      "priceRange": "€€",
      "mapsUrl": "https://maps.google.com/?q=31.9917494,44.3188687",
      "lat": 31.9917494,
      "lng": 44.3188687,
      "halalFriendly": false,
      "bookingUrl": "https://maps.google.com/?q=31.9917494,44.3188687",
      "source": "osm"
    },
    {
      "nom": "فندق زينة الارض",
      "categorie": "Hôtel",
      "priceRange": "€€",
      "mapsUrl": "https://maps.google.com/?q=31.9959449,44.3214021",
      "lat": 31.9959449,
      "lng": 44.3214021,
      "halalFriendly": false,
      "bookingUrl": "https://maps.google.com/?q=31.9959449,44.3214021",
      "source": "osm"
    },
    {
      "nom": "Hotel Jannat Ul Ard",
      "categorie": "Hôtel",
      "priceRange": "€€",
      "mapsUrl": "https://maps.google.com/?q=31.9959681,44.3215211",
      "lat": 31.9959681,
      "lng": 44.3215211,
      "halalFriendly": false,
      "bookingUrl": "https://maps.google.com/?q=31.9959681,44.3215211",
      "source": "osm"
    },
    {
      "nom": "الشيخ محمد الزهيري",
      "categorie": "Maison d'hôtes",
      "priceRange": "€€",
      "mapsUrl": "https://maps.google.com/?q=31.9905031,44.3173176",
      "lat": 31.9905031,
      "lng": 44.3173176,
      "halalFriendly": false,
      "bookingUrl": "https://maps.google.com/?q=31.9905031,44.3173176",
      "source": "osm"
    },
    {
      "nom": "فندق الساحل",
      "categorie": "Hôtel",
      "priceRange": "€€",
      "mapsUrl": "https://maps.google.com/?q=31.9899957,44.3158074",
      "lat": 31.9899957,
      "lng": 44.3158074,
      "halalFriendly": false,
      "bookingUrl": "https://maps.google.com/?q=31.9899957,44.3158074",
      "source": "osm"
    },
    {
      "nom": "فندق القائم",
      "categorie": "Hôtel",
      "priceRange": "€€",
      "mapsUrl": "https://maps.google.com/?q=31.9933243,44.3210106",
      "lat": 31.9933243,
      "lng": 44.3210106,
      "halalFriendly": false,
      "bookingUrl": "https://maps.google.com/?q=31.9933243,44.3210106",
      "source": "osm"
    },
    {
      "nom": "Aldoheh",
      "categorie": "Hôtel",
      "priceRange": "€€",
      "mapsUrl": "https://maps.google.com/?q=31.9965209,44.3222864",
      "lat": 31.9965209,
      "lng": 44.3222864,
      "halalFriendly": false,
      "bookingUrl": "https://maps.google.com/?q=31.9965209,44.3222864",
      "source": "osm"
    },
    {
      "nom": "Hotel Qasr Zaereen",
      "categorie": "Hôtel",
      "priceRange": "€€",
      "mapsUrl": "https://maps.google.com/?q=31.995321,44.3222775",
      "lat": 31.995321,
      "lng": 44.3222775,
      "halalFriendly": false,
      "bookingUrl": "https://maps.google.com/?q=31.995321,44.3222775",
      "source": "osm"
    },
    {
      "nom": "كل الاقمار",
      "categorie": "Hôtel",
      "priceRange": "€€",
      "mapsUrl": "https://maps.google.com/?q=31.9897643,44.3170369",
      "lat": 31.9897643,
      "lng": 44.3170369,
      "halalFriendly": false,
      "bookingUrl": "https://maps.google.com/?q=31.9897643,44.3170369",
      "source": "osm"
    },
    {
      "nom": "فندق مدينة البشرى",
      "categorie": "Hôtel",
      "priceRange": "€€",
      "mapsUrl": "https://maps.google.com/?q=31.9899402,44.3178954",
      "lat": 31.9899402,
      "lng": 44.3178954,
      "halalFriendly": false,
      "bookingUrl": "https://maps.google.com/?q=31.9899402,44.3178954",
      "source": "osm"
    },
    {
      "nom": "فندق نسيم الفرات",
      "categorie": "Hôtel",
      "priceRange": "€€",
      "mapsUrl": "https://maps.google.com/?q=31.9953222,44.3225532",
      "lat": 31.9953222,
      "lng": 44.3225532,
      "halalFriendly": false,
      "bookingUrl": "https://maps.google.com/?q=31.9953222,44.3225532",
      "source": "osm"
    },
    {
      "nom": "فندق السامي",
      "categorie": "Hôtel",
      "priceRange": "€€",
      "mapsUrl": "https://maps.google.com/?q=31.9911365,44.3201414",
      "lat": 31.9911365,
      "lng": 44.3201414,
      "halalFriendly": false,
      "bookingUrl": "https://maps.google.com/?q=31.9911365,44.3201414",
      "source": "osm"
    },
    {
      "nom": "فندق ومطعم مدينة العطاء السياحي",
      "categorie": "Hôtel",
      "priceRange": "€€",
      "mapsUrl": "https://maps.google.com/?q=31.9968992,44.3227047",
      "lat": 31.9968992,
      "lng": 44.3227047,
      "halalFriendly": false,
      "bookingUrl": "https://maps.google.com/?q=31.9968992,44.3227047",
      "source": "osm"
    },
    {
      "nom": "درال ندا",
      "categorie": "Hôtel",
      "priceRange": "€€",
      "mapsUrl": "https://maps.google.com/?q=31.9966133,44.3228626",
      "lat": 31.9966133,
      "lng": 44.3228626,
      "halalFriendly": false,
      "bookingUrl": "https://maps.google.com/?q=31.9966133,44.3228626",
      "source": "osm"
    },
    {
      "nom": "فندق نسيم الفرات",
      "categorie": "Hôtel",
      "priceRange": "€€",
      "mapsUrl": "https://maps.google.com/?q=31.9956644,44.3228472",
      "lat": 31.9956644,
      "lng": 44.3228472,
      "halalFriendly": false,
      "bookingUrl": "https://maps.google.com/?q=31.9956644,44.3228472",
      "source": "osm"
    },
    {
      "nom": "فندق مدينة العطاء",
      "categorie": "Auberge",
      "priceRange": "€€",
      "mapsUrl": "https://maps.google.com/?q=31.9970157,44.3229798",
      "lat": 31.9970157,
      "lng": 44.3229798,
      "halalFriendly": false,
      "bookingUrl": "https://maps.google.com/?q=31.9970157,44.3229798",
      "source": "osm"
    },
    {
      "nom": "فندق قصر الأمجاد السياحي",
      "categorie": "Hôtel",
      "priceRange": "€€",
      "mapsUrl": "https://maps.google.com/?q=31.9953747,44.3230425",
      "lat": 31.9953747,
      "lng": 44.3230425,
      "halalFriendly": false,
      "bookingUrl": "https://maps.google.com/?q=31.9953747,44.3230425",
      "source": "osm"
    },
    {
      "nom": "Towa Hotel & Restaurant",
      "categorie": "Hôtel",
      "priceRange": "€€",
      "mapsUrl": "https://maps.google.com/?q=31.994987,44.3229791",
      "lat": 31.994987,
      "lng": 44.3229791,
      "halalFriendly": false,
      "bookingUrl": "https://maps.google.com/?q=31.994987,44.3229791",
      "source": "osm"
    },
    {
      "nom": "فندق الصفوة",
      "categorie": "Hôtel",
      "priceRange": "€€",
      "mapsUrl": "https://maps.google.com/?q=31.9910418,44.3206055",
      "lat": 31.9910418,
      "lng": 44.3206055,
      "halalFriendly": false,
      "bookingUrl": "https://maps.google.com/?q=31.9910418,44.3206055",
      "source": "osm"
    },
    {
      "nom": "فندق و مطعم تبوک",
      "categorie": "Hôtel",
      "priceRange": "€€",
      "mapsUrl": "https://maps.google.com/?q=31.9960936,44.323309",
      "lat": 31.9960936,
      "lng": 44.323309,
      "halalFriendly": false,
      "bookingUrl": "https://maps.google.com/?q=31.9960936,44.323309",
      "source": "osm"
    },
    {
      "nom": "فندق الرياحي Al Riahi Hotel",
      "categorie": "Hôtel",
      "priceRange": "€€",
      "mapsUrl": "https://maps.google.com/?q=31.9956098,44.3233478",
      "lat": 31.9956098,
      "lng": 44.3233478,
      "halalFriendly": false,
      "bookingUrl": "https://maps.google.com/?q=31.9956098,44.3233478",
      "source": "osm"
    },
    {
      "nom": "شارع الرسول",
      "categorie": "Auberge",
      "priceRange": "€€",
      "mapsUrl": "https://maps.google.com/?q=31.9900652,44.3198494",
      "lat": 31.9900652,
      "lng": 44.3198494,
      "halalFriendly": false,
      "bookingUrl": "https://maps.google.com/?q=31.9900652,44.3198494",
      "source": "osm"
    },
    {
      "nom": "فندق الثقلين",
      "categorie": "Hôtel",
      "priceRange": "€€",
      "mapsUrl": "https://maps.google.com/?q=31.9904078,44.3204107",
      "lat": 31.9904078,
      "lng": 44.3204107,
      "halalFriendly": false,
      "bookingUrl": "https://maps.google.com/?q=31.9904078,44.3204107",
      "source": "osm"
    },
    {
      "nom": "فندق الساحل",
      "categorie": "Hôtel",
      "priceRange": "€€",
      "mapsUrl": "https://maps.google.com/?q=31.9887484,44.3169598",
      "lat": 31.9887484,
      "lng": 44.3169598,
      "halalFriendly": false,
      "bookingUrl": "https://maps.google.com/?q=31.9887484,44.3169598",
      "source": "osm"
    },
    {
      "nom": "فندق الميقات",
      "categorie": "Hôtel",
      "priceRange": "€€",
      "mapsUrl": "https://maps.google.com/?q=31.9904435,44.3205043",
      "lat": 31.9904435,
      "lng": 44.3205043,
      "halalFriendly": false,
      "bookingUrl": "https://maps.google.com/?q=31.9904435,44.3205043",
      "source": "osm"
    },
    {
      "nom": "فندق ومطعم سارة",
      "categorie": "Hôtel",
      "priceRange": "€€",
      "mapsUrl": "https://maps.google.com/?q=31.995637,44.3237908",
      "lat": 31.995637,
      "lng": 44.3237908,
      "halalFriendly": false,
      "bookingUrl": "https://maps.google.com/?q=31.995637,44.3237908",
      "source": "osm"
    },
    {
      "nom": "فندق ومول بوخمسين",
      "categorie": "Hôtel",
      "priceRange": "€€",
      "mapsUrl": "https://maps.google.com/?q=31.9964824,44.3239189",
      "lat": 31.9964824,
      "lng": 44.3239189,
      "halalFriendly": false,
      "bookingUrl": "https://maps.google.com/?q=31.9964824,44.3239189",
      "source": "osm"
    },
    {
      "nom": "الكراج شارع الهاتف",
      "categorie": "Auberge",
      "priceRange": "€€",
      "mapsUrl": "https://maps.google.com/?q=31.9944253,44.3238256",
      "lat": 31.9944253,
      "lng": 44.3238256,
      "halalFriendly": false,
      "bookingUrl": "https://maps.google.com/?q=31.9944253,44.3238256",
      "source": "osm"
    },
    {
      "nom": "فندق ومطعم ديار الكريم",
      "categorie": "Hôtel",
      "priceRange": "€€",
      "mapsUrl": "https://maps.google.com/?q=31.9950124,44.3243768",
      "lat": 31.9950124,
      "lng": 44.3243768,
      "halalFriendly": false,
      "bookingUrl": "https://maps.google.com/?q=31.9950124,44.3243768",
      "source": "osm"
    },
    {
      "nom": "بيت الحاج ابو منصور السلامي",
      "categorie": "Maison d'hôtes",
      "priceRange": "€€",
      "mapsUrl": "https://maps.google.com/?q=31.9874291,44.3229226",
      "lat": 31.9874291,
      "lng": 44.3229226,
      "halalFriendly": false,
      "bookingUrl": "https://maps.google.com/?q=31.9874291,44.3229226",
      "source": "osm"
    },
    {
      "nom": "فندق قصر الجنان",
      "categorie": "Hôtel",
      "priceRange": "€€",
      "mapsUrl": "https://maps.google.com/?q=31.9970788,44.3289677",
      "lat": 31.9970788,
      "lng": 44.3289677,
      "halalFriendly": false,
      "bookingUrl": "https://maps.google.com/?q=31.9970788,44.3289677",
      "source": "osm"
    },
    {
      "nom": "فندق الهمام Al-Huma'am Hotel",
      "categorie": "Hôtel",
      "priceRange": "€€",
      "mapsUrl": "https://maps.google.com/?q=32.0000027,44.3295818",
      "lat": 32.0000027,
      "lng": 44.3295818,
      "halalFriendly": false,
      "bookingUrl": "https://maps.google.com/?q=32.0000027,44.3295818",
      "source": "osm"
    },
    {
      "nom": "فندق جوهرة بيروت",
      "categorie": "Auberge",
      "priceRange": "€€",
      "mapsUrl": "https://maps.google.com/?q=32.0031233,44.3302816",
      "lat": 32.0031233,
      "lng": 44.3302816,
      "halalFriendly": false,
      "bookingUrl": "https://maps.google.com/?q=32.0031233,44.3302816",
      "source": "osm"
    },
    {
      "nom": "فندق ابن غازي",
      "categorie": "Hôtel",
      "priceRange": "€€",
      "mapsUrl": "https://maps.google.com/?q=32.0039466,44.3298219",
      "lat": 32.0039466,
      "lng": 44.3298219,
      "halalFriendly": false,
      "bookingUrl": "https://maps.google.com/?q=32.0039466,44.3298219",
      "source": "osm"
    },
    {
      "nom": "فندق زمزم السياحي",
      "categorie": "Hôtel",
      "priceRange": "€€",
      "mapsUrl": "https://maps.google.com/?q=32.0015867,44.3314902",
      "lat": 32.0015867,
      "lng": 44.3314902,
      "halalFriendly": false,
      "bookingUrl": "https://maps.google.com/?q=32.0015867,44.3314902",
      "source": "osm"
    },
    {
      "nom": "فندق البيان",
      "categorie": "Maison d'hôtes",
      "priceRange": "€€",
      "mapsUrl": "https://maps.google.com/?q=32.0081176,44.3267239",
      "lat": 32.0081176,
      "lng": 44.3267239,
      "halalFriendly": false,
      "bookingUrl": "https://maps.google.com/?q=32.0081176,44.3267239",
      "source": "osm"
    },
    {
      "nom": "فندق النجمة الذهبية",
      "categorie": "Hôtel",
      "priceRange": "€€",
      "mapsUrl": "https://maps.google.com/?q=31.9964672,44.3331365",
      "lat": 31.9964672,
      "lng": 44.3331365,
      "halalFriendly": false,
      "bookingUrl": "https://maps.google.com/?q=31.9964672,44.3331365",
      "source": "osm"
    },
    {
      "nom": "فندق 5 نجوم النجف",
      "categorie": "Hôtel",
      "priceRange": "€€",
      "mapsUrl": "https://maps.google.com/?q=31.9962447,44.3332059",
      "lat": 31.9962447,
      "lng": 44.3332059,
      "halalFriendly": false,
      "bookingUrl": "https://maps.google.com/?q=31.9962447,44.3332059",
      "source": "osm"
    },
    {
      "nom": "فندق قصر الرضا",
      "categorie": "Hôtel",
      "priceRange": "€€",
      "mapsUrl": "https://maps.google.com/?q=32.002112,44.3331482",
      "lat": 32.002112,
      "lng": 44.3331482,
      "halalFriendly": false,
      "bookingUrl": "https://maps.google.com/?q=32.002112,44.3331482",
      "source": "osm"
    },
    {
      "nom": "خاله انتصار",
      "categorie": "Auberge",
      "priceRange": "€€",
      "mapsUrl": "https://maps.google.com/?q=32.0141918,44.3192024",
      "lat": 32.0141918,
      "lng": 44.3192024,
      "halalFriendly": false,
      "bookingUrl": "https://maps.google.com/?q=32.0141918,44.3192024",
      "source": "osm"
    },
    {
      "nom": "هيئة الحج والعمرة في النجف",
      "categorie": "Auberge",
      "priceRange": "€€",
      "mapsUrl": "https://maps.google.com/?q=32.0104467,44.3299731",
      "lat": 32.0104467,
      "lng": 44.3299731,
      "halalFriendly": false,
      "bookingUrl": "https://maps.google.com/?q=32.0104467,44.3299731",
      "source": "osm"
    },
    {
      "nom": "ولاية علي - Wilait Ali Hotel and restaurant",
      "categorie": "Hôtel",
      "priceRange": "€€",
      "mapsUrl": "https://maps.google.com/?q=32.0128088,44.3265852",
      "lat": 32.0128088,
      "lng": 44.3265852,
      "halalFriendly": false,
      "bookingUrl": "https://maps.google.com/?q=32.0128088,44.3265852",
      "source": "osm"
    },
    {
      "nom": "فندق الملاذ",
      "categorie": "Hôtel",
      "priceRange": "€€",
      "mapsUrl": "https://maps.google.com/?q=32.0033414,44.3379987",
      "lat": 32.0033414,
      "lng": 44.3379987,
      "halalFriendly": false,
      "bookingUrl": "https://maps.google.com/?q=32.0033414,44.3379987",
      "source": "osm"
    },
    {
      "nom": "فندق الفرقدين",
      "categorie": "Hôtel",
      "priceRange": "€€",
      "mapsUrl": "https://maps.google.com/?q=32.004645,44.3376178",
      "lat": 32.004645,
      "lng": 44.3376178,
      "halalFriendly": false,
      "bookingUrl": "https://maps.google.com/?q=32.004645,44.3376178",
      "source": "osm"
    },
    {
      "nom": "أبو أحمد محي",
      "categorie": "Maison d'hôtes",
      "priceRange": "€€",
      "mapsUrl": "https://maps.google.com/?q=32.0190884,44.3213213",
      "lat": 32.0190884,
      "lng": 44.3213213,
      "halalFriendly": false,
      "bookingUrl": "https://maps.google.com/?q=32.0190884,44.3213213",
      "source": "osm"
    },
    {
      "nom": "عملية فطاطمه",
      "categorie": "Maison d'hôtes",
      "priceRange": "€€",
      "mapsUrl": "https://maps.google.com/?q=32.0069843,44.339826",
      "lat": 32.0069843,
      "lng": 44.339826,
      "halalFriendly": false,
      "bookingUrl": "https://maps.google.com/?q=32.0069843,44.339826",
      "source": "osm"
    },
    {
      "nom": "العربية",
      "categorie": "Auberge",
      "priceRange": "€€",
      "mapsUrl": "https://maps.google.com/?q=31.9996385,44.3440967",
      "lat": 31.9996385,
      "lng": 44.3440967,
      "halalFriendly": false,
      "bookingUrl": "http://www.wadi_alchri@yahoo.com",
      "source": "osm"
    },
    {
      "nom": "حي الاطباء",
      "categorie": "Appartement",
      "priceRange": "€€",
      "mapsUrl": "https://maps.google.com/?q=32.0204717,44.3252888",
      "lat": 32.0204717,
      "lng": 44.3252888,
      "halalFriendly": false,
      "bookingUrl": "https://maps.google.com/?q=32.0204717,44.3252888",
      "source": "osm"
    }
  ],
  "mosqueesPrincipales": [
    {
      "id": "m3745490633",
      "nom": "مسجد شيخ الطوسي",
      "type": "Mosquée",
      "adresse": "شارع الطوسي",
      "description": "Lieu de prière (OpenStreetMap).",
      "mapsUrl": "https://maps.google.com/?q=31.9970091,44.3145712",
      "lat": 31.9970091,
      "lng": 44.3145712,
      "source": "osm"
    },
    {
      "id": "m3745514925",
      "nom": "جامع الشيخ الانصاري",
      "type": "Mosquée",
      "adresse": "",
      "description": "Lieu de prière (OpenStreetMap).",
      "mapsUrl": "https://maps.google.com/?q=31.9929896,44.3146357",
      "lat": 31.9929896,
      "lng": 44.3146357,
      "source": "osm"
    },
    {
      "id": "m11669070760",
      "nom": "مقام الامام زين العابدين",
      "type": "Mosquée",
      "adresse": "",
      "description": "Lieu de prière (OpenStreetMap).",
      "mapsUrl": "https://maps.google.com/?q=31.9958183,44.3091979",
      "lat": 31.9958183,
      "lng": 44.3091979,
      "source": "osm"
    },
    {
      "id": "m1097262196",
      "nom": "مرقد هود وصالح",
      "type": "Mosquée",
      "adresse": "",
      "description": "Lieu de prière (OpenStreetMap).",
      "mapsUrl": "https://maps.google.com/?q=32.0001412,44.3164517",
      "lat": 32.0001412,
      "lng": 44.3164517,
      "source": "osm"
    },
    {
      "id": "m370843335",
      "nom": "مقام صافي صفا اليماني",
      "type": "Mosquée",
      "adresse": "",
      "description": "Lieu de prière (OpenStreetMap).",
      "mapsUrl": "https://maps.google.com/?q=31.9952104,44.3091977",
      "lat": 31.9952104,
      "lng": 44.3091977,
      "source": "osm"
    },
    {
      "id": "m4597827589",
      "nom": "مدرسة الامام الجواد",
      "type": "Mosquée",
      "adresse": "",
      "description": "Lieu de prière (OpenStreetMap).",
      "mapsUrl": "https://maps.google.com/?q=31.9920266,44.3210631",
      "lat": 31.9920266,
      "lng": 44.3210631,
      "source": "osm"
    },
    {
      "id": "m11669070765",
      "nom": "جامع صلاح الدين",
      "type": "Mosquée",
      "adresse": "",
      "description": "Lieu de prière (OpenStreetMap).",
      "mapsUrl": "https://maps.google.com/?q=31.9901361,44.3094247",
      "lat": 31.9901361,
      "lng": 44.3094247,
      "source": "osm"
    },
    {
      "id": "m11662176897",
      "nom": "جامع أم البنين",
      "type": "Mosquée",
      "adresse": "",
      "description": "Lieu de prière (OpenStreetMap).",
      "mapsUrl": "https://maps.google.com/?q=31.9888972,44.3220274",
      "lat": 31.9888972,
      "lng": 44.3220274,
      "source": "osm"
    },
    {
      "id": "m4127278091",
      "nom": "جامع الرحباوي",
      "type": "Mosquée",
      "adresse": "",
      "description": "Lieu de prière (OpenStreetMap).",
      "mapsUrl": "https://maps.google.com/?q=31.99232,44.3260858",
      "lat": 31.99232,
      "lng": 44.3260858,
      "source": "osm"
    },
    {
      "id": "m11662176890",
      "nom": "جامع ابو المناره",
      "type": "Mosquée",
      "adresse": "",
      "description": "Lieu de prière (OpenStreetMap).",
      "mapsUrl": "https://maps.google.com/?q=31.9852044,44.3215686",
      "lat": 31.9852044,
      "lng": 44.3215686,
      "source": "osm"
    },
    {
      "id": "m11662176888",
      "nom": "جامع العدل",
      "type": "Mosquée",
      "adresse": "",
      "description": "Lieu de prière (OpenStreetMap).",
      "mapsUrl": "https://maps.google.com/?q=31.9835006,44.3228663",
      "lat": 31.9835006,
      "lng": 44.3228663,
      "source": "osm"
    },
    {
      "id": "m11660007885",
      "nom": "جامع الامام الحسن",
      "type": "Mosquée",
      "adresse": "",
      "description": "Lieu de prière (OpenStreetMap).",
      "mapsUrl": "https://maps.google.com/?q=31.9856658,44.3267739",
      "lat": 31.9856658,
      "lng": 44.3267739,
      "source": "osm"
    },
    {
      "id": "m9247049217",
      "nom": "جامع فاطمة الزهراء",
      "type": "Mosquée",
      "adresse": "",
      "description": "Lieu de prière (OpenStreetMap).",
      "mapsUrl": "https://maps.google.com/?q=32.0099613,44.3259102",
      "lat": 32.0099613,
      "lng": 44.3259102,
      "source": "osm"
    },
    {
      "id": "m370844833",
      "nom": "جامع حنانه",
      "type": "Mosquée",
      "adresse": "",
      "description": "Lieu de prière (OpenStreetMap).",
      "mapsUrl": "https://maps.google.com/?q=32.0049687,44.3345501",
      "lat": 32.0049687,
      "lng": 44.3345501,
      "source": "osm"
    },
    {
      "id": "m4551365752",
      "nom": "مسجد جامع الغدير",
      "type": "Mosquée",
      "adresse": "",
      "description": "Lieu de prière (OpenStreetMap).",
      "mapsUrl": "https://maps.google.com/?q=31.9931434,44.337615",
      "lat": 31.9931434,
      "lng": 44.337615,
      "source": "osm"
    },
    {
      "id": "m4374551393",
      "nom": "جامع ابن كمونة",
      "type": "Mosquée",
      "adresse": "",
      "description": "Lieu de prière (OpenStreetMap).",
      "mapsUrl": "https://maps.google.com/?q=31.9993166,44.3376541",
      "lat": 31.9993166,
      "lng": 44.3376541,
      "source": "osm"
    },
    {
      "id": "m497657187",
      "nom": "جامع الغزالات",
      "type": "Mosquée",
      "adresse": "شارع حي الشرطة",
      "description": "Lieu de prière (OpenStreetMap).",
      "mapsUrl": "https://maps.google.com/?q=31.9846701,44.3342279",
      "lat": 31.9846701,
      "lng": 44.3342279,
      "source": "osm"
    },
    {
      "id": "m370845135",
      "nom": "مرقد الصحابي الجليل كميل بن زياد",
      "type": "Mosquée",
      "adresse": "",
      "description": "Lieu de prière (OpenStreetMap).",
      "mapsUrl": "https://maps.google.com/?q=32.0067658,44.3387948",
      "lat": 32.0067658,
      "lng": 44.3387948,
      "source": "osm"
    },
    {
      "id": "m11668986973",
      "nom": "جامع ابو الفضل",
      "type": "Mosquée",
      "adresse": "",
      "description": "Lieu de prière (OpenStreetMap).",
      "mapsUrl": "https://maps.google.com/?q=32.0204903,44.3266166",
      "lat": 32.0204903,
      "lng": 44.3266166,
      "source": "osm"
    },
    {
      "id": "m4634463090",
      "nom": "جامع الكيليدار",
      "type": "Mosquée",
      "adresse": "شارع المثنى",
      "description": "Lieu de prière (OpenStreetMap).",
      "mapsUrl": "https://maps.google.com/?q=31.9992511,44.3483599",
      "lat": 31.9992511,
      "lng": 44.3483599,
      "source": "osm"
    },
    {
      "id": "m4423287589",
      "nom": "جامع ابن سنبة",
      "type": "Mosquée",
      "adresse": "",
      "description": "Lieu de prière (OpenStreetMap).",
      "mapsUrl": "https://maps.google.com/?q=32.0160003,44.3495804",
      "lat": 32.0160003,
      "lng": 44.3495804,
      "source": "osm"
    },
    {
      "id": "m11659937487",
      "nom": "مسجد مجمع شقق القدس السكني",
      "type": "Mosquée",
      "adresse": "",
      "description": "Lieu de prière (OpenStreetMap).",
      "mapsUrl": "https://maps.google.com/?q=31.9795259,44.3553613",
      "lat": 31.9795259,
      "lng": 44.3553613,
      "source": "osm"
    },
    {
      "id": "m8909516370",
      "nom": "جامع عطية جبوري",
      "type": "Mosquée",
      "adresse": "",
      "description": "Lieu de prière (OpenStreetMap).",
      "mapsUrl": "https://maps.google.com/?q=32.0103456,44.3680615",
      "lat": 32.0103456,
      "lng": 44.3680615,
      "source": "osm"
    },
    {
      "id": "m6168398085",
      "nom": "جامع الهادي",
      "type": "Mosquée",
      "adresse": "شارع ١٥",
      "description": "Lieu de prière (OpenStreetMap).",
      "mapsUrl": "https://maps.google.com/?q=32.048758,44.3130378",
      "lat": 32.048758,
      "lng": 44.3130378,
      "source": "osm"
    },
    {
      "id": "m5153277821",
      "nom": "جامع ابن بلال",
      "type": "Mosquée",
      "adresse": "شارع الكوفة",
      "description": "Lieu de prière (OpenStreetMap).",
      "mapsUrl": "https://maps.google.com/?q=32.0221461,44.3839753",
      "lat": 32.0221461,
      "lng": 44.3839753,
      "source": "osm"
    },
    {
      "id": "m4644206399",
      "nom": "جامع الحسن العسكري",
      "type": "Mosquée",
      "adresse": "",
      "description": "Lieu de prière (OpenStreetMap).",
      "mapsUrl": "https://maps.google.com/?q=32.0595,44.3373",
      "lat": 32.0595,
      "lng": 44.3373,
      "source": "osm"
    },
    {
      "id": "m654295457",
      "nom": "جامع الاحسان",
      "type": "Mosquée",
      "adresse": "",
      "description": "Lieu de prière (OpenStreetMap).",
      "mapsUrl": "https://maps.google.com/?q=32.0144964,44.3912752",
      "lat": 32.0144964,
      "lng": 44.3912752,
      "source": "osm"
    },
    {
      "id": "m4524425891",
      "nom": "جامع عليوي الكلابي",
      "type": "Mosquée",
      "adresse": "حي ميسان النجف",
      "description": "Lieu de prière (OpenStreetMap).",
      "mapsUrl": "https://maps.google.com/?q=32.0493,44.3658",
      "lat": 32.0493,
      "lng": 44.3658,
      "source": "osm"
    },
    {
      "id": "m857865681",
      "nom": "مسجد السهلة",
      "type": "Mosquée",
      "adresse": "",
      "description": "Lieu de prière (OpenStreetMap).",
      "mapsUrl": "https://maps.google.com/?q=32.038969,44.379746",
      "lat": 32.038969,
      "lng": 44.379746,
      "source": "osm"
    },
    {
      "id": "m11652400633",
      "nom": "مسجد السهلة المعظم",
      "type": "Mosquée",
      "adresse": "",
      "description": "Lieu de prière (OpenStreetMap).",
      "mapsUrl": "https://maps.google.com/?q=32.0390017,44.3800426",
      "lat": 32.0390017,
      "lng": 44.3800426,
      "source": "osm"
    },
    {
      "id": "m6412668541",
      "nom": "مسجد صعصعة بن صوحان",
      "type": "Mosquée",
      "adresse": "شارع السهلة",
      "description": "Lieu de prière (OpenStreetMap).",
      "mapsUrl": "https://maps.google.com/?q=32.0383347,44.3824294",
      "lat": 32.0383347,
      "lng": 44.3824294,
      "source": "osm"
    },
    {
      "id": "m1486543025",
      "nom": "جامع الامام الرضا عليه السلام",
      "type": "Mosquée",
      "adresse": "شارع الكرار ع, حي ميثم التمار",
      "description": "Lieu de prière (OpenStreetMap).",
      "mapsUrl": "https://maps.google.com/?q=32.021308,44.3975008",
      "lat": 32.021308,
      "lng": 44.3975008,
      "source": "osm"
    },
    {
      "id": "m1486540990",
      "nom": "حسينية شيخ ريسان الاسدي",
      "type": "Mosquée",
      "adresse": "شارع الكرار ع, الكوفة",
      "description": "Lieu de prière (OpenStreetMap).",
      "mapsUrl": "https://maps.google.com/?q=32.0228208,44.4018197",
      "lat": 32.0228208,
      "lng": 44.4018197,
      "source": "osm"
    },
    {
      "id": "m6159387462",
      "nom": "جامع الرسول الاعظم ص",
      "type": "Mosquée",
      "adresse": "",
      "description": "Lieu de prière (OpenStreetMap).",
      "mapsUrl": "https://maps.google.com/?q=32.0215696,44.4042656",
      "lat": 32.0215696,
      "lng": 44.4042656,
      "source": "osm"
    },
    {
      "id": "m1238795786",
      "nom": "صحن أبي طالب",
      "type": "Mosquée",
      "adresse": "",
      "description": "Lieu de prière (OpenStreetMap).",
      "mapsUrl": "https://maps.google.com/?q=32.0287509,44.4026251",
      "lat": 32.0287509,
      "lng": 44.4026251,
      "source": "osm"
    },
    {
      "id": "m6159387461",
      "nom": "مسجد الامام الحسين ع",
      "type": "Mosquée",
      "adresse": "",
      "description": "Lieu de prière (OpenStreetMap).",
      "mapsUrl": "https://maps.google.com/?q=32.0223087,44.4058682",
      "lat": 32.0223087,
      "lng": 44.4058682,
      "source": "osm"
    },
    {
      "id": "m487216796",
      "nom": "مقام النبي يونس ع",
      "type": "Mosquée",
      "adresse": "شارع الكورنيش",
      "description": "Lieu de prière (OpenStreetMap).",
      "mapsUrl": "https://maps.google.com/?q=32.0401081,44.4052193",
      "lat": 32.0401081,
      "lng": 44.4052193,
      "source": "osm"
    }
  ],
  "activites": [
    {
      "id": "a13137793101",
      "nom": "مرقد الامام علي عليه السلام",
      "categorie": "viewpoint",
      "description": "",
      "prix": "",
      "duree": "",
      "mapsUrl": "https://maps.google.com/?q=31.996752,44.3144066",
      "lat": 31.996752,
      "lng": 44.3144066,
      "source": "osm"
    },
    {
      "id": "a13507320102",
      "nom": "بيت السيد الخميني",
      "categorie": "viewpoint",
      "description": "",
      "prix": "",
      "duree": "",
      "mapsUrl": "https://maps.google.com/?q=31.9932976,44.3151346",
      "lat": 31.9932976,
      "lng": 44.3151346,
      "source": "osm"
    },
    {
      "id": "a13507320201",
      "nom": "ىيت السيد الخميني",
      "categorie": "viewpoint",
      "description": "",
      "prix": "",
      "duree": "",
      "mapsUrl": "https://maps.google.com/?q=31.9932879,44.3151331",
      "lat": 31.9932879,
      "lng": 44.3151331,
      "source": "osm"
    },
    {
      "id": "a11669070757",
      "nom": "متحف النجف الأشرف",
      "categorie": "museum",
      "description": "",
      "prix": "",
      "duree": "",
      "mapsUrl": "https://maps.google.com/?q=31.9947961,44.3093951",
      "lat": 31.9947961,
      "lng": 44.3093951,
      "source": "osm"
    },
    {
      "id": "a12544378303",
      "nom": "المغتسل الحيدري",
      "categorie": "monument",
      "description": "",
      "prix": "",
      "duree": "",
      "mapsUrl": "https://maps.google.com/?q=31.9984988,44.319301",
      "lat": 31.9984988,
      "lng": 44.319301,
      "source": "osm"
    },
    {
      "id": "a13668231201",
      "nom": "قبر المرحوم عطيه حمد العزاوي",
      "categorie": "monument",
      "description": "",
      "prix": "",
      "duree": "",
      "mapsUrl": "https://maps.google.com/?q=32.0025755,44.3115872",
      "lat": 32.0025755,
      "lng": 44.3115872,
      "source": "osm"
    },
    {
      "id": "a13442454701",
      "nom": "سيارتي كراج",
      "categorie": "monument",
      "description": "",
      "prix": "",
      "duree": "",
      "mapsUrl": "https://maps.google.com/?q=32.0030527,44.3152113",
      "lat": 32.0030527,
      "lng": 44.3152113,
      "source": "osm"
    },
    {
      "id": "a13708779502",
      "nom": "قبر المرحوم كاطع جبر والمرحومة شكرية حسين",
      "categorie": "monument",
      "description": "",
      "prix": "",
      "duree": "",
      "mapsUrl": "https://maps.google.com/?q=32.0017844,44.308104",
      "lat": 32.0017844,
      "lng": 44.308104,
      "source": "osm"
    },
    {
      "id": "a13137993801",
      "nom": "حسينية تازة خورماتو",
      "categorie": "viewpoint",
      "description": "",
      "prix": "",
      "duree": "",
      "mapsUrl": "https://maps.google.com/?q=31.9977329,44.3026845",
      "lat": 31.9977329,
      "lng": 44.3026845,
      "source": "osm"
    },
    {
      "id": "a11774059143",
      "nom": "استراحة يعسوب الدين (ع) التابعة للعتبة العلوية المقدسة",
      "categorie": "park",
      "description": "",
      "prix": "",
      "duree": "",
      "mapsUrl": "https://maps.google.com/?q=31.9992598,44.3257527",
      "lat": 31.9992598,
      "lng": 44.3257527,
      "source": "osm"
    },
    {
      "id": "a6410787985",
      "nom": "بدري",
      "categorie": "memorial",
      "description": "",
      "prix": "",
      "duree": "",
      "mapsUrl": "https://maps.google.com/?q=31.9899905,44.3042355",
      "lat": 31.9899905,
      "lng": 44.3042355,
      "source": "osm"
    },
    {
      "id": "a5472809222",
      "nom": "بستان ال بلال",
      "categorie": "attraction",
      "description": "",
      "prix": "",
      "duree": "",
      "mapsUrl": "https://maps.google.com/?q=31.9869671,44.3059017",
      "lat": 31.9869671,
      "lng": 44.3059017,
      "source": "osm"
    },
    {
      "id": "a9334772017",
      "nom": "تصليح الطباخ الصغير",
      "categorie": "artwork",
      "description": "",
      "prix": "",
      "duree": "",
      "mapsUrl": "https://maps.google.com/?q=31.9973595,44.3281837",
      "lat": 31.9973595,
      "lng": 44.3281837,
      "source": "osm"
    },
    {
      "id": "a6352689285",
      "nom": "النجف",
      "categorie": "viewpoint",
      "description": "",
      "prix": "",
      "duree": "",
      "mapsUrl": "https://maps.google.com/?q=31.9926745,44.3284917",
      "lat": 31.9926745,
      "lng": 44.3284917,
      "source": "osm"
    },
    {
      "id": "a12544376601",
      "nom": "الفتحه الرابعه",
      "categorie": "monument",
      "description": "",
      "prix": "",
      "duree": "",
      "mapsUrl": "https://maps.google.com/?q=32.009602,44.3179813",
      "lat": 32.009602,
      "lng": 44.3179813,
      "source": "osm"
    },
    {
      "id": "a12921964802",
      "nom": "الفتحه الخامسه",
      "categorie": "monument",
      "description": "",
      "prix": "",
      "duree": "",
      "mapsUrl": "https://maps.google.com/?q=32.0097028,44.3189851",
      "lat": 32.0097028,
      "lng": 44.3189851,
      "source": "osm"
    },
    {
      "id": "a13308318401",
      "nom": "قبر المرحوم تحسين علي المالكي",
      "categorie": "memorial",
      "description": "",
      "prix": "",
      "duree": "",
      "mapsUrl": "https://maps.google.com/?q=32.0064792,44.3255881",
      "lat": 32.0064792,
      "lng": 44.3255881,
      "source": "osm"
    },
    {
      "id": "a7177038185",
      "nom": "مجمع اضواء الرحمن",
      "categorie": "attraction",
      "description": "",
      "prix": "",
      "duree": "",
      "mapsUrl": "https://maps.google.com/?q=31.9879731,44.3280622",
      "lat": 31.9879731,
      "lng": 44.3280622,
      "source": "osm"
    },
    {
      "id": "a12544386101",
      "nom": "الفتحة السابعة",
      "categorie": "monument",
      "description": "",
      "prix": "",
      "duree": "",
      "mapsUrl": "https://maps.google.com/?q=32.0099314,44.321041",
      "lat": 32.0099314,
      "lng": 44.321041,
      "source": "osm"
    },
    {
      "id": "a13468118001",
      "nom": "قبر المرحوم حاج عبد الحسين رشيد",
      "categorie": "monument",
      "description": "",
      "prix": "",
      "duree": "",
      "mapsUrl": "https://maps.google.com/?q=32.0100712,44.3235677",
      "lat": 32.0100712,
      "lng": 44.3235677,
      "source": "osm"
    },
    {
      "id": "a4550633990",
      "nom": "نصب سيف ذوالفقار",
      "categorie": "monument",
      "description": "",
      "prix": "",
      "duree": "",
      "mapsUrl": "https://maps.google.com/?q=32.0014781,44.3322204",
      "lat": 32.0014781,
      "lng": 44.3322204,
      "source": "osm"
    },
    {
      "id": "a13363127401",
      "nom": "قبر المرحوم حمود ابوالهور البطبوطي",
      "categorie": "memorial",
      "description": "",
      "prix": "",
      "duree": "",
      "mapsUrl": "https://maps.google.com/?q=32.0082372,44.3009354",
      "lat": 32.0082372,
      "lng": 44.3009354,
      "source": "osm"
    },
    {
      "id": "a11668986998",
      "nom": "حديقة حي الحنانة",
      "categorie": "garden",
      "description": "",
      "prix": "",
      "duree": "",
      "mapsUrl": "https://maps.google.com/?q=32.00602,44.3300929",
      "lat": 32.00602,
      "lng": 44.3300929,
      "source": "osm"
    },
    {
      "id": "a13363128301",
      "nom": "جواد منذر حمود ابوالهور البطبوطيي",
      "categorie": "memorial",
      "description": "",
      "prix": "",
      "duree": "",
      "mapsUrl": "https://maps.google.com/?q=32.0088697,44.3001935",
      "lat": 32.0088697,
      "lng": 44.3001935,
      "source": "osm"
    },
    {
      "id": "a13608127601",
      "nom": "قبر المرحوم جواد منذر حمود البطبوطي",
      "categorie": "memorial",
      "description": "",
      "prix": "",
      "duree": "",
      "mapsUrl": "https://maps.google.com/?q=32.0088904,44.3001749",
      "lat": 32.0088904,
      "lng": 44.3001749,
      "source": "osm"
    },
    {
      "id": "a13468153701",
      "nom": "ضريح الشهيد محمد باقر الصدر",
      "categorie": "ruins",
      "description": "",
      "prix": "",
      "duree": "",
      "mapsUrl": "https://maps.google.com/?q=32.0117679,44.3238419",
      "lat": 32.0117679,
      "lng": 44.3238419,
      "source": "osm"
    },
    {
      "id": "a5434656430",
      "nom": "مطبعة أتوم للإعلانات الحديثة",
      "categorie": "artwork",
      "description": "",
      "prix": "",
      "duree": "",
      "mapsUrl": "https://maps.google.com/?q=31.9973372,44.3367379",
      "lat": 31.9973372,
      "lng": 44.3367379,
      "source": "osm"
    },
    {
      "id": "a11754421215",
      "nom": "حديقة حي المعلمين",
      "categorie": "park",
      "description": "",
      "prix": "",
      "duree": "",
      "mapsUrl": "https://maps.google.com/?q=31.9911044,44.3366356",
      "lat": 31.9911044,
      "lng": 44.3366356,
      "source": "osm"
    },
    {
      "id": "a11754421221",
      "nom": "متنزه حي المعلمين",
      "categorie": "park",
      "description": "",
      "prix": "",
      "duree": "",
      "mapsUrl": "https://maps.google.com/?q=31.9955251,44.3382736",
      "lat": 31.9955251,
      "lng": 44.3382736,
      "source": "osm"
    },
    {
      "id": "a11710456269",
      "nom": "فخري محسن عبهول",
      "categorie": "monument",
      "description": "",
      "prix": "",
      "duree": "",
      "mapsUrl": "https://maps.google.com/?q=32.0169744,44.3163927",
      "lat": 32.0169744,
      "lng": 44.3163927,
      "source": "osm"
    },
    {
      "id": "a11668986980",
      "nom": "نصب الشاعر عبد المنعم الفرطوسي",
      "categorie": "artwork",
      "description": "",
      "prix": "",
      "duree": "",
      "mapsUrl": "https://maps.google.com/?q=32.0152119,44.3261029",
      "lat": 32.0152119,
      "lng": 44.3261029,
      "source": "osm"
    },
    {
      "id": "a11668986978",
      "nom": "مشتل وعياده كناري البيطرية",
      "categorie": "garden",
      "description": "",
      "prix": "",
      "duree": "",
      "mapsUrl": "https://maps.google.com/?q=32.0155328,44.325994",
      "lat": 32.0155328,
      "lng": 44.325994,
      "source": "osm"
    },
    {
      "id": "a12544378302",
      "nom": "مقبرة المرحوم شاكر العكام",
      "categorie": "monument",
      "description": "",
      "prix": "",
      "duree": "",
      "mapsUrl": "https://maps.google.com/?q=32.0113658,44.2956969",
      "lat": 32.0113658,
      "lng": 44.2956969,
      "source": "osm"
    },
    {
      "id": "a10937909205",
      "nom": "علاء الفرطوسي",
      "categorie": "attraction",
      "description": "",
      "prix": "",
      "duree": "",
      "mapsUrl": "https://maps.google.com/?q=32.0141075,44.3307042",
      "lat": 32.0141075,
      "lng": 44.3307042,
      "source": "osm"
    },
    {
      "id": "a13728305301",
      "nom": "سيد قاسم علي عبود الياسري",
      "categorie": "memorial",
      "description": "",
      "prix": "",
      "duree": "",
      "mapsUrl": "https://maps.google.com/?q=32.0136844,44.2968921",
      "lat": 32.0136844,
      "lng": 44.2968921,
      "source": "osm"
    },
    {
      "id": "a11292361869",
      "nom": "الشيوخ",
      "categorie": "attraction",
      "description": "",
      "prix": "",
      "duree": "",
      "mapsUrl": "https://maps.google.com/?q=32.0191065,44.3151198",
      "lat": 32.0191065,
      "lng": 44.3151198,
      "source": "osm"
    },
    {
      "id": "a5786472256",
      "nom": "نادي نفط الوسط الرياضي",
      "categorie": "attraction",
      "description": "",
      "prix": "",
      "duree": "",
      "mapsUrl": "https://maps.google.com/?q=32.0115614,44.3350748",
      "lat": 32.0115614,
      "lng": 44.3350748,
      "source": "osm"
    },
    {
      "id": "a13295436501",
      "nom": "المرحوم السيد محمد نعمة منهل الياسري",
      "categorie": "memorial",
      "description": "",
      "prix": "",
      "duree": "",
      "mapsUrl": "https://maps.google.com/?q=32.0145494,44.2966136",
      "lat": 32.0145494,
      "lng": 44.2966136,
      "source": "osm"
    },
    {
      "id": "a6614910392",
      "nom": "قناة كربلاء الفضائية/ مكتب النجف",
      "categorie": "artwork",
      "description": "",
      "prix": "",
      "duree": "",
      "mapsUrl": "https://maps.google.com/?q=32.0034038,44.3413844",
      "lat": 32.0034038,
      "lng": 44.3413844,
      "source": "osm"
    },
    {
      "id": "a6269475188",
      "nom": "C",
      "categorie": "attraction",
      "description": "",
      "prix": "",
      "duree": "",
      "mapsUrl": "https://maps.google.com/?q=31.9901293,44.3437445",
      "lat": 31.9901293,
      "lng": 44.3437445,
      "source": "osm"
    },
    {
      "id": "a13377802101",
      "nom": "قبر ابو حميد",
      "categorie": "attraction",
      "description": "",
      "prix": "",
      "duree": "",
      "mapsUrl": "https://maps.google.com/?q=32.0141417,44.29218",
      "lat": 32.0141417,
      "lng": 44.29218,
      "source": "osm"
    },
    {
      "id": "a6778931088",
      "nom": "منتدى هارموني حيدر عرب",
      "categorie": "artwork",
      "description": "",
      "prix": "",
      "duree": "",
      "mapsUrl": "https://maps.google.com/?q=32.0007018,44.3454228",
      "lat": 32.0007018,
      "lng": 44.3454228,
      "source": "osm"
    },
    {
      "id": "a8464230317",
      "nom": "قهوة جودي ابوحمزه",
      "categorie": "viewpoint",
      "description": "",
      "prix": "",
      "duree": "",
      "mapsUrl": "https://maps.google.com/?q=32.0073714,44.343056",
      "lat": 32.0073714,
      "lng": 44.343056,
      "source": "osm"
    },
    {
      "id": "a4924551121",
      "nom": "خدمات انترنت Najaf203",
      "categorie": "attraction",
      "description": "",
      "prix": "",
      "duree": "",
      "mapsUrl": "https://maps.google.com/?q=32.0217853,44.3258233",
      "lat": 32.0217853,
      "lng": 44.3258233,
      "source": "osm"
    },
    {
      "id": "a13906242601",
      "nom": "المرحومه ام فهد",
      "categorie": "viewpoint",
      "description": "",
      "prix": "",
      "duree": "",
      "mapsUrl": "https://maps.google.com/?q=32.018442,44.2950148",
      "lat": 32.018442,
      "lng": 44.2950148,
      "source": "osm"
    },
    {
      "id": "a4618101189",
      "nom": "هيئة الاعلام والاتصالات",
      "categorie": "viewpoint",
      "description": "",
      "prix": "",
      "duree": "",
      "mapsUrl": "https://maps.google.com/?q=32.0181705,44.3350533",
      "lat": 32.0181705,
      "lng": 44.3350533,
      "source": "osm"
    },
    {
      "id": "a13363143901",
      "nom": "قبر المرحوم جبار هميم ابوكاظم العيساوي",
      "categorie": "memorial",
      "description": "",
      "prix": "",
      "duree": "",
      "mapsUrl": "https://maps.google.com/?q=32.0232267,44.3024064",
      "lat": 32.0232267,
      "lng": 44.3024064,
      "source": "osm"
    },
    {
      "id": "a4524425890",
      "nom": "ساحه مقابل أسواق سلام البغدادي",
      "categorie": "attraction",
      "description": "",
      "prix": "",
      "duree": "",
      "mapsUrl": "https://maps.google.com/?q=31.9887,44.3471",
      "lat": 31.9887,
      "lng": 44.3471,
      "source": "osm"
    },
    {
      "id": "a10790883105",
      "nom": "شراع",
      "categorie": "attraction",
      "description": "",
      "prix": "",
      "duree": "",
      "mapsUrl": "https://maps.google.com/?q=32.0041804,44.3481141",
      "lat": 32.0041804,
      "lng": 44.3481141,
      "source": "osm"
    },
    {
      "id": "a6383459887",
      "nom": "مدينة الشراع الترفيهية",
      "categorie": "viewpoint",
      "description": "",
      "prix": "",
      "duree": "",
      "mapsUrl": "https://maps.google.com/?q=32.0041543,44.3482223",
      "lat": 32.0041543,
      "lng": 44.3482223,
      "source": "osm"
    },
    {
      "id": "a4374608389",
      "nom": "شارع الاسكان",
      "categorie": "picnic site",
      "description": "",
      "prix": "",
      "duree": "",
      "mapsUrl": "https://maps.google.com/?q=32.0050111,44.348473",
      "lat": 32.0050111,
      "lng": 44.348473,
      "source": "osm"
    },
    {
      "id": "a12851933401",
      "nom": "مقبره قلعه سكر",
      "categorie": "monument",
      "description": "",
      "prix": "",
      "duree": "",
      "mapsUrl": "https://maps.google.com/?q=32.0190851,44.2895403",
      "lat": 32.0190851,
      "lng": 44.2895403,
      "source": "osm"
    },
    {
      "id": "a5189495721",
      "nom": "معمل حداده شهيد حوسه",
      "categorie": "artwork",
      "description": "",
      "prix": "",
      "duree": "",
      "mapsUrl": "https://maps.google.com/?q=31.992026,44.3510911",
      "lat": 31.992026,
      "lng": 44.3510911,
      "source": "osm"
    },
    {
      "id": "a8018993788",
      "nom": "شلال تومان",
      "categorie": "attraction",
      "description": "",
      "prix": "",
      "duree": "",
      "mapsUrl": "https://maps.google.com/?q=32.0273048,44.3213216",
      "lat": 32.0273048,
      "lng": 44.3213216,
      "source": "osm"
    },
    {
      "id": "a13363129301",
      "nom": "قبر المرحومه ام شامل عفر المالكي",
      "categorie": "monument",
      "description": "",
      "prix": "",
      "duree": "",
      "mapsUrl": "https://maps.google.com/?q=32.0246739,44.2977528",
      "lat": 32.0246739,
      "lng": 44.2977528,
      "source": "osm"
    },
    {
      "id": "a11793338669",
      "nom": "زكريا الربيعي",
      "categorie": "attraction",
      "description": "",
      "prix": "",
      "duree": "",
      "mapsUrl": "https://maps.google.com/?q=32.0295957,44.3154585",
      "lat": 32.0295957,
      "lng": 44.3154585,
      "source": "osm"
    },
    {
      "id": "a13546512801",
      "nom": "قبر المرحوم ضياء هلال العبودي",
      "categorie": "memorial",
      "description": "",
      "prix": "",
      "duree": "",
      "mapsUrl": "https://maps.google.com/?q=32.0245211,44.2927307",
      "lat": 32.0245211,
      "lng": 44.2927307,
      "source": "osm"
    },
    {
      "id": "a13546513001",
      "nom": "الطريق الى قبر المرحوم ضياء العبودي",
      "categorie": "memorial",
      "description": "",
      "prix": "",
      "duree": "",
      "mapsUrl": "https://maps.google.com/?q=32.0245182,44.2923454",
      "lat": 32.0245182,
      "lng": 44.2923454,
      "source": "osm"
    },
    {
      "id": "a11652400635",
      "nom": "منتجع النخيل الترفيهي",
      "categorie": "park",
      "description": "",
      "prix": "",
      "duree": "",
      "mapsUrl": "https://maps.google.com/?q=32.0297487,44.322993",
      "lat": 32.0297487,
      "lng": 44.322993,
      "source": "osm"
    },
    {
      "id": "a11959589969",
      "nom": "متوسطة الاحرار",
      "categorie": "attraction",
      "description": "",
      "prix": "",
      "duree": "",
      "mapsUrl": "https://maps.google.com/?q=31.9881742,44.35361",
      "lat": 31.9881742,
      "lng": 44.35361,
      "source": "osm"
    },
    {
      "id": "a13583295205",
      "nom": "قبر الحاج ابراهيم كوثر ، مقبرة بشير -كركوك",
      "categorie": "monument",
      "description": "",
      "prix": "",
      "duree": "",
      "mapsUrl": "https://maps.google.com/?q=32.0279347,44.2980742",
      "lat": 32.0279347,
      "lng": 44.2980742,
      "source": "osm"
    },
    {
      "id": "a12531218401",
      "nom": "قطعة اياد عبدالباري المشرفاوي",
      "categorie": "attraction",
      "description": "",
      "prix": "",
      "duree": "",
      "mapsUrl": "https://maps.google.com/?q=32.020657,44.2854035",
      "lat": 32.020657,
      "lng": 44.2854035,
      "source": "osm"
    },
    {
      "id": "a11751575761",
      "nom": "مجمع النخلة الترفيهي",
      "categorie": "park",
      "description": "",
      "prix": "",
      "duree": "",
      "mapsUrl": "https://maps.google.com/?q=32.0074967,44.3527111",
      "lat": 32.0074967,
      "lng": 44.3527111,
      "source": "osm"
    },
    {
      "id": "a11652400636",
      "nom": "Arab Gem / Peace Park",
      "categorie": "park",
      "description": "",
      "prix": "",
      "duree": "",
      "mapsUrl": "https://maps.google.com/?q=32.0245998,44.3381861",
      "lat": 32.0245998,
      "lng": 44.3381861,
      "source": "osm"
    },
    {
      "id": "a11760953188",
      "nom": "متنزه حي المهندسين",
      "categorie": "park",
      "description": "",
      "prix": "",
      "duree": "",
      "mapsUrl": "https://maps.google.com/?q=32.0313814,44.3189291",
      "lat": 32.0313814,
      "lng": 44.3189291,
      "source": "osm"
    },
    {
      "id": "a4402343193",
      "nom": "مكتب اصالة الخيول للسياحة",
      "categorie": "artwork",
      "description": "",
      "prix": "",
      "duree": "",
      "mapsUrl": "https://maps.google.com/?q=32.012316,44.35156",
      "lat": 32.012316,
      "lng": 44.35156,
      "source": "osm"
    },
    {
      "id": "a13855412602",
      "nom": "قبر حنتاوة حمود البديري",
      "categorie": "attraction",
      "description": "",
      "prix": "",
      "duree": "",
      "mapsUrl": "https://maps.google.com/?q=32.0275184,44.2938289",
      "lat": 32.0275184,
      "lng": 44.2938289,
      "source": "osm"
    },
    {
      "id": "a11245996637",
      "nom": "حي الغديير",
      "categorie": "attraction",
      "description": "",
      "prix": "",
      "duree": "",
      "mapsUrl": "https://maps.google.com/?q=32.0189065,44.3468249",
      "lat": 32.0189065,
      "lng": 44.3468249,
      "source": "osm"
    },
    {
      "id": "a13855412702",
      "nom": "قبر خنزة حمود البديري",
      "categorie": "attraction",
      "description": "",
      "prix": "",
      "duree": "",
      "mapsUrl": "https://maps.google.com/?q=32.0275392,44.2937408",
      "lat": 32.0275392,
      "lng": 44.2937408,
      "source": "osm"
    },
    {
      "id": "a13855412603",
      "nom": "نزلة قبر خنزة حمود البديري",
      "categorie": "attraction",
      "description": "",
      "prix": "",
      "duree": "",
      "mapsUrl": "https://maps.google.com/?q=32.0273566,44.292672",
      "lat": 32.0273566,
      "lng": 44.292672,
      "source": "osm"
    },
    {
      "id": "a4423287789",
      "nom": "مدينة العاب النجف",
      "categorie": "theme park",
      "description": "",
      "prix": "",
      "duree": "",
      "mapsUrl": "https://maps.google.com/?q=32.0221468,44.3441604",
      "lat": 32.0221468,
      "lng": 44.3441604,
      "source": "osm"
    },
    {
      "id": "a8110280518",
      "nom": "شيخ كامل ال طاهر",
      "categorie": "attraction",
      "description": "",
      "prix": "",
      "duree": "",
      "mapsUrl": "https://maps.google.com/?q=32.0327049,44.3150857",
      "lat": 32.0327049,
      "lng": 44.3150857,
      "source": "osm"
    },
    {
      "id": "a5812197553",
      "nom": "مكتب آي تي",
      "categorie": "artwork",
      "description": "",
      "prix": "",
      "duree": "",
      "mapsUrl": "https://maps.google.com/?q=32.0200494,44.3476969",
      "lat": 32.0200494,
      "lng": 44.3476969,
      "source": "osm"
    },
    {
      "id": "a13410925001",
      "nom": "قبر الشهيد ابراهيم صالح رضا",
      "categorie": "monument",
      "description": "",
      "prix": "",
      "duree": "",
      "mapsUrl": "https://maps.google.com/?q=32.0318098,44.300368",
      "lat": 32.0318098,
      "lng": 44.300368,
      "source": "osm"
    },
    {
      "id": "a12579052301",
      "nom": "قبر المرحوم عبدالكريم مردان",
      "categorie": "monument",
      "description": "",
      "prix": "",
      "duree": "",
      "mapsUrl": "https://maps.google.com/?q=32.0232502,44.2819301",
      "lat": 32.0232502,
      "lng": 44.2819301,
      "source": "osm"
    },
    {
      "id": "a4403820490",
      "nom": "مكتب دار السياحة للسفر",
      "categorie": "artwork",
      "description": "",
      "prix": "",
      "duree": "",
      "mapsUrl": "https://maps.google.com/?q=31.9981159,44.3595789",
      "lat": 31.9981159,
      "lng": 44.3595789,
      "source": "osm"
    },
    {
      "id": "a13703801001",
      "nom": "المرحوم سامر ال شيحان",
      "categorie": "monument",
      "description": "",
      "prix": "",
      "duree": "",
      "mapsUrl": "https://maps.google.com/?q=32.0250297,44.2838691",
      "lat": 32.0250297,
      "lng": 44.2838691,
      "source": "osm"
    },
    {
      "id": "a13285136401",
      "nom": "قبر المرحومة ام قيس الوائلي",
      "categorie": "castle",
      "description": "",
      "prix": "",
      "duree": "",
      "mapsUrl": "https://maps.google.com/?q=32.0247583,44.2824383",
      "lat": 32.0247583,
      "lng": 44.2824383,
      "source": "osm"
    },
    {
      "id": "a13645751102",
      "nom": "منزل الشيخ سلمان هادي صاحب القريشي",
      "categorie": "castle",
      "description": "",
      "prix": "",
      "duree": "",
      "mapsUrl": "https://maps.google.com/?q=32.0050816,44.3597571",
      "lat": 32.0050816,
      "lng": 44.3597571,
      "source": "osm"
    },
    {
      "id": "a12918401701",
      "nom": "مقبره",
      "categorie": "attraction",
      "description": "",
      "prix": "",
      "duree": "",
      "mapsUrl": "https://maps.google.com/?q=32.0259648,44.282799",
      "lat": 32.0259648,
      "lng": 44.282799,
      "source": "osm"
    },
    {
      "id": "a13306028301",
      "nom": "المرحوم سيد صالح زهاوي الياسري ابو حيدر",
      "categorie": "memorial",
      "description": "",
      "prix": "",
      "duree": "",
      "mapsUrl": "https://maps.google.com/?q=32.0318692,44.2920838",
      "lat": 32.0318692,
      "lng": 44.2920838,
      "source": "osm"
    },
    {
      "id": "a4848006321",
      "nom": "مدخل شارع الروان",
      "categorie": "viewpoint",
      "description": "",
      "prix": "",
      "duree": "",
      "mapsUrl": "https://maps.google.com/?q=31.9936913,44.362053",
      "lat": 31.9936913,
      "lng": 44.362053,
      "source": "osm"
    },
    {
      "id": "a13468168001",
      "nom": "مقبرة الكريعي",
      "categorie": "ruins",
      "description": "",
      "prix": "",
      "duree": "",
      "mapsUrl": "https://maps.google.com/?q=32.0350491,44.2960316",
      "lat": 32.0350491,
      "lng": 44.2960316,
      "source": "osm"
    },
    {
      "id": "a5258875621",
      "nom": "شارع معرض أنطاكيا",
      "categorie": "attraction",
      "description": "",
      "prix": "",
      "duree": "",
      "mapsUrl": "https://maps.google.com/?q=32.0351935,44.3323483",
      "lat": 32.0351935,
      "lng": 44.3323483,
      "source": "osm"
    },
    {
      "id": "a11754124163",
      "nom": "متنزه القدس",
      "categorie": "park",
      "description": "",
      "prix": "",
      "duree": "",
      "mapsUrl": "https://maps.google.com/?q=31.9823894,44.3607933",
      "lat": 31.9823894,
      "lng": 44.3607933,
      "source": "osm"
    },
    {
      "id": "a13306029301",
      "nom": "المرحوم السيد مهدي جابر مذبوب الياسري",
      "categorie": "memorial",
      "description": "",
      "prix": "",
      "duree": "",
      "mapsUrl": "https://maps.google.com/?q=32.0296663,44.2838858",
      "lat": 32.0296663,
      "lng": 44.2838858,
      "source": "osm"
    },
    {
      "id": "a6817881387",
      "nom": "فلكة الجمعية - سلام - النجف",
      "categorie": "monument",
      "description": "",
      "prix": "",
      "duree": "",
      "mapsUrl": "https://maps.google.com/?q=32.0354743,44.3332066",
      "lat": 32.0354743,
      "lng": 44.3332066,
      "source": "osm"
    },
    {
      "id": "a6741914385",
      "nom": "مندي قاسم",
      "categorie": "attraction",
      "description": "",
      "prix": "",
      "duree": "",
      "mapsUrl": "https://maps.google.com/?q=32.0032453,44.3644991",
      "lat": 32.0032453,
      "lng": 44.3644991,
      "source": "osm"
    },
    {
      "id": "a10212219918",
      "nom": "مدخل",
      "categorie": "artwork",
      "description": "",
      "prix": "",
      "duree": "",
      "mapsUrl": "https://maps.google.com/?q=32.0234553,44.3542609",
      "lat": 32.0234553,
      "lng": 44.3542609,
      "source": "osm"
    },
    {
      "id": "a11746091269",
      "nom": "مبدعة",
      "categorie": "attraction",
      "description": "",
      "prix": "",
      "duree": "",
      "mapsUrl": "https://maps.google.com/?q=32.0099456,44.3630405",
      "lat": 32.0099456,
      "lng": 44.3630405,
      "source": "osm"
    },
    {
      "id": "a10212278421",
      "nom": "مدخل",
      "categorie": "artwork",
      "description": "",
      "prix": "",
      "duree": "",
      "mapsUrl": "https://maps.google.com/?q=32.0236274,44.3544016",
      "lat": 32.0236274,
      "lng": 44.3544016,
      "source": "osm"
    },
    {
      "id": "a13677281601",
      "nom": "قبرة المرحومة نهية ام قاسم",
      "categorie": "monument",
      "description": "",
      "prix": "",
      "duree": "",
      "mapsUrl": "https://maps.google.com/?q=32.0369261,44.2950526",
      "lat": 32.0369261,
      "lng": 44.2950526,
      "source": "osm"
    },
    {
      "id": "a13658732201",
      "nom": "سيد شارد الحسيني",
      "categorie": "monument",
      "description": "",
      "prix": "",
      "duree": "",
      "mapsUrl": "https://maps.google.com/?q=32.0353751,44.2908781",
      "lat": 32.0353751,
      "lng": 44.2908781,
      "source": "osm"
    },
    {
      "id": "a5693004922",
      "nom": "حي الجامعه",
      "categorie": "attraction",
      "description": "",
      "prix": "",
      "duree": "",
      "mapsUrl": "https://maps.google.com/?q=32.0289932,44.3506852",
      "lat": 32.0289932,
      "lng": 44.3506852,
      "source": "osm"
    },
    {
      "id": "a5412238040",
      "nom": "شارع الابطال",
      "categorie": "attraction",
      "description": "",
      "prix": "",
      "duree": "",
      "mapsUrl": "https://maps.google.com/?q=32.0421769,44.3192904",
      "lat": 32.0421769,
      "lng": 44.3192904,
      "source": "osm"
    },
    {
      "id": "a11793338469",
      "nom": "جامع المحسن س نبأ",
      "categorie": "attraction",
      "description": "",
      "prix": "",
      "duree": "",
      "mapsUrl": "https://maps.google.com/?q=32.0363141,44.342595",
      "lat": 32.0363141,
      "lng": 44.342595,
      "source": "osm"
    },
    {
      "id": "a4703941592",
      "nom": "كوفي الشلال",
      "categorie": "attraction",
      "description": "",
      "prix": "",
      "duree": "",
      "mapsUrl": "https://maps.google.com/?q=32.0427738,44.3210464",
      "lat": 32.0427738,
      "lng": 44.3210464,
      "source": "osm"
    },
    {
      "id": "a5841830585",
      "nom": "سكلة دبي",
      "categorie": "viewpoint",
      "description": "",
      "prix": "",
      "duree": "",
      "mapsUrl": "https://maps.google.com/?q=32.0352108,44.3462053",
      "lat": 32.0352108,
      "lng": 44.3462053,
      "source": "osm"
    },
    {
      "id": "a7279525585",
      "nom": "AAA",
      "categorie": "attraction",
      "description": "",
      "prix": "",
      "duree": "",
      "mapsUrl": "https://maps.google.com/?q=32.0128955,44.3678362",
      "lat": 32.0128955,
      "lng": 44.3678362,
      "source": "osm"
    },
    {
      "id": "a6762632887",
      "nom": "متنزه الارجوان",
      "categorie": "monument",
      "description": "",
      "prix": "",
      "duree": "",
      "mapsUrl": "https://maps.google.com/?q=32.0432589,44.3293774",
      "lat": 32.0432589,
      "lng": 44.3293774,
      "source": "osm"
    }
  ],
  "osmEnriched": true,
  "osmEnrichedAt": "2026-06-30",
  "description_en": "Nadjaf, in Iraq, is a halal-friendly destination with a Halal Trust Score of 4.2/5. Muslim travelers will find 19 halal restaurants listed, 37 mosques, real-time prayer times and the Qibla direction — a complete guide to travel with peace of mind.",
  "metaDescription_en": "Halal guide to Nadjaf: 17+ halal restaurants, 37 mosques, prayer times and tips for Muslim travelers. Halal Trust Score 4.2/5.",
  "nom_en": "Nadjaf",
  "boucheries": []
}