{
  "slug": "nantes",
  "nom": "Nantes",
  "pays": "France",
  "pays_slug": "france",
  "continent": "Europe",
  "region": "France",
  "coordonnees": {
    "lat": 47.2184,
    "lng": -1.5536
  },
  "codeISO": "FR",
  "score_halal": 3.2,
  "halalScore": 6.4,
  "description": "Nantes, France. Repérez les restaurants halal et les mosquées via l'application.",
  "metaDescription": "Nantes, France. Repérez les restaurants halal et les mosquées via l'application.",
  "image": "https://upload.wikimedia.org/wikipedia/commons/4/48/Ch%C3%A2teau_des_Ducs_de_Bretagne_%C3%A0_Nantes_-_Anne.jpg",
  "image_hero": "https://upload.wikimedia.org/wikipedia/commons/4/48/Ch%C3%A2teau_des_Ducs_de_Bretagne_%C3%A0_Nantes_-_Anne.jpg",
  "imageCredit": "Wikimedia Commons",
  "scoreIndicatif": true,
  "statistiques": {
    "restaurants_halal": 157,
    "mosquees": 9,
    "hotels": 120
  },
  "infoPratique": {
    "transport": "Accessible par avion et transports locaux.",
    "meilleureEpoque": "Selon la saison.",
    "conseilHalal": "Repérez restaurants halal et mosquées via l'application."
  },
  "tags": [
    "halal",
    "europe"
  ],
  "restaurants": [
    {
      "nom": "Rhythm and Buns",
      "type": "burger, chicken",
      "priceRange": "€€",
      "mapsUrl": "https://maps.google.com/?q=47.2167654,-1.5531034",
      "lat": 47.2167654,
      "lng": -1.5531034,
      "halalConfidence": "yes",
      "source": "osm"
    },
    {
      "nom": "Kebab des Ducs",
      "type": "kebab",
      "priceRange": "€€",
      "mapsUrl": "https://maps.google.com/?q=47.2169731,-1.5519054",
      "lat": 47.2169731,
      "lng": -1.5519054,
      "halalConfidence": "yes",
      "source": "osm"
    },
    {
      "nom": "My Little Warung",
      "type": "asian",
      "priceRange": "€€",
      "mapsUrl": "https://maps.google.com/?q=47.2163287,-1.5519145",
      "lat": 47.2163287,
      "lng": -1.5519145,
      "halalConfidence": "yes",
      "source": "osm"
    },
    {
      "nom": "Mac Burger",
      "type": "kebab, burger, sandwich",
      "priceRange": "€€",
      "mapsUrl": "https://maps.google.com/?q=47.2166411,-1.5564389",
      "lat": 47.2166411,
      "lng": -1.5564389,
      "halalConfidence": "yes",
      "source": "osm"
    },
    {
      "nom": "Tik Tak",
      "type": "asian",
      "priceRange": "€€",
      "mapsUrl": "https://maps.google.com/?q=47.2156541,-1.5554504",
      "lat": 47.2156541,
      "lng": -1.5554504,
      "halalConfidence": "yes",
      "source": "osm"
    },
    {
      "nom": "Lebnane",
      "type": "lebanese",
      "priceRange": "€€",
      "mapsUrl": "https://maps.google.com/?q=47.2203498,-1.5490307",
      "lat": 47.2203498,
      "lng": -1.5490307,
      "halalConfidence": "only",
      "source": "osm"
    },
    {
      "nom": "Grill House Indian",
      "type": "burger, chicken, sandwich, indian",
      "priceRange": "€€",
      "mapsUrl": "https://maps.google.com/?q=47.2154513,-1.5570218",
      "lat": 47.2154513,
      "lng": -1.5570218,
      "halalConfidence": "yes",
      "source": "osm"
    },
    {
      "nom": "Yayla Kebab",
      "type": "kebab",
      "priceRange": "€€",
      "mapsUrl": "https://maps.google.com/?q=47.2143594,-1.5544825",
      "lat": 47.2143594,
      "lng": -1.5544825,
      "halalConfidence": "yes",
      "source": "osm"
    },
    {
      "nom": "Dochi",
      "type": "korean",
      "priceRange": "€€",
      "mapsUrl": "https://maps.google.com/?q=47.2143452,-1.5545523",
      "lat": 47.2143452,
      "lng": -1.5545523,
      "halalConfidence": "yes",
      "source": "osm"
    },
    {
      "nom": "Sun 7",
      "type": "burger",
      "priceRange": "€€",
      "mapsUrl": "https://maps.google.com/?q=47.2143434,-1.5552164",
      "lat": 47.2143434,
      "lng": -1.5552164,
      "halalConfidence": "only",
      "source": "osm"
    },
    {
      "nom": "BChef",
      "type": "burger, bagel, salad",
      "priceRange": "€€",
      "mapsUrl": "https://maps.google.com/?q=47.2142798,-1.5548573",
      "lat": 47.2142798,
      "lng": -1.5548573,
      "halalConfidence": "yes",
      "source": "osm"
    },
    {
      "nom": "Frais Chaud",
      "type": "kebab",
      "priceRange": "€€",
      "mapsUrl": "https://maps.google.com/?q=47.2209192,-1.5484133",
      "lat": 47.2209192,
      "lng": -1.5484133,
      "halalConfidence": "yes",
      "source": "osm"
    },
    {
      "nom": "La Pause Royale",
      "type": "sandwich",
      "priceRange": "€€",
      "mapsUrl": "https://maps.google.com/?q=47.2148366,-1.5584392",
      "lat": 47.2148366,
      "lng": -1.5584392,
      "halalConfidence": "yes",
      "source": "osm"
    },
    {
      "nom": "Pide Nantes",
      "type": "turkish, pizza",
      "priceRange": "€€",
      "mapsUrl": "https://maps.google.com/?q=47.2138957,-1.5562556",
      "lat": 47.2138957,
      "lng": -1.5562556,
      "halalConfidence": "yes",
      "source": "osm"
    },
    {
      "nom": "O'Tacos",
      "type": "french tacos",
      "priceRange": "€€",
      "mapsUrl": "https://maps.google.com/?q=47.2134323,-1.5550731",
      "lat": 47.2134323,
      "lng": -1.5550731,
      "halalConfidence": "yes",
      "source": "osm"
    },
    {
      "nom": "Au Kébab de Dilan",
      "type": "kebab",
      "priceRange": "€€",
      "mapsUrl": "https://maps.google.com/?q=47.2140004,-1.5581166",
      "lat": 47.2140004,
      "lng": -1.5581166,
      "halalConfidence": "yes",
      "source": "osm"
    },
    {
      "nom": "Crousty Game",
      "type": "chicken, asian",
      "priceRange": "€€",
      "mapsUrl": "https://maps.google.com/?q=47.2139173,-1.5580109",
      "lat": 47.2139173,
      "lng": -1.5580109,
      "halalConfidence": "yes",
      "source": "osm"
    },
    {
      "nom": "L'Alsacien",
      "type": "alsatian",
      "priceRange": "€€",
      "mapsUrl": "https://maps.google.com/?q=47.2173012,-1.545257",
      "lat": 47.2173012,
      "lng": -1.545257,
      "halalConfidence": "yes",
      "source": "osm"
    },
    {
      "nom": "Pocha !",
      "type": "korean",
      "priceRange": "€€",
      "mapsUrl": "https://maps.google.com/?q=47.2124214,-1.560056",
      "lat": 47.2124214,
      "lng": -1.560056,
      "halalConfidence": "yes",
      "source": "osm"
    },
    {
      "nom": "Djaam",
      "type": "african, poke, sandwich",
      "priceRange": "€€",
      "mapsUrl": "https://maps.google.com/?q=47.2126623,-1.560691",
      "lat": 47.2126623,
      "lng": -1.560691,
      "halalConfidence": "yes",
      "source": "osm"
    },
    {
      "nom": "Restaurant Baladna",
      "type": "kebab",
      "priceRange": "€€",
      "mapsUrl": "https://maps.google.com/?q=47.2124267,-1.5465367",
      "lat": 47.2124267,
      "lng": -1.5465367,
      "halalConfidence": "yes",
      "source": "osm"
    },
    {
      "nom": "Forty 4",
      "type": "kebab, burger, falafel, tacos",
      "priceRange": "€€",
      "mapsUrl": "https://maps.google.com/?q=47.210563,-1.5510969",
      "lat": 47.210563,
      "lng": -1.5510969,
      "halalConfidence": "yes",
      "source": "osm"
    },
    {
      "nom": "Beskitas Kebab",
      "type": "kebab",
      "priceRange": "€€",
      "mapsUrl": "https://maps.google.com/?q=47.2112455,-1.5611814",
      "lat": 47.2112455,
      "lng": -1.5611814,
      "halalConfidence": "yes",
      "source": "osm"
    },
    {
      "nom": "Gare de l'Inde",
      "type": "indian",
      "priceRange": "€€",
      "mapsUrl": "https://maps.google.com/?q=47.2148169,-1.5413913",
      "lat": 47.2148169,
      "lng": -1.5413913,
      "halalConfidence": "yes",
      "source": "osm"
    },
    {
      "nom": "House 44 Burger",
      "type": "burger, tacos, kebab, sandwich",
      "priceRange": "€€",
      "mapsUrl": "https://maps.google.com/?q=47.2094839,-1.5502625",
      "lat": 47.2094839,
      "lng": -1.5502625,
      "halalConfidence": "yes",
      "source": "osm"
    },
    {
      "nom": "Naan House",
      "type": "kebab",
      "priceRange": "€€",
      "mapsUrl": "https://maps.google.com/?q=47.2104189,-1.5632526",
      "lat": 47.2104189,
      "lng": -1.5632526,
      "halalConfidence": "yes",
      "source": "osm"
    },
    {
      "nom": "Le Velvet",
      "type": "french",
      "priceRange": "€€",
      "mapsUrl": "https://maps.google.com/?q=47.2124947,-1.5393506",
      "lat": 47.2124947,
      "lng": -1.5393506,
      "halalConfidence": "only",
      "source": "osm"
    },
    {
      "nom": "Kinterra",
      "type": "african",
      "priceRange": "€€",
      "mapsUrl": "https://maps.google.com/?q=47.2096931,-1.5654754",
      "lat": 47.2096931,
      "lng": -1.5654754,
      "halalConfidence": "yes",
      "source": "osm"
    },
    {
      "nom": "GÏDA",
      "type": "kebab",
      "priceRange": "€€",
      "mapsUrl": "https://maps.google.com/?q=47.2062752,-1.5562373",
      "lat": 47.2062752,
      "lng": -1.5562373,
      "halalConfidence": "yes",
      "source": "osm"
    },
    {
      "nom": "FB Pizza",
      "type": "pizza",
      "priceRange": "€€",
      "mapsUrl": "https://maps.google.com/?q=47.2195702,-1.5344925",
      "lat": 47.2195702,
      "lng": -1.5344925,
      "halalConfidence": "only",
      "source": "osm"
    },
    {
      "nom": "Urban Eat",
      "type": "burger, pizza",
      "priceRange": "€€",
      "mapsUrl": "https://maps.google.com/?q=47.2057025,-1.5486931",
      "lat": 47.2057025,
      "lng": -1.5486931,
      "halalConfidence": "yes",
      "source": "osm"
    },
    {
      "nom": "Les Épices de l'Inde",
      "type": "indian",
      "priceRange": "€€",
      "mapsUrl": "https://maps.google.com/?q=47.2096626,-1.5686052",
      "lat": 47.2096626,
      "lng": -1.5686052,
      "halalConfidence": "yes",
      "source": "osm"
    },
    {
      "nom": "Koyao",
      "type": "thai",
      "priceRange": "€€",
      "mapsUrl": "https://maps.google.com/?q=47.2078599,-1.5397892",
      "lat": 47.2078599,
      "lng": -1.5397892,
      "halalConfidence": "yes",
      "source": "osm"
    },
    {
      "nom": "Grillade Cousin",
      "type": "kebab",
      "priceRange": "€€",
      "mapsUrl": "https://maps.google.com/?q=47.2200159,-1.5321666",
      "lat": 47.2200159,
      "lng": -1.5321666,
      "halalConfidence": "yes",
      "source": "osm"
    },
    {
      "nom": "Le Red Butcher",
      "type": "Restaurant halal",
      "priceRange": "€€",
      "mapsUrl": "https://maps.google.com/?q=47.2082673,-1.5700475",
      "lat": 47.2082673,
      "lng": -1.5700475,
      "halalConfidence": "yes",
      "source": "osm"
    },
    {
      "nom": "Zac Burger",
      "type": "kebab",
      "priceRange": "€€",
      "mapsUrl": "https://maps.google.com/?q=47.2092073,-1.5714779",
      "lat": 47.2092073,
      "lng": -1.5714779,
      "halalConfidence": "yes",
      "source": "osm"
    },
    {
      "nom": "Indien Grill",
      "type": "indian, lebanese",
      "priceRange": "€€",
      "mapsUrl": "https://maps.google.com/?q=47.2076435,-1.5717453",
      "lat": 47.2076435,
      "lng": -1.5717453,
      "halalConfidence": "yes",
      "source": "osm"
    },
    {
      "nom": "Malakouleur",
      "type": "turkish, international",
      "priceRange": "€€",
      "mapsUrl": "https://maps.google.com/?q=47.2144851,-1.5291969",
      "lat": 47.2144851,
      "lng": -1.5291969,
      "halalConfidence": "yes",
      "source": "osm"
    },
    {
      "nom": "Quick",
      "type": "burger",
      "priceRange": "€€",
      "mapsUrl": "https://maps.google.com/?q=47.2052398,-1.537116",
      "lat": 47.2052398,
      "lng": -1.537116,
      "halalConfidence": "yes",
      "source": "osm"
    },
    {
      "nom": "Crêp'eat",
      "type": "crepe, salad, waffle",
      "priceRange": "€€",
      "mapsUrl": "https://maps.google.com/?q=47.2051455,-1.5369594",
      "lat": 47.2051455,
      "lng": -1.5369594,
      "halalConfidence": "yes",
      "source": "osm"
    },
    {
      "nom": "The Garden",
      "type": "brunch",
      "priceRange": "€€",
      "mapsUrl": "https://maps.google.com/?q=47.2014148,-1.5464408",
      "lat": 47.2014148,
      "lng": -1.5464408,
      "halalConfidence": "yes",
      "source": "osm"
    },
    {
      "nom": "Ô familial",
      "type": "kebab",
      "priceRange": "€€",
      "mapsUrl": "https://maps.google.com/?q=47.2325271,-1.5374891",
      "lat": 47.2325271,
      "lng": -1.5374891,
      "halalConfidence": "yes",
      "source": "osm"
    },
    {
      "nom": "Restaurant Aksu",
      "type": "greek, turkish",
      "priceRange": "€€",
      "mapsUrl": "https://maps.google.com/?q=47.2086211,-1.5297842",
      "lat": 47.2086211,
      "lng": -1.5297842,
      "halalConfidence": "yes",
      "source": "osm"
    },
    {
      "nom": "NOVA FOOD",
      "type": "kebab",
      "priceRange": "€€",
      "mapsUrl": "https://maps.google.com/?q=47.2306113,-1.5290734",
      "lat": 47.2306113,
      "lng": -1.5290734,
      "halalConfidence": "yes",
      "source": "osm"
    },
    {
      "nom": "Flavor",
      "type": "french, burger, meat",
      "priceRange": "€€",
      "mapsUrl": "https://maps.google.com/?q=47.2010662,-1.5318685",
      "lat": 47.2010662,
      "lng": -1.5318685,
      "halalConfidence": "yes",
      "source": "osm"
    },
    {
      "nom": "Chicken Street",
      "type": "chicken",
      "priceRange": "€€",
      "mapsUrl": "https://maps.google.com/?q=47.2408317,-1.5729842",
      "lat": 47.2408317,
      "lng": -1.5729842,
      "halalConfidence": "only",
      "source": "osm"
    },
    {
      "nom": "Emrah Kebab",
      "type": "kebab",
      "priceRange": "€€",
      "mapsUrl": "https://maps.google.com/?q=47.2165389,-1.5997346",
      "lat": 47.2165389,
      "lng": -1.5997346,
      "halalConfidence": "yes",
      "source": "osm"
    },
    {
      "nom": "Les Épices",
      "type": "turkish",
      "priceRange": "€€",
      "mapsUrl": "https://maps.google.com/?q=47.1842086,-1.5458579",
      "lat": 47.1842086,
      "lng": -1.5458579,
      "halalConfidence": "yes",
      "source": "osm"
    },
    {
      "nom": "G La Dalle",
      "type": "burger",
      "priceRange": "€€",
      "mapsUrl": "https://maps.google.com/?q=47.2213137,-1.6048318",
      "lat": 47.2213137,
      "lng": -1.6048318,
      "halalConfidence": "yes",
      "source": "osm"
    },
    {
      "nom": "PSK",
      "type": "kebab",
      "priceRange": "€€",
      "mapsUrl": "https://maps.google.com/?q=47.2532307,-1.5577711",
      "lat": 47.2532307,
      "lng": -1.5577711,
      "halalConfidence": "yes",
      "source": "osm"
    },
    {
      "nom": "Happy Kebab",
      "type": "burger, kebab",
      "priceRange": "€€",
      "mapsUrl": "https://maps.google.com/?q=47.2533724,-1.5587579",
      "lat": 47.2533724,
      "lng": -1.5587579,
      "halalConfidence": "yes",
      "source": "osm"
    },
    {
      "nom": "Le Plan B",
      "type": "burger, salad",
      "priceRange": "€€",
      "mapsUrl": "https://maps.google.com/?q=47.2264656,-1.6093105",
      "lat": 47.2264656,
      "lng": -1.6093105,
      "halalConfidence": "yes",
      "source": "osm"
    },
    {
      "nom": "Obrigado Rodizio",
      "type": "brazilian, steak house, buffer",
      "priceRange": "€€",
      "mapsUrl": "https://maps.google.com/?q=47.2228504,-1.6119451",
      "lat": 47.2228504,
      "lng": -1.6119451,
      "halalConfidence": "yes",
      "source": "osm"
    },
    {
      "nom": "Le goût du poulet",
      "type": "antillaise",
      "priceRange": "€€",
      "mapsUrl": "https://maps.google.com/?q=47.241534,-1.6080294",
      "lat": 47.241534,
      "lng": -1.6080294,
      "halalConfidence": "yes",
      "source": "osm"
    },
    {
      "nom": "Le Bourgeois",
      "type": "Restaurant halal",
      "priceRange": "€€",
      "mapsUrl": "https://maps.google.com/?q=47.1888468,-1.502287",
      "lat": 47.1888468,
      "lng": -1.502287,
      "halalConfidence": "yes",
      "source": "osm"
    },
    {
      "nom": "Le Bol",
      "type": "vietnamese",
      "priceRange": "€€",
      "mapsUrl": "https://maps.google.com/?q=47.2306366,-1.6284692",
      "lat": 47.2306366,
      "lng": -1.6284692,
      "halalConfidence": "yes",
      "source": "osm"
    },
    {
      "nom": "Beau Rêve",
      "type": "egyptian, french",
      "priceRange": "€€",
      "mapsUrl": "https://maps.google.com/?q=47.219461,-1.5546699",
      "lat": 47.219461,
      "lng": -1.5546699,
      "halalConfidence": "likely",
      "source": "osm"
    },
    {
      "nom": "Afghan Nantes",
      "type": "afghan",
      "priceRange": "€€",
      "mapsUrl": "https://maps.google.com/?q=47.2175809,-1.5515007",
      "lat": 47.2175809,
      "lng": -1.5515007,
      "halalConfidence": "likely",
      "source": "osm"
    },
    {
      "nom": "Youna",
      "type": "lebanese",
      "priceRange": "€€",
      "mapsUrl": "https://maps.google.com/?q=47.2178672,-1.5567832",
      "lat": 47.2178672,
      "lng": -1.5567832,
      "halalConfidence": "likely",
      "source": "osm"
    },
    {
      "nom": "Istambul Kebap",
      "type": "kebab",
      "priceRange": "€€",
      "mapsUrl": "https://maps.google.com/?q=47.21605,-1.5526157",
      "lat": 47.21605,
      "lng": -1.5526157,
      "halalConfidence": "likely",
      "source": "osm"
    },
    {
      "nom": "Kusadasi",
      "type": "turkish, greek",
      "priceRange": "€€",
      "mapsUrl": "https://maps.google.com/?q=47.2167026,-1.5562471",
      "lat": 47.2167026,
      "lng": -1.5562471,
      "halalConfidence": "likely",
      "source": "osm"
    },
    {
      "nom": "Berlin Kebab",
      "type": "kebab, burger",
      "priceRange": "€€",
      "mapsUrl": "https://maps.google.com/?q=47.2159161,-1.5525395",
      "lat": 47.2159161,
      "lng": -1.5525395,
      "halalConfidence": "likely",
      "source": "osm"
    },
    {
      "nom": "Byblos",
      "type": "lebanese",
      "priceRange": "€€",
      "mapsUrl": "https://maps.google.com/?q=47.2156719,-1.5530737",
      "lat": 47.2156719,
      "lng": -1.5530737,
      "halalConfidence": "likely",
      "source": "osm"
    },
    {
      "nom": "Oléa",
      "type": "lebanese",
      "priceRange": "€€",
      "mapsUrl": "https://maps.google.com/?q=47.2156137,-1.5533042",
      "lat": 47.2156137,
      "lng": -1.5533042,
      "halalConfidence": "likely",
      "source": "osm"
    },
    {
      "nom": "L'Anatolie",
      "type": "turkish, kebab, fries",
      "priceRange": "€€",
      "mapsUrl": "https://maps.google.com/?q=47.2153511,-1.5525042",
      "lat": 47.2153511,
      "lng": -1.5525042,
      "halalConfidence": "likely",
      "source": "osm"
    },
    {
      "nom": "Forty Four",
      "type": "kebab",
      "priceRange": "€€",
      "mapsUrl": "https://maps.google.com/?q=47.2152318,-1.5524697",
      "lat": 47.2152318,
      "lng": -1.5524697,
      "halalConfidence": "likely",
      "source": "osm"
    },
    {
      "nom": "O' Panam",
      "type": "kebab, chicken, pizza, tacos, burger",
      "priceRange": "€€",
      "mapsUrl": "https://maps.google.com/?q=47.2151094,-1.5524131",
      "lat": 47.2151094,
      "lng": -1.5524131,
      "halalConfidence": "likely",
      "source": "osm"
    },
    {
      "nom": "La Rose des Sables",
      "type": "kebab",
      "priceRange": "€€",
      "mapsUrl": "https://maps.google.com/?q=47.2149715,-1.5541358",
      "lat": 47.2149715,
      "lng": -1.5541358,
      "halalConfidence": "likely",
      "source": "osm"
    },
    {
      "nom": "Le P'tit Libanais",
      "type": "lebanese",
      "priceRange": "€€",
      "mapsUrl": "https://maps.google.com/?q=47.2149519,-1.5537845",
      "lat": 47.2149519,
      "lng": -1.5537845,
      "halalConfidence": "likely",
      "source": "osm"
    },
    {
      "nom": "Le Berliner",
      "type": "kebab",
      "priceRange": "€€",
      "mapsUrl": "https://maps.google.com/?q=47.2156301,-1.5567525",
      "lat": 47.2156301,
      "lng": -1.5567525,
      "halalConfidence": "likely",
      "source": "osm"
    },
    {
      "nom": "Comptoir libanais",
      "type": "lebanese",
      "priceRange": "€€",
      "mapsUrl": "https://maps.google.com/?q=47.2154104,-1.5569792",
      "lat": 47.2154104,
      "lng": -1.5569792,
      "halalConfidence": "likely",
      "source": "osm"
    },
    {
      "nom": "L'Ariana",
      "type": "afghan",
      "priceRange": "€€",
      "mapsUrl": "https://maps.google.com/?q=47.2193046,-1.559043",
      "lat": 47.2193046,
      "lng": -1.559043,
      "halalConfidence": "likely",
      "source": "osm"
    },
    {
      "nom": "Chëf Döner",
      "type": "kebab",
      "priceRange": "€€",
      "mapsUrl": "https://maps.google.com/?q=47.2206741,-1.5486755",
      "lat": 47.2206741,
      "lng": -1.5486755,
      "halalConfidence": "likely",
      "source": "osm"
    },
    {
      "nom": "Farah Falafel",
      "type": "syrian",
      "priceRange": "€€",
      "mapsUrl": "https://maps.google.com/?q=47.2206395,-1.5484996",
      "lat": 47.2206395,
      "lng": -1.5484996,
      "halalConfidence": "likely",
      "source": "osm"
    },
    {
      "nom": "Le Petit Crébillon",
      "type": "kebab",
      "priceRange": "€€",
      "mapsUrl": "https://maps.google.com/?q=47.2144427,-1.5560539",
      "lat": 47.2144427,
      "lng": -1.5560539,
      "halalConfidence": "likely",
      "source": "osm"
    },
    {
      "nom": "Naan 44",
      "type": "naan, tacos, sandwich, kebab",
      "priceRange": "€€",
      "mapsUrl": "https://maps.google.com/?q=47.2139111,-1.5537116",
      "lat": 47.2139111,
      "lng": -1.5537116,
      "halalConfidence": "likely",
      "source": "osm"
    },
    {
      "nom": "Good Time",
      "type": "kebab, pizza, burger, tacos, sandwich",
      "priceRange": "€€",
      "mapsUrl": "https://maps.google.com/?q=47.2209696,-1.548153",
      "lat": 47.2209696,
      "lng": -1.548153,
      "halalConfidence": "likely",
      "source": "osm"
    },
    {
      "nom": "La Fontaine",
      "type": "kebab",
      "priceRange": "€€",
      "mapsUrl": "https://maps.google.com/?q=47.2211527,-1.5481681",
      "lat": 47.2211527,
      "lng": -1.5481681,
      "halalConfidence": "likely",
      "source": "osm"
    },
    {
      "nom": "Le Voyage à Damas",
      "type": "syrian, lebanese",
      "priceRange": "€€",
      "mapsUrl": "https://maps.google.com/?q=47.2210511,-1.5480512",
      "lat": 47.2210511,
      "lng": -1.5480512,
      "halalConfidence": "likely",
      "source": "osm"
    },
    {
      "nom": "La Kazdalerie",
      "type": "moroccan",
      "priceRange": "€€",
      "mapsUrl": "https://maps.google.com/?q=47.213288,-1.5554423",
      "lat": 47.213288,
      "lng": -1.5554423,
      "halalConfidence": "likely",
      "source": "osm"
    },
    {
      "nom": "Régal Kebab",
      "type": "kebab",
      "priceRange": "€€",
      "mapsUrl": "https://maps.google.com/?q=47.2140431,-1.5581778",
      "lat": 47.2140431,
      "lng": -1.5581778,
      "halalConfidence": "likely",
      "source": "osm"
    },
    {
      "nom": "Délices d'Istanbul",
      "type": "kebab",
      "priceRange": "€€",
      "mapsUrl": "https://maps.google.com/?q=47.2139537,-1.5580586",
      "lat": 47.2139537,
      "lng": -1.5580586,
      "halalConfidence": "likely",
      "source": "osm"
    },
    {
      "nom": "Bamyan",
      "type": "kebab, tacos, naan",
      "priceRange": "€€",
      "mapsUrl": "https://maps.google.com/?q=47.2131755,-1.5557224",
      "lat": 47.2131755,
      "lng": -1.5557224,
      "halalConfidence": "likely",
      "source": "osm"
    },
    {
      "nom": "Eat Doner",
      "type": "kebab",
      "priceRange": "€€",
      "mapsUrl": "https://maps.google.com/?q=47.2219207,-1.5473546",
      "lat": 47.2219207,
      "lng": -1.5473546,
      "halalConfidence": "likely",
      "source": "osm"
    },
    {
      "nom": "Le Cèdre",
      "type": "lebanese",
      "priceRange": "€€",
      "mapsUrl": "https://maps.google.com/?q=47.2129659,-1.5554472",
      "lat": 47.2129659,
      "lng": -1.5554472,
      "halalConfidence": "likely",
      "source": "osm"
    },
    {
      "nom": "Kaboul",
      "type": "afghan",
      "priceRange": "€€",
      "mapsUrl": "https://maps.google.com/?q=47.2129302,-1.5555421",
      "lat": 47.2129302,
      "lng": -1.5555421,
      "halalConfidence": "likely",
      "source": "osm"
    },
    {
      "nom": "Le Mondial Kebab",
      "type": "kebab",
      "priceRange": "€€",
      "mapsUrl": "https://maps.google.com/?q=47.2173672,-1.5450968",
      "lat": 47.2173672,
      "lng": -1.5450968,
      "halalConfidence": "likely",
      "source": "osm"
    },
    {
      "nom": "Evet",
      "type": "turkish",
      "priceRange": "€€",
      "mapsUrl": "https://maps.google.com/?q=47.2125209,-1.5521353",
      "lat": 47.2125209,
      "lng": -1.5521353,
      "halalConfidence": "likely",
      "source": "osm"
    },
    {
      "nom": "Les délices de Tunis",
      "type": "arab",
      "priceRange": "€€",
      "mapsUrl": "https://maps.google.com/?q=47.2174974,-1.5447644",
      "lat": 47.2174974,
      "lng": -1.5447644,
      "halalConfidence": "likely",
      "source": "osm"
    },
    {
      "nom": "Capadocia",
      "type": "turkish",
      "priceRange": "€€",
      "mapsUrl": "https://maps.google.com/?q=47.2125103,-1.5565656",
      "lat": 47.2125103,
      "lng": -1.5565656,
      "halalConfidence": "likely",
      "source": "osm"
    },
    {
      "nom": "Atlas Oriental",
      "type": "moroccan",
      "priceRange": "€€",
      "mapsUrl": "https://maps.google.com/?q=47.2130135,-1.559159",
      "lat": 47.2130135,
      "lng": -1.559159,
      "halalConfidence": "likely",
      "source": "osm"
    },
    {
      "nom": "Monseigneur",
      "type": "moroccan, couscous",
      "priceRange": "€€",
      "mapsUrl": "https://maps.google.com/?q=47.2127797,-1.559254",
      "lat": 47.2127797,
      "lng": -1.559254,
      "halalConfidence": "likely",
      "source": "osm"
    },
    {
      "nom": "La Mamounia",
      "type": "moroccan",
      "priceRange": "€€",
      "mapsUrl": "https://maps.google.com/?q=47.2113445,-1.5517025",
      "lat": 47.2113445,
      "lng": -1.5517025,
      "halalConfidence": "likely",
      "source": "osm"
    },
    {
      "nom": "Le kebabiste",
      "type": "kebab",
      "priceRange": "€€",
      "mapsUrl": "https://maps.google.com/?q=47.2224567,-1.5629422",
      "lat": 47.2224567,
      "lng": -1.5629422,
      "halalConfidence": "likely",
      "source": "osm"
    },
    {
      "nom": "Le Sultan",
      "type": "kebab",
      "priceRange": "€€",
      "mapsUrl": "https://maps.google.com/?q=47.2252945,-1.5593843",
      "lat": 47.2252945,
      "lng": -1.5593843,
      "halalConfidence": "likely",
      "source": "osm"
    },
    {
      "nom": "Shab' Shabou",
      "type": "persian",
      "priceRange": "€€",
      "mapsUrl": "https://maps.google.com/?q=47.2105839,-1.551113",
      "lat": 47.2105839,
      "lng": -1.551113,
      "halalConfidence": "likely",
      "source": "osm"
    },
    {
      "nom": "Baïté",
      "type": "lebanese",
      "priceRange": "€€",
      "mapsUrl": "https://maps.google.com/?q=47.2149709,-1.5645059",
      "lat": 47.2149709,
      "lng": -1.5645059,
      "halalConfidence": "likely",
      "source": "osm"
    },
    {
      "nom": "Le Mezz",
      "type": "lebanese",
      "priceRange": "€€",
      "mapsUrl": "https://maps.google.com/?q=47.2103118,-1.5508945",
      "lat": 47.2103118,
      "lng": -1.5508945,
      "halalConfidence": "likely",
      "source": "osm"
    },
    {
      "nom": "Le petit Paris",
      "type": "moroccan",
      "priceRange": "€€",
      "mapsUrl": "https://maps.google.com/?q=47.2183753,-1.5406703",
      "lat": 47.2183753,
      "lng": -1.5406703,
      "halalConfidence": "likely",
      "source": "osm"
    },
    {
      "nom": "Alanya Kepap",
      "type": "kebab",
      "priceRange": "€€",
      "mapsUrl": "https://maps.google.com/?q=47.2144009,-1.5653137",
      "lat": 47.2144009,
      "lng": -1.5653137,
      "halalConfidence": "likely",
      "source": "osm"
    },
    {
      "nom": "Maison Safran",
      "type": "moroccan",
      "priceRange": "€€",
      "mapsUrl": "https://maps.google.com/?q=47.2093294,-1.550125",
      "lat": 47.2093294,
      "lng": -1.550125,
      "halalConfidence": "likely",
      "source": "osm"
    },
    {
      "nom": "Naan Corner",
      "type": "naan, kebab, burger, sandwich, tacos",
      "priceRange": "€€",
      "mapsUrl": "https://maps.google.com/?q=47.214432,-1.5407299",
      "lat": 47.214432,
      "lng": -1.5407299,
      "halalConfidence": "likely",
      "source": "osm"
    },
    {
      "nom": "Aspendos",
      "type": "greek, turkish",
      "priceRange": "€€",
      "mapsUrl": "https://maps.google.com/?q=47.2105915,-1.5628204",
      "lat": 47.2105915,
      "lng": -1.5628204,
      "halalConfidence": "likely",
      "source": "osm"
    },
    {
      "nom": "West Food",
      "type": "kebab, burger, tacos, sandwich",
      "priceRange": "€€",
      "mapsUrl": "https://maps.google.com/?q=47.2069538,-1.555155",
      "lat": 47.2069538,
      "lng": -1.555155,
      "halalConfidence": "likely",
      "source": "osm"
    },
    {
      "nom": "Bely Food",
      "type": "kebab",
      "priceRange": "€€",
      "mapsUrl": "https://maps.google.com/?q=47.2212471,-1.5359565",
      "lat": 47.2212471,
      "lng": -1.5359565,
      "halalConfidence": "likely",
      "source": "osm"
    },
    {
      "nom": "Kral Kebap",
      "type": "turkish",
      "priceRange": "€€",
      "mapsUrl": "https://maps.google.com/?q=47.2308409,-1.5569913",
      "lat": 47.2308409,
      "lng": -1.5569913,
      "halalConfidence": "likely",
      "source": "osm"
    },
    {
      "nom": "Yafel",
      "type": "burger, lebanese, salad",
      "priceRange": "€€",
      "mapsUrl": "https://maps.google.com/?q=47.2156904,-1.534569",
      "lat": 47.2156904,
      "lng": -1.534569,
      "halalConfidence": "likely",
      "source": "osm"
    },
    {
      "nom": "Best Burger",
      "type": "kebab",
      "priceRange": "€€",
      "mapsUrl": "https://maps.google.com/?q=47.2091021,-1.5690349",
      "lat": 47.2091021,
      "lng": -1.5690349,
      "halalConfidence": "likely",
      "source": "osm"
    },
    {
      "nom": "Coin de Jasmine",
      "type": "lebanese",
      "priceRange": "€€",
      "mapsUrl": "https://maps.google.com/?q=47.209837,-1.5702089",
      "lat": 47.209837,
      "lng": -1.5702089,
      "halalConfidence": "likely",
      "source": "osm"
    },
    {
      "nom": "Alaturka Kebab",
      "type": "kebab",
      "priceRange": "€€",
      "mapsUrl": "https://maps.google.com/?q=47.2201057,-1.5320358",
      "lat": 47.2201057,
      "lng": -1.5320358,
      "halalConfidence": "likely",
      "source": "osm"
    },
    {
      "nom": "Vesta Kebap",
      "type": "kebab",
      "priceRange": "€€",
      "mapsUrl": "https://maps.google.com/?q=47.2036787,-1.5510461",
      "lat": 47.2036787,
      "lng": -1.5510461,
      "halalConfidence": "likely",
      "source": "osm"
    },
    {
      "nom": "Molana",
      "type": "afghan, persian",
      "priceRange": "€€",
      "mapsUrl": "https://maps.google.com/?q=47.203344,-1.5463698",
      "lat": 47.203344,
      "lng": -1.5463698,
      "halalConfidence": "likely",
      "source": "osm"
    },
    {
      "nom": "Graine de saveurs",
      "type": "moroccan",
      "priceRange": "€€",
      "mapsUrl": "https://maps.google.com/?q=47.2292916,-1.571926",
      "lat": 47.2292916,
      "lng": -1.571926,
      "halalConfidence": "likely",
      "source": "osm"
    },
    {
      "nom": "B'Nina",
      "type": "arab",
      "priceRange": "€€",
      "mapsUrl": "https://maps.google.com/?q=47.2316794,-1.5382294",
      "lat": 47.2316794,
      "lng": -1.5382294,
      "halalConfidence": "likely",
      "source": "osm"
    },
    {
      "nom": "Broadway",
      "type": "burger, kebab, sandwich",
      "priceRange": "€€",
      "mapsUrl": "https://maps.google.com/?q=47.2016871,-1.5467611",
      "lat": 47.2016871,
      "lng": -1.5467611,
      "halalConfidence": "likely",
      "source": "osm"
    },
    {
      "nom": "Berliner",
      "type": "kebab",
      "priceRange": "€€",
      "mapsUrl": "https://maps.google.com/?q=47.2053707,-1.5366583",
      "lat": 47.2053707,
      "lng": -1.5366583,
      "halalConfidence": "likely",
      "source": "osm"
    },
    {
      "nom": "L'Oasis",
      "type": "moroccan",
      "priceRange": "€€",
      "mapsUrl": "https://maps.google.com/?q=47.2008404,-1.5458731",
      "lat": 47.2008404,
      "lng": -1.5458731,
      "halalConfidence": "likely",
      "source": "osm"
    },
    {
      "nom": "Rodeo",
      "type": "kebab",
      "priceRange": "€€",
      "mapsUrl": "https://maps.google.com/?q=47.2287719,-1.5772335",
      "lat": 47.2287719,
      "lng": -1.5772335,
      "halalConfidence": "likely",
      "source": "osm"
    },
    {
      "nom": "Galatasaray",
      "type": "kebab",
      "priceRange": "€€",
      "mapsUrl": "https://maps.google.com/?q=47.2051542,-1.5749252",
      "lat": 47.2051542,
      "lng": -1.5749252,
      "halalConfidence": "likely",
      "source": "osm"
    },
    {
      "nom": "Eat Well",
      "type": "burger, kebab",
      "priceRange": "€€",
      "mapsUrl": "https://maps.google.com/?q=47.2255649,-1.5240866",
      "lat": 47.2255649,
      "lng": -1.5240866,
      "halalConfidence": "likely",
      "source": "osm"
    },
    {
      "nom": "Mac Kebab",
      "type": "kebab",
      "priceRange": "€€",
      "mapsUrl": "https://maps.google.com/?q=47.2411094,-1.5570727",
      "lat": 47.2411094,
      "lng": -1.5570727,
      "halalConfidence": "likely",
      "source": "osm"
    },
    {
      "nom": "Convention Kebab",
      "type": "kebab",
      "priceRange": "€€",
      "mapsUrl": "https://maps.google.com/?q=47.2110521,-1.5867766",
      "lat": 47.2110521,
      "lng": -1.5867766,
      "halalConfidence": "likely",
      "source": "osm"
    },
    {
      "nom": "Le double N",
      "type": "kebab",
      "priceRange": "€€",
      "mapsUrl": "https://maps.google.com/?q=47.1964179,-1.5389844",
      "lat": 47.1964179,
      "lng": -1.5389844,
      "halalConfidence": "likely",
      "source": "osm"
    },
    {
      "nom": "Le 67's",
      "type": "kebab",
      "priceRange": "€€",
      "mapsUrl": "https://maps.google.com/?q=47.2380754,-1.5325311",
      "lat": 47.2380754,
      "lng": -1.5325311,
      "halalConfidence": "likely",
      "source": "osm"
    },
    {
      "nom": "Le Mesopotamia",
      "type": "kebab",
      "priceRange": "€€",
      "mapsUrl": "https://maps.google.com/?q=47.2398138,-1.5312782",
      "lat": 47.2398138,
      "lng": -1.5312782,
      "halalConfidence": "likely",
      "source": "osm"
    },
    {
      "nom": "Beauséjour Grillade & Kebab",
      "type": "kebab",
      "priceRange": "€€",
      "mapsUrl": "https://maps.google.com/?q=47.2357546,-1.5834553",
      "lat": 47.2357546,
      "lng": -1.5834553,
      "halalConfidence": "likely",
      "source": "osm"
    },
    {
      "nom": "Le Koubab de Fès",
      "type": "kebab",
      "priceRange": "€€",
      "mapsUrl": "https://maps.google.com/?q=47.1917695,-1.5463997",
      "lat": 47.1917695,
      "lng": -1.5463997,
      "halalConfidence": "likely",
      "source": "osm"
    },
    {
      "nom": "Euro kebab",
      "type": "kebab",
      "priceRange": "€€",
      "mapsUrl": "https://maps.google.com/?q=47.2315952,-1.5917383",
      "lat": 47.2315952,
      "lng": -1.5917383,
      "halalConfidence": "likely",
      "source": "osm"
    },
    {
      "nom": "Besiktas",
      "type": "turkish",
      "priceRange": "€€",
      "mapsUrl": "https://maps.google.com/?q=47.1896219,-1.5473039",
      "lat": 47.1896219,
      "lng": -1.5473039,
      "halalConfidence": "likely",
      "source": "osm"
    },
    {
      "nom": "Snack Burger",
      "type": "burger, chicken, sandwich, kebab",
      "priceRange": "€€",
      "mapsUrl": "https://maps.google.com/?q=47.1886702,-1.5506058",
      "lat": 47.1886702,
      "lng": -1.5506058,
      "halalConfidence": "likely",
      "source": "osm"
    },
    {
      "nom": "Les Délices de Beyrouth",
      "type": "kebab, lebanese",
      "priceRange": "€€",
      "mapsUrl": "https://maps.google.com/?q=47.2487155,-1.5526128",
      "lat": 47.2487155,
      "lng": -1.5526128,
      "halalConfidence": "likely",
      "source": "osm"
    },
    {
      "nom": "Jean Macé Kebab",
      "type": "kebab",
      "priceRange": "€€",
      "mapsUrl": "https://maps.google.com/?q=47.1992064,-1.5887599",
      "lat": 47.1992064,
      "lng": -1.5887599,
      "halalConfidence": "likely",
      "source": "osm"
    },
    {
      "nom": "Bunch",
      "type": "sandwich, burger, kebab",
      "priceRange": "€€",
      "mapsUrl": "https://maps.google.com/?q=47.2448841,-1.5257022",
      "lat": 47.2448841,
      "lng": -1.5257022,
      "halalConfidence": "likely",
      "source": "osm"
    },
    {
      "nom": "Urfa Kebab",
      "type": "kebab",
      "priceRange": "€€",
      "mapsUrl": "https://maps.google.com/?q=47.1980706,-1.5920616",
      "lat": 47.1980706,
      "lng": -1.5920616,
      "halalConfidence": "likely",
      "source": "osm"
    },
    {
      "nom": "Taxi kebab",
      "type": "kebab",
      "priceRange": "€€",
      "mapsUrl": "https://maps.google.com/?q=47.2062442,-1.5992678",
      "lat": 47.2062442,
      "lng": -1.5992678,
      "halalConfidence": "likely",
      "source": "osm"
    },
    {
      "nom": "Royal Kebab",
      "type": "kebab",
      "priceRange": "€€",
      "mapsUrl": "https://maps.google.com/?q=47.2071306,-1.5047012",
      "lat": 47.2071306,
      "lng": -1.5047012,
      "halalConfidence": "likely",
      "source": "osm"
    },
    {
      "nom": "Lezzet Food",
      "type": "kebab",
      "priceRange": "€€",
      "mapsUrl": "https://maps.google.com/?q=47.2087727,-1.5038451",
      "lat": 47.2087727,
      "lng": -1.5038451,
      "halalConfidence": "likely",
      "source": "osm"
    },
    {
      "nom": "Antalya 44",
      "type": "kebab, pizza",
      "priceRange": "€€",
      "mapsUrl": "https://maps.google.com/?q=47.255102,-1.5222504",
      "lat": 47.255102,
      "lng": -1.5222504,
      "halalConfidence": "likely",
      "source": "osm"
    },
    {
      "nom": "Queen Burger",
      "type": "kebab",
      "priceRange": "€€",
      "mapsUrl": "https://maps.google.com/?q=47.1815177,-1.5875735",
      "lat": 47.1815177,
      "lng": -1.5875735,
      "halalConfidence": "likely",
      "source": "osm"
    },
    {
      "nom": "44 street",
      "type": "kebab",
      "priceRange": "€€",
      "mapsUrl": "https://maps.google.com/?q=47.2614641,-1.5749025",
      "lat": 47.2614641,
      "lng": -1.5749025,
      "halalConfidence": "likely",
      "source": "osm"
    },
    {
      "nom": "Les délices de la Beaujoire",
      "type": "pizza, burger, kebab, sandwich",
      "priceRange": "€€",
      "mapsUrl": "https://maps.google.com/?q=47.2647833,-1.526406",
      "lat": 47.2647833,
      "lng": -1.526406,
      "halalConfidence": "likely",
      "source": "osm"
    },
    {
      "nom": "Dorée et Grillée",
      "type": "kebab",
      "priceRange": "€€",
      "mapsUrl": "https://maps.google.com/?q=47.2699959,-1.5192719",
      "lat": 47.2699959,
      "lng": -1.5192719,
      "halalConfidence": "likely",
      "source": "osm"
    },
    {
      "nom": "Le comptoir libanais",
      "type": "lebanese",
      "priceRange": "€€",
      "mapsUrl": "https://maps.google.com/?q=47.2710952,-1.5206953",
      "lat": 47.2710952,
      "lng": -1.5206953,
      "halalConfidence": "likely",
      "source": "osm"
    },
    {
      "nom": "Chic kebab & tacos",
      "type": "kebab",
      "priceRange": "€€",
      "mapsUrl": "https://maps.google.com/?q=47.1871493,-1.4813675",
      "lat": 47.1871493,
      "lng": -1.4813675,
      "halalConfidence": "likely",
      "source": "osm"
    },
    {
      "nom": "A la Parisienne",
      "type": "turkish, kebab",
      "priceRange": "€€",
      "mapsUrl": "https://maps.google.com/?q=47.2232481,-1.6420375",
      "lat": 47.2232481,
      "lng": -1.6420375,
      "halalConfidence": "likely",
      "source": "osm"
    },
    {
      "nom": "Istanbul Kebab",
      "type": "kebab",
      "priceRange": "€€",
      "mapsUrl": "https://maps.google.com/?q=47.1742677,-1.6246958",
      "lat": 47.1742677,
      "lng": -1.6246958,
      "halalConfidence": "likely",
      "source": "osm"
    },
    {
      "nom": "Le mesopotamia 2",
      "type": "turkish",
      "priceRange": "€€",
      "mapsUrl": "https://maps.google.com/?q=47.2786576,-1.5980022",
      "lat": 47.2786576,
      "lng": -1.5980022,
      "halalConfidence": "likely",
      "source": "osm"
    },
    {
      "nom": "Les Sorinières Kebab",
      "type": "kebab",
      "priceRange": "€€",
      "mapsUrl": "https://maps.google.com/?q=47.1476827,-1.530535",
      "lat": 47.1476827,
      "lng": -1.530535,
      "halalConfidence": "likely",
      "source": "osm"
    },
    {
      "nom": "Miss Kebab",
      "type": "kebab",
      "priceRange": "€€",
      "mapsUrl": "https://maps.google.com/?q=47.1688858,-1.4757898",
      "lat": 47.1688858,
      "lng": -1.4757898,
      "halalConfidence": "likely",
      "source": "osm"
    },
    {
      "nom": "Melley Food",
      "type": "burger, kebab, tacos, french tacos",
      "priceRange": "€€",
      "mapsUrl": "https://maps.google.com/?q=47.2583209,-1.4531231",
      "lat": 47.2583209,
      "lng": -1.4531231,
      "halalConfidence": "likely",
      "source": "osm"
    }
  ],
  "hotels": [
    {
      "nom": "Maison Maubreuil",
      "categorie": "Hôtel",
      "priceRange": "€€€€",
      "score": 5,
      "mapsUrl": "https://maps.google.com/?q=47.2191983,-1.5513225",
      "lat": 47.2191983,
      "lng": -1.5513225,
      "halalFriendly": false,
      "bookingUrl": "https://www.maisonmaubreuil.com/fr/",
      "source": "osm"
    },
    {
      "nom": "Hôtel Duquesne",
      "categorie": "Hôtel",
      "priceRange": "€€",
      "score": 2,
      "mapsUrl": "https://maps.google.com/?q=47.2186668,-1.5566424",
      "lat": 47.2186668,
      "lng": -1.5566424,
      "halalFriendly": false,
      "bookingUrl": "https://maps.google.com/?q=47.2186668,-1.5566424",
      "source": "osm"
    },
    {
      "nom": "OKKO Hotels",
      "categorie": "Hôtel",
      "priceRange": "€€€€",
      "score": 4,
      "mapsUrl": "https://maps.google.com/?q=47.2165333,-1.5518558",
      "lat": 47.2165333,
      "lng": -1.5518558,
      "halalFriendly": false,
      "bookingUrl": "https://maps.google.com/?q=47.2165333,-1.5518558",
      "source": "osm"
    },
    {
      "nom": "Gîtes des carmélites",
      "categorie": "Maison d'hôtes",
      "priceRange": "€€",
      "mapsUrl": "https://maps.google.com/?q=47.2168215,-1.5512665",
      "lat": 47.2168215,
      "lng": -1.5512665,
      "halalFriendly": false,
      "bookingUrl": "https://maps.google.com/?q=47.2168215,-1.5512665",
      "source": "osm"
    },
    {
      "nom": "Le Petit Duquesne",
      "categorie": "Hôtel",
      "priceRange": "€",
      "score": 1,
      "mapsUrl": "https://maps.google.com/?q=47.2173074,-1.5566729",
      "lat": 47.2173074,
      "lng": -1.5566729,
      "halalFriendly": false,
      "bookingUrl": "https://maps.google.com/?q=47.2173074,-1.5566729",
      "source": "osm"
    },
    {
      "nom": "Hôtel La Pérouse",
      "categorie": "Hôtel",
      "priceRange": "€€€€",
      "score": 4,
      "mapsUrl": "https://maps.google.com/?q=47.2168872,-1.5564847",
      "lat": 47.2168872,
      "lng": -1.5564847,
      "halalFriendly": false,
      "bookingUrl": "https://maps.google.com/?q=47.2168872,-1.5564847",
      "source": "osm"
    },
    {
      "nom": "Le Chateaubriand",
      "categorie": "Hôtel",
      "priceRange": "€€",
      "score": 2,
      "mapsUrl": "https://maps.google.com/?q=47.221232,-1.5550956",
      "lat": 47.221232,
      "lng": -1.5550956,
      "halalFriendly": false,
      "bookingUrl": "https://maps.google.com/?q=47.221232,-1.5550956",
      "source": "osm"
    },
    {
      "nom": "Hôtel Saint-Daniel",
      "categorie": "Hôtel",
      "priceRange": "€",
      "score": 1,
      "mapsUrl": "https://maps.google.com/?q=47.2149753,-1.5540582",
      "lat": 47.2149753,
      "lng": -1.5540582,
      "halalFriendly": false,
      "bookingUrl": "https://maps.google.com/?q=47.2149753,-1.5540582",
      "source": "osm"
    },
    {
      "nom": "Appart'City Confort Nantes Centre",
      "categorie": "Hôtel",
      "priceRange": "€€€",
      "score": 3,
      "mapsUrl": "https://maps.google.com/?q=47.2150907,-1.5521733",
      "lat": 47.2150907,
      "lng": -1.5521733,
      "halalFriendly": false,
      "bookingUrl": "https://www.appartcity.com/fr/destinations/pays-de-la-loire/nantes/nantes-centre.html",
      "source": "osm"
    },
    {
      "nom": "Hôtel Rénova",
      "categorie": "Hôtel",
      "priceRange": "€",
      "score": 1,
      "mapsUrl": "https://maps.google.com/?q=47.2148787,-1.5551266",
      "lat": 47.2148787,
      "lng": -1.5551266,
      "halalFriendly": false,
      "bookingUrl": "https://maps.google.com/?q=47.2148787,-1.5551266",
      "source": "osm"
    },
    {
      "nom": "Hôtel Saint-Patrick",
      "categorie": "Hôtel",
      "priceRange": "€",
      "score": 1,
      "mapsUrl": "https://maps.google.com/?q=47.2149798,-1.5569515",
      "lat": 47.2149798,
      "lng": -1.5569515,
      "halalFriendly": false,
      "bookingUrl": "https://www.hotel-saintpatrick.com",
      "source": "osm"
    },
    {
      "nom": "L'Hôtel",
      "categorie": "Hôtel",
      "priceRange": "€€€",
      "score": 3,
      "mapsUrl": "https://maps.google.com/?q=47.2174663,-1.5475347",
      "lat": 47.2174663,
      "lng": -1.5475347,
      "halalFriendly": false,
      "bookingUrl": "https://maps.google.com/?q=47.2174663,-1.5475347",
      "source": "osm"
    },
    {
      "nom": "Hôtel du Château",
      "categorie": "Hôtel",
      "priceRange": "€€",
      "score": 2,
      "mapsUrl": "https://maps.google.com/?q=47.2174305,-1.5474245",
      "lat": 47.2174305,
      "lng": -1.5474245,
      "halalFriendly": false,
      "bookingUrl": "https://www.hotel-du-chateau-nantes.fr/",
      "source": "osm"
    },
    {
      "nom": "Hôtel ibis Nantes Centre Tour Bretagne",
      "categorie": "Hôtel",
      "priceRange": "€€€",
      "score": 3,
      "mapsUrl": "https://maps.google.com/?q=47.2190496,-1.5604106",
      "lat": 47.2190496,
      "lng": -1.5604106,
      "halalFriendly": false,
      "bookingUrl": "https://maps.google.com/?q=47.2190496,-1.5604106",
      "source": "osm"
    },
    {
      "nom": "Hôtel Abat Jour",
      "categorie": "Hôtel",
      "priceRange": "€€",
      "score": 2,
      "mapsUrl": "https://maps.google.com/?q=47.2217074,-1.548646",
      "lat": 47.2217074,
      "lng": -1.548646,
      "halalFriendly": false,
      "bookingUrl": "https://maps.google.com/?q=47.2217074,-1.548646",
      "source": "osm"
    },
    {
      "nom": "Mercure Nantes Centre Grand Hôtel",
      "categorie": "Hôtel",
      "priceRange": "€€€€",
      "score": 4,
      "mapsUrl": "https://maps.google.com/?q=47.2141792,-1.5568865",
      "lat": 47.2141792,
      "lng": -1.5568865,
      "halalFriendly": false,
      "bookingUrl": "https://maps.google.com/?q=47.2141792,-1.5568865",
      "source": "osm"
    },
    {
      "nom": "Inter-Hôtel Novella",
      "categorie": "Hôtel",
      "priceRange": "€€",
      "score": 2,
      "mapsUrl": "https://maps.google.com/?q=47.2172946,-1.5464957",
      "lat": 47.2172946,
      "lng": -1.5464957,
      "halalFriendly": false,
      "bookingUrl": "https://maps.google.com/?q=47.2172946,-1.5464957",
      "source": "osm"
    },
    {
      "nom": "Ibis Styles Nantes Centre Place Royale",
      "categorie": "Hôtel",
      "priceRange": "€€€",
      "score": 3,
      "mapsUrl": "https://maps.google.com/?q=47.2142037,-1.55751",
      "lat": 47.2142037,
      "lng": -1.55751,
      "halalFriendly": false,
      "bookingUrl": "http://www.ibis.com",
      "source": "osm"
    },
    {
      "nom": "Cardinal Hôtel",
      "categorie": "Hôtel",
      "priceRange": "€€",
      "mapsUrl": "https://maps.google.com/?q=47.2172436,-1.5463133",
      "lat": 47.2172436,
      "lng": -1.5463133,
      "halalFriendly": false,
      "bookingUrl": "https://maps.google.com/?q=47.2172436,-1.5463133",
      "source": "osm"
    },
    {
      "nom": "Hôtel du Grand Monarque",
      "categorie": "Hôtel",
      "priceRange": "€",
      "score": 1,
      "mapsUrl": "https://maps.google.com/?q=47.2216156,-1.5476531",
      "lat": 47.2216156,
      "lng": -1.5476531,
      "halalFriendly": false,
      "bookingUrl": "https://maps.google.com/?q=47.2216156,-1.5476531",
      "source": "osm"
    },
    {
      "nom": "Adagio",
      "categorie": "Hôtel",
      "priceRange": "€€€€",
      "score": 4,
      "mapsUrl": "https://maps.google.com/?q=47.2169457,-1.5461466",
      "lat": 47.2169457,
      "lng": -1.5461466,
      "halalFriendly": false,
      "bookingUrl": "https://maps.google.com/?q=47.2169457,-1.5461466",
      "source": "osm"
    },
    {
      "nom": "Hôtel Richebourg",
      "categorie": "Hôtel",
      "priceRange": "€",
      "score": 1,
      "mapsUrl": "https://maps.google.com/?q=47.2173755,-1.5459232",
      "lat": 47.2173755,
      "lng": -1.5459232,
      "halalFriendly": false,
      "bookingUrl": "https://maps.google.com/?q=47.2173755,-1.5459232",
      "source": "osm"
    },
    {
      "nom": "Hôtel Ibis Nantes centre Gare Sud",
      "categorie": "Hôtel",
      "priceRange": "€€€",
      "score": 3,
      "mapsUrl": "https://maps.google.com/?q=47.2146829,-1.5472649",
      "lat": 47.2146829,
      "lng": -1.5472649,
      "halalFriendly": false,
      "bookingUrl": "https://maps.google.com/?q=47.2146829,-1.5472649",
      "source": "osm"
    },
    {
      "nom": "Ibis Styles Nantes Centre Place Graslin",
      "categorie": "Hôtel",
      "priceRange": "€€€",
      "score": 3,
      "mapsUrl": "https://maps.google.com/?q=47.2149368,-1.5602698",
      "lat": 47.2149368,
      "lng": -1.5602698,
      "halalFriendly": false,
      "bookingUrl": "https://maps.google.com/?q=47.2149368,-1.5602698",
      "source": "osm"
    },
    {
      "nom": "Le mondiale",
      "categorie": "Hôtel",
      "priceRange": "€€",
      "mapsUrl": "https://maps.google.com/?q=47.217397,-1.5450203",
      "lat": 47.217397,
      "lng": -1.5450203,
      "halalFriendly": false,
      "bookingUrl": "https://maps.google.com/?q=47.217397,-1.5450203",
      "source": "osm"
    },
    {
      "nom": "B&B Hôtel",
      "categorie": "Hôtel",
      "priceRange": "€€",
      "score": 2,
      "mapsUrl": "https://maps.google.com/?q=47.220802,-1.5617779",
      "lat": 47.220802,
      "lng": -1.5617779,
      "halalFriendly": false,
      "bookingUrl": "https://www.hotel-bb.com/fr/hotel/nantes-centre",
      "source": "osm"
    },
    {
      "nom": "ChaChaCha",
      "categorie": "Hôtel",
      "priceRange": "€€",
      "mapsUrl": "https://maps.google.com/?q=47.2176131,-1.5446054",
      "lat": 47.2176131,
      "lng": -1.5446054,
      "halalFriendly": false,
      "bookingUrl": "https://maps.google.com/?q=47.2176131,-1.5446054",
      "source": "osm"
    },
    {
      "nom": "Hôtel Nantes Centre Passage Pommeraye",
      "categorie": "Hôtel",
      "priceRange": "€€",
      "score": 2,
      "mapsUrl": "https://maps.google.com/?q=47.2141072,-1.560236",
      "lat": 47.2141072,
      "lng": -1.560236,
      "halalFriendly": false,
      "bookingUrl": "https://www.accorhotels.com/",
      "source": "osm"
    },
    {
      "nom": "Appart'City",
      "categorie": "Hôtel",
      "priceRange": "€€",
      "score": 2,
      "mapsUrl": "https://maps.google.com/?q=47.2212732,-1.5617413",
      "lat": 47.2212732,
      "lng": -1.5617413,
      "halalFriendly": false,
      "bookingUrl": "https://www.appartcity.com/fr/destinations/pays-de-la-loire/nantes/nantes-viarme.html",
      "source": "osm"
    },
    {
      "nom": "Hôtel ibis Styles Nantes Centre Gare",
      "categorie": "Hôtel",
      "priceRange": "€€€",
      "score": 3,
      "mapsUrl": "https://maps.google.com/?q=47.2176797,-1.5443569",
      "lat": 47.2176797,
      "lng": -1.5443569,
      "halalFriendly": false,
      "bookingUrl": "https://maps.google.com/?q=47.2176797,-1.5443569",
      "source": "osm"
    },
    {
      "nom": "Oldegar",
      "categorie": "Hôtel",
      "priceRange": "€€€",
      "score": 3,
      "mapsUrl": "https://maps.google.com/?q=47.2179992,-1.5441305",
      "lat": 47.2179992,
      "lng": -1.5441305,
      "halalFriendly": false,
      "bookingUrl": "https://maps.google.com/?q=47.2179992,-1.5441305",
      "source": "osm"
    },
    {
      "nom": "Appart City Nantes Cité des Congrès",
      "categorie": "Hôtel",
      "priceRange": "€€€",
      "score": 3,
      "mapsUrl": "https://maps.google.com/?q=47.2141701,-1.5463842",
      "lat": 47.2141701,
      "lng": -1.5463842,
      "halalFriendly": false,
      "bookingUrl": "https://www.appartcity.com/fr/destinations/pays-de-la-loire/nantes/nantes-cite-des-congres.html",
      "source": "osm"
    },
    {
      "nom": "Hôtel de la Gare",
      "categorie": "Hôtel",
      "priceRange": "€€",
      "score": 2,
      "mapsUrl": "https://maps.google.com/?q=47.2177457,-1.543967",
      "lat": 47.2177457,
      "lng": -1.543967,
      "halalFriendly": false,
      "bookingUrl": "https://maps.google.com/?q=47.2177457,-1.543967",
      "source": "osm"
    },
    {
      "nom": "Hôtel Terminus",
      "categorie": "Hôtel",
      "priceRange": "€€",
      "score": 2,
      "mapsUrl": "https://maps.google.com/?q=47.2178008,-1.5437453",
      "lat": 47.2178008,
      "lng": -1.5437453,
      "halalFriendly": false,
      "bookingUrl": "https://www.hotel-terminus-nantes.fr/",
      "source": "osm"
    },
    {
      "nom": "Maisons du Monde",
      "categorie": "Hôtel",
      "priceRange": "€€",
      "mapsUrl": "https://maps.google.com/?q=47.2126437,-1.5600998",
      "lat": 47.2126437,
      "lng": -1.5600998,
      "halalFriendly": false,
      "bookingUrl": "https://maps.google.com/?q=47.2126437,-1.5600998",
      "source": "osm"
    },
    {
      "nom": "Oceania Hôtel de France Nantes",
      "categorie": "Hôtel",
      "priceRange": "€€€€",
      "score": 4,
      "mapsUrl": "https://maps.google.com/?q=47.2136088,-1.5616674",
      "lat": 47.2136088,
      "lng": -1.5616674,
      "halalFriendly": false,
      "bookingUrl": "https://www.oceaniahotels.com",
      "source": "osm"
    },
    {
      "nom": "Hôtel Mercure Nantes Centre Gare",
      "categorie": "Hôtel",
      "priceRange": "€€€€",
      "score": 4,
      "mapsUrl": "https://maps.google.com/?q=47.2161167,-1.5431845",
      "lat": 47.2161167,
      "lng": -1.5431845,
      "halalFriendly": false,
      "bookingUrl": "http://www.mercure.com/fr/hotel-3448-hotel-mercure-nantes-centre-gare/index.shtml",
      "source": "osm"
    },
    {
      "nom": "Billie Hôtel",
      "categorie": "Hôtel",
      "priceRange": "€€€",
      "score": 3,
      "mapsUrl": "https://maps.google.com/?q=47.2140349,-1.562915",
      "lat": 47.2140349,
      "lng": -1.562915,
      "halalFriendly": false,
      "bookingUrl": "https://maps.google.com/?q=47.2140349,-1.562915",
      "source": "osm"
    },
    {
      "nom": "Élisabeth",
      "categorie": "Maison d'hôtes",
      "priceRange": "€€",
      "mapsUrl": "https://maps.google.com/?q=47.2262417,-1.5538361",
      "lat": 47.2262417,
      "lng": -1.5538361,
      "halalFriendly": false,
      "bookingUrl": "http://canal-elisabeth.fr",
      "source": "osm"
    },
    {
      "nom": "DEMAIN Hôtel & Conciergerie",
      "categorie": "Hôtel",
      "priceRange": "€€€",
      "score": 3,
      "mapsUrl": "https://maps.google.com/?q=47.2117807,-1.5609317",
      "lat": 47.2117807,
      "lng": -1.5609317,
      "halalFriendly": false,
      "bookingUrl": "https://www.demain-nantes.com",
      "source": "osm"
    },
    {
      "nom": "Best Western Hôtel Graslin",
      "categorie": "Hôtel",
      "priceRange": "€€€",
      "score": 3,
      "mapsUrl": "https://maps.google.com/?q=47.2122669,-1.5618541",
      "lat": 47.2122669,
      "lng": -1.5618541,
      "halalFriendly": false,
      "bookingUrl": "https://www.hotel-graslin.com",
      "source": "osm"
    },
    {
      "nom": "Demain",
      "categorie": "Hôtel",
      "priceRange": "€€",
      "mapsUrl": "https://maps.google.com/?q=47.2118853,-1.5612208",
      "lat": 47.2118853,
      "lng": -1.5612208,
      "halalFriendly": false,
      "bookingUrl": "https://demain-nantes.com/",
      "source": "osm"
    },
    {
      "nom": "Novotel Nantes Centre Cité des Congrès",
      "categorie": "Hôtel",
      "priceRange": "€€€€",
      "score": 4,
      "mapsUrl": "https://maps.google.com/?q=47.2133829,-1.5436885",
      "lat": 47.2133829,
      "lng": -1.5436885,
      "halalFriendly": false,
      "bookingUrl": "https://maps.google.com/?q=47.2133829,-1.5436885",
      "source": "osm"
    },
    {
      "nom": "Le Cambronne",
      "categorie": "Hôtel",
      "priceRange": "€",
      "score": 1,
      "mapsUrl": "https://maps.google.com/?q=47.2118347,-1.5617103",
      "lat": 47.2118347,
      "lng": -1.5617103,
      "halalFriendly": false,
      "bookingUrl": "http://www.hotel-cambronne.com",
      "source": "osm"
    },
    {
      "nom": "Árvoresens",
      "categorie": "Hôtel",
      "priceRange": "€",
      "score": 1,
      "mapsUrl": "https://maps.google.com/?q=47.2113313,-1.5609952",
      "lat": 47.2113313,
      "lng": -1.5609952,
      "halalFriendly": false,
      "bookingUrl": "https://maps.google.com/?q=47.2113313,-1.5609952",
      "source": "osm"
    },
    {
      "nom": "Hôtel de la Cité",
      "categorie": "Hôtel",
      "priceRange": "€€€",
      "score": 3,
      "mapsUrl": "https://maps.google.com/?q=47.2111972,-1.5443729",
      "lat": 47.2111972,
      "lng": -1.5443729,
      "halalFriendly": false,
      "bookingUrl": "https://maps.google.com/?q=47.2111972,-1.5443729",
      "source": "osm"
    },
    {
      "nom": "Voltaire Opéra",
      "categorie": "Hôtel",
      "priceRange": "€€",
      "score": 2,
      "mapsUrl": "https://maps.google.com/?q=47.2119887,-1.564472",
      "lat": 47.2119887,
      "lng": -1.564472,
      "halalFriendly": false,
      "bookingUrl": "https://www.hotelvoltaireoperanantes.com/",
      "source": "osm"
    },
    {
      "nom": "Hôtel Saint-Yves",
      "categorie": "Hôtel",
      "priceRange": "€€",
      "score": 2,
      "mapsUrl": "https://maps.google.com/?q=47.226796,-1.5430315",
      "lat": 47.226796,
      "lng": -1.5430315,
      "halalFriendly": false,
      "bookingUrl": "https://maps.google.com/?q=47.226796,-1.5430315",
      "source": "osm"
    },
    {
      "nom": "Hôtel Coeur de Loire",
      "categorie": "Hôtel",
      "priceRange": "€€",
      "score": 2,
      "mapsUrl": "https://maps.google.com/?q=47.2285863,-1.5626616",
      "lat": 47.2285863,
      "lng": -1.5626616,
      "halalFriendly": false,
      "bookingUrl": "https://www.coeurdeloirehotel.com/",
      "source": "osm"
    },
    {
      "nom": "Residhome Apparthotel Berges de la Loire",
      "categorie": "Hôtel",
      "priceRange": "€€€€",
      "score": 4,
      "mapsUrl": "https://maps.google.com/?q=47.2122643,-1.5381114",
      "lat": 47.2122643,
      "lng": -1.5381114,
      "halalFriendly": false,
      "bookingUrl": "https://maps.google.com/?q=47.2122643,-1.5381114",
      "source": "osm"
    },
    {
      "nom": "Novotel Nantes",
      "categorie": "Hôtel",
      "priceRange": "€€€€",
      "score": 4,
      "mapsUrl": "https://maps.google.com/?q=47.2068185,-1.5477299",
      "lat": 47.2068185,
      "lng": -1.5477299,
      "halalFriendly": false,
      "bookingUrl": "https://maps.google.com/?q=47.2068185,-1.5477299",
      "source": "osm"
    },
    {
      "nom": "Odalys Cité des congrés",
      "categorie": "Appartement",
      "priceRange": "€€",
      "mapsUrl": "https://maps.google.com/?q=47.2077665,-1.5431701",
      "lat": 47.2077665,
      "lng": -1.5431701,
      "halalFriendly": false,
      "bookingUrl": "https://maps.google.com/?q=47.2077665,-1.5431701",
      "source": "osm"
    },
    {
      "nom": "L'Embarcadère",
      "categorie": "Maison d'hôtes",
      "priceRange": "€€",
      "mapsUrl": "https://maps.google.com/?q=47.2311747,-1.549564",
      "lat": 47.2311747,
      "lng": -1.549564,
      "halalFriendly": false,
      "bookingUrl": "http://gitefluvial.blogspot.fr/",
      "source": "osm"
    },
    {
      "nom": "Odalys Campus Île de Nantes",
      "categorie": "Appartement",
      "priceRange": "€€",
      "mapsUrl": "https://maps.google.com/?q=47.2075142,-1.5427329",
      "lat": 47.2075142,
      "lng": -1.5427329,
      "halalFriendly": false,
      "bookingUrl": "https://maps.google.com/?q=47.2075142,-1.5427329",
      "source": "osm"
    },
    {
      "nom": "Résidence Stud'art Île de Nantes",
      "categorie": "Appartement",
      "priceRange": "€€",
      "mapsUrl": "https://maps.google.com/?q=47.2058135,-1.5607862",
      "lat": 47.2058135,
      "lng": -1.5607862,
      "halalFriendly": false,
      "bookingUrl": "https://maps.google.com/?q=47.2058135,-1.5607862",
      "source": "osm"
    },
    {
      "nom": "Résidence Orfea Nantes",
      "categorie": "Hôtel",
      "priceRange": "€€",
      "mapsUrl": "https://maps.google.com/?q=47.2194771,-1.5329732",
      "lat": 47.2194771,
      "lng": -1.5329732,
      "halalFriendly": false,
      "bookingUrl": "https://maps.google.com/?q=47.2194771,-1.5329732",
      "source": "osm"
    },
    {
      "nom": "Résidétapes",
      "categorie": "Maison d'hôtes",
      "priceRange": "€€",
      "mapsUrl": "https://maps.google.com/?q=47.2086112,-1.5386344",
      "lat": 47.2086112,
      "lng": -1.5386344,
      "halalFriendly": false,
      "bookingUrl": "https://maps.google.com/?q=47.2086112,-1.5386344",
      "source": "osm"
    },
    {
      "nom": "Seven Urban Suites Nantes",
      "categorie": "Hôtel",
      "priceRange": "€€€€",
      "score": 4,
      "mapsUrl": "https://maps.google.com/?q=47.2078675,-1.539619",
      "lat": 47.2078675,
      "lng": -1.539619,
      "halalFriendly": false,
      "bookingUrl": "https://maps.google.com/?q=47.2078675,-1.539619",
      "source": "osm"
    },
    {
      "nom": "Studéa Yléo",
      "categorie": "Appartement",
      "priceRange": "€€",
      "mapsUrl": "https://maps.google.com/?q=47.2080785,-1.539066",
      "lat": 47.2080785,
      "lng": -1.539066,
      "halalFriendly": false,
      "bookingUrl": "https://maps.google.com/?q=47.2080785,-1.539066",
      "source": "osm"
    },
    {
      "nom": "Adelis HAJA - résidence port beaulieu",
      "categorie": "Appartement",
      "priceRange": "€€",
      "mapsUrl": "https://maps.google.com/?q=47.2060355,-1.5427581",
      "lat": 47.2060355,
      "lng": -1.5427581,
      "halalFriendly": false,
      "bookingUrl": "http://www.locstudio.fr",
      "source": "osm"
    },
    {
      "nom": "Le Spot",
      "categorie": "Auberge",
      "priceRange": "€€",
      "mapsUrl": "https://maps.google.com/?q=47.213549,-1.5334476",
      "lat": 47.213549,
      "lng": -1.5334476,
      "halalFriendly": false,
      "bookingUrl": "https://cis-nantes-le-spot.com/",
      "source": "osm"
    },
    {
      "nom": "Eklo Nantes",
      "categorie": "Hôtel",
      "priceRange": "€€",
      "mapsUrl": "https://maps.google.com/?q=47.2041006,-1.5646885",
      "lat": 47.2041006,
      "lng": -1.5646885,
      "halalFriendly": false,
      "bookingUrl": "https://maps.google.com/?q=47.2041006,-1.5646885",
      "source": "osm"
    },
    {
      "nom": "Le Petit Rungis",
      "categorie": "Hôtel",
      "priceRange": "€€",
      "mapsUrl": "https://maps.google.com/?q=47.2012546,-1.5546339",
      "lat": 47.2012546,
      "lng": -1.5546339,
      "halalFriendly": false,
      "bookingUrl": "https://maps.google.com/?q=47.2012546,-1.5546339",
      "source": "osm"
    },
    {
      "nom": "La Chaumière",
      "categorie": "Hôtel",
      "priceRange": "€€",
      "mapsUrl": "https://maps.google.com/?q=47.201078,-1.5548249",
      "lat": 47.201078,
      "lng": -1.5548249,
      "halalFriendly": false,
      "bookingUrl": "https://maps.google.com/?q=47.201078,-1.5548249",
      "source": "osm"
    },
    {
      "nom": "Auberge les Bains Douches",
      "categorie": "Auberge",
      "priceRange": "€€",
      "mapsUrl": "https://maps.google.com/?q=47.2038362,-1.5776667",
      "lat": 47.2038362,
      "lng": -1.5776667,
      "halalFriendly": false,
      "bookingUrl": "https://aubergelesbainsdouches.fr/",
      "source": "osm"
    },
    {
      "nom": "Hôtel Ibis Budget Nantes Rezé Aeroport",
      "categorie": "Hôtel",
      "priceRange": "€€",
      "mapsUrl": "https://maps.google.com/?q=47.1930717,-1.5553299",
      "lat": 47.1930717,
      "lng": -1.5553299,
      "halalFriendly": false,
      "bookingUrl": "https://maps.google.com/?q=47.1930717,-1.5553299",
      "source": "osm"
    },
    {
      "nom": "Hôtel Ibis Styles Nantes Rezé Aeroport",
      "categorie": "Hôtel",
      "priceRange": "€€",
      "mapsUrl": "https://maps.google.com/?q=47.1927336,-1.5555216",
      "lat": 47.1927336,
      "lng": -1.5555216,
      "halalFriendly": false,
      "bookingUrl": "https://maps.google.com/?q=47.1927336,-1.5555216",
      "source": "osm"
    },
    {
      "nom": "Le Lieu Dit",
      "categorie": "Hôtel",
      "priceRange": "€€",
      "mapsUrl": "https://maps.google.com/?q=47.235275,-1.5826587",
      "lat": 47.235275,
      "lng": -1.5826587,
      "halalFriendly": false,
      "bookingUrl": "https://www.lieudit-nantes.com",
      "source": "osm"
    },
    {
      "nom": "Campanile",
      "categorie": "Hôtel",
      "priceRange": "€€€",
      "score": 3,
      "mapsUrl": "https://maps.google.com/?q=47.1960765,-1.5309695",
      "lat": 47.1960765,
      "lng": -1.5309695,
      "halalFriendly": false,
      "bookingUrl": "https://maps.google.com/?q=47.1960765,-1.5309695",
      "source": "osm"
    },
    {
      "nom": "Hôtel du Cheval Blanc",
      "categorie": "Hôtel",
      "priceRange": "€€",
      "mapsUrl": "https://maps.google.com/?q=47.1891469,-1.5505968",
      "lat": 47.1891469,
      "lng": -1.5505968,
      "halalFriendly": false,
      "bookingUrl": "https://maps.google.com/?q=47.1891469,-1.5505968",
      "source": "osm"
    },
    {
      "nom": "Résidence Les Magnolias",
      "categorie": "Auberge",
      "priceRange": "€€",
      "mapsUrl": "https://maps.google.com/?q=47.2451327,-1.5357644",
      "lat": 47.2451327,
      "lng": -1.5357644,
      "halalFriendly": false,
      "bookingUrl": "https://maps.google.com/?q=47.2451327,-1.5357644",
      "source": "osm"
    },
    {
      "nom": "Première Classe",
      "categorie": "Hôtel",
      "priceRange": "€€",
      "mapsUrl": "https://maps.google.com/?q=47.1918868,-1.5792345",
      "lat": 47.1918868,
      "lng": -1.5792345,
      "halalFriendly": false,
      "bookingUrl": "https://maps.google.com/?q=47.1918868,-1.5792345",
      "source": "osm"
    },
    {
      "nom": "Hôtel Campanile",
      "categorie": "Hôtel",
      "priceRange": "€€",
      "mapsUrl": "https://maps.google.com/?q=47.1915283,-1.578705",
      "lat": 47.1915283,
      "lng": -1.578705,
      "halalFriendly": false,
      "bookingUrl": "https://maps.google.com/?q=47.1915283,-1.578705",
      "source": "osm"
    },
    {
      "nom": "Gîte Au Détour des pas Enchantés",
      "categorie": "Maison d'hôtes",
      "priceRange": "€€",
      "mapsUrl": "https://maps.google.com/?q=47.2104976,-1.4972033",
      "lat": 47.2104976,
      "lng": -1.4972033,
      "halalFriendly": false,
      "bookingUrl": "https://www.gites-enchantes.fr/",
      "source": "osm"
    },
    {
      "nom": "Cerise",
      "categorie": "Hôtel",
      "priceRange": "€€",
      "mapsUrl": "https://maps.google.com/?q=47.2536866,-1.5285395",
      "lat": 47.2536866,
      "lng": -1.5285395,
      "halalFriendly": false,
      "bookingUrl": "https://maps.google.com/?q=47.2536866,-1.5285395",
      "source": "osm"
    },
    {
      "nom": "Brit'Hotel",
      "categorie": "Hôtel",
      "priceRange": "€€",
      "mapsUrl": "https://maps.google.com/?q=47.2543306,-1.5284978",
      "lat": 47.2543306,
      "lng": -1.5284978,
      "halalFriendly": false,
      "bookingUrl": "https://maps.google.com/?q=47.2543306,-1.5284978",
      "source": "osm"
    },
    {
      "nom": "Manoir de la Plume",
      "categorie": "Maison d'hôtes",
      "priceRange": "€€",
      "mapsUrl": "https://maps.google.com/?q=47.1946639,-1.5051748",
      "lat": 47.1946639,
      "lng": -1.5051748,
      "halalFriendly": false,
      "bookingUrl": "https://maps.google.com/?q=47.1946639,-1.5051748",
      "source": "osm"
    },
    {
      "nom": "Hôtel-restaurant de La Marine",
      "categorie": "Hôtel",
      "priceRange": "€€€",
      "score": 3,
      "mapsUrl": "https://maps.google.com/?q=47.2316557,-1.6114041",
      "lat": 47.2316557,
      "lng": -1.6114041,
      "halalFriendly": false,
      "bookingUrl": "https://www.hotel-marine.fr/",
      "source": "osm"
    },
    {
      "nom": "Beaujoire Hôtel",
      "categorie": "Hôtel",
      "priceRange": "€€",
      "mapsUrl": "https://maps.google.com/?q=47.2577299,-1.5292927",
      "lat": 47.2577299,
      "lng": -1.5292927,
      "halalFriendly": false,
      "bookingUrl": "https://maps.google.com/?q=47.2577299,-1.5292927",
      "source": "osm"
    },
    {
      "nom": "La Terrasse",
      "categorie": "Hôtel",
      "priceRange": "€€",
      "mapsUrl": "https://maps.google.com/?q=47.1755253,-1.5659194",
      "lat": 47.1755253,
      "lng": -1.5659194,
      "halalFriendly": false,
      "bookingUrl": "https://maps.google.com/?q=47.1755253,-1.5659194",
      "source": "osm"
    },
    {
      "nom": "Hôtel Ibis La Beaujoire",
      "categorie": "Hôtel",
      "priceRange": "€€",
      "mapsUrl": "https://maps.google.com/?q=47.2538155,-1.5156895",
      "lat": 47.2538155,
      "lng": -1.5156895,
      "halalFriendly": false,
      "bookingUrl": "https://maps.google.com/?q=47.2538155,-1.5156895",
      "source": "osm"
    },
    {
      "nom": "Quick Palace",
      "categorie": "Hôtel",
      "priceRange": "€€",
      "mapsUrl": "https://maps.google.com/?q=47.2528451,-1.5129439",
      "lat": 47.2528451,
      "lng": -1.5129439,
      "halalFriendly": false,
      "bookingUrl": "https://maps.google.com/?q=47.2528451,-1.5129439",
      "source": "osm"
    },
    {
      "nom": "Zenitude Hôtel-Résidences Nantes-Métropole",
      "categorie": "Hôtel",
      "priceRange": "€€€",
      "score": 3,
      "mapsUrl": "https://maps.google.com/?q=47.2511529,-1.5090256",
      "lat": 47.2511529,
      "lng": -1.5090256,
      "halalFriendly": false,
      "bookingUrl": "https://www.zenitude-hotel-residences.com/residences/nantes-metropole/",
      "source": "osm"
    },
    {
      "nom": "Sure Hotel by Best Western Nantes Beaujoire",
      "categorie": "Hôtel",
      "priceRange": "€€",
      "mapsUrl": "https://maps.google.com/?q=47.2509025,-1.5080694",
      "lat": 47.2509025,
      "lng": -1.5080694,
      "halalFriendly": false,
      "bookingUrl": "https://maps.google.com/?q=47.2509025,-1.5080694",
      "source": "osm"
    },
    {
      "nom": "Hôtel Formule 1",
      "categorie": "Hôtel",
      "priceRange": "€€",
      "score": 2,
      "mapsUrl": "https://maps.google.com/?q=47.2466668,-1.502008",
      "lat": 47.2466668,
      "lng": -1.502008,
      "halalFriendly": false,
      "bookingUrl": "https://maps.google.com/?q=47.2466668,-1.502008",
      "source": "osm"
    },
    {
      "nom": "Hôtel Première Classe",
      "categorie": "Hôtel",
      "priceRange": "€€",
      "score": 2,
      "mapsUrl": "https://maps.google.com/?q=47.2117774,-1.4869316",
      "lat": 47.2117774,
      "lng": -1.4869316,
      "halalFriendly": false,
      "bookingUrl": "https://maps.google.com/?q=47.2117774,-1.4869316",
      "source": "osm"
    },
    {
      "nom": "Quintessia Hôtel & Spa - Nantes Orvault",
      "categorie": "Hôtel",
      "priceRange": "€€",
      "mapsUrl": "https://maps.google.com/?q=47.2581635,-1.589677",
      "lat": 47.2581635,
      "lng": -1.589677,
      "halalFriendly": false,
      "bookingUrl": "https://www.quintessia.fr/",
      "source": "osm"
    },
    {
      "nom": "Mercure hôtel",
      "categorie": "Hôtel",
      "priceRange": "€€€€",
      "score": 4,
      "mapsUrl": "https://maps.google.com/?q=47.227994,-1.6245205",
      "lat": 47.227994,
      "lng": -1.6245205,
      "halalFriendly": false,
      "bookingUrl": "https://maps.google.com/?q=47.227994,-1.6245205",
      "source": "osm"
    },
    {
      "nom": "Akena",
      "categorie": "Hôtel",
      "priceRange": "€€",
      "mapsUrl": "https://maps.google.com/?q=47.2222178,-1.6259325",
      "lat": 47.2222178,
      "lng": -1.6259325,
      "halalFriendly": false,
      "bookingUrl": "https://www.hotels-akena.com/hotel/hotel-akena-nantes-atlantis",
      "source": "osm"
    },
    {
      "nom": "La Marmite",
      "categorie": "Hôtel",
      "priceRange": "€€",
      "mapsUrl": "https://maps.google.com/?q=47.1946346,-1.617449",
      "lat": 47.1946346,
      "lng": -1.617449,
      "halalFriendly": false,
      "bookingUrl": "https://maps.google.com/?q=47.1946346,-1.617449",
      "source": "osm"
    },
    {
      "nom": "Appart'city Confort Nantes Ouest St Herblain",
      "categorie": "Appartement",
      "priceRange": "€€",
      "mapsUrl": "https://maps.google.com/?q=47.2210885,-1.6276375",
      "lat": 47.2210885,
      "lng": -1.6276375,
      "halalFriendly": false,
      "bookingUrl": "https://maps.google.com/?q=47.2210885,-1.6276375",
      "source": "osm"
    },
    {
      "nom": "Hôtel Ibis Budget",
      "categorie": "Hôtel",
      "priceRange": "€€",
      "mapsUrl": "https://maps.google.com/?q=47.2476542,-1.6200177",
      "lat": 47.2476542,
      "lng": -1.6200177,
      "halalFriendly": false,
      "bookingUrl": "https://maps.google.com/?q=47.2476542,-1.6200177",
      "source": "osm"
    },
    {
      "nom": "Hôtel Atlantys",
      "categorie": "Hôtel",
      "priceRange": "€€",
      "mapsUrl": "https://maps.google.com/?q=47.228615,-1.632031",
      "lat": 47.228615,
      "lng": -1.632031,
      "halalFriendly": false,
      "bookingUrl": "https://maps.google.com/?q=47.228615,-1.632031",
      "source": "osm"
    },
    {
      "nom": "Hôtel Agora",
      "categorie": "Hôtel",
      "priceRange": "€€",
      "score": 2,
      "mapsUrl": "https://maps.google.com/?q=47.2520276,-1.6187218",
      "lat": 47.2520276,
      "lng": -1.6187218,
      "halalFriendly": false,
      "bookingUrl": "https://maps.google.com/?q=47.2520276,-1.6187218",
      "source": "osm"
    },
    {
      "nom": "HotelF1 Saint Herblain",
      "categorie": "Hôtel",
      "priceRange": "€€",
      "mapsUrl": "https://maps.google.com/?q=47.230265,-1.6341085",
      "lat": 47.230265,
      "lng": -1.6341085,
      "halalFriendly": false,
      "bookingUrl": "https://maps.google.com/?q=47.230265,-1.6341085",
      "source": "osm"
    },
    {
      "nom": "Sure Hotel",
      "categorie": "Hôtel",
      "priceRange": "€€€",
      "score": 3,
      "mapsUrl": "https://maps.google.com/?q=47.2296901,-1.6345662",
      "lat": 47.2296901,
      "lng": -1.6345662,
      "halalFriendly": false,
      "bookingUrl": "https://www.surehotel-saintherblain.com",
      "source": "osm"
    },
    {
      "nom": "Le Laurier Fleuri",
      "categorie": "Hôtel",
      "priceRange": "€€",
      "mapsUrl": "https://maps.google.com/?q=47.1872062,-1.4827721",
      "lat": 47.1872062,
      "lng": -1.4827721,
      "halalFriendly": false,
      "bookingUrl": "https://www.lelaurierfleuri.fr/",
      "source": "osm"
    },
    {
      "nom": "Hôtel Ibis",
      "categorie": "Hôtel",
      "priceRange": "€€",
      "mapsUrl": "https://maps.google.com/?q=47.22447,-1.6380825",
      "lat": 47.22447,
      "lng": -1.6380825,
      "halalFriendly": false,
      "bookingUrl": "https://maps.google.com/?q=47.22447,-1.6380825",
      "source": "osm"
    },
    {
      "nom": "Akena Nantes Rezé Aéroport",
      "categorie": "Hôtel",
      "priceRange": "€€",
      "mapsUrl": "https://maps.google.com/?q=47.1598736,-1.54134",
      "lat": 47.1598736,
      "lng": -1.54134,
      "halalFriendly": false,
      "bookingUrl": "reze44@hotels-akena.com",
      "source": "osm"
    },
    {
      "nom": "Hôtel Inn Design",
      "categorie": "Hôtel",
      "priceRange": "€€",
      "mapsUrl": "https://maps.google.com/?q=47.2620931,-1.4943338",
      "lat": 47.2620931,
      "lng": -1.4943338,
      "halalFriendly": false,
      "bookingUrl": "https://hotel-inn-nantes.fr/",
      "source": "osm"
    },
    {
      "nom": "Hôtel F1 Nantes Sud Aéroport Bouguenais",
      "categorie": "Hôtel",
      "priceRange": "€€",
      "mapsUrl": "https://maps.google.com/?q=47.1754747,-1.6149797",
      "lat": 47.1754747,
      "lng": -1.6149797,
      "halalFriendly": false,
      "bookingUrl": "https://maps.google.com/?q=47.1754747,-1.6149797",
      "source": "osm"
    },
    {
      "nom": "Westotel Nantes",
      "categorie": "Hôtel",
      "priceRange": "€€",
      "mapsUrl": "https://maps.google.com/?q=47.2814796,-1.5507468",
      "lat": 47.2814796,
      "lng": -1.5507468,
      "halalFriendly": false,
      "bookingUrl": "https://maps.google.com/?q=47.2814796,-1.5507468",
      "source": "osm"
    },
    {
      "nom": "Ibis Budget Sainte-Luce",
      "categorie": "Hôtel",
      "priceRange": "€€",
      "mapsUrl": "https://maps.google.com/?q=47.262617,-1.4863505",
      "lat": 47.262617,
      "lng": -1.4863505,
      "halalFriendly": false,
      "bookingUrl": "https://maps.google.com/?q=47.262617,-1.4863505",
      "source": "osm"
    },
    {
      "nom": "Appart'City Classic Nantes Saint Herblain",
      "categorie": "Appartement",
      "priceRange": "€€",
      "score": 2,
      "mapsUrl": "https://maps.google.com/?q=47.2265,-1.6491505",
      "lat": 47.2265,
      "lng": -1.6491505,
      "halalFriendly": false,
      "bookingUrl": "https://maps.google.com/?q=47.2265,-1.6491505",
      "source": "osm"
    },
    {
      "nom": "Hôtel Escale Oceania Nantes Aéroport 3*",
      "categorie": "Hôtel",
      "priceRange": "€€",
      "mapsUrl": "https://maps.google.com/?q=47.1595908,-1.596842",
      "lat": 47.1595908,
      "lng": -1.596842,
      "halalFriendly": false,
      "bookingUrl": "https://maps.google.com/?q=47.1595908,-1.596842",
      "source": "osm"
    },
    {
      "nom": "Ibis Nantes Nord Treillières",
      "categorie": "Hôtel",
      "priceRange": "€€",
      "mapsUrl": "https://maps.google.com/?q=47.2779331,-1.5952619",
      "lat": 47.2779331,
      "lng": -1.5952619,
      "halalFriendly": false,
      "bookingUrl": "https://www.hotel-ibis-nantes-treillieres.com/",
      "source": "osm"
    },
    {
      "nom": "Appart Hôtel Cerise - Nantes",
      "categorie": "Appartement",
      "priceRange": "€€€",
      "score": 3,
      "mapsUrl": "https://maps.google.com/?q=47.2274119,-1.6502599",
      "lat": 47.2274119,
      "lng": -1.6502599,
      "halalFriendly": false,
      "bookingUrl": "https://maps.google.com/?q=47.2274119,-1.6502599",
      "source": "osm"
    },
    {
      "nom": "Hôtel Escale Oceania Nantes Aéroport",
      "categorie": "Hôtel",
      "priceRange": "€€€",
      "score": 3,
      "mapsUrl": "https://maps.google.com/?q=47.1588849,-1.5968609",
      "lat": 47.1588849,
      "lng": -1.5968609,
      "halalFriendly": false,
      "bookingUrl": "https://www.oceaniahotels.com/en/hotel/hotel-escale-oceania-nantes-airport",
      "source": "osm"
    },
    {
      "nom": "Brit Hotel Nantes St Herblain",
      "categorie": "Hôtel",
      "priceRange": "€€€",
      "score": 3,
      "mapsUrl": "https://maps.google.com/?q=47.2328795,-1.649815",
      "lat": 47.2328795,
      "lng": -1.649815,
      "halalFriendly": false,
      "bookingUrl": "https://hotel-nantes-saint-herblain.brithotel.fr/",
      "source": "osm"
    },
    {
      "nom": "Première Classe Nantes Ouest",
      "categorie": "Hôtel",
      "priceRange": "€",
      "score": 1,
      "mapsUrl": "https://maps.google.com/?q=47.2345834,-1.6494075",
      "lat": 47.2345834,
      "lng": -1.6494075,
      "halalFriendly": false,
      "bookingUrl": "https://maps.google.com/?q=47.2345834,-1.6494075",
      "source": "osm"
    }
  ],
  "mosqueesPrincipales": [
    {
      "id": "m233623470",
      "nom": "Mosquée Assalam",
      "type": "Mosquée",
      "adresse": "Boulevard de Seattle, Nantes",
      "description": "Lieu de prière (OpenStreetMap).",
      "mapsUrl": "https://maps.google.com/?q=47.219497,-1.5182152",
      "lat": 47.219497,
      "lng": -1.5182152,
      "source": "osm"
    },
    {
      "id": "m85755733",
      "nom": "Mosquée Fathi",
      "type": "Mosquée",
      "adresse": "",
      "description": "Lieu de prière (OpenStreetMap).",
      "mapsUrl": "https://maps.google.com/?q=47.2184547,-1.5916221",
      "lat": 47.2184547,
      "lng": -1.5916221,
      "source": "osm"
    },
    {
      "id": "m95000955",
      "nom": "Mosquée Mevlana",
      "type": "Mosquée",
      "adresse": "",
      "description": "Lieu de prière (OpenStreetMap).",
      "mapsUrl": "https://maps.google.com/?q=47.2082249,-1.6041968",
      "lat": 47.2082249,
      "lng": -1.6041968,
      "source": "osm"
    },
    {
      "id": "m96755630",
      "nom": "Aicha mosquée",
      "type": "Mosquée",
      "adresse": "Bd Jean Moulin, NANTES",
      "description": "Lieu de prière (OpenStreetMap).",
      "mapsUrl": "https://maps.google.com/?q=47.1992767,-1.6046205",
      "lat": 47.1992767,
      "lng": -1.6046205,
      "source": "osm"
    },
    {
      "id": "m367567798",
      "nom": "Mosquée des Turcs",
      "type": "Mosquée",
      "adresse": "",
      "description": "Lieu de prière (OpenStreetMap).",
      "mapsUrl": "https://maps.google.com/?q=47.198171,-1.6088055",
      "lat": 47.198171,
      "lng": -1.6088055,
      "source": "osm"
    },
    {
      "id": "m13970743401",
      "nom": "Nouvelle Mosquée Khadija",
      "type": "Mosquée",
      "adresse": "",
      "description": "Lieu de prière (OpenStreetMap).",
      "mapsUrl": "https://maps.google.com/?q=47.2581529,-1.5234053",
      "lat": 47.2581529,
      "lng": -1.5234053,
      "source": "osm"
    },
    {
      "id": "m134953045",
      "nom": "Mosquée du Preux",
      "type": "Mosquée",
      "adresse": "",
      "description": "Lieu de prière (OpenStreetMap).",
      "mapsUrl": "https://maps.google.com/?q=47.219883,-1.620475",
      "lat": 47.219883,
      "lng": -1.620475,
      "source": "osm"
    },
    {
      "id": "m2419929966",
      "nom": "Mosquée du sillon de Bretagne",
      "type": "Mosquée",
      "adresse": "",
      "description": "Lieu de prière (OpenStreetMap).",
      "mapsUrl": "https://maps.google.com/?q=47.244468,-1.6121334",
      "lat": 47.244468,
      "lng": -1.6121334,
      "source": "osm"
    },
    {
      "id": "m84296446",
      "nom": "Mosquée Arrahma",
      "type": "Mosquée",
      "adresse": "",
      "description": "Lieu de prière (OpenStreetMap).",
      "mapsUrl": "https://maps.google.com/?q=47.2637618,-1.5753426",
      "lat": 47.2637618,
      "lng": -1.5753426,
      "source": "osm"
    }
  ],
  "activites": [
    {
      "id": "a4550584364",
      "nom": "Plaque aux victimes du devoir de la défense passive",
      "categorie": "memorial",
      "description": "",
      "prix": "",
      "duree": "",
      "mapsUrl": "https://maps.google.com/?q=47.2183599,-1.554128",
      "lat": 47.2183599,
      "lng": -1.554128,
      "source": "osm"
    },
    {
      "id": "a4550584365",
      "nom": "Annexion et restauration de l'Hôtel de Rosmadec",
      "categorie": "memorial",
      "description": "",
      "prix": "",
      "duree": "",
      "mapsUrl": "https://maps.google.com/?q=47.2183372,-1.5541448",
      "lat": 47.2183372,
      "lng": -1.5541448,
      "source": "osm"
    },
    {
      "id": "a3466554290",
      "nom": "Trois pales d'hélice",
      "categorie": "artwork",
      "description": "",
      "prix": "",
      "duree": "",
      "mapsUrl": "https://maps.google.com/?q=47.2187117,-1.5540589",
      "lat": 47.2187117,
      "lng": -1.5540589,
      "source": "osm"
    },
    {
      "id": "a3798499969",
      "nom": "Pierre du phare de l'ile de Sein",
      "categorie": "memorial",
      "description": "",
      "prix": "",
      "duree": "",
      "mapsUrl": "https://maps.google.com/?q=47.2186046,-1.5542354",
      "lat": 47.2186046,
      "lng": -1.5542354,
      "source": "osm"
    },
    {
      "id": "a10053996784",
      "nom": "Le Hisseur",
      "categorie": "artwork",
      "description": "",
      "prix": "",
      "duree": "",
      "mapsUrl": "https://maps.google.com/?q=47.2189219,-1.553873",
      "lat": 47.2189219,
      "lng": -1.553873,
      "source": "osm"
    },
    {
      "id": "a3215201557",
      "nom": "Plaque au Général Leclerc",
      "categorie": "memorial",
      "description": "",
      "prix": "",
      "duree": "",
      "mapsUrl": "https://maps.google.com/?q=47.2178757,-1.5531067",
      "lat": 47.2178757,
      "lng": -1.5531067,
      "source": "osm"
    },
    {
      "id": "a3424687011",
      "nom": "Emplacement de l'église Sainte-Marie",
      "categorie": "memorial",
      "description": "",
      "prix": "",
      "duree": "",
      "mapsUrl": "https://maps.google.com/?q=47.2185298,-1.5526977",
      "lat": 47.2185298,
      "lng": -1.5526977,
      "source": "osm"
    },
    {
      "id": "a4164140450",
      "nom": "Centenaire du Mont de Piété",
      "categorie": "memorial",
      "description": "",
      "prix": "",
      "duree": "",
      "mapsUrl": "https://maps.google.com/?q=47.2178637,-1.5530131",
      "lat": 47.2178637,
      "lng": -1.5530131,
      "source": "osm"
    },
    {
      "id": "a4164140451",
      "nom": "Création du Mont de Piété",
      "categorie": "memorial",
      "description": "",
      "prix": "",
      "duree": "",
      "mapsUrl": "https://maps.google.com/?q=47.21785,-1.5529699",
      "lat": 47.21785,
      "lng": -1.5529699,
      "source": "osm"
    },
    {
      "id": "a1860948020",
      "nom": "Le Toucan à bec caréné",
      "categorie": "artwork",
      "description": "",
      "prix": "",
      "duree": "",
      "mapsUrl": "https://maps.google.com/?q=47.2175311,-1.5537916",
      "lat": 47.2175311,
      "lng": -1.5537916,
      "source": "osm"
    },
    {
      "id": "a4550584372",
      "nom": "Buste d'Aimable André Sibille",
      "categorie": "memorial",
      "description": "",
      "prix": "",
      "duree": "",
      "mapsUrl": "https://maps.google.com/?q=47.2180843,-1.5548789",
      "lat": 47.2180843,
      "lng": -1.5548789,
      "source": "osm"
    },
    {
      "id": "a4550584371",
      "nom": "Buste de Gabriel Guist'hau",
      "categorie": "memorial",
      "description": "",
      "prix": "",
      "duree": "",
      "mapsUrl": "https://maps.google.com/?q=47.2180275,-1.5548612",
      "lat": 47.2180275,
      "lng": -1.5548612,
      "source": "osm"
    },
    {
      "id": "a4550584373",
      "nom": "Buste de Ferdinand Favre",
      "categorie": "memorial",
      "description": "",
      "prix": "",
      "duree": "",
      "mapsUrl": "https://maps.google.com/?q=47.2180681,-1.554918",
      "lat": 47.2180681,
      "lng": -1.554918,
      "source": "osm"
    },
    {
      "id": "a4550584374",
      "nom": "Buste de Mathieu-Augustin Cornet",
      "categorie": "memorial",
      "description": "",
      "prix": "",
      "duree": "",
      "mapsUrl": "https://maps.google.com/?q=47.2180831,-1.5549327",
      "lat": 47.2180831,
      "lng": -1.5549327,
      "source": "osm"
    },
    {
      "id": "a4550584370",
      "nom": "Plaque aux employés municipaux morts pour la patrie",
      "categorie": "memorial",
      "description": "",
      "prix": "",
      "duree": "",
      "mapsUrl": "https://maps.google.com/?q=47.2181175,-1.5549538",
      "lat": 47.2181175,
      "lng": -1.5549538,
      "source": "osm"
    },
    {
      "id": "a4550584375",
      "nom": "Buste de Guillaume Harouys",
      "categorie": "memorial",
      "description": "",
      "prix": "",
      "duree": "",
      "mapsUrl": "https://maps.google.com/?q=47.2180926,-1.5549474",
      "lat": 47.2180926,
      "lng": -1.5549474,
      "source": "osm"
    },
    {
      "id": "a4550584380",
      "nom": "Buste d'André Morice",
      "categorie": "memorial",
      "description": "",
      "prix": "",
      "duree": "",
      "mapsUrl": "https://maps.google.com/?q=47.2178251,-1.5547562",
      "lat": 47.2178251,
      "lng": -1.5547562,
      "source": "osm"
    },
    {
      "id": "a4550584367",
      "nom": "Proclamation de la République française de 1870",
      "categorie": "memorial",
      "description": "",
      "prix": "",
      "duree": "",
      "mapsUrl": "https://maps.google.com/?q=47.2181227,-1.554977",
      "lat": 47.2181227,
      "lng": -1.554977,
      "source": "osm"
    },
    {
      "id": "a4550584369",
      "nom": "Plaque aux employés municipaux morts pour la France et victimes de la guerre",
      "categorie": "memorial",
      "description": "",
      "prix": "",
      "duree": "",
      "mapsUrl": "https://maps.google.com/?q=47.2181175,-1.5549787",
      "lat": 47.2181175,
      "lng": -1.5549787,
      "source": "osm"
    },
    {
      "id": "a4550584366",
      "nom": "Plaque aux mutilés du travail",
      "categorie": "memorial",
      "description": "",
      "prix": "",
      "duree": "",
      "mapsUrl": "https://maps.google.com/?q=47.2181228,-1.5549881",
      "lat": 47.2181228,
      "lng": -1.5549881,
      "source": "osm"
    },
    {
      "id": "a4550584376",
      "nom": "Buste de René Gaston Baco de La Chapelle",
      "categorie": "memorial",
      "description": "",
      "prix": "",
      "duree": "",
      "mapsUrl": "https://maps.google.com/?q=47.2180915,-1.5549957",
      "lat": 47.2180915,
      "lng": -1.5549957,
      "source": "osm"
    },
    {
      "id": "a4550584377",
      "nom": "Buste de Paul-Émile Sarradin",
      "categorie": "memorial",
      "description": "",
      "prix": "",
      "duree": "",
      "mapsUrl": "https://maps.google.com/?q=47.2180903,-1.555044",
      "lat": 47.2180903,
      "lng": -1.555044,
      "source": "osm"
    },
    {
      "id": "a4550584368",
      "nom": "Décernement de la Croix de la Libération",
      "categorie": "memorial",
      "description": "",
      "prix": "",
      "duree": "",
      "mapsUrl": "https://maps.google.com/?q=47.2181157,-1.5550749",
      "lat": 47.2181157,
      "lng": -1.5550749,
      "source": "osm"
    },
    {
      "id": "a4550584378",
      "nom": "Buste de Gérard Mellier",
      "categorie": "memorial",
      "description": "",
      "prix": "",
      "duree": "",
      "mapsUrl": "https://maps.google.com/?q=47.2180892,-1.5550924",
      "lat": 47.2180892,
      "lng": -1.5550924,
      "source": "osm"
    },
    {
      "id": "a4550584379",
      "nom": "Buste de Rousseau de Saint-Aignan",
      "categorie": "memorial",
      "description": "",
      "prix": "",
      "duree": "",
      "mapsUrl": "https://maps.google.com/?q=47.218088,-1.5551407",
      "lat": 47.218088,
      "lng": -1.5551407,
      "source": "osm"
    },
    {
      "id": "a1860935653",
      "nom": "Statue du Général Leclerc de Hauteclocque",
      "categorie": "memorial",
      "description": "",
      "prix": "",
      "duree": "",
      "mapsUrl": "https://maps.google.com/?q=47.2175377,-1.5546308",
      "lat": 47.2175377,
      "lng": -1.5546308,
      "source": "osm"
    },
    {
      "id": "a5388272723",
      "nom": "Première pierre de l'école des Beaux-Arts",
      "categorie": "memorial",
      "description": "",
      "prix": "",
      "duree": "",
      "mapsUrl": "https://maps.google.com/?q=47.2169689,-1.5541913",
      "lat": 47.2169689,
      "lng": -1.5541913,
      "source": "osm"
    },
    {
      "id": "a3215159778",
      "nom": "Emplacement de la Chambre des Comptes de Bretagne",
      "categorie": "memorial",
      "description": "",
      "prix": "",
      "duree": "",
      "mapsUrl": "https://maps.google.com/?q=47.2201866,-1.5531366",
      "lat": 47.2201866,
      "lng": -1.5531366,
      "source": "osm"
    },
    {
      "id": "a3215175259",
      "nom": "Maison du Général de Torquat de la Coulerie",
      "categorie": "memorial",
      "description": "",
      "prix": "",
      "duree": "",
      "mapsUrl": "https://maps.google.com/?q=47.2199824,-1.552286",
      "lat": 47.2199824,
      "lng": -1.552286,
      "source": "osm"
    },
    {
      "id": "a3215235157",
      "nom": "Plaque aux défenseurs de l'école publique et laïque",
      "categorie": "memorial",
      "description": "",
      "prix": "",
      "duree": "",
      "mapsUrl": "https://maps.google.com/?q=47.2188769,-1.5562095",
      "lat": 47.2188769,
      "lng": -1.5562095,
      "source": "osm"
    },
    {
      "id": "a3213023004",
      "nom": "Plaque à Jean Rigollet",
      "categorie": "memorial",
      "description": "",
      "prix": "",
      "duree": "",
      "mapsUrl": "https://maps.google.com/?q=47.2191401,-1.5560929",
      "lat": 47.2191401,
      "lng": -1.5560929,
      "source": "osm"
    },
    {
      "id": "a12144372573",
      "nom": "Scroll",
      "categorie": "gallery",
      "description": "",
      "prix": "",
      "duree": "",
      "mapsUrl": "https://maps.google.com/?q=47.217059,-1.5516222",
      "lat": 47.217059,
      "lng": -1.5516222,
      "source": "osm"
    },
    {
      "id": "a2242868397",
      "nom": "L'Artichaut",
      "categorie": "gallery",
      "description": "",
      "prix": "",
      "duree": "",
      "mapsUrl": "https://maps.google.com/?q=47.2181544,-1.5564028",
      "lat": 47.2181544,
      "lng": -1.5564028,
      "source": "osm"
    },
    {
      "id": "a2610958612",
      "nom": "Statue du Général Charles De Gaulle",
      "categorie": "memorial",
      "description": "",
      "prix": "",
      "duree": "",
      "mapsUrl": "https://maps.google.com/?q=47.2202295,-1.5550887",
      "lat": 47.2202295,
      "lng": -1.5550887,
      "source": "osm"
    },
    {
      "id": "a3215233165",
      "nom": "Plaque à Molière",
      "categorie": "memorial",
      "description": "",
      "prix": "",
      "duree": "",
      "mapsUrl": "https://maps.google.com/?q=47.2170947,-1.5561399",
      "lat": 47.2170947,
      "lng": -1.5561399,
      "source": "osm"
    },
    {
      "id": "a2610958611",
      "nom": "Monument aux Cinquante Otages et à la Résistance",
      "categorie": "memorial",
      "description": "",
      "prix": "",
      "duree": "",
      "mapsUrl": "https://maps.google.com/?q=47.2205336,-1.5545292",
      "lat": 47.2205336,
      "lng": -1.5545292,
      "source": "osm"
    },
    {
      "id": "a3213002031",
      "nom": "Plaque aux victimes des persécutions racistes et antisémites",
      "categorie": "memorial",
      "description": "",
      "prix": "",
      "duree": "",
      "mapsUrl": "https://maps.google.com/?q=47.2205763,-1.5548211",
      "lat": 47.2205763,
      "lng": -1.5548211,
      "source": "osm"
    },
    {
      "id": "a3890361550",
      "nom": "Plaque aux soldats britanniques de 1914-1918",
      "categorie": "memorial",
      "description": "",
      "prix": "",
      "duree": "",
      "mapsUrl": "https://maps.google.com/?q=47.2181956,-1.5501572",
      "lat": 47.2181956,
      "lng": -1.5501572,
      "source": "osm"
    },
    {
      "id": "a287795167",
      "nom": "Jardin archéologique",
      "categorie": "archaeological site",
      "description": "",
      "prix": "",
      "duree": "",
      "mapsUrl": "https://maps.google.com/?q=47.2188467,-1.5501106",
      "lat": 47.2188467,
      "lng": -1.5501106,
      "source": "osm"
    },
    {
      "id": "a11994631120",
      "nom": "Un castor sur un mur",
      "categorie": "artwork",
      "description": "",
      "prix": "",
      "duree": "",
      "mapsUrl": "https://maps.google.com/?q=47.2189604,-1.5501",
      "lat": 47.2189604,
      "lng": -1.5501,
      "source": "osm"
    },
    {
      "id": "a12315825636",
      "nom": "L’Évasion",
      "categorie": "artwork",
      "description": "",
      "prix": "",
      "duree": "",
      "mapsUrl": "https://maps.google.com/?q=47.2178958,-1.5498176",
      "lat": 47.2178958,
      "lng": -1.5498176,
      "source": "osm"
    },
    {
      "id": "a5978712102",
      "nom": "Galerie Fine Art",
      "categorie": "gallery",
      "description": "",
      "prix": "",
      "duree": "",
      "mapsUrl": "https://maps.google.com/?q=47.2165167,-1.5509089",
      "lat": 47.2165167,
      "lng": -1.5509089,
      "source": "osm"
    },
    {
      "id": "a3424687013",
      "nom": "Maison natale du Général de Cornulier Lucinière",
      "categorie": "memorial",
      "description": "",
      "prix": "",
      "duree": "",
      "mapsUrl": "https://maps.google.com/?q=47.2169621,-1.5501614",
      "lat": 47.2169621,
      "lng": -1.5501614,
      "source": "osm"
    },
    {
      "id": "a3374770142",
      "nom": "Plaque aux victimes de Juillet 1830",
      "categorie": "memorial",
      "description": "",
      "prix": "",
      "duree": "",
      "mapsUrl": "https://maps.google.com/?q=47.2194888,-1.5498624",
      "lat": 47.2194888,
      "lng": -1.5498624,
      "source": "osm"
    },
    {
      "id": "a142532680",
      "nom": "Colonne Louis XVI",
      "categorie": "monument",
      "description": "",
      "prix": "",
      "duree": "",
      "mapsUrl": "https://maps.google.com/?q=47.2194968,-1.5498408",
      "lat": 47.2194968,
      "lng": -1.5498408,
      "source": "osm"
    },
    {
      "id": "a3424687012",
      "nom": "Emplacement de l'église Sainte-Radegonde",
      "categorie": "memorial",
      "description": "",
      "prix": "",
      "duree": "",
      "mapsUrl": "https://maps.google.com/?q=47.2166349,-1.5503897",
      "lat": 47.2166349,
      "lng": -1.5503897,
      "source": "osm"
    },
    {
      "id": "a1860911578",
      "nom": "Statue d'Anne de Bretagne",
      "categorie": "artwork",
      "description": "",
      "prix": "",
      "duree": "",
      "mapsUrl": "https://maps.google.com/?q=47.2165156,-1.5504411",
      "lat": 47.2165156,
      "lng": -1.5504411,
      "source": "osm"
    },
    {
      "id": "a3888527541",
      "nom": "Plaque aux soldats de 1914-1918",
      "categorie": "memorial",
      "description": "",
      "prix": "",
      "duree": "",
      "mapsUrl": "https://maps.google.com/?q=47.2153989,-1.5542214",
      "lat": 47.2153989,
      "lng": -1.5542214,
      "source": "osm"
    },
    {
      "id": "a3423677327",
      "nom": "Plaque aux torturés par la Gestapo",
      "categorie": "memorial",
      "description": "",
      "prix": "",
      "duree": "",
      "mapsUrl": "https://maps.google.com/?q=47.2195775,-1.549335",
      "lat": 47.2195775,
      "lng": -1.549335,
      "source": "osm"
    },
    {
      "id": "a1860871691",
      "nom": "Statue de Bertrand Du Guesclin",
      "categorie": "memorial",
      "description": "",
      "prix": "",
      "duree": "",
      "mapsUrl": "https://maps.google.com/?q=47.2211682,-1.5514531",
      "lat": 47.2211682,
      "lng": -1.5514531,
      "source": "osm"
    },