{
  "slug": "new-orleans",
  "nom": "La Nouvelle-Orléans",
  "pays": "États-Unis",
  "pays_slug": "etats-unis",
  "continent": "Amérique du Nord",
  "region": "États-Unis",
  "coordonnees": {
    "lat": 29.9511,
    "lng": -90.0715
  },
  "codeISO": "US",
  "score_halal": 3.2,
  "halalScore": 6.4,
  "description": "La Nouvelle-Orléans, États-Unis. Repérez les restaurants halal et les mosquées via l'application.",
  "metaDescription": "La Nouvelle-Orléans, États-Unis. Repérez les restaurants halal et les mosquées via l'application.",
  "image": "https://upload.wikimedia.org/wikipedia/commons/c/cb/New_Orleans_from_the_Air_September_2019_-_Central_Business_District_Skyline_%28cropped%29.jpg",
  "image_hero": "https://upload.wikimedia.org/wikipedia/commons/c/cb/New_Orleans_from_the_Air_September_2019_-_Central_Business_District_Skyline_%28cropped%29.jpg",
  "imageCredit": "Wikimedia Commons",
  "scoreIndicatif": true,
  "statistiques": {
    "restaurants_halal": 3,
    "mosquees": 0,
    "hotels": 120
  },
  "infoPratique": {
    "transport": "Accessible par avion et transports locaux.",
    "meilleureEpoque": "Selon la saison.",
    "conseilHalal": "Repérez restaurants halal et mosquées via l'application."
  },
  "tags": [
    "halal",
    "amérique du nord"
  ],
  "restaurants": [
    {
      "nom": "Gyro Grill",
      "type": "hummus, mediterranean cuisine, babaghanouge, chicken shawarma, grape leaves, chicken, sandwich, kebab, barbecue, fish, salad, gyro, dessert, burger, philly cheesesteak philly cheesesteak, chicken wings, chicken tender, knafeh",
      "priceRange": "€€",
      "mapsUrl": "https://maps.google.com/?q=29.874738,-90.1051647",
      "lat": 29.874738,
      "lng": -90.1051647,
      "halalConfidence": "yes",
      "source": "osm"
    },
    {
      "nom": "Mona's Cafe",
      "type": "kebab, mediterranean, middle eastern",
      "priceRange": "€€",
      "mapsUrl": "https://maps.google.com/?q=29.9707932,-90.1009457",
      "lat": 29.9707932,
      "lng": -90.1009457,
      "halalConfidence": "likely",
      "source": "osm"
    },
    {
      "nom": "Phoenicia Restaurant",
      "type": "greek, lebanese",
      "priceRange": "€€",
      "mapsUrl": "https://maps.google.com/?q=30.0062385,-90.1786539",
      "lat": 30.0062385,
      "lng": -90.1786539,
      "halalConfidence": "likely",
      "source": "osm"
    }
  ],
  "hotels": [
    {
      "nom": "Hilton New Orleans/St. Charles Avenue",
      "categorie": "Hôtel",
      "priceRange": "€€",
      "mapsUrl": "https://maps.google.com/?q=29.9507253,-90.0706459",
      "lat": 29.9507253,
      "lng": -90.0706459,
      "halalFriendly": false,
      "bookingUrl": "https://maps.google.com/?q=29.9507253,-90.0706459",
      "source": "osm"
    },
    {
      "nom": "Fairfield Inn & Suites New Orleans Downtown/French Quarter Area",
      "categorie": "Hôtel",
      "priceRange": "€€",
      "mapsUrl": "https://maps.google.com/?q=29.951175,-90.0725101",
      "lat": 29.951175,
      "lng": -90.0725101,
      "halalFriendly": false,
      "bookingUrl": "https://www.marriott.com/msyfd",
      "source": "osm"
    },
    {
      "nom": "Hampton Inn & Suites New Orleans Downtown (French Quarter Area)",
      "categorie": "Hôtel",
      "priceRange": "€€",
      "mapsUrl": "https://maps.google.com/?q=29.9520919,-90.0708773",
      "lat": 29.9520919,
      "lng": -90.0708773,
      "halalFriendly": false,
      "bookingUrl": "https://www.hilton.com/en/hotels/msydthx-hampton-suites-new-orleans-downtown-french-quarter-area/",
      "source": "osm"
    },
    {
      "nom": "Le Pavillon, New Orleans, a Tribute Portfolio Hotel",
      "categorie": "Hôtel",
      "priceRange": "€€",
      "mapsUrl": "https://maps.google.com/?q=29.9506063,-90.0727467",
      "lat": 29.9506063,
      "lng": -90.0727467,
      "halalFriendly": false,
      "bookingUrl": "https://www.marriott.com/en-us/hotels/msytx-le-pavillon-new-orleans-a-tribute-portfolio-hotel/overview/",
      "source": "osm"
    },
    {
      "nom": "Residence Inn",
      "categorie": "Hôtel",
      "priceRange": "€€",
      "mapsUrl": "https://maps.google.com/?q=29.9508748,-90.0699867",
      "lat": 29.9508748,
      "lng": -90.0699867,
      "halalFriendly": false,
      "bookingUrl": "https://www.marriott.com/msynf",
      "source": "osm"
    },
    {
      "nom": "AC Hotel by Marriott New Orleans French Quarter",
      "categorie": "Hôtel",
      "priceRange": "€€",
      "mapsUrl": "https://maps.google.com/?q=29.9524386,-90.0713632",
      "lat": 29.9524386,
      "lng": -90.0713632,
      "halalFriendly": false,
      "bookingUrl": "https://maps.google.com/?q=29.9524386,-90.0713632",
      "source": "osm"
    },
    {
      "nom": "Hilton Garden Inn New Orleans French Quarter/CBD",
      "categorie": "Hôtel",
      "priceRange": "€€",
      "mapsUrl": "https://maps.google.com/?q=29.9524734,-90.0717834",
      "lat": 29.9524734,
      "lng": -90.0717834,
      "halalFriendly": false,
      "bookingUrl": "https://www.hilton.com/en/hotels/msyorgi-hilton-garden-inn-new-orleans-french-quarter-cbd/",
      "source": "osm"
    },
    {
      "nom": "Homewood Suites New Orleans",
      "categorie": "Hôtel",
      "priceRange": "€€",
      "mapsUrl": "https://maps.google.com/?q=29.9507217,-90.0731358",
      "lat": 29.9507217,
      "lng": -90.0731358,
      "halalFriendly": false,
      "bookingUrl": "https://maps.google.com/?q=29.9507217,-90.0731358",
      "source": "osm"
    },
    {
      "nom": "Selina Catahoula New Orleans",
      "categorie": "Hôtel",
      "priceRange": "€€",
      "mapsUrl": "https://maps.google.com/?q=29.951767,-90.0731138",
      "lat": 29.951767,
      "lng": -90.0731138,
      "halalFriendly": false,
      "bookingUrl": "https://www.selina.com/usa/catahoula-new-orleans/",
      "source": "osm"
    },
    {
      "nom": "Holiday Inn Club Vacations New Orleans Resort",
      "categorie": "Hôtel",
      "priceRange": "€€",
      "mapsUrl": "https://maps.google.com/?q=29.9526562,-90.0712702",
      "lat": 29.9526562,
      "lng": -90.0712702,
      "halalFriendly": false,
      "bookingUrl": "https://www.ihg.com/holidayinnclubvacations/hotels/us/en/new-orleans/msybv/hoteldetail",
      "source": "osm"
    },
    {
      "nom": "NOPSI Hotel, New Orleans",
      "categorie": "Hôtel",
      "priceRange": "€€",
      "mapsUrl": "https://maps.google.com/?q=29.9521063,-90.0729835",
      "lat": 29.9521063,
      "lng": -90.0729835,
      "halalFriendly": false,
      "bookingUrl": "https://www.nopsihotel.com",
      "source": "osm"
    },
    {
      "nom": "InterContinental New Orleans",
      "categorie": "Hôtel",
      "priceRange": "€€",
      "mapsUrl": "https://maps.google.com/?q=29.9503375,-90.0697134",
      "lat": 29.9503375,
      "lng": -90.0697134,
      "halalFriendly": false,
      "bookingUrl": "https://maps.google.com/?q=29.9503375,-90.0697134",
      "source": "osm"
    },
    {
      "nom": "Drury Inn & Suites New Orleans",
      "categorie": "Hôtel",
      "priceRange": "€€",
      "mapsUrl": "https://maps.google.com/?q=29.9495298,-90.0724313",
      "lat": 29.9495298,
      "lng": -90.0724313,
      "halalFriendly": false,
      "bookingUrl": "https://www.druryhotels.com/",
      "source": "osm"
    },
    {
      "nom": "La Quinta Inn & Suites New Orleans Downtown",
      "categorie": "Hôtel",
      "priceRange": "€€",
      "mapsUrl": "https://maps.google.com/?q=29.9508791,-90.0694429",
      "lat": 29.9508791,
      "lng": -90.0694429,
      "halalFriendly": false,
      "bookingUrl": "https://www.wyndhamhotels.com/laquinta/new-orleans-louisiana/la-quinta-new-orleans-downtown/overview",
      "source": "osm"
    },
    {
      "nom": "Hotel Indigo New Orleans - French Quarter",
      "categorie": "Hôtel",
      "priceRange": "€€",
      "mapsUrl": "https://maps.google.com/?q=29.9524548,-90.0699787",
      "lat": 29.9524548,
      "lng": -90.0699787,
      "halalFriendly": false,
      "bookingUrl": "https://maps.google.com/?q=29.9524548,-90.0699787",
      "source": "osm"
    },
    {
      "nom": "Aloft New Orleans Downtown",
      "categorie": "Hôtel",
      "priceRange": "€€",
      "mapsUrl": "https://maps.google.com/?q=29.9527569,-90.072581",
      "lat": 29.9527569,
      "lng": -90.072581,
      "halalFriendly": false,
      "bookingUrl": "https://www.marriott.com/en-us/hotels/msyal-aloft-new-orleans-downtown/overview/",
      "source": "osm"
    },
    {
      "nom": "Holiday Inn Express New Orleans Downtown - Fr Qtr Area",
      "categorie": "Hôtel",
      "priceRange": "€€",
      "mapsUrl": "https://maps.google.com/?q=29.9517618,-90.073663",
      "lat": 29.9517618,
      "lng": -90.073663,
      "halalFriendly": false,
      "bookingUrl": "https://www.ihg.com/holidayinnexpress/hotels/us/en/new-orleans/msyka/hoteldetail",
      "source": "osm"
    },
    {
      "nom": "Courtyard New Orleans Downtown Near the French Quarter",
      "categorie": "Hôtel",
      "priceRange": "€€",
      "mapsUrl": "https://maps.google.com/?q=29.952314,-90.0694347",
      "lat": 29.952314,
      "lng": -90.0694347,
      "halalFriendly": false,
      "bookingUrl": "https://www.marriott.com/msycy",
      "source": "osm"
    },
    {
      "nom": "International House Hotel",
      "categorie": "Hôtel",
      "priceRange": "€€",
      "mapsUrl": "https://maps.google.com/?q=29.951233,-90.069008",
      "lat": 29.951233,
      "lng": -90.069008,
      "halalFriendly": false,
      "bookingUrl": "https://maps.google.com/?q=29.951233,-90.069008",
      "source": "osm"
    },
    {
      "nom": "Renaissance New Orleans Pere Marquette French Quarter Area Hotel",
      "categorie": "Hôtel",
      "priceRange": "€€",
      "mapsUrl": "https://maps.google.com/?q=29.9533227,-90.0718053",
      "lat": 29.9533227,
      "lng": -90.0718053,
      "halalFriendly": false,
      "bookingUrl": "https://maps.google.com/?q=29.9533227,-90.0718053",
      "source": "osm"
    },
    {
      "nom": "Wyndham Garden Baronne Plaza New Orleans",
      "categorie": "Hôtel",
      "priceRange": "€€",
      "mapsUrl": "https://maps.google.com/?q=29.9532633,-90.0725916",
      "lat": 29.9532633,
      "lng": -90.0725916,
      "halalFriendly": false,
      "bookingUrl": "https://maps.google.com/?q=29.9532633,-90.0725916",
      "source": "osm"
    },
    {
      "nom": "Hotel Theo New Orleans by Hilton",
      "categorie": "Hôtel",
      "priceRange": "€€",
      "mapsUrl": "https://maps.google.com/?q=29.9510389,-90.068714",
      "lat": 29.9510389,
      "lng": -90.068714,
      "halalFriendly": false,
      "bookingUrl": "https://www.hoteltheoneworleans.com",
      "source": "osm"
    },
    {
      "nom": "Maison Métier",
      "categorie": "Hôtel",
      "priceRange": "€€",
      "mapsUrl": "https://maps.google.com/?q=29.9487003,-90.0718772",
      "lat": 29.9487003,
      "lng": -90.0718772,
      "halalFriendly": false,
      "bookingUrl": "https://maisonmetier.com/",
      "source": "osm"
    },
    {
      "nom": "The Blake Hotel New Orleans, an Ascend Hotel Collection Member",
      "categorie": "Hôtel",
      "priceRange": "€€",
      "mapsUrl": "https://maps.google.com/?q=29.9490223,-90.0700205",
      "lat": 29.9490223,
      "lng": -90.0700205,
      "halalFriendly": false,
      "bookingUrl": "https://maps.google.com/?q=29.9490223,-90.0700205",
      "source": "osm"
    },
    {
      "nom": "JW Marriott Hotel New Orleans",
      "categorie": "Hôtel",
      "priceRange": "€€",
      "mapsUrl": "https://maps.google.com/?q=29.9523081,-90.0689874",
      "lat": 29.9523081,
      "lng": -90.0689874,
      "halalFriendly": false,
      "bookingUrl": "https://www.marriott.com/hotels/travel/msyjw-jw-marriott-new-orleans/",
      "source": "osm"
    },
    {
      "nom": "The Whitney",
      "categorie": "Hôtel",
      "priceRange": "€€",
      "mapsUrl": "https://maps.google.com/?q=29.9491112,-90.0697668",
      "lat": 29.9491112,
      "lng": -90.0697668,
      "halalFriendly": false,
      "bookingUrl": "https://maps.google.com/?q=29.9491112,-90.0697668",
      "source": "osm"
    },
    {
      "nom": "Q&C HotelBar New Orleans, Autograph Collection",
      "categorie": "Hôtel",
      "priceRange": "€€",
      "mapsUrl": "https://maps.google.com/?q=29.9500234,-90.0688665",
      "lat": 29.9500234,
      "lng": -90.0688665,
      "halalFriendly": false,
      "bookingUrl": "https://maps.google.com/?q=29.9500234,-90.0688665",
      "source": "osm"
    },
    {
      "nom": "Hotel Theo New Orleans",
      "categorie": "Hôtel",
      "priceRange": "€€",
      "mapsUrl": "https://maps.google.com/?q=29.9510301,-90.0685627",
      "lat": 29.9510301,
      "lng": -90.0685627,
      "halalFriendly": false,
      "bookingUrl": "https://maps.google.com/?q=29.9510301,-90.0685627",
      "source": "osm"
    },
    {
      "nom": "The Barnett",
      "categorie": "Hôtel",
      "priceRange": "€€",
      "mapsUrl": "https://maps.google.com/?q=29.948321,-90.0719483",
      "lat": 29.948321,
      "lng": -90.0719483,
      "halalFriendly": false,
      "bookingUrl": "https://www.hyatt.com/en-US/hotel/louisiana/the-barnett/msyjd",
      "source": "osm"
    },
    {
      "nom": "The Natchez Vacation Rentals",
      "categorie": "Hôtel",
      "priceRange": "€€",
      "mapsUrl": "https://maps.google.com/?q=29.9496873,-90.0686987",
      "lat": 29.9496873,
      "lng": -90.0686987,
      "halalFriendly": false,
      "bookingUrl": "https://maps.google.com/?q=29.9496873,-90.0686987",
      "source": "osm"
    },
    {
      "nom": "Moxy New Orleans Downtown/French Quarter Area",
      "categorie": "Hôtel",
      "priceRange": "€€",
      "mapsUrl": "https://maps.google.com/?q=29.9535269,-90.0731522",
      "lat": 29.9535269,
      "lng": -90.0731522,
      "halalFriendly": false,
      "bookingUrl": "https://maps.google.com/?q=29.9535269,-90.0731522",
      "source": "osm"
    },
    {
      "nom": "Roosevelt Hotel",
      "categorie": "Hôtel",
      "priceRange": "€€",
      "mapsUrl": "https://maps.google.com/?q=29.953942,-90.0716504",
      "lat": 29.953942,
      "lng": -90.0716504,
      "halalFriendly": false,
      "bookingUrl": "https://therooseveltneworleans.com/",
      "source": "osm"
    },
    {
      "nom": "Element",
      "categorie": "Hôtel",
      "priceRange": "€€€",
      "score": 3,
      "mapsUrl": "https://maps.google.com/?q=29.9534177,-90.073807",
      "lat": 29.9534177,
      "lng": -90.073807,
      "halalFriendly": false,
      "bookingUrl": "https://www.marriott.com/en-us/hotels/msyed-element-new-orleans-downtown/overview/",
      "source": "osm"
    },
    {
      "nom": "Sheraton New Orleans Hotel",
      "categorie": "Hôtel",
      "priceRange": "€€",
      "mapsUrl": "https://maps.google.com/?q=29.9517921,-90.0680009",
      "lat": 29.9517921,
      "lng": -90.0680009,
      "halalFriendly": false,
      "bookingUrl": "http://www.sheratonneworleans.com/",
      "source": "osm"
    },
    {
      "nom": "Wyndham La Belle Maison",
      "categorie": "Hôtel",
      "priceRange": "€€",
      "mapsUrl": "https://maps.google.com/?q=29.9509259,-90.0678427",
      "lat": 29.9509259,
      "lng": -90.0678427,
      "halalFriendly": false,
      "bookingUrl": "https://maps.google.com/?q=29.9509259,-90.0678427",
      "source": "osm"
    },
    {
      "nom": "The Roosevelt New Orleans, A Waldorf Astoria Hotel",
      "categorie": "Hôtel",
      "priceRange": "€€",
      "mapsUrl": "https://maps.google.com/?q=29.9542614,-90.0722806",
      "lat": 29.9542614,
      "lng": -90.0722806,
      "halalFriendly": false,
      "bookingUrl": "https://maps.google.com/?q=29.9542614,-90.0722806",
      "source": "osm"
    },
    {
      "nom": "The Troubadour Hotel New Orleans, Tapestry Collection by Hilton",
      "categorie": "Hôtel",
      "priceRange": "€€",
      "mapsUrl": "https://maps.google.com/?q=29.9533876,-90.0744305",
      "lat": 29.9533876,
      "lng": -90.0744305,
      "halalFriendly": false,
      "bookingUrl": "https://maps.google.com/?q=29.9533876,-90.0744305",
      "source": "osm"
    },
    {
      "nom": "Holiday Inn New Orleans-Downtown Superdome",
      "categorie": "Hôtel",
      "priceRange": "€€",
      "mapsUrl": "https://maps.google.com/?q=29.9528232,-90.0749071",
      "lat": 29.9528232,
      "lng": -90.0749071,
      "halalFriendly": false,
      "bookingUrl": "https://maps.google.com/?q=29.9528232,-90.0749071",
      "source": "osm"
    },
    {
      "nom": "Crowne Plaza New Orleans French Quarter",
      "categorie": "Hôtel",
      "priceRange": "€€",
      "mapsUrl": "https://maps.google.com/?q=29.9540618,-90.0692875",
      "lat": 29.9540618,
      "lng": -90.0692875,
      "halalFriendly": false,
      "bookingUrl": "https://www.ihg.com/crowneplaza/hotels/us/en/new-orleans/msyla/hoteldetail",
      "source": "osm"
    },
    {
      "nom": "Lafayette Hotel",
      "categorie": "Hôtel",
      "priceRange": "€€",
      "mapsUrl": "https://maps.google.com/?q=29.9475901,-90.0710031",
      "lat": 29.9475901,
      "lng": -90.0710031,
      "halalFriendly": false,
      "bookingUrl": "https://maps.google.com/?q=29.9475901,-90.0710031",
      "source": "osm"
    },
    {
      "nom": "St. James Hotel, an Ascend Collection Hotel",
      "categorie": "Hôtel",
      "priceRange": "€€",
      "mapsUrl": "https://maps.google.com/?q=29.9497107,-90.0677304",
      "lat": 29.9497107,
      "lng": -90.0677304,
      "halalFriendly": false,
      "bookingUrl": "https://maps.google.com/?q=29.9497107,-90.0677304",
      "source": "osm"
    },
    {
      "nom": "The Pelham Hotel New Orleans",
      "categorie": "Hôtel",
      "priceRange": "€€",
      "mapsUrl": "https://maps.google.com/?q=29.9509029,-90.0672564",
      "lat": 29.9509029,
      "lng": -90.0672564,
      "halalFriendly": false,
      "bookingUrl": "https://maps.google.com/?q=29.9509029,-90.0672564",
      "source": "osm"
    },
    {
      "nom": "Best Western Plus St. Christopher Hotel",
      "categorie": "Hôtel",
      "priceRange": "€€",
      "mapsUrl": "https://maps.google.com/?q=29.9512376,-90.067222",
      "lat": 29.9512376,
      "lng": -90.067222,
      "halalFriendly": false,
      "bookingUrl": "https://www.bestwestern.com/en_US/book/hotels-in-new-orleans/best-western-plus-st-christopher-hotel/propertyCode.19095.html",
      "source": "osm"
    },
    {
      "nom": "Wyndham New Orleans French Quarter",
      "categorie": "Hôtel",
      "priceRange": "€€",
      "mapsUrl": "https://maps.google.com/?q=29.9536365,-90.0683446",
      "lat": 29.9536365,
      "lng": -90.0683446,
      "halalFriendly": false,
      "bookingUrl": "https://www.wyndhamfrenchquarter.com/",
      "source": "osm"
    },
    {
      "nom": "The Ritz-Carlton New Orleans",
      "categorie": "Hôtel",
      "priceRange": "€€",
      "mapsUrl": "https://maps.google.com/?q=29.9549681,-90.0707509",
      "lat": 29.9549681,
      "lng": -90.0707509,
      "halalFriendly": false,
      "bookingUrl": "https://maps.google.com/?q=29.9549681,-90.0707509",
      "source": "osm"
    },
    {
      "nom": "New Orleans Marriott",
      "categorie": "Hôtel",
      "priceRange": "€€",
      "mapsUrl": "https://maps.google.com/?q=29.952871,-90.0673479",
      "lat": 29.952871,
      "lng": -90.0673479,
      "halalFriendly": false,
      "bookingUrl": "https://www.marriott.com/hotels/travel/msyla-new-orleans-marriott",
      "source": "osm"
    },
    {
      "nom": "Quarter House",
      "categorie": "Hôtel",
      "priceRange": "€€",
      "mapsUrl": "https://maps.google.com/?q=29.953357,-90.0676539",
      "lat": 29.953357,
      "lng": -90.0676539,
      "halalFriendly": false,
      "bookingUrl": "https://maps.google.com/?q=29.953357,-90.0676539",
      "source": "osm"
    },
    {
      "nom": "The Saint Hotel, Autograph Collection",
      "categorie": "Hôtel",
      "priceRange": "€€",
      "mapsUrl": "https://maps.google.com/?q=29.9552096,-90.0712562",
      "lat": 29.9552096,
      "lng": -90.0712562,
      "halalFriendly": false,
      "bookingUrl": "https://maps.google.com/?q=29.9552096,-90.0712562",
      "source": "osm"
    },
    {
      "nom": "Sonesta ES Suites",
      "categorie": "Hôtel",
      "priceRange": "€€",
      "mapsUrl": "https://maps.google.com/?q=29.9541401,-90.0747817",
      "lat": 29.9541401,
      "lng": -90.0747817,
      "halalFriendly": false,
      "bookingUrl": "https://maps.google.com/?q=29.9541401,-90.0747817",
      "source": "osm"
    },
    {
      "nom": "Bluegreen Club La Pension",
      "categorie": "Hôtel",
      "priceRange": "€€",
      "mapsUrl": "https://maps.google.com/?q=29.9523689,-90.0669206",
      "lat": 29.9523689,
      "lng": -90.0669206,
      "halalFriendly": false,
      "bookingUrl": "https://maps.google.com/?q=29.9523689,-90.0669206",
      "source": "osm"
    },
    {
      "nom": "HI Hostel New Orleans",
      "categorie": "Auberge",
      "priceRange": "€€",
      "mapsUrl": "https://maps.google.com/?q=29.9552489,-90.0726605",
      "lat": 29.9552489,
      "lng": -90.0726605,
      "halalFriendly": false,
      "bookingUrl": "https://maps.google.com/?q=29.9552489,-90.0726605",
      "source": "osm"
    },
    {
      "nom": "Hotel de L'Eau Vive",
      "categorie": "Hôtel",
      "priceRange": "€€",
      "mapsUrl": "https://maps.google.com/?q=29.9496971,-90.0668374",
      "lat": 29.9496971,
      "lng": -90.0668374,
      "halalFriendly": false,
      "bookingUrl": "https://maps.google.com/?q=29.9496971,-90.0668374",
      "source": "osm"
    },
    {
      "nom": "Kimpton Hotel Fontenot",
      "categorie": "Hôtel",
      "priceRange": "€€",
      "mapsUrl": "https://maps.google.com/?q=29.9485449,-90.0673575",
      "lat": 29.9485449,
      "lng": -90.0673575,
      "halalFriendly": false,
      "bookingUrl": "https://maps.google.com/?q=29.9485449,-90.0673575",
      "source": "osm"
    },
    {
      "nom": "La Galerie Hotel",
      "categorie": "Hôtel",
      "priceRange": "€€",
      "mapsUrl": "https://maps.google.com/?q=29.9527396,-90.0666418",
      "lat": 29.9527396,
      "lng": -90.0666418,
      "halalFriendly": false,
      "bookingUrl": "https://maps.google.com/?q=29.9527396,-90.0666418",
      "source": "osm"
    },
    {
      "nom": "Hotel Monteleone",
      "categorie": "Hôtel",
      "priceRange": "€€",
      "mapsUrl": "https://maps.google.com/?q=29.9541913,-90.0676752",
      "lat": 29.9541913,
      "lng": -90.0676752,
      "halalFriendly": false,
      "bookingUrl": "https://maps.google.com/?q=29.9541913,-90.0676752",
      "source": "osm"
    },
    {
      "nom": "Doubletree by Hilton Hotel New Orleans",
      "categorie": "Hôtel",
      "priceRange": "€€",
      "mapsUrl": "https://maps.google.com/?q=29.9502895,-90.0662582",
      "lat": 29.9502895,
      "lng": -90.0662582,
      "halalFriendly": false,
      "bookingUrl": "https://www.hilton.com/en/hotels/msytcdt-doubletree-new-orleans/",
      "source": "osm"
    },
    {
      "nom": "Old No. 77 Hotel and Chandlery",
      "categorie": "Hôtel",
      "priceRange": "€€",
      "mapsUrl": "https://maps.google.com/?q=29.9480178,-90.06748",
      "lat": 29.9480178,
      "lng": -90.06748,
      "halalFriendly": false,
      "bookingUrl": "https://www.old77hotel.com/",
      "source": "osm"
    },
    {
      "nom": "Hyatt House New Orleans/Downtown",
      "categorie": "Hôtel",
      "priceRange": "€€",
      "mapsUrl": "https://maps.google.com/?q=29.9505449,-90.0769179",
      "lat": 29.9505449,
      "lng": -90.0769179,
      "halalFriendly": false,
      "bookingUrl": "https://www.hyatt.com/hyatt-house/en-us/msyxd-hyatt-house-new-orleans-downtown",
      "source": "osm"
    },
    {
      "nom": "Hotel Mazarin",
      "categorie": "Hôtel",
      "priceRange": "€€",
      "mapsUrl": "https://maps.google.com/?q=29.9548992,-90.0682479",
      "lat": 29.9548992,
      "lng": -90.0682479,
      "halalFriendly": false,
      "bookingUrl": "https://maps.google.com/?q=29.9548992,-90.0682479",
      "source": "osm"
    },
    {
      "nom": "Windsor Court Hotel",
      "categorie": "Hôtel",
      "priceRange": "€€",
      "mapsUrl": "https://maps.google.com/?q=29.9494787,-90.0663659",
      "lat": 29.9494787,
      "lng": -90.0663659,
      "halalFriendly": false,
      "bookingUrl": "https://www.windsorcourthotel.com",
      "source": "osm"
    },
    {
      "nom": "Le Méridien New Orleans",
      "categorie": "Hôtel",
      "priceRange": "€€",
      "mapsUrl": "https://maps.google.com/?q=29.9489835,-90.0664261",
      "lat": 29.9489835,
      "lng": -90.0664261,
      "halalFriendly": false,
      "bookingUrl": "https://maps.google.com/?q=29.9489835,-90.0664261",
      "source": "osm"
    },
    {
      "nom": "Nobu Hotel New Orleans - A Caesars Rewards Destination",
      "categorie": "Hôtel",
      "priceRange": "€€",
      "mapsUrl": "https://maps.google.com/?q=29.949775,-90.0654498",
      "lat": 29.949775,
      "lng": -90.0654498,
      "halalFriendly": false,
      "bookingUrl": "https://www.caesars.com/nobu-new-orleans",
      "source": "osm"
    },
    {
      "nom": "Chateau Orleans Resort",
      "categorie": "Hôtel",
      "priceRange": "€€",
      "mapsUrl": "https://maps.google.com/?q=29.9564125,-90.0702641",
      "lat": 29.9564125,
      "lng": -90.0702641,
      "halalFriendly": false,
      "bookingUrl": "https://maps.google.com/?q=29.9564125,-90.0702641",
      "source": "osm"
    },
    {
      "nom": "Loews New Orleans Hotel",
      "categorie": "Hôtel",
      "priceRange": "€€",
      "mapsUrl": "https://maps.google.com/?q=29.9479695,-90.0662019",
      "lat": 29.9479695,
      "lng": -90.0662019,
      "halalFriendly": false,
      "bookingUrl": "https://www.loewshotels.com/m/new-orleans",
      "source": "osm"
    },
    {
      "nom": "Cambria Hotel New Orleans Downtown Warehouse District",
      "categorie": "Hôtel",
      "priceRange": "€€",
      "mapsUrl": "https://maps.google.com/?q=29.9468323,-90.0672082",
      "lat": 29.9468323,
      "lng": -90.0672082,
      "halalFriendly": false,
      "bookingUrl": "https://www.choicehotels.com/en-uk/louisiana/new-orleans/cambria-hotels/la322",
      "source": "osm"
    },
    {
      "nom": "Hotel de la Poste – French Quarter, A Renaissance Hotel",
      "categorie": "Hôtel",
      "priceRange": "€€",
      "mapsUrl": "https://maps.google.com/?q=29.9545023,-90.0662289",
      "lat": 29.9545023,
      "lng": -90.0662289,
      "halalFriendly": false,
      "bookingUrl": "https://www.marriott.com/en-us/hotels/msyrf-hotel-de-la-poste-french-quarter-a-renaissance-hotel",
      "source": "osm"
    },
    {
      "nom": "The Westin New Orleans",
      "categorie": "Hôtel",
      "priceRange": "€€",
      "mapsUrl": "https://maps.google.com/?q=29.9514008,-90.0648513",
      "lat": 29.9514008,
      "lng": -90.0648513,
      "halalFriendly": false,
      "bookingUrl": "https://www.marriott.com/en-us/hotels/msywi-the-westin-new-orleans/overview/",
      "source": "osm"
    },
    {
      "nom": "Hotel Vinache",
      "categorie": "Hôtel",
      "priceRange": "€€",
      "mapsUrl": "https://maps.google.com/?q=29.9562826,-90.0744408",
      "lat": 29.9562826,
      "lng": -90.0744408,
      "halalFriendly": false,
      "bookingUrl": "https://www.hotelvinache.com/",
      "source": "osm"
    },
    {
      "nom": "Balcony on Bourbon",
      "categorie": "Hôtel",
      "priceRange": "€€",
      "mapsUrl": "https://maps.google.com/?q=29.9561347,-90.0682136",
      "lat": 29.9561347,
      "lng": -90.0682136,
      "halalFriendly": false,
      "bookingUrl": "https://maps.google.com/?q=29.9561347,-90.0682136",
      "source": "osm"
    },
    {
      "nom": "One11 Hotel",
      "categorie": "Hôtel",
      "priceRange": "€€",
      "mapsUrl": "https://maps.google.com/?q=29.9519553,-90.0647984",
      "lat": 29.9519553,
      "lng": -90.0647984,
      "halalFriendly": false,
      "bookingUrl": "https://one11hotel.reztrip.com/classic/en/searches/6268bd9ec55a24569115d7ac/hotels/IBERV/rooms?action=show&adults[]=2&arrival_date=2022-05-02&channel=DS-GOOGLE&children[]=0&controller=landings&currency=USD&departure_date=2022-05-03&locale=en&offer_code=de",
      "source": "osm"
    },
    {
      "nom": "Grenoble House",
      "categorie": "Hôtel",
      "priceRange": "€€",
      "mapsUrl": "https://maps.google.com/?q=29.9566292,-90.0691527",
      "lat": 29.9566292,
      "lng": -90.0691527,
      "halalFriendly": false,
      "bookingUrl": "https://maps.google.com/?q=29.9566292,-90.0691527",
      "source": "osm"
    },
    {
      "nom": "Prince Conti Hotel",
      "categorie": "Hôtel",
      "priceRange": "€€",
      "mapsUrl": "https://maps.google.com/?q=29.9565222,-90.0685799",
      "lat": 29.9565222,
      "lng": -90.0685799,
      "halalFriendly": false,
      "bookingUrl": "https://maps.google.com/?q=29.9565222,-90.0685799",
      "source": "osm"
    },
    {
      "nom": "Harrah's Hotel",
      "categorie": "Hôtel",
      "priceRange": "€€",
      "mapsUrl": "https://maps.google.com/?q=29.9477515,-90.0656297",
      "lat": 29.9477515,
      "lng": -90.0656297,
      "halalFriendly": false,
      "bookingUrl": "https://maps.google.com/?q=29.9477515,-90.0656297",
      "source": "osm"
    },
    {
      "nom": "Bienville House Hotel",
      "categorie": "Hôtel",
      "priceRange": "€€",
      "mapsUrl": "https://maps.google.com/?q=29.9539056,-90.0651259",
      "lat": 29.9539056,
      "lng": -90.0651259,
      "halalFriendly": false,
      "bookingUrl": "https://bienvillehouse.com/",
      "source": "osm"
    },
    {
      "nom": "Hotel Le Marais",
      "categorie": "Hôtel",
      "priceRange": "€€",
      "mapsUrl": "https://maps.google.com/?q=29.9561659,-90.067112",
      "lat": 29.9561659,
      "lng": -90.067112,
      "halalFriendly": false,
      "bookingUrl": "https://maps.google.com/?q=29.9561659,-90.067112",
      "source": "osm"
    },
    {
      "nom": "Renaissance New Orleans Arts Warehouse District Hotel",
      "categorie": "Hôtel",
      "priceRange": "€€",
      "mapsUrl": "https://maps.google.com/?q=29.9459864,-90.0670171",
      "lat": 29.9459864,
      "lng": -90.0670171,
      "halalFriendly": false,
      "bookingUrl": "https://maps.google.com/?q=29.9459864,-90.0670171",
      "source": "osm"
    },
    {
      "nom": "Domio",
      "categorie": "Hôtel",
      "priceRange": "€€",
      "mapsUrl": "https://maps.google.com/?q=29.9451677,-90.0743379",
      "lat": 29.9451677,
      "lng": -90.0743379,
      "halalFriendly": false,
      "bookingUrl": "https://baronne.staydomio.com",
      "source": "osm"
    },
    {
      "nom": "Dauphine Orleans Hotel",
      "categorie": "Hôtel",
      "priceRange": "€€",
      "mapsUrl": "https://maps.google.com/?q=29.9573801,-90.0685108",
      "lat": 29.9573801,
      "lng": -90.0685108,
      "halalFriendly": false,
      "bookingUrl": "https://maps.google.com/?q=29.9573801,-90.0685108",
      "source": "osm"
    },
    {
      "nom": "The Jung Hotel & Residences",
      "categorie": "Hôtel",
      "priceRange": "€€",
      "mapsUrl": "https://maps.google.com/?q=29.9572539,-90.0756604",
      "lat": 29.9572539,
      "lng": -90.0756604,
      "halalFriendly": false,
      "bookingUrl": "https://junghotel.com",
      "source": "osm"
    },
    {
      "nom": "The Mercantile Hotel",
      "categorie": "Hôtel",
      "priceRange": "€€",
      "mapsUrl": "https://maps.google.com/?q=29.9455618,-90.0659729",
      "lat": 29.9455618,
      "lng": -90.0659729,
      "halalFriendly": false,
      "bookingUrl": "https://themercantilehotelneworleans.com/",
      "source": "osm"
    },
    {
      "nom": "Omni Royal Orleans",
      "categorie": "Hôtel",
      "priceRange": "€€",
      "mapsUrl": "https://maps.google.com/?q=29.9563139,-90.0655143",
      "lat": 29.9563139,
      "lng": -90.0655143,
      "halalFriendly": false,
      "bookingUrl": "https://www.omnihotels.com/hotels/new-orleans-royal-orleans",
      "source": "osm"
    },
    {
      "nom": "Holiday Inn Express New Orleans - St Charles",
      "categorie": "Hôtel",
      "priceRange": "€€",
      "mapsUrl": "https://maps.google.com/?q=29.9437473,-90.0718786",
      "lat": 29.9437473,
      "lng": -90.0718786,
      "halalFriendly": false,
      "bookingUrl": "https://maps.google.com/?q=29.9437473,-90.0718786",
      "source": "osm"
    },
    {
      "nom": "Hotel Sainte Hélène",
      "categorie": "Hôtel",
      "priceRange": "€€",
      "mapsUrl": "https://maps.google.com/?q=29.9559928,-90.0649988",
      "lat": 29.9559928,
      "lng": -90.0649988,
      "halalFriendly": false,
      "bookingUrl": "https://www.frenchquarterhotelcollection.com/hotel-st-helene.html",
      "source": "osm"
    },
    {
      "nom": "Embassy Suites New Orleans - Convention Center",
      "categorie": "Hôtel",
      "priceRange": "€€",
      "mapsUrl": "https://maps.google.com/?q=29.9450849,-90.066261",
      "lat": 29.9450849,
      "lng": -90.066261,
      "halalFriendly": false,
      "bookingUrl": "http://www.embassyneworleans.com/",
      "source": "osm"
    },
    {
      "nom": "Sonesta ES Suites New Orleans Convention Center",
      "categorie": "Hôtel",
      "priceRange": "€€",
      "mapsUrl": "https://maps.google.com/?q=29.9440289,-90.068175",
      "lat": 29.9440289,
      "lng": -90.068175,
      "halalFriendly": false,
      "bookingUrl": "https://maps.google.com/?q=29.9440289,-90.068175",
      "source": "osm"
    },
    {
      "nom": "The French Market Inn",
      "categorie": "Hôtel",
      "priceRange": "€€",
      "mapsUrl": "https://maps.google.com/?q=29.9554237,-90.0641455",
      "lat": 29.9554237,
      "lng": -90.0641455,
      "halalFriendly": false,
      "bookingUrl": "https://www.frenchmarketinn.com/",
      "source": "osm"
    },
    {
      "nom": "Audubon Cottages",
      "categorie": "Hôtel",
      "priceRange": "€€",
      "mapsUrl": "https://maps.google.com/?q=29.9581821,-90.0677975",
      "lat": 29.9581821,
      "lng": -90.0677975,
      "halalFriendly": false,
      "bookingUrl": "https://maps.google.com/?q=29.9581821,-90.0677975",
      "source": "osm"
    },
    {
      "nom": "Four Points By Sheraton French Quarter",
      "categorie": "Hôtel",
      "priceRange": "€€",
      "mapsUrl": "https://maps.google.com/?q=29.9577796,-90.0667888",
      "lat": 29.9577796,
      "lng": -90.0667888,
      "halalFriendly": false,
      "bookingUrl": "https://maps.google.com/?q=29.9577796,-90.0667888",
      "source": "osm"
    },
    {
      "nom": "Olivier House",
      "categorie": "Hôtel",
      "priceRange": "€€",
      "mapsUrl": "https://maps.google.com/?q=29.9581378,-90.0671318",
      "lat": 29.9581378,
      "lng": -90.0671318,
      "halalFriendly": false,
      "bookingUrl": "https://maps.google.com/?q=29.9581378,-90.0671318",
      "source": "osm"
    },
    {
      "nom": "Hotel St. Marie",
      "categorie": "Hôtel",
      "priceRange": "€€",
      "mapsUrl": "https://maps.google.com/?q=29.9583853,-90.0669095",
      "lat": 29.9583853,
      "lng": -90.0669095,
      "halalFriendly": false,
      "bookingUrl": "https://maps.google.com/?q=29.9583853,-90.0669095",
      "source": "osm"
    },
    {
      "nom": "The Brakeman Hotel",
      "categorie": "Hôtel",
      "priceRange": "€€",
      "mapsUrl": "https://maps.google.com/?q=29.9597177,-90.0707937",
      "lat": 29.9597177,
      "lng": -90.0707937,
      "halalFriendly": false,
      "bookingUrl": "https://www.brakemanhotel.com/",
      "source": "osm"
    },
    {
      "nom": "Springhill Suites-New Orleans",
      "categorie": "Hôtel",
      "priceRange": "€€",
      "mapsUrl": "https://maps.google.com/?q=29.9582388,-90.0773373",
      "lat": 29.9582388,
      "lng": -90.0773373,
      "halalFriendly": false,
      "bookingUrl": "https://maps.google.com/?q=29.9582388,-90.0773373",
      "source": "osm"
    },
    {
      "nom": "TownePlace Suites",
      "categorie": "Hôtel",
      "priceRange": "€€",
      "mapsUrl": "https://maps.google.com/?q=29.9582918,-90.0773126",
      "lat": 29.9582918,
      "lng": -90.0773126,
      "halalFriendly": false,
      "bookingUrl": "https://www.marriott.com/msytd",
      "source": "osm"
    },
    {
      "nom": "The Higgins Hotel New Orleans, Curio Collection by Hilton",
      "categorie": "Hôtel",
      "priceRange": "€€",
      "mapsUrl": "https://maps.google.com/?q=29.9422727,-90.0696348",
      "lat": 29.9422727,
      "lng": -90.0696348,
      "halalFriendly": false,
      "bookingUrl": "https://www.hilton.com/en/hotels/msyrvqq-the-higgins-hotel-new-orleans/",
      "source": "osm"
    },
    {
      "nom": "New Orleans Marriott Warehouse Arts District",
      "categorie": "Hôtel",
      "priceRange": "€€",
      "mapsUrl": "https://maps.google.com/?q=29.9437051,-90.0649491",
      "lat": 29.9437051,
      "lng": -90.0649491,
      "halalFriendly": false,
      "bookingUrl": "https://www.marriott.com/hotels/travel/msymc-new-orleans-marriott-warehouse-arts-district/",
      "source": "osm"
    },
    {
      "nom": "Inn on St. Peter",
      "categorie": "Hôtel",
      "priceRange": "€€",
      "mapsUrl": "https://maps.google.com/?q=29.960027,-90.0675236",
      "lat": 29.960027,
      "lng": -90.0675236,
      "halalFriendly": false,
      "bookingUrl": "https://maps.google.com/?q=29.960027,-90.0675236",
      "source": "osm"
    },
    {
      "nom": "Bourbon Orleans Hotel",
      "categorie": "Hôtel",
      "priceRange": "€€",
      "mapsUrl": "https://maps.google.com/?q=29.9587663,-90.0646591",
      "lat": 29.9587663,
      "lng": -90.0646591,
      "halalFriendly": false,
      "bookingUrl": "https://www.bourbonorleans.com/",
      "source": "osm"
    },
    {
      "nom": "Hyatt Place New Orleans/Convention Center",
      "categorie": "Hôtel",
      "priceRange": "€€",
      "mapsUrl": "https://maps.google.com/?q=29.9424923,-90.0649233",
      "lat": 29.9424923,
      "lng": -90.0649233,
      "halalFriendly": false,
      "bookingUrl": "https://www.hyatt.com/en-us/hotel/louisiana/hyatt-place-new-orleans-convention-center/msyzc",
      "source": "osm"
    },
    {
      "nom": "Place d'Armes Hotel",
      "categorie": "Hôtel",
      "priceRange": "€€",
      "mapsUrl": "https://maps.google.com/?q=29.9586927,-90.0634222",
      "lat": 29.9586927,
      "lng": -90.0634222,
      "halalFriendly": false,
      "bookingUrl": "https://maps.google.com/?q=29.9586927,-90.0634222",
      "source": "osm"
    },
    {
      "nom": "The Quisby",
      "categorie": "Auberge",
      "priceRange": "€€",
      "mapsUrl": "https://maps.google.com/?q=29.9408874,-90.0744292",
      "lat": 29.9408874,
      "lng": -90.0744292,
      "halalFriendly": false,
      "bookingUrl": "https://www.thequisby.com/",
      "source": "osm"
    },
    {
      "nom": "Inn on St Ann",
      "categorie": "Hôtel",
      "priceRange": "€€",
      "mapsUrl": "https://maps.google.com/?q=29.9609936,-90.0668093",
      "lat": 29.9609936,
      "lng": -90.0668093,
      "halalFriendly": false,
      "bookingUrl": "https://maps.google.com/?q=29.9609936,-90.0668093",
      "source": "osm"
    },
    {
      "nom": "Gentry House",
      "categorie": "Maison d'hôtes",
      "priceRange": "€€",
      "mapsUrl": "https://maps.google.com/?q=29.961213,-90.0671296",
      "lat": 29.961213,
      "lng": -90.0671296,
      "halalFriendly": false,
      "bookingUrl": "https://maps.google.com/?q=29.961213,-90.0671296",
      "source": "osm"
    },
    {
      "nom": "Hilton Garden Inn New Orleans Convention Center",
      "categorie": "Hôtel",
      "priceRange": "€€",
      "mapsUrl": "https://maps.google.com/?q=29.9413246,-90.0661737",
      "lat": 29.9413246,
      "lng": -90.0661737,
      "halalFriendly": false,
      "bookingUrl": "https://www.hilton.com/en/hotels/msygigi-hilton-garden-inn-new-orleans-convention-center/",
      "source": "osm"
    },
    {
      "nom": "Bon Maison Guest House",
      "categorie": "Maison d'hôtes",
      "priceRange": "€€",
      "mapsUrl": "https://maps.google.com/?q=29.9601584,-90.0644519",
      "lat": 29.9601584,
      "lng": -90.0644519,
      "halalFriendly": false,
      "bookingUrl": "http://bonmaison.com",
      "source": "osm"
    },
    {
      "nom": "Nine-O-Five Royal Hotel",
      "categorie": "Hôtel",
      "priceRange": "€€",
      "mapsUrl": "https://maps.google.com/?q=29.9599104,-90.0632457",
      "lat": 29.9599104,
      "lng": -90.0632457,
      "halalFriendly": false,
      "bookingUrl": "https://maps.google.com/?q=29.9599104,-90.0632457",
      "source": "osm"
    },
    {
      "nom": "Andrew Jackson Hotel",
      "categorie": "Hôtel",
      "priceRange": "€€",
      "mapsUrl": "https://maps.google.com/?q=29.9601382,-90.0630869",
      "lat": 29.9601382,
      "lng": -90.0630869,
      "halalFriendly": false,
      "bookingUrl": "https://maps.google.com/?q=29.9601382,-90.0630869",
      "source": "osm"
    },
    {
      "nom": "Hotel St. Pierre",
      "categorie": "Hôtel",
      "priceRange": "€€",
      "mapsUrl": "https://maps.google.com/?q=29.9617841,-90.0658821",
      "lat": 29.9617841,
      "lng": -90.0658821,
      "halalFriendly": false,
      "bookingUrl": "https://maps.google.com/?q=29.9617841,-90.0658821",
      "source": "osm"
    },
    {
      "nom": "Best Western Plus French Quarter Courtyard Hotel",
      "categorie": "Hôtel",
      "priceRange": "€€",
      "mapsUrl": "https://maps.google.com/?q=29.9623016,-90.0661772",
      "lat": 29.9623016,
      "lng": -90.0661772,
      "halalFriendly": false,
      "bookingUrl": "https://www.bestwestern.com/en_US/book/hotels-in-new-orleans/best-western-plus-french-quarter-courtyard-hotel/propertyCode.19087.html",
      "source": "osm"
    },
    {
      "nom": "Hotel Royal",
      "categorie": "Hôtel",
      "priceRange": "€€",
      "mapsUrl": "https://maps.google.com/?q=29.9604327,-90.0622506",
      "lat": 29.9604327,
      "lng": -90.0622506,
      "halalFriendly": false,
      "bookingUrl": "https://maps.google.com/?q=29.9604327,-90.0622506",
      "source": "osm"
    },
    {
      "nom": "Chateau Hotel",
      "categorie": "Hôtel",
      "priceRange": "€€",
      "mapsUrl": "https://maps.google.com/?q=29.9600135,-90.0616725",
      "lat": 29.9600135,
      "lng": -90.0616725,
      "halalFriendly": false,
      "bookingUrl": "https://maps.google.com/?q=29.9600135,-90.0616725",
      "source": "osm"
    },
    {
      "nom": "Hampton Inn & Suites New Orleans Convention Center",
      "categorie": "Hôtel",
      "priceRange": "€€",
      "mapsUrl": "https://maps.google.com/?q=29.9397234,-90.0650296",
      "lat": 29.9397234,
      "lng": -90.0650296,
      "halalFriendly": false,
      "bookingUrl": "https://www.hilton.com/en/hotels/msylahx-hampton-suites-new-orleans-convention-center/",
      "source": "osm"
    },
    {
      "nom": "Hotel Villa Convento",
      "categorie": "Hôtel",
      "priceRange": "€€",
      "mapsUrl": "https://maps.google.com/?q=29.9606864,-90.061418",
      "lat": 29.9606864,
      "lng": -90.061418,
      "halalFriendly": false,
      "bookingUrl": "https://www.villaconvento.com/",
      "source": "osm"
    },
    {
      "nom": "Inn on Ursulines",
      "categorie": "Maison d'hôtes",
      "priceRange": "€€",
      "mapsUrl": "https://maps.google.com/?q=29.9613467,-90.0622249",
      "lat": 29.9613467,
      "lng": -90.0622249,
      "halalFriendly": false,
      "bookingUrl": "https://maps.google.com/?q=29.9613467,-90.0622249",
      "source": "osm"
    },
    {
      "nom": "Auberge NOLA Hostel",
      "categorie": "Auberge",
      "priceRange": "€€",
      "mapsUrl": "https://maps.google.com/?q=29.9384996,-90.0775801",
      "lat": 29.9384996,
      "lng": -90.0775801,
      "halalFriendly": false,
      "bookingUrl": "https://www.aubergehostels.com/nola",
      "source": "osm"
    },
    {
      "nom": "New Orleans Guest House",
      "categorie": "Hôtel",
      "priceRange": "€€",
      "mapsUrl": "https://maps.google.com/?q=29.9639926,-90.0661214",
      "lat": 29.9639926,
      "lng": -90.0661214,
      "halalFriendly": false,
      "bookingUrl": "https://maps.google.com/?q=29.9639926,-90.0661214",
      "source": "osm"
    },
    {
      "nom": "New Orleans Courtyard Hotel",
      "categorie": "Hôtel",
      "priceRange": "€€",
      "mapsUrl": "https://maps.google.com/?q=29.9641597,-90.0657283",
      "lat": 29.9641597,
      "lng": -90.0657283,
      "halalFriendly": false,
      "bookingUrl": "https://maps.google.com/?q=29.9641597,-90.0657283",
      "source": "osm"
    },
    {
      "nom": "Soniat House",
      "categorie": "Hôtel",
      "priceRange": "€€",
      "mapsUrl": "https://maps.google.com/?q=29.9613448,-90.0605088",
      "lat": 29.9613448,
      "lng": -90.0605088,
      "halalFriendly": false,
      "bookingUrl": "https://maps.google.com/?q=29.9613448,-90.0605088",
      "source": "osm"
    },
    {
      "nom": "Atlas House",
      "categorie": "Auberge",
      "priceRange": "€€",
      "mapsUrl": "https://maps.google.com/?q=29.9369444,-90.0714934",
      "lat": 29.9369444,
      "lng": -90.0714934,
      "halalFriendly": false,
      "bookingUrl": "http://www.theatlashouse.com/",
      "source": "osm"
    },
    {
      "nom": "French Quarter Suites Hotel",
      "categorie": "Hôtel",
      "priceRange": "€€",
      "mapsUrl": "https://maps.google.com/?q=29.964278,-90.0654713",
      "lat": 29.964278,
      "lng": -90.0654713,
      "halalFriendly": false,
      "bookingUrl": "https://maps.google.com/?q=29.964278,-90.0654713",
      "source": "osm"
    }
  ],
  "mosqueesPrincipales": [],
  "activites": [
    {
      "id": "a358384526",
      "nom": "McDonogh Monument",
      "categorie": "monument",
      "description": "",
      "prix": "",
      "duree": "",
      "mapsUrl": "https://maps.google.com/?q=29.9483704,-90.0707778",
      "lat": 29.9483704,
      "lng": -90.0707778,
      "source": "osm"
    },
    {
      "id": "a1117912717",
      "nom": "Bourbon Street",
      "categorie": "attraction",
      "description": "",
      "prix": "",
      "duree": "",
      "mapsUrl": "https://maps.google.com/?q=29.9537253,-90.0700499",
      "lat": 29.9537253,
      "lng": -90.0700499,
      "source": "osm"
    },
    {
      "id": "a627792952",
      "nom": "Eagle Saloon",
      "categorie": "attraction",
      "description": "",
      "prix": "",
      "duree": "",
      "mapsUrl": "https://maps.google.com/?q=29.9517274,-90.0748313",
      "lat": 29.9517274,
      "lng": -90.0748313,
      "source": "osm"
    },
    {
      "id": "a358384420",
      "nom": "Clay Monument",
      "categorie": "monument",
      "description": "",
      "prix": "",
      "duree": "",
      "mapsUrl": "https://maps.google.com/?q=29.9482685,-90.0703343",
      "lat": 29.9482685,
      "lng": -90.0703343,
      "source": "osm"
    },
    {
      "id": "a358384438",
      "nom": "Franklin Monument",
      "categorie": "monument",
      "description": "",
      "prix": "",
      "duree": "",
      "mapsUrl": "https://maps.google.com/?q=29.948178,-90.0698951",
      "lat": 29.948178,
      "lng": -90.0698951,
      "source": "osm"
    },
    {
      "id": "a4756179127",
      "nom": "Four for Mardi Gras",
      "categorie": "artwork",
      "description": "",
      "prix": "",
      "duree": "",
      "mapsUrl": "https://maps.google.com/?q=29.9520167,-90.0678046",
      "lat": 29.9520167,
      "lng": -90.0678046,
      "source": "osm"
    },
    {
      "id": "a910939860",
      "nom": "The Sazerac House",
      "categorie": "museum",
      "description": "",
      "prix": "",
      "duree": "",
      "mapsUrl": "https://maps.google.com/?q=29.9516802,-90.0675727",
      "lat": 29.9516802,
      "lng": -90.0675727,
      "source": "osm"
    },
    {
      "id": "a13719478101",
      "nom": "Bienville's Plantation",
      "categorie": "memorial",
      "description": "",
      "prix": "",
      "duree": "",
      "mapsUrl": "https://maps.google.com/?q=29.9510481,-90.067386",
      "lat": 29.9510481,
      "lng": -90.067386,
      "source": "osm"
    },
    {
      "id": "a6568622685",
      "nom": "Louis Armstrong",
      "categorie": "monument",
      "description": "",
      "prix": "",
      "duree": "",
      "mapsUrl": "https://maps.google.com/?q=29.9542152,-90.0737904",
      "lat": 29.9542152,
      "lng": -90.0737904,
      "source": "osm"
    },
    {
      "id": "a10905720869",
      "nom": "Striding Man",
      "categorie": "artwork",
      "description": "",
      "prix": "",
      "duree": "",
      "mapsUrl": "https://maps.google.com/?q=29.9525903,-90.0759817",
      "lat": 29.9525903,
      "lng": -90.0759817,
      "source": "osm"
    },
    {
      "id": "a9165684423",
      "nom": "UpStairs Lounge Arson Memorial Plaque",
      "categorie": "memorial",
      "description": "",
      "prix": "",
      "duree": "",
      "mapsUrl": "https://maps.google.com/?q=29.9535906,-90.067567",
      "lat": 29.9535906,
      "lng": -90.067567,
      "source": "osm"
    },
    {
      "id": "a10905720867",
      "nom": "John McDonogh",
      "categorie": "artwork",
      "description": "",
      "prix": "",
      "duree": "",
      "mapsUrl": "https://maps.google.com/?q=29.9531444,-90.0758889",
      "lat": 29.9531444,
      "lng": -90.0758889,
      "source": "osm"
    },
    {
      "id": "a10905720868",
      "nom": "George Washington",
      "categorie": "artwork",
      "description": "",
      "prix": "",
      "duree": "",
      "mapsUrl": "https://maps.google.com/?q=29.9539437,-90.0757622",
      "lat": 29.9539437,
      "lng": -90.0757622,
      "source": "osm"
    },
    {
      "id": "a6568597288",
      "nom": "Women Armed Forces",
      "categorie": "monument",
      "description": "",
      "prix": "",
      "duree": "",
      "mapsUrl": "https://maps.google.com/?q=29.9551131,-90.0743194",
      "lat": 29.9551131,
      "lng": -90.0743194,
      "source": "osm"
    },
    {
      "id": "a6568622385",
      "nom": "Stone Head",
      "categorie": "artwork",
      "description": "",
      "prix": "",
      "duree": "",
      "mapsUrl": "https://maps.google.com/?q=29.9553943,-90.0740536",
      "lat": 29.9553943,
      "lng": -90.0740536,
      "source": "osm"
    },
    {
      "id": "a2657840110",
      "nom": "Angela King Gallery",
      "categorie": "artwork",
      "description": "",
      "prix": "",
      "duree": "",
      "mapsUrl": "https://maps.google.com/?q=29.9548664,-90.0677004",
      "lat": 29.9548664,
      "lng": -90.0677004,
      "source": "osm"
    },
    {
      "id": "a3716152084",
      "nom": "Museum of Death",
      "categorie": "museum",
      "description": "",
      "prix": "",
      "duree": "",
      "mapsUrl": "https://maps.google.com/?q=29.9558706,-90.0697243",
      "lat": 29.9558706,
      "lng": -90.0697243,
      "source": "osm"
    },
    {
      "id": "a10905720870",
      "nom": "Morrison Memorial",
      "categorie": "memorial",
      "description": "",
      "prix": "",
      "duree": "",
      "mapsUrl": "https://maps.google.com/?q=29.952935,-90.0769146",
      "lat": 29.952935,
      "lng": -90.0769146,
      "source": "osm"
    },
    {
      "id": "a1538717168",
      "nom": "Molly Marine",
      "categorie": "artwork",
      "description": "",
      "prix": "",
      "duree": "",
      "mapsUrl": "https://maps.google.com/?q=29.955891,-90.0736163",
      "lat": 29.955891,
      "lng": -90.0736163,
      "source": "osm"
    },
    {
      "id": "a4739182221",
      "nom": "Antoine \"Fats\" Domino",
      "categorie": "artwork",
      "description": "",
      "prix": "",
      "duree": "",
      "mapsUrl": "https://maps.google.com/?q=29.9557531,-90.0683414",
      "lat": 29.9557531,
      "lng": -90.0683414,
      "source": "osm"
    },
    {
      "id": "a4739182423",
      "nom": "Ronnie Kole",
      "categorie": "artwork",
      "description": "",
      "prix": "",
      "duree": "",
      "mapsUrl": "https://maps.google.com/?q=29.9557875,-90.0683775",
      "lat": 29.9557875,
      "lng": -90.0683775,
      "source": "osm"
    },
    {
      "id": "a4739182121",
      "nom": "Al \"Jumbo\" Hirt",
      "categorie": "artwork",
      "description": "",
      "prix": "",
      "duree": "",
      "mapsUrl": "https://maps.google.com/?q=29.9557674,-90.0683291",
      "lat": 29.9557674,
      "lng": -90.0683291,
      "source": "osm"
    },
    {
      "id": "a4739182227",
      "nom": "Allen Toussaint",
      "categorie": "artwork",
      "description": "",
      "prix": "",
      "duree": "",
      "mapsUrl": "https://maps.google.com/?q=29.9558257,-90.0684296",
      "lat": 29.9558257,
      "lng": -90.0684296,
      "source": "osm"
    },
    {
      "id": "a4739182122",
      "nom": "Pete Fountain",
      "categorie": "artwork",
      "description": "",
      "prix": "",
      "duree": "",
      "mapsUrl": "https://maps.google.com/?q=29.955779,-90.068316",
      "lat": 29.955779,
      "lng": -90.068316,
      "source": "osm"
    },
    {
      "id": "a4739182225",
      "nom": "Louis Prima",
      "categorie": "artwork",
      "description": "",
      "prix": "",
      "duree": "",
      "mapsUrl": "https://maps.google.com/?q=29.9558515,-90.0684068",
      "lat": 29.9558515,
      "lng": -90.0684068,
      "source": "osm"
    },
    {
      "id": "a4739182226",
      "nom": "Chris Owens",
      "categorie": "artwork",
      "description": "",
      "prix": "",
      "duree": "",
      "mapsUrl": "https://maps.google.com/?q=29.9558116,-90.0683079",
      "lat": 29.9558116,
      "lng": -90.0683079,
      "source": "osm"
    },
    {
      "id": "a4739182123",
      "nom": "Irma Thomas",
      "categorie": "artwork",
      "description": "",
      "prix": "",
      "duree": "",
      "mapsUrl": "https://maps.google.com/?q=29.9558478,-90.0683623",
      "lat": 29.9558478,
      "lng": -90.0683623,
      "source": "osm"
    },
    {
      "id": "a11608930227",
      "nom": "Sasik Gallery",
      "categorie": "gallery",
      "description": "",
      "prix": "",
      "duree": "",
      "mapsUrl": "https://maps.google.com/?q=29.945692,-90.0702185",
      "lat": 29.945692,
      "lng": -90.0702185,
      "source": "osm"
    },
    {
      "id": "a10647806885",
      "nom": "Simón Bolívar",
      "categorie": "artwork",
      "description": "",
      "prix": "",
      "duree": "",
      "mapsUrl": "https://maps.google.com/?q=29.9564412,-90.0731622",
      "lat": 29.9564412,
      "lng": -90.0731622,
      "source": "osm"
    },
    {
      "id": "a3354874751",
      "nom": "Ariodante",
      "categorie": "gallery",
      "description": "",
      "prix": "",
      "duree": "",
      "mapsUrl": "https://maps.google.com/?q=29.9456804,-90.0701721",
      "lat": 29.9456804,
      "lng": -90.0701721,
      "source": "osm"
    },
    {
      "id": "a6568622287",
      "nom": "Vietnam War Monument",
      "categorie": "monument",
      "description": "",
      "prix": "",
      "duree": "",
      "mapsUrl": "https://maps.google.com/?q=29.9571881,-90.0724727",
      "lat": 29.9571881,
      "lng": -90.0724727,
      "source": "osm"
    },
    {
      "id": "a4146218980",
      "nom": "The Historic New Orleans Collection - Williams Research Center",
      "categorie": "museum",
      "description": "",
      "prix": "",
      "duree": "",
      "mapsUrl": "https://maps.google.com/?q=29.955143,-90.0655895",
      "lat": 29.955143,
      "lng": -90.0655895,
      "source": "osm"
    },
    {
      "id": "a7730092139",
      "nom": "Edward Douglass White",
      "categorie": "artwork",
      "description": "",
      "prix": "",
      "duree": "",
      "mapsUrl": "https://maps.google.com/?q=29.9559821,-90.066422",
      "lat": 29.9559821,
      "lng": -90.066422,
      "source": "osm"
    },
    {
      "id": "a367725868",
      "nom": "Irish Cultural Museum",
      "categorie": "museum",
      "description": "",
      "prix": "",
      "duree": "",
      "mapsUrl": "https://maps.google.com/?q=29.9573975,-90.0692583",
      "lat": 29.9573975,
      "lng": -90.0692583,
      "source": "osm"
    },
    {
      "id": "a4716734093",
      "nom": "Bienville monument",
      "categorie": "artwork",
      "description": "",
      "prix": "",
      "duree": "",
      "mapsUrl": "https://maps.google.com/?q=29.9544913,-90.064719",
      "lat": 29.9544913,
      "lng": -90.064719,
      "source": "osm"
    },
    {
      "id": "a479160340",
      "nom": "Jean Lafitte National Historical Park and Preserve French Quarter Visitor Center",
      "categorie": "museum",
      "description": "",
      "prix": "",
      "duree": "",
      "mapsUrl": "https://maps.google.com/?q=29.9548547,-90.0647995",
      "lat": 29.9548547,
      "lng": -90.0647995,
      "source": "osm"
    },
    {
      "id": "a367725797",
      "nom": "Hermann-Grima House",
      "categorie": "museum",
      "description": "",
      "prix": "",
      "duree": "",
      "mapsUrl": "https://maps.google.com/?q=29.9572177,-90.0676199",
      "lat": 29.9572177,
      "lng": -90.0676199,
      "source": "osm"
    },
    {
      "id": "a9588493777",
      "nom": "Audubon Insectarium",
      "categorie": "zoo",
      "description": "",
      "prix": "",
      "duree": "",
      "mapsUrl": "https://maps.google.com/?q=29.9513592,-90.0633176",
      "lat": 29.9513592,
      "lng": -90.0633176,
      "source": "osm"
    },
    {
      "id": "a367725678",
      "nom": "Audubon Aquarium of the Americas",
      "categorie": "aquarium",
      "description": "",
      "prix": "",
      "duree": "",
      "mapsUrl": "https://maps.google.com/?q=29.9508952,-90.0632231",
      "lat": 29.9508952,
      "lng": -90.0632231,
      "source": "osm"
    },
    {
      "id": "a11165860901",
      "nom": "Vue Orleans",
      "categorie": "museum",
      "description": "",
      "prix": "",
      "duree": "",
      "mapsUrl": "https://maps.google.com/?q=29.9489614,-90.0635707",
      "lat": 29.9489614,
      "lng": -90.0635707,
      "source": "osm"
    },
    {
      "id": "a3356271245",
      "nom": "Museum of the Southern Jewish Experience",
      "categorie": "museum",
      "description": "",
      "prix": "",
      "duree": "",
      "mapsUrl": "https://maps.google.com/?q=29.9441902,-90.0741992",
      "lat": 29.9441902,
      "lng": -90.0741992,
      "source": "osm"
    },
    {
      "id": "a6568597287",
      "nom": "Benito Juarez Statue",
      "categorie": "monument",
      "description": "",
      "prix": "",
      "duree": "",
      "mapsUrl": "https://maps.google.com/?q=29.9584576,-90.0713233",
      "lat": 29.9584576,
      "lng": -90.0713233,
      "source": "osm"
    },
    {
      "id": "a13719801702",
      "nom": "LeMieux Galleries",
      "categorie": "gallery",
      "description": "",
      "prix": "",
      "duree": "",
      "mapsUrl": "https://maps.google.com/?q=29.9447511,-90.0671098",
      "lat": 29.9447511,
      "lng": -90.0671098,
      "source": "osm"
    },
    {
      "id": "a4717620995",
      "nom": "Ocean Song",
      "categorie": "artwork",
      "description": "",
      "prix": "",
      "duree": "",
      "mapsUrl": "https://maps.google.com/?q=29.9531432,-90.0632329",
      "lat": 29.9531432,
      "lng": -90.0632329,
      "source": "osm"
    },
    {
      "id": "a4146220592",
      "nom": "Ogden Museum of Southern Art",
      "categorie": "museum",
      "description": "",
      "prix": "",
      "duree": "",
      "mapsUrl": "https://maps.google.com/?q=29.9435723,-90.0713431",
      "lat": 29.9435723,
      "lng": -90.0713431,
      "source": "osm"
    },
    {
      "id": "a481126434",
      "nom": "New Orleans Pharmacy Museum",
      "categorie": "museum",
      "description": "",
      "prix": "",
      "duree": "",
      "mapsUrl": "https://maps.google.com/?q=29.9560448,-90.0648978",
      "lat": 29.9560448,
      "lng": -90.0648978,
      "source": "osm"
    },
    {
      "id": "a4750883489",
      "nom": "Churchill",
      "categorie": "artwork",
      "description": "",
      "prix": "",
      "duree": "",
      "mapsUrl": "https://maps.google.com/?q=29.9480395,-90.0635197",
      "lat": 29.9480395,
      "lng": -90.0635197,
      "source": "osm"
    },
    {
      "id": "a4597095631",
      "nom": "New Orleans Holocaust Memorial",
      "categorie": "artwork",
      "description": "",
      "prix": "",
      "duree": "",
      "mapsUrl": "https://maps.google.com/?q=29.952362,-90.0628538",
      "lat": 29.952362,
      "lng": -90.0628538,
      "source": "osm"
    },
    {
      "id": "a367133371",
      "nom": "Confederate Memorial Hall;Confederate Memorial Hall Museum",
      "categorie": "museum",
      "description": "",
      "prix": "",
      "duree": "",
      "mapsUrl": "https://maps.google.com/?q=29.9434299,-90.0713042",
      "lat": 29.9434299,
      "lng": -90.0713042,
      "source": "osm"
    },
    {
      "id": "a5534847631",
      "nom": "Kako Gallery",
      "categorie": "artwork",
      "description": "",
      "prix": "",
      "duree": "",
      "mapsUrl": "https://maps.google.com/?q=29.9570132,-90.0655063",
      "lat": 29.9570132,
      "lng": -90.0655063,
      "source": "osm"
    },
    {
      "id": "a4146220594",
      "nom": "Forbes Theater",
      "categorie": "museum",
      "description": "",
      "prix": "",
      "duree": "",
      "mapsUrl": "https://maps.google.com/?q=29.9432133,-90.0702609",
      "lat": 29.9432133,
      "lng": -90.0702609,
      "source": "osm"
    },
    {
      "id": "a4716883826",
      "nom": "Monument to the Immigrant",
      "categorie": "artwork",
      "description": "",
      "prix": "",
      "duree": "",
      "mapsUrl": "https://maps.google.com/?q=29.9536428,-90.0627458",
      "lat": 29.9536428,
      "lng": -90.0627458,
      "source": "osm"
    },
    {
      "id": "a4726899295",
      "nom": "General Francisco Morazan Statue",
      "categorie": "artwork",
      "description": "",
      "prix": "",
      "duree": "",
      "mapsUrl": "https://maps.google.com/?q=29.9592721,-90.0706349",
      "lat": 29.9592721,
      "lng": -90.0706349,
      "source": "osm"
    },
    {
      "id": "a5420408123",
      "nom": "Jamie Hayes Gallery",
      "categorie": "artwork",
      "description": "",
      "prix": "",
      "duree": "",
      "mapsUrl": "https://maps.google.com/?q=29.9570326,-90.0643133",
      "lat": 29.9570326,
      "lng": -90.0643133,
      "source": "osm"
    },
    {
      "id": "a329368967",
      "nom": "Basin Street Station",
      "categorie": "attraction",
      "description": "",
      "prix": "",
      "duree": "",
      "mapsUrl": "https://maps.google.com/?q=29.9597539,-90.0707564",
      "lat": 29.9597539,
      "lng": -90.0707564,
      "source": "osm"
    },
    {
      "id": "a4726886294",
      "nom": "Marie Laveau's Tomb?",
      "categorie": "museum",
      "description": "",
      "prix": "",
      "duree": "",
      "mapsUrl": "https://maps.google.com/?q=29.9597852,-90.0708454",
      "lat": 29.9597852,
      "lng": -90.0708454,
      "source": "osm"
    },
    {
      "id": "a1175223387",
      "nom": "Creole Queen",
      "categorie": "attraction",
      "description": "",
      "prix": "",
      "duree": "",
      "mapsUrl": "https://maps.google.com/?q=29.9484045,-90.0619354",
      "lat": 29.9484045,
      "lng": -90.0619354,
      "source": "osm"
    },
    {
      "id": "a2486487251",
      "nom": "Steamboat Natchez",
      "categorie": "attraction",
      "description": "",
      "prix": "",
      "duree": "",
      "mapsUrl": "https://maps.google.com/?q=29.9549273,-90.0623927",
      "lat": 29.9549273,
      "lng": -90.0623927,
      "source": "osm"
    },
    {
      "id": "a4716946891",
      "nom": "Old Man River",
      "categorie": "artwork",
      "description": "",
      "prix": "",
      "duree": "",
      "mapsUrl": "https://maps.google.com/?q=29.9554575,-90.0626203",
      "lat": 29.9554575,
      "lng": -90.0626203,
      "source": "osm"
    },
    {
      "id": "a10920759951",
      "nom": "Riverboat City of New Orleans",
      "categorie": "attraction",
      "description": "",
      "prix": "",
      "duree": "",
      "mapsUrl": "https://maps.google.com/?q=29.9551858,-90.0622748",
      "lat": 29.9551858,
      "lng": -90.0622748,
      "source": "osm"
    },
    {
      "id": "a367133290",
      "nom": "Louisiana State Museum Library",
      "categorie": "museum",
      "description": "",
      "prix": "",
      "duree": "",
      "mapsUrl": "https://maps.google.com/?q=29.9577128,-90.0640374",
      "lat": 29.9577128,
      "lng": -90.0640374,
      "source": "osm"
    },
    {
      "id": "a329364483",
      "nom": "The Cabildo",
      "categorie": "museum",
      "description": "",
      "prix": "",
      "duree": "",
      "mapsUrl": "https://maps.google.com/?q=29.9576622,-90.0638894",
      "lat": 29.9576622,
      "lng": -90.0638894,
      "source": "osm"
    },
    {
      "id": "a4732443421",
      "nom": "Place de Henriette Delille",
      "categorie": "memorial",
      "description": "",
      "prix": "",
      "duree": "",
      "mapsUrl": "https://maps.google.com/?q=29.9583933,-90.0643492",
      "lat": 29.9583933,
      "lng": -90.0643492,
      "source": "osm"
    },
    {
      "id": "a4717366300",
      "nom": "Royal Carriages",
      "categorie": "attraction",
      "description": "",
      "prix": "",
      "duree": "",
      "mapsUrl": "https://maps.google.com/?q=29.9569295,-90.0627378",
      "lat": 29.9569295,
      "lng": -90.0627378,
      "source": "osm"
    },
    {
      "id": "a4720866070",
      "nom": "Sacred Heart of Jesus",
      "categorie": "artwork",
      "description": "",
      "prix": "",
      "duree": "",
      "mapsUrl": "https://maps.google.com/?q=29.9582322,-90.0641112",
      "lat": 29.9582322,
      "lng": -90.0641112,
      "source": "osm"
    },
    {
      "id": "a331257382",
      "nom": "Andrew Jackson",
      "categorie": "artwork",
      "description": "",
      "prix": "",
      "duree": "",
      "mapsUrl": "https://maps.google.com/?q=29.9574641,-90.0629497",
      "lat": 29.9574641,
      "lng": -90.0629497,
      "source": "osm"
    },
    {
      "id": "a27844554",
      "nom": "Jackson Square",
      "categorie": "attraction",
      "description": "",
      "prix": "",
      "duree": "",
      "mapsUrl": "https://maps.google.com/?q=29.957475,-90.06295",
      "lat": 29.957475,
      "lng": -90.06295,
      "source": "osm"
    },
    {
      "id": "a12755681809",
      "nom": "Transatlantic Slave Trade to Louisiana",
      "categorie": "memorial",
      "description": "",
      "prix": "",
      "duree": "",
      "mapsUrl": "https://maps.google.com/?q=29.9563615,-90.061964",
      "lat": 29.9563615,
      "lng": -90.061964,
      "source": "osm"
    },
    {
      "id": "a151385190",
      "nom": "French Quarter",
      "categorie": "attraction",
      "description": "",
      "prix": "",
      "duree": "",
      "mapsUrl": "https://maps.google.com/?q=29.9594926,-90.0655403",
      "lat": 29.9594926,
      "lng": -90.0655403,
      "source": "osm"
    },
    {
      "id": "a12755681822",
      "nom": "Execution of Jean Baptist Baudrau II",
      "categorie": "memorial",
      "description": "",
      "prix": "",
      "duree": "",
      "mapsUrl": "https://maps.google.com/?q=29.9564899,-90.0618493",
      "lat": 29.9564899,
      "lng": -90.0618493,
      "source": "osm"
    },
    {
      "id": "a478529697",
      "nom": "Oscar Dunn Park",
      "categorie": "memorial",
      "description": "",
      "prix": "",
      "duree": "",
      "mapsUrl": "https://maps.google.com/?q=29.9569383,-90.0621605",
      "lat": 29.9569383,
      "lng": -90.0621605,
      "source": "osm"
    },
    {
      "id": "a4716949798",
      "nom": "Moonwalk",
      "categorie": "memorial",
      "description": "",
      "prix": "",
      "duree": "",
      "mapsUrl": "https://maps.google.com/?q=29.9566452,-90.0617253",
      "lat": 29.9566452,
      "lng": -90.0617253,
      "source": "osm"
    },
    {
      "id": "a4732796339",
      "nom": "1850 House",
      "categorie": "museum",
      "description": "",
      "prix": "",
      "duree": "",
      "mapsUrl": "https://maps.google.com/?q=29.957951,-90.0624908",
      "lat": 29.957951,
      "lng": -90.0624908,
      "source": "osm"
    },
    {
      "id": "a358384523",
      "nom": "Margaret Statue",
      "categorie": "monument",
      "description": "",
      "prix": "",
      "duree": "",
      "mapsUrl": "https://maps.google.com/?q=29.9407079,-90.0721231",
      "lat": 29.9407079,
      "lng": -90.0721231,
      "source": "osm"
    },
    {
      "id": "a358384399",
      "nom": "Congo Square",
      "categorie": "attraction",
      "description": "",
      "prix": "",
      "duree": "",
      "mapsUrl": "https://maps.google.com/?q=29.9612536,-90.0686153",
      "lat": 29.9612536,
      "lng": -90.0686153,
      "source": "osm"
    },
    {
      "id": "a4752018127",
      "nom": "Galería de arte",
      "categorie": "gallery",
      "description": "",
      "prix": "",
      "duree": "",
      "mapsUrl": "https://maps.google.com/?q=29.9418393,-90.0653715",
      "lat": 29.9418393,
      "lng": -90.0653715,
      "source": "osm"
    },
    {
      "id": "a4727795702",
      "nom": "River Stones",
      "categorie": "artwork",
      "description": "",
      "prix": "",
      "duree": "",
      "mapsUrl": "https://maps.google.com/?q=29.9421499,-90.0647663",
      "lat": 29.9421499,
      "lng": -90.0647663,
      "source": "osm"
    },
    {
      "id": "a6559014588",
      "nom": "Louis Armstrong Park Entrance",
      "categorie": "attraction",
      "description": "",
      "prix": "",
      "duree": "",
      "mapsUrl": "https://maps.google.com/?q=29.9614351,-90.0677905",
      "lat": 29.9614351,
      "lng": -90.0677905,
      "source": "osm"
    },
    {
      "id": "a6561436487",
      "nom": "Chief Tootie",
      "categorie": "artwork",
      "description": "",
      "prix": "",
      "duree": "",
      "mapsUrl": "https://maps.google.com/?q=29.9615831,-90.0681885",
      "lat": 29.9615831,
      "lng": -90.0681885,
      "source": "osm"
    },
    {
      "id": "a6561444389",
      "nom": "Brass Band",
      "categorie": "artwork",
      "description": "",
      "prix": "",
      "duree": "",
      "mapsUrl": "https://maps.google.com/?q=29.9615492,-90.0679184",
      "lat": 29.9615492,
      "lng": -90.0679184,
      "source": "osm"
    },
    {
      "id": "a329382374",
      "nom": "New Orleans Historic Voodoo Museum",
      "categorie": "museum",
      "description": "",
      "prix": "",
      "duree": "",
      "mapsUrl": "https://maps.google.com/?q=29.959807,-90.0637862",
      "lat": 29.959807,
      "lng": -90.0637862,
      "source": "osm"
    },
    {
      "id": "a7431140968",
      "nom": "Madame John's Legacy",
      "categorie": "attraction",
      "description": "",
      "prix": "",
      "duree": "",
      "mapsUrl": "https://maps.google.com/?q=29.9593997,-90.0630775",
      "lat": 29.9593997,
      "lng": -90.0630775,
      "source": "osm"
    },
    {
      "id": "a9900939600",
      "nom": "Deurty Boys Gallery",
      "categorie": "gallery",
      "description": "",
      "prix": "",
      "duree": "",
      "mapsUrl": "https://maps.google.com/?q=29.9591476,-90.0624047",
      "lat": 29.9591476,
      "lng": -90.0624047,
      "source": "osm"
    },
    {
      "id": "a4436386192",
      "nom": "Esoterica Occult Goods",
      "categorie": "attraction",
      "description": "",
      "prix": "",
      "duree": "",
      "mapsUrl": "https://maps.google.com/?q=29.9589697,-90.0621368",
      "lat": 29.9589697,
      "lng": -90.0621368,
      "source": "osm"
    },
    {
      "id": "a6559071386",
      "nom": "Haunted Museum & Voodoo Pharmacy",
      "categorie": "museum",
      "description": "",
      "prix": "",
      "duree": "",
      "mapsUrl": "https://maps.google.com/?q=29.9617543,-90.0670686",
      "lat": 29.9617543,
      "lng": -90.0670686,
      "source": "osm"
    },
    {
      "id": "a4728501991",
      "nom": "Instrument Men Fountain",
      "categorie": "artwork",
      "description": "",
      "prix": "",
      "duree": "",
      "mapsUrl": "https://maps.google.com/?q=29.9581546,-90.0610743",
      "lat": 29.9581546,
      "lng": -90.0610743,
      "source": "osm"
    },
    {
      "id": "a6561444288",
      "nom": "Charles \"Buddy\" Bolden",
      "categorie": "artwork",
      "description": "",
      "prix": "",
      "duree": "",
      "mapsUrl": "https://maps.google.com/?q=29.9622599,-90.0682315",
      "lat": 29.9622599,
      "lng": -90.0682315,
      "source": "osm"
    },
    {
      "id": "a4728719192",
      "nom": "Jacques the Butcher",
      "categorie": "artwork",
      "description": "",
      "prix": "",
      "duree": "",
      "mapsUrl": "https://maps.google.com/?q=29.9582767,-90.0610534",
      "lat": 29.9582767,
      "lng": -90.0610534,
      "source": "osm"
    },
    {
      "id": "a6561444287",
      "nom": "French Opera",
      "categorie": "artwork",
      "description": "",
      "prix": "",
      "duree": "",
      "mapsUrl": "https://maps.google.com/?q=29.9622646,-90.0679387",
      "lat": 29.9622646,
      "lng": -90.0679387,
      "source": "osm"
    },
    {
      "id": "a606019028",
      "nom": "Louis Armstrong Statue",
      "categorie": "artwork",
      "description": "",
      "prix": "",
      "duree": "",
      "mapsUrl": "https://maps.google.com/?q=29.9625017,-90.0685593",
      "lat": 29.9625017,
      "lng": -90.0685593,
      "source": "osm"
    },
    {
      "id": "a6561446286",
      "nom": "Sidney Bechet",
      "categorie": "artwork",
      "description": "",
      "prix": "",
      "duree": "",
      "mapsUrl": "https://maps.google.com/?q=29.962578,-90.0688876",
      "lat": 29.962578,
      "lng": -90.0688876,
      "source": "osm"
    }
  ],
  "villeNonMusulmane": true,
  "osmEnriched": true,
  "osmEnrichedAt": "2026-06-30",
  "description_en": "New Orleans may not be a Muslim-majority destination, but it welcomes Muslim travelers with real halal options. You'll find 3 halal restaurants and several mosques nearby, plus real-time prayer times and the Qibla direction — everything to explore New Orleans, the United States, with peace of mind.",
  "metaDescription_en": "Halal guide to New Orleans: 3+ halal restaurants, prayer times and tips for Muslim travelers. Halal Trust Score 3.2/5.",
  "nom_en": "New Orleans"
}