{
 "slug": "peshawar",
 "nom": "Peshawar",
 "pays": "Pakistan",
 "pays_slug": "pakistan",
 "continent": "Asie",
 "region": "Pakistan",
 "coordonnees": {
  "lat": 34.0151,
  "lng": 71.5249
 },
 "codeISO": "",
 "score_halal": 4.5,
 "halalScore": 8.9,
 "description": "Ancienne cité de la Route de la soie aux portes du Khyber, Peshawar séduit par son bazar historique et sa mosquée Mahabat Khan moghole.",
 "image": "https://upload.wikimedia.org/wikipedia/commons/thumb/b/ba/Peshawar%27s_old_buses.jpg/1920px-Peshawar%27s_old_buses.jpg",
 "image_hero": "https://upload.wikimedia.org/wikipedia/commons/thumb/b/ba/Peshawar%27s_old_buses.jpg/1920px-Peshawar%27s_old_buses.jpg",
 "metaDescription": "Ancienne cité de la Route de la soie aux portes du Khyber, Peshawar séduit par son bazar historique et sa mosquée Mahabat Khan moghole.",
 "statistiques": {
  "restaurants_halal": 0,
  "mosquees": 39,
  "hotels": 67
 },
 "infoPratique": {
  "transport": "Accessible par avion / transports locaux.",
  "meilleureEpoque": "Printemps et automne."
 },
 "tags": [
  "halal"
 ],
 "restaurants": [],
 "hotels": [
  {
   "nom": "Grand Hotel",
   "categorie": "Hôtel",
   "priceRange": "€€",
   "mapsUrl": "https://maps.google.com/?q=34.0072046,71.508882",
   "lat": 34.0072046,
   "lng": 71.508882,
   "halalFriendly": false,
   "bookingUrl": "https://maps.google.com/?q=34.0072046,71.508882",
   "source": "osm"
  },
  {
   "nom": "Shiraz Arena",
   "categorie": "Hôtel",
   "priceRange": "€€",
   "mapsUrl": "https://maps.google.com/?q=34.0009367,71.5440875",
   "lat": 34.0009367,
   "lng": 71.5440875,
   "halalFriendly": false,
   "bookingUrl": "https://maps.google.com/?q=34.0009367,71.5440875",
   "source": "osm"
  },
  {
   "nom": "Chitral today",
   "categorie": "Hôtel",
   "priceRange": "€€",
   "mapsUrl": "https://maps.google.com/?q=33.9969832,71.5409195",
   "lat": 33.9969832,
   "lng": 71.5409195,
   "halalFriendly": false,
   "bookingUrl": "https://maps.google.com/?q=33.9969832,71.5409195",
   "source": "osm"
  },
  {
   "nom": "Executive lodges",
   "categorie": "Appartement",
   "priceRange": "€€",
   "mapsUrl": "https://maps.google.com/?q=34.0390185,71.5200634",
   "lat": 34.0390185,
   "lng": 71.5200634,
   "halalFriendly": false,
   "bookingUrl": "https://maps.google.com/?q=34.0390185,71.5200634",
   "source": "osm"
  },
  {
   "nom": "پشاور پریس کلب",
   "categorie": "Maison d'hôtes",
   "priceRange": "€€",
   "mapsUrl": "https://maps.google.com/?q=34.0039715,71.551132",
   "lat": 34.0039715,
   "lng": 71.551132,
   "halalFriendly": false,
   "bookingUrl": "https://maps.google.com/?q=34.0039715,71.551132",
   "source": "osm"
  },
  {
   "nom": "خلیل کامریڈ ہاسٹل راحت آباد",
   "categorie": "Auberge",
   "priceRange": "€€",
   "mapsUrl": "https://maps.google.com/?q=34.0157457,71.4953401",
   "lat": 34.0157457,
   "lng": 71.4953401,
   "halalFriendly": false,
   "bookingUrl": "https://maps.google.com/?q=34.0157457,71.4953401",
   "source": "osm"
  },
  {
   "nom": "ذوالفقار علی باباخیل ہاؤس",
   "categorie": "Auberge",
   "priceRange": "€€",
   "mapsUrl": "https://maps.google.com/?q=34.016644,71.4943435",
   "lat": 34.016644,
   "lng": 71.4943435,
   "halalFriendly": false,
   "bookingUrl": "https://maps.google.com/?q=34.016644,71.4943435",
   "source": "osm"
  },
  {
   "nom": "Revoli Guest House",
   "categorie": "Maison d'hôtes",
   "priceRange": "€€",
   "mapsUrl": "https://maps.google.com/?q=33.9989929,71.5001363",
   "lat": 33.9989929,
   "lng": 71.5001363,
   "halalFriendly": false,
   "bookingUrl": "https://maps.google.com/?q=33.9989929,71.5001363",
   "source": "osm"
  },
  {
   "nom": "Inter Con Guest House",
   "categorie": "Maison d'hôtes",
   "priceRange": "€€",
   "mapsUrl": "https://maps.google.com/?q=33.9973118,71.5012842",
   "lat": 33.9973118,
   "lng": 71.5012842,
   "halalFriendly": false,
   "bookingUrl": "https://maps.google.com/?q=33.9973118,71.5012842",
   "source": "osm"
  },
  {
   "nom": "Cant Hotel",
   "categorie": "Hôtel",
   "priceRange": "€€",
   "mapsUrl": "https://maps.google.com/?q=34.0140751,71.5567895",
   "lat": 34.0140751,
   "lng": 71.5567895,
   "halalFriendly": false,
   "bookingUrl": "https://maps.google.com/?q=34.0140751,71.5567895",
   "source": "osm"
  },
  {
   "nom": "Golf Club (Home)",
   "categorie": "Maison d'hôtes",
   "priceRange": "€€",
   "mapsUrl": "https://maps.google.com/?q=34.0197471,71.5564629",
   "lat": 34.0197471,
   "lng": 71.5564629,
   "halalFriendly": false,
   "bookingUrl": "https://maps.google.com/?q=34.0197471,71.5564629",
   "source": "osm"
  },
  {
   "nom": "Officers Garden Colony",
   "categorie": "Appartement",
   "priceRange": "€€",
   "mapsUrl": "https://maps.google.com/?q=34.0415402,71.5301972",
   "lat": 34.0415402,
   "lng": 71.5301972,
   "halalFriendly": false,
   "bookingUrl": "https://maps.google.com/?q=34.0415402,71.5301972",
   "source": "osm"
  },
  {
   "nom": "Sanan’s House",
   "categorie": "Appartement",
   "priceRange": "€€",
   "mapsUrl": "https://maps.google.com/?q=34.0214268,71.557341",
   "lat": 34.0214268,
   "lng": 71.557341,
   "halalFriendly": false,
   "bookingUrl": "https://maps.google.com/?q=34.0214268,71.557341",
   "source": "osm"
  },
  {
   "nom": "Northern Villas",
   "categorie": "Appartement",
   "priceRange": "€€",
   "mapsUrl": "https://maps.google.com/?q=34.0433247,71.5256547",
   "lat": 34.0433247,
   "lng": 71.5256547,
   "halalFriendly": false,
   "bookingUrl": "https://maps.google.com/?q=34.0433247,71.5256547",
   "source": "osm"
  },
  {
   "nom": "Wapda Guest House",
   "categorie": "Maison d'hôtes",
   "priceRange": "€€",
   "mapsUrl": "https://maps.google.com/?q=34.025034,71.5580231",
   "lat": 34.025034,
   "lng": 71.5580231,
   "halalFriendly": false,
   "bookingUrl": "https://maps.google.com/?q=34.025034,71.5580231",
   "source": "osm"
  },
  {
   "nom": "Peshawar Heights",
   "categorie": "Appartement",
   "priceRange": "€€",
   "mapsUrl": "https://maps.google.com/?q=33.9900284,71.5054169",
   "lat": 33.9900284,
   "lng": 71.5054169,
   "halalFriendly": false,
   "bookingUrl": "https://maps.google.com/?q=33.9900284,71.5054169",
   "source": "osm"
  },
  {
   "nom": "Blue Palace",
   "categorie": "Hôtel",
   "priceRange": "€€",
   "mapsUrl": "https://maps.google.com/?q=33.9902134,71.5021855",
   "lat": 33.9902134,
   "lng": 71.5021855,
   "halalFriendly": false,
   "bookingUrl": "https://maps.google.com/?q=33.9902134,71.5021855",
   "source": "osm"
  },
  {
   "nom": "Benazir Girls Hostel",
   "categorie": "Auberge",
   "priceRange": "€€",
   "mapsUrl": "https://maps.google.com/?q=34.0101338,71.4861923",
   "lat": 34.0101338,
   "lng": 71.4861923,
   "halalFriendly": false,
   "bookingUrl": "https://maps.google.com/?q=34.0101338,71.4861923",
   "source": "osm"
  },
  {
   "nom": "Serena Hotel Peshawar",
   "categorie": "Hôtel",
   "priceRange": "€€",
   "mapsUrl": "https://maps.google.com/?q=34.0159982,71.5640561",
   "lat": 34.0159982,
   "lng": 71.5640561,
   "halalFriendly": false,
   "bookingUrl": "https://maps.google.com/?q=34.0159982,71.5640561",
   "source": "osm"
  },
  {
   "nom": "Rose Hotel",
   "categorie": "Hôtel",
   "priceRange": "€€",
   "mapsUrl": "https://maps.google.com/?q=34.0085611,71.563989",
   "lat": 34.0085611,
   "lng": 71.563989,
   "halalFriendly": false,
   "bookingUrl": "https://maps.google.com/?q=34.0085611,71.563989",
   "source": "osm"
  },
  {
   "nom": "Tatara Girls Hostel",
   "categorie": "Auberge",
   "priceRange": "€€",
   "mapsUrl": "https://maps.google.com/?q=34.0121536,71.4850616",
   "lat": 34.0121536,
   "lng": 71.4850616,
   "halalFriendly": false,
   "bookingUrl": "https://maps.google.com/?q=34.0121536,71.4850616",
   "source": "osm"
  },
  {
   "nom": "Marwat Hostel",
   "categorie": "Auberge",
   "priceRange": "€€",
   "mapsUrl": "https://maps.google.com/?q=33.9891348,71.5500864",
   "lat": 33.9891348,
   "lng": 71.5500864,
   "halalFriendly": false,
   "bookingUrl": "https://maps.google.com/?q=33.9891348,71.5500864",
   "source": "osm"
  },
  {
   "nom": "Ansari Hostel",
   "categorie": "Auberge",
   "priceRange": "€€",
   "mapsUrl": "https://maps.google.com/?q=34.0247056,71.4863102",
   "lat": 34.0247056,
   "lng": 71.4863102,
   "halalFriendly": false,
   "bookingUrl": "https://maps.google.com/?q=34.0247056,71.4863102",
   "source": "osm"
  },
  {
   "nom": "KMC Girls Hostel",
   "categorie": "Auberge",
   "priceRange": "€€",
   "mapsUrl": "https://maps.google.com/?q=34.0107803,71.4845352",
   "lat": 34.0107803,
   "lng": 71.4845352,
   "halalFriendly": false,
   "bookingUrl": "https://maps.google.com/?q=34.0107803,71.4845352",
   "source": "osm"
  },
  {
   "nom": "Mazeban Hotel",
   "categorie": "Hôtel",
   "priceRange": "€€",
   "mapsUrl": "https://maps.google.com/?q=34.0071082,71.5646213",
   "lat": 34.0071082,
   "lng": 71.5646213,
   "halalFriendly": false,
   "bookingUrl": "https://maps.google.com/?q=34.0071082,71.5646213",
   "source": "osm"
  },
  {
   "nom": "Old Tribal Girls Hostel of Jinnah College For Women",
   "categorie": "Hôtel",
   "priceRange": "€€",
   "mapsUrl": "https://maps.google.com/?q=34.009825,71.4835245",
   "lat": 34.009825,
   "lng": 71.4835245,
   "halalFriendly": false,
   "bookingUrl": "https://maps.google.com/?q=34.009825,71.4835245",
   "source": "osm"
  },
  {
   "nom": "UET Girls Hostel",
   "categorie": "Auberge",
   "priceRange": "€€",
   "mapsUrl": "https://maps.google.com/?q=34.0097318,71.4818276",
   "lat": 34.0097318,
   "lng": 71.4818276,
   "halalFriendly": false,
   "bookingUrl": "https://maps.google.com/?q=34.0097318,71.4818276",
   "source": "osm"
  },
  {
   "nom": "Emaraat Hotel",
   "categorie": "Hôtel",
   "priceRange": "€€",
   "mapsUrl": "https://maps.google.com/?q=34.0042828,71.5665804",
   "lat": 34.0042828,
   "lng": 71.5665804,
   "halalFriendly": false,
   "bookingUrl": "https://maps.google.com/?q=34.0042828,71.5665804",
   "source": "osm"
  },
  {
   "nom": "Al-Ibadat Hotel",
   "categorie": "Hôtel",
   "priceRange": "€€",
   "mapsUrl": "https://maps.google.com/?q=34.00447,71.5668089",
   "lat": 34.00447,
   "lng": 71.5668089,
   "halalFriendly": false,
   "bookingUrl": "https://maps.google.com/?q=34.00447,71.5668089",
   "source": "osm"
  },
  {
   "nom": "Cenna Hall KMC",
   "categorie": "Auberge",
   "priceRange": "€€",
   "mapsUrl": "https://maps.google.com/?q=34.0055966,71.4823568",
   "lat": 34.0055966,
   "lng": 71.4823568,
   "halalFriendly": false,
   "bookingUrl": "https://maps.google.com/?q=34.0055966,71.4823568",
   "source": "osm"
  },
  {
   "nom": "Park Plaza Hotels",
   "categorie": "Hôtel",
   "priceRange": "€€",
   "mapsUrl": "https://maps.google.com/?q=34.0195643,71.5692858",
   "lat": 34.0195643,
   "lng": 71.5692858,
   "halalFriendly": false,
   "bookingUrl": "https://maps.google.com/?q=34.0195643,71.5692858",
   "source": "osm"
  },
  {
   "nom": "Hostel Block D",
   "categorie": "Auberge",
   "priceRange": "€€",
   "mapsUrl": "https://maps.google.com/?q=34.0044096,71.4814049",
   "lat": 34.0044096,
   "lng": 71.4814049,
   "halalFriendly": false,
   "bookingUrl": "https://maps.google.com/?q=34.0044096,71.4814049",
   "source": "osm"
  },
  {
   "nom": "Qasim Hall KMC",
   "categorie": "Auberge",
   "priceRange": "€€",
   "mapsUrl": "https://maps.google.com/?q=34.005413,71.4810603",
   "lat": 34.005413,
   "lng": 71.4810603,
   "halalFriendly": false,
   "bookingUrl": "https://maps.google.com/?q=34.005413,71.4810603",
   "source": "osm"
  },
  {
   "nom": "Paramedics Hostel",
   "categorie": "Auberge",
   "priceRange": "€€",
   "mapsUrl": "https://maps.google.com/?q=33.997213,71.4847827",
   "lat": 33.997213,
   "lng": 71.4847827,
   "halalFriendly": false,
   "bookingUrl": "https://maps.google.com/?q=33.997213,71.4847827",
   "source": "osm"
  },
  {
   "nom": "KTH New Doctor Hostel",
   "categorie": "Auberge",
   "priceRange": "€€",
   "mapsUrl": "https://maps.google.com/?q=33.9966595,71.4847064",
   "lat": 33.9966595,
   "lng": 71.4847064,
   "halalFriendly": false,
   "bookingUrl": "https://maps.google.com/?q=33.9966595,71.4847064",
   "source": "osm"
  },
  {
   "nom": "Haji Sahib Turangzai Hostel",
   "categorie": "Auberge",
   "priceRange": "€€",
   "mapsUrl": "https://maps.google.com/?q=34.0034127,71.4810442",
   "lat": 34.0034127,
   "lng": 71.4810442,
   "halalFriendly": false,
   "bookingUrl": "https://maps.google.com/?q=34.0034127,71.4810442",
   "source": "osm"
  },
  {
   "nom": "Razi Hall KMC",
   "categorie": "Auberge",
   "priceRange": "€€",
   "mapsUrl": "https://maps.google.com/?q=34.0053952,71.4800742",
   "lat": 34.0053952,
   "lng": 71.4800742,
   "halalFriendly": false,
   "bookingUrl": "https://maps.google.com/?q=34.0053952,71.4800742",
   "source": "osm"
  },
  {
   "nom": "KTH Nursing Hostel",
   "categorie": "Auberge",
   "priceRange": "€€",
   "mapsUrl": "https://maps.google.com/?q=33.9966595,71.48361",
   "lat": 33.9966595,
   "lng": 71.48361,
   "halalFriendly": false,
   "bookingUrl": "https://maps.google.com/?q=33.9966595,71.48361",
   "source": "osm"
  },
  {
   "nom": "Tribal Children Hostel",
   "categorie": "Auberge",
   "priceRange": "€€",
   "mapsUrl": "https://maps.google.com/?q=34.0033924,71.4801509",
   "lat": 34.0033924,
   "lng": 71.4801509,
   "halalFriendly": false,
   "bookingUrl": "https://maps.google.com/?q=34.0033924,71.4801509",
   "source": "osm"
  },
  {
   "nom": "Nishtar Hostel",
   "categorie": "Auberge",
   "priceRange": "€€",
   "mapsUrl": "https://maps.google.com/?q=34.0044777,71.4797053",
   "lat": 34.0044777,
   "lng": 71.4797053,
   "halalFriendly": false,
   "bookingUrl": "https://maps.google.com/?q=34.0044777,71.4797053",
   "source": "osm"
  },
  {
   "nom": "Nursing Hostel",
   "categorie": "Auberge",
   "priceRange": "€€",
   "mapsUrl": "https://maps.google.com/?q=33.996151,71.483838",
   "lat": 33.996151,
   "lng": 71.483838,
   "halalFriendly": false,
   "bookingUrl": "https://maps.google.com/?q=33.996151,71.483838",
   "source": "osm"
  },
  {
   "nom": "Hostel 3",
   "categorie": "Auberge",
   "priceRange": "€€",
   "mapsUrl": "https://maps.google.com/?q=34.0041432,71.4797301",
   "lat": 34.0041432,
   "lng": 71.4797301,
   "halalFriendly": false,
   "bookingUrl": "https://maps.google.com/?q=34.0041432,71.4797301",
   "source": "osm"
  },
  {
   "nom": "Hidayat Hotel",
   "categorie": "Hôtel",
   "priceRange": "€€",
   "mapsUrl": "https://maps.google.com/?q=34.0160404,71.5734886",
   "lat": 34.0160404,
   "lng": 71.5734886,
   "halalFriendly": false,
   "bookingUrl": "https://maps.google.com/?q=34.0160404,71.5734886",
   "source": "osm"
  },
  {
   "nom": "Tribal Engineering Hostel",
   "categorie": "Auberge",
   "priceRange": "€€",
   "mapsUrl": "https://maps.google.com/?q=34.0052487,71.4777723",
   "lat": 34.0052487,
   "lng": 71.4777723,
   "halalFriendly": false,
   "bookingUrl": "https://maps.google.com/?q=34.0052487,71.4777723",
   "source": "osm"
  },
  {
   "nom": "Rahim Shah Hostel",
   "categorie": "Auberge",
   "priceRange": "€€",
   "mapsUrl": "https://maps.google.com/?q=34.0030136,71.4783233",
   "lat": 34.0030136,
   "lng": 71.4783233,
   "halalFriendly": false,
   "bookingUrl": "https://maps.google.com/?q=34.0030136,71.4783233",
   "source": "osm"
  },
  {
   "nom": "Usmania Hostel",
   "categorie": "Auberge",
   "priceRange": "€€",
   "mapsUrl": "https://maps.google.com/?q=34.0030699,71.4754855",
   "lat": 34.0030699,
   "lng": 71.4754855,
   "halalFriendly": false,
   "bookingUrl": "https://maps.google.com/?q=34.0030699,71.4754855",
   "source": "osm"
  },
  {
   "nom": "ہاسٹل لین",
   "categorie": "Auberge",
   "priceRange": "€€",
   "mapsUrl": "https://maps.google.com/?q=33.995696,71.4782862",
   "lat": 33.995696,
   "lng": 71.4782862,
   "halalFriendly": false,
   "bookingUrl": "https://maps.google.com/?q=33.995696,71.4782862",
   "source": "osm"
  },
  {
   "nom": "Cricket Stadium Hostal",
   "categorie": "Auberge",
   "priceRange": "€€",
   "mapsUrl": "https://maps.google.com/?q=34.0210869,71.576999",
   "lat": 34.0210869,
   "lng": 71.576999,
   "halalFriendly": false,
   "bookingUrl": "https://maps.google.com/?q=34.0210869,71.576999",
   "source": "osm"
  },
  {
   "nom": "TOCHI BOYS HOSTEL",
   "categorie": "Auberge",
   "priceRange": "€€",
   "mapsUrl": "https://maps.google.com/?q=33.993047,71.477413",
   "lat": 33.993047,
   "lng": 71.477413,
   "halalFriendly": false,
   "bookingUrl": "https://maps.google.com/?q=33.993047,71.477413",
   "source": "osm"
  },
  {
   "nom": "ZAID HOSTEL",
   "categorie": "Auberge",
   "priceRange": "€€",
   "mapsUrl": "https://maps.google.com/?q=33.9927726,71.4771127",
   "lat": 33.9927726,
   "lng": 71.4771127,
   "halalFriendly": false,
   "bookingUrl": "https://maps.google.com/?q=33.9927726,71.4771127",
   "source": "osm"
  },
  {
   "nom": "HAMAD BOYS HOSTEL & SHOPS",
   "categorie": "Auberge",
   "priceRange": "€€",
   "mapsUrl": "https://maps.google.com/?q=33.9925736,71.4770745",
   "lat": 33.9925736,
   "lng": 71.4770745,
   "halalFriendly": false,
   "bookingUrl": "https://maps.google.com/?q=33.9925736,71.4770745",
   "source": "osm"
  },
  {
   "nom": "Karachi Hotel",
   "categorie": "Hôtel",
   "priceRange": "€€",
   "mapsUrl": "https://maps.google.com/?q=34.0147554,71.5802331",
   "lat": 34.0147554,
   "lng": 71.5802331,
   "halalFriendly": false,
   "bookingUrl": "https://maps.google.com/?q=34.0147554,71.5802331",
   "source": "osm"
  },
  {
   "nom": "Amin Hotel Peshawar",
   "categorie": "Hôtel",
   "priceRange": "€€",
   "mapsUrl": "https://maps.google.com/?q=34.0155327,71.5819412",
   "lat": 34.0155327,
   "lng": 71.5819412,
   "halalFriendly": false,
   "bookingUrl": "https://maps.google.com/?q=34.0155327,71.5819412",
   "source": "osm"
  },
  {
   "nom": "Shawal Hotel",
   "categorie": "Hôtel",
   "priceRange": "€€",
   "mapsUrl": "https://maps.google.com/?q=34.0148592,71.5821511",
   "lat": 34.0148592,
   "lng": 71.5821511,
   "halalFriendly": false,
   "bookingUrl": "https://maps.google.com/?q=34.0148592,71.5821511",
   "source": "osm"
  },
  {
   "nom": "Umar Farooq Hostel",
   "categorie": "Auberge",
   "priceRange": "€€",
   "mapsUrl": "https://maps.google.com/?q=33.9606352,71.5279887",
   "lat": 33.9606352,
   "lng": 71.5279887,
   "halalFriendly": false,
   "bookingUrl": "https://maps.google.com/?q=33.9606352,71.5279887",
   "source": "osm"
  },
  {
   "nom": "Abdul Hostel",
   "categorie": "Auberge",
   "priceRange": "€€",
   "mapsUrl": "https://maps.google.com/?q=33.9603447,71.5278316",
   "lat": 33.9603447,
   "lng": 71.5278316,
   "halalFriendly": false,
   "bookingUrl": "https://maps.google.com/?q=33.9603447,71.5278316",
   "source": "osm"
  },
  {
   "nom": "Hussain Hostel",
   "categorie": "Auberge",
   "priceRange": "€€",
   "mapsUrl": "https://maps.google.com/?q=34.034918,71.5874124",
   "lat": 34.034918,
   "lng": 71.5874124,
   "halalFriendly": false,
   "bookingUrl": "https://maps.google.com/?q=34.034918,71.5874124",
   "source": "osm"
  },
  {
   "nom": "Al-Mansoor",
   "categorie": "Hôtel",
   "priceRange": "€€",
   "mapsUrl": "https://maps.google.com/?q=34.0160147,71.5920212",
   "lat": 34.0160147,
   "lng": 71.5920212,
   "halalFriendly": false,
   "bookingUrl": "https://maps.google.com/?q=34.0160147,71.5920212",
   "source": "osm"
  },
  {
   "nom": "h",
   "categorie": "Appartement",
   "priceRange": "€€",
   "mapsUrl": "https://maps.google.com/?q=34.0335982,71.5893145",
   "lat": 34.0335982,
   "lng": 71.5893145,
   "halalFriendly": false,
   "bookingUrl": "https://maps.google.com/?q=34.0335982,71.5893145",
   "source": "osm"
  },
  {
   "nom": "hotel",
   "categorie": "Hôtel",
   "priceRange": "€€",
   "mapsUrl": "https://maps.google.com/?q=34.0162355,71.5950854",
   "lat": 34.0162355,
   "lng": 71.5950854,
   "halalFriendly": false,
   "bookingUrl": "https://maps.google.com/?q=34.0162355,71.5950854",
   "source": "osm"
  },
  {
   "nom": "Balahisar",
   "categorie": "Hôtel",
   "priceRange": "€€",
   "mapsUrl": "https://maps.google.com/?q=34.014797,71.5990183",
   "lat": 34.014797,
   "lng": 71.5990183,
   "halalFriendly": false,
   "bookingUrl": "https://maps.google.com/?q=34.014797,71.5990183",
   "source": "osm"
  },
  {
   "nom": "CityStar",
   "categorie": "Hôtel",
   "priceRange": "€€",
   "mapsUrl": "https://maps.google.com/?q=34.0155672,71.5998225",
   "lat": 34.0155672,
   "lng": 71.5998225,
   "halalFriendly": false,
   "bookingUrl": "https://maps.google.com/?q=34.0155672,71.5998225",
   "source": "osm"
  },
  {
   "nom": "FoodCourt",
   "categorie": "Hôtel",
   "priceRange": "€€",
   "mapsUrl": "https://maps.google.com/?q=34.0154762,71.5998354",
   "lat": 34.0154762,
   "lng": 71.5998354,
   "halalFriendly": false,
   "bookingUrl": "https://maps.google.com/?q=34.0154762,71.5998354",
   "source": "osm"
  },
  {
   "nom": "Marhaba",
   "categorie": "Hôtel",
   "priceRange": "€€",
   "mapsUrl": "https://maps.google.com/?q=34.0155985,71.5999932",
   "lat": 34.0155985,
   "lng": 71.5999932,
   "halalFriendly": false,
   "bookingUrl": "https://maps.google.com/?q=34.0155985,71.5999932",
   "source": "osm"
  },
  {
   "nom": "Doctor's Hostel",
   "categorie": "Auberge",
   "priceRange": "€€",
   "mapsUrl": "https://maps.google.com/?q=33.9943652,71.4520619",
   "lat": 33.9943652,
   "lng": 71.4520619,
   "halalFriendly": false,
   "bookingUrl": "https://maps.google.com/?q=33.9943652,71.4520619",
   "source": "osm"
  },
  {
   "nom": "Phase 4, Street 2.1",
   "categorie": "Auberge",
   "priceRange": "€€",
   "mapsUrl": "https://maps.google.com/?q=33.9901171,71.447514",
   "lat": 33.9901171,
   "lng": 71.447514,
   "halalFriendly": false,
   "bookingUrl": "https://maps.google.com/?q=33.9901171,71.447514",
   "source": "osm"
  },
  {
   "nom": "Youth Hostel",
   "categorie": "Auberge",
   "priceRange": "€€",
   "mapsUrl": "https://maps.google.com/?q=33.9915363,71.4387443",
   "lat": 33.9915363,
   "lng": 71.4387443,
   "halalFriendly": false,
   "bookingUrl": "https://maps.google.com/?q=33.9915363,71.4387443",
   "source": "osm"
  }
 ],
 "mosqueesPrincipales": [
  {
   "nom": "Tehkal Juma'at",
   "lat": 34.0088032,
   "lng": 71.5188688,
   "coordonnees": {
    "lat": 34.0088032,
    "lng": 71.5188688
   },
   "mapsUrl": "https://maps.google.com/?q=34.0088032,71.5188688",
   "source": "osm"
  },
  {
   "nom": "Defence",
   "lat": 34.0077755,
   "lng": 71.5349906,
   "coordonnees": {
    "lat": 34.0077755,
    "lng": 71.5349906
   },
   "mapsUrl": "https://maps.google.com/?q=34.0077755,71.5349906",
   "source": "osm"
  },
  {
   "nom": "Madni Masjid",
   "lat": 34.0055244,
   "lng": 71.5085767,
   "coordonnees": {
    "lat": 34.0055244,
    "lng": 71.5085767
   },
   "mapsUrl": "https://maps.google.com/?q=34.0055244,71.5085767",
   "source": "osm"
  },
  {
   "nom": "Abu Bakar",
   "lat": 34.0230342,
   "lng": 71.5480637,
   "coordonnees": {
    "lat": 34.0230342,
    "lng": 71.5480637
   },
   "mapsUrl": "https://maps.google.com/?q=34.0230342,71.5480637",
   "source": "osm"
  },
  {
   "nom": "Takhto Jumaat al-Rahman",
   "lat": 33.997048,
   "lng": 71.5376543,
   "coordonnees": {
    "lat": 33.997048,
    "lng": 71.5376543
   },
   "mapsUrl": "https://maps.google.com/?q=33.997048,71.5376543",
   "source": "osm"
  },
  {
   "nom": "مومین",
   "lat": 33.9952365,
   "lng": 71.5339528,
   "coordonnees": {
    "lat": 33.9952365,
    "lng": 71.5339528
   },
   "mapsUrl": "https://maps.google.com/?q=33.9952365,71.5339528",
   "source": "osm"
  },
  {
   "nom": "Quba",
   "lat": 33.9944065,
   "lng": 71.540862,
   "coordonnees": {
    "lat": 33.9944065,
    "lng": 71.540862
   },
   "mapsUrl": "https://maps.google.com/?q=33.9944065,71.540862",
   "source": "osm"
  },
  {
   "nom": "Ghosia Masjid",
   "lat": 33.9925471,
   "lng": 71.537748,
   "coordonnees": {
    "lat": 33.9925471,
    "lng": 71.537748
   },
   "adresse": "Gulberg # 1",
   "mapsUrl": "https://maps.google.com/?q=33.9925471,71.537748",
   "source": "osm"
  },
  {
   "nom": "Tableeghi Markaz",
   "lat": 34.023036,
   "lng": 71.5616021,
   "coordonnees": {
    "lat": 34.023036,
    "lng": 71.5616021
   },
   "mapsUrl": "https://maps.google.com/?q=34.023036,71.5616021",
   "source": "osm"
  },
  {
   "nom": "Talaab Wali",
   "lat": 34.0030908,
   "lng": 71.5613741,
   "coordonnees": {
    "lat": 34.0030908,
    "lng": 71.5613741
   },
   "mapsUrl": "https://maps.google.com/?q=34.0030908,71.5613741",
   "source": "osm"
  },
  {
   "nom": "Dar Qurra",
   "lat": 34.0050431,
   "lng": 71.5626221,
   "coordonnees": {
    "lat": 34.0050431,
    "lng": 71.5626221
   },
   "mapsUrl": "https://maps.google.com/?q=34.0050431,71.5626221",
   "source": "osm"
  },
  {
   "nom": "مسجد بلال",
   "lat": 33.9998013,
   "lng": 71.5600769,
   "coordonnees": {
    "lat": 33.9998013,
    "lng": 71.5600769
   },
   "mapsUrl": "https://maps.google.com/?q=33.9998013,71.5600769",
   "source": "osm"
  },
  {
   "nom": "Mir Ahmad Shah",
   "lat": 33.9992992,
   "lng": 71.5610547,
   "coordonnees": {
    "lat": 33.9992992,
    "lng": 71.5610547
   },
   "mapsUrl": "https://maps.google.com/?q=33.9992992,71.5610547",
   "source": "osm"
  },
  {
   "nom": "Madni",
   "lat": 34.0053049,
   "lng": 71.5664816,
   "coordonnees": {
    "lat": 34.0053049,
    "lng": 71.5664816
   },
   "mapsUrl": "https://maps.google.com/?q=34.0053049,71.5664816",
   "source": "osm"
  },
  {
   "nom": "Muhammadi",
   "lat": 34.0012992,
   "lng": 71.5648076,
   "coordonnees": {
    "lat": 34.0012992,
    "lng": 71.5648076
   },
   "mapsUrl": "https://maps.google.com/?q=34.0012992,71.5648076",
   "source": "osm"
  },
  {
   "nom": "Shrine of Pir Iman Shah",
   "lat": 33.9998075,
   "lng": 71.5640155,
   "coordonnees": {
    "lat": 33.9998075,
    "lng": 71.5640155
   },
   "mapsUrl": "https://maps.google.com/?q=33.9998075,71.5640155",
   "source": "osm"
  },
  {
   "nom": "Masjid Firdos",
   "lat": 34.0100565,
   "lng": 71.4820778,
   "coordonnees": {
    "lat": 34.0100565,
    "lng": 71.4820778
   },
   "adresse": "Behind UET Girls Hostel, پشاور",
   "mapsUrl": "https://maps.google.com/?q=34.0100565,71.4820778",
   "source": "osm"
  },
  {
   "nom": "Kashmiri",
   "lat": 34.0038063,
   "lng": 71.56663,
   "coordonnees": {
    "lat": 34.0038063,
    "lng": 71.56663
   },
   "mapsUrl": "https://maps.google.com/?q=34.0038063,71.56663",
   "source": "osm"
  },
  {
   "nom": "Sethi Mir Ahmad",
   "lat": 34.0047351,
   "lng": 71.5672635,
   "coordonnees": {
    "lat": 34.0047351,
    "lng": 71.5672635
   },
   "mapsUrl": "https://maps.google.com/?q=34.0047351,71.5672635",
   "source": "osm"
  },
  {
   "nom": "Jamia Masjid Hanafia",
   "lat": 34.0317284,
   "lng": 71.5655718,
   "coordonnees": {
    "lat": 34.0317284,
    "lng": 71.5655718
   },
   "mapsUrl": "https://maps.google.com/?q=34.0317284,71.5655718",
   "source": "osm"
  },
  {
   "nom": "Yaseen",
   "lat": 33.9788422,
   "lng": 71.5372229,
   "coordonnees": {
    "lat": 33.9788422,
    "lng": 71.5372229
   },
   "mapsUrl": "https://maps.google.com/?q=33.9788422,71.5372229",
   "source": "osm"
  },
  {
   "nom": "Shrine of Shah Bilor",
   "lat": 34.0068159,
   "lng": 71.5694043,
   "coordonnees": {
    "lat": 34.0068159,
    "lng": 71.5694043
   },
   "mapsUrl": "https://maps.google.com/?q=34.0068159,71.5694043",
   "source": "osm"
  },
  {
   "nom": "Zia-ul Islam",
   "lat": 33.9910365,
   "lng": 71.4892542,
   "coordonnees": {
    "lat": 33.9910365,
    "lng": 71.4892542
   },
   "mapsUrl": "https://maps.google.com/?q=33.9910365,71.4892542",
   "source": "osm"
  },
  {
   "nom": "Ghaz",
   "lat": 33.9810047,
   "lng": 71.5456189,
   "coordonnees": {
    "lat": 33.9810047,
    "lng": 71.5456189
   },
   "mapsUrl": "https://maps.google.com/?q=33.9810047,71.5456189",
   "source": "osm"
  },
  {
   "nom": "Chambelo Jumaat",
   "lat": 33.9801976,
   "lng": 71.5443193,
   "coordonnees": {
    "lat": 33.9801976,
    "lng": 71.5443193
   },
   "mapsUrl": "https://maps.google.com/?q=33.9801976,71.5443193",
   "source": "osm"
  },
  {
   "nom": "Imambargah Adil Baig",
   "lat": 34.0059905,
   "lng": 71.5702492,
   "coordonnees": {
    "lat": 34.0059905,
    "lng": 71.5702492
   },
   "mapsUrl": "https://maps.google.com/?q=34.0059905,71.5702492",
   "source": "osm"
  },
  {
   "nom": "Abu Balr",
   "lat": 34.0045633,
   "lng": 71.5702208,
   "coordonnees": {
    "lat": 34.0045633,
    "lng": 71.5702208
   },
   "mapsUrl": "https://maps.google.com/?q=34.0045633,71.5702208",
   "source": "osm"
  },
  {
   "nom": "Umer Farooq",
   "lat": 33.9768859,
   "lng": 71.535207,
   "coordonnees": {
    "lat": 33.9768859,
    "lng": 71.535207
   },
   "mapsUrl": "https://maps.google.com/?q=33.9768859,71.535207",
   "source": "osm"
  },
  {
   "nom": "Manz Jumaat",
   "lat": 33.9809365,
   "lng": 71.5480099,
   "coordonnees": {
    "lat": 33.9809365,
    "lng": 71.5480099
   },
   "mapsUrl": "https://maps.google.com/?q=33.9809365,71.5480099",
   "source": "osm"
  },
  {
   "nom": "Arbaban",
   "lat": 33.9800949,
   "lng": 71.5467127,
   "coordonnees": {
    "lat": 33.9800949,
    "lng": 71.5467127
   },
   "mapsUrl": "https://maps.google.com/?q=33.9800949,71.5467127",
   "source": "osm"
  },
  {
   "nom": "Imambargah",
   "lat": 34.0069331,
   "lng": 71.5717159,
   "coordonnees": {
    "lat": 34.0069331,
    "lng": 71.5717159
   },
   "mapsUrl": "https://maps.google.com/?q=34.0069331,71.5717159",
   "source": "osm"
  },
  {
   "nom": "مسجد بلال",
   "lat": 33.9811657,
   "lng": 71.5497302,
   "coordonnees": {
    "lat": 33.9811657,
    "lng": 71.5497302
   },
   "mapsUrl": "https://maps.google.com/?q=33.9811657,71.5497302",
   "source": "osm"
  },
  {
   "nom": "Gul Zaman",
   "lat": 33.9824133,
   "lng": 71.5521104,
   "coordonnees": {
    "lat": 33.9824133,
    "lng": 71.5521104
   },
   "mapsUrl": "https://maps.google.com/?q=33.9824133,71.5521104",
   "source": "osm"
  },
  {
   "nom": "شاہی باغ مسجد",
   "lat": 34.0202953,
   "lng": 71.5734482,
   "coordonnees": {
    "lat": 34.0202953,
    "lng": 71.5734482
   },
   "mapsUrl": "https://maps.google.com/?q=34.0202953,71.5734482",
   "source": "osm"
  },
  {
   "nom": "Masjid-e-Siddique",
   "lat": 34.0111804,
   "lng": 71.4759531,
   "coordonnees": {
    "lat": 34.0111804,
    "lng": 71.4759531
   },
   "adresse": "Lalazar Chowk University of Peshawar",
   "mapsUrl": "https://maps.google.com/?q=34.0111804,71.4759531",
   "source": "osm"
  },
  {
   "nom": "نواب رشید",
   "lat": 33.9874866,
   "lng": 71.5617823,
   "coordonnees": {
    "lat": 33.9874866,
    "lng": 71.5617823
   },
   "mapsUrl": "https://maps.google.com/?q=33.9874866,71.5617823",
   "source": "osm"
  },
  {
   "nom": "Chowk Yadgar Jumaat",
   "lat": 34.0085445,
   "lng": 71.5740705,
   "coordonnees": {
    "lat": 34.0085445,
    "lng": 71.5740705
   },
   "mapsUrl": "https://maps.google.com/?q=34.0085445,71.5740705",
   "source": "osm"
  },
  {
   "nom": "Waliabad Imambargah",
   "lat": 34.0041107,
   "lng": 71.5742994,
   "coordonnees": {
    "lat": 34.0041107,
    "lng": 71.5742994
   },
   "mapsUrl": "https://maps.google.com/?q=34.0041107,71.5742994",
   "source": "osm"
  },
  {
   "nom": "Islamia College Masjid",
   "lat": 34.003702,
   "lng": 71.4754262,
   "coordonnees": {
    "lat": 34.003702,
    "lng": 71.4754262
   },
   "mapsUrl": "https://maps.google.com/?q=34.003702,71.4754262",
   "source": "osm"
  }
 ],
 "activites": [
  {
   "nom": "Khyber colony no 2",
   "lat": 34.0071453,
   "lng": 71.5176613,
   "coordonnees": {
    "lat": 34.0071453,
    "lng": 71.5176613
   },
   "categorie": "Histoire",
   "mapsUrl": "https://maps.google.com/?q=34.0071453,71.5176613",
   "source": "osm"
  },
  {
   "nom": "Sher Khan Shaheed Stadium park",
   "lat": 34.0148846,
   "lng": 71.5487586,
   "coordonnees": {
    "lat": 34.0148846,
    "lng": 71.5487586
   },
   "categorie": "Famille",
   "mapsUrl": "https://maps.google.com/?q=34.0148846,71.5487586",
   "source": "osm"
  },
  {
   "nom": "FES Higher Education",
   "lat": 34.0038017,
   "lng": 71.5042725,
   "coordonnees": {
    "lat": 34.0038017,
    "lng": 71.5042725
   },
   "categorie": "À voir",
   "mapsUrl": "https://maps.google.com/?q=34.0038017,71.5042725",
   "source": "osm"
  },
  {
   "nom": "Hujra Arbab Abdul Kareem",
   "lat": 34.0110229,
   "lng": 71.4985787,
   "coordonnees": {
    "lat": 34.0110229,
    "lng": 71.4985787
   },
   "categorie": "Histoire",
   "mapsUrl": "https://maps.google.com/?q=34.0110229,71.4985787",
   "source": "osm"
  },
  {
   "nom": "Peshawar Museum",
   "lat": 34.007712,
   "lng": 71.5582754,
   "coordonnees": {
    "lat": 34.007712,
    "lng": 71.5582754
   },
   "categorie": "Culture",
   "mapsUrl": "https://maps.google.com/?q=34.007712,71.5582754",
   "source": "osm"
  },
  {
   "nom": "Bhana Mari Tomb",
   "lat": 34.000224,
   "lng": 71.5547971,
   "coordonnees": {
    "lat": 34.000224,
    "lng": 71.5547971
   },
   "categorie": "Histoire",
   "mapsUrl": "https://maps.google.com/?q=34.000224,71.5547971",
   "source": "osm"
  },
  {
   "nom": "Sabrina Marquee, Shami Road, Peshawar",
   "lat": 34.0216199,
   "lng": 71.5590909,
   "coordonnees": {
    "lat": 34.0216199,
    "lng": 71.5590909
   },
   "categorie": "Panorama",
   "mapsUrl": "https://maps.google.com/?q=34.0216199,71.5590909",
   "source": "osm"
  },
  {
   "nom": "Dabgari Gate",
   "lat": 34.0032977,
   "lng": 71.560169,
   "coordonnees": {
    "lat": 34.0032977,
    "lng": 71.560169
   },
   "categorie": "Histoire",
   "mapsUrl": "https://maps.google.com/?q=34.0032977,71.560169",
   "source": "osm"
  },
  {
   "nom": "Shuuba Chowk / شوبہ چوک",
   "lat": 34.0087538,
   "lng": 71.5636382,
   "coordonnees": {
    "lat": 34.0087538,
    "lng": 71.5636382
   },
   "categorie": "À voir",
   "mapsUrl": "https://maps.google.com/?q=34.0087538,71.5636382",
   "source": "osm"
  },
  {
   "nom": "Ramdas Gate",
   "lat": 33.9993523,
   "lng": 71.5599693,
   "coordonnees": {
    "lat": 33.9993523,
    "lng": 71.5599693
   },
   "categorie": "Histoire",
   "mapsUrl": "https://maps.google.com/?q=33.9993523,71.5599693",
   "source": "osm"
  },
  {
   "nom": "Khwaja Town",
   "lat": 34.0312847,
   "lng": 71.5600502,
   "coordonnees": {
    "lat": 34.0312847,
    "lng": 71.5600502
   },
   "categorie": "Panorama",
   "mapsUrl": "https://maps.google.com/?q=34.0312847,71.5600502",
   "source": "osm"
  },
  {
   "nom": "Bajori Gate",
   "lat": 34.0073549,
   "lng": 71.5645908,
   "coordonnees": {
    "lat": 34.0073549,
    "lng": 71.5645908
   },
   "categorie": "Histoire",
   "mapsUrl": "https://maps.google.com/?q=34.0073549,71.5645908",
   "source": "osm"
  },
  {
   "nom": "Kabuli Gate",
   "lat": 34.0084108,
   "lng": 71.568756,
   "coordonnees": {
    "lat": 34.0084108,
    "lng": 71.568756
   },
   "categorie": "Histoire",
   "mapsUrl": "https://maps.google.com/?q=34.0084108,71.568756",
   "source": "osm"
  },
  {
   "nom": "Sard Chah Gate",
   "lat": 34.0006102,
   "lng": 71.566895,
   "coordonnees": {
    "lat": 34.0006102,
    "lng": 71.566895
   },
   "categorie": "Histoire",
   "mapsUrl": "https://maps.google.com/?q=34.0006102,71.566895",
   "source": "osm"
  },
  {
   "nom": "Sirki Gate",
   "lat": 34.0023819,
   "lng": 71.5681276,
   "coordonnees": {
    "lat": 34.0023819,
    "lng": 71.5681276
   },
   "categorie": "Histoire",
   "mapsUrl": "https://maps.google.com/?q=34.0023819,71.5681276",
   "source": "osm"
  },
  {
   "nom": "Kohati Gate",
   "lat": 34.0045063,
   "lng": 71.5700846,
   "coordonnees": {
    "lat": 34.0045063,
    "lng": 71.5700846
   },
   "categorie": "Histoire",
   "mapsUrl": "https://maps.google.com/?q=34.0045063,71.5700846",
   "source": "osm"
  },
  {
   "nom": "Peshawar Massacre Memorial",
   "lat": 34.009949,
   "lng": 71.5741729,
   "coordonnees": {
    "lat": 34.009949,
    "lng": 71.5741729
   },
   "categorie": "Histoire",
   "mapsUrl": "https://maps.google.com/?q=34.009949,71.5741729",
   "source": "osm"
  },
  {
   "nom": "Reti Gate",
   "lat": 34.0118929,
   "lng": 71.5746549,
   "coordonnees": {
    "lat": 34.0118929,
    "lng": 71.5746549
   },
   "categorie": "Histoire",
   "mapsUrl": "https://maps.google.com/?q=34.0118929,71.5746549",
   "source": "osm"
  },
  {
   "nom": "Cunningham Clock Tower",
   "lat": 34.0097907,
   "lng": 71.5757614,
   "coordonnees": {
    "lat": 34.0097907,
    "lng": 71.5757614
   },
   "categorie": "À voir",
   "mapsUrl": "https://maps.google.com/?q=34.0097907,71.5757614",
   "source": "osm"
  },
  {
   "nom": "Chacha Younas Park",
   "lat": 34.0151822,
   "lng": 71.5780697,
   "coordonnees": {
    "lat": 34.0151822,
    "lng": 71.5780697
   },
   "categorie": "Panorama",
   "mapsUrl": "https://maps.google.com/?q=34.0151822,71.5780697",
   "source": "osm"
  },
  {
   "nom": "Sethi Havelis",
   "lat": 34.0089494,
   "lng": 71.578363,
   "coordonnees": {
    "lat": 34.0089494,
    "lng": 71.578363
   },
   "categorie": "Culture",
   "mapsUrl": "https://maps.google.com/?q=34.0089494,71.578363",
   "source": "osm"
  },
  {
   "nom": "Yakatoot Gate",
   "lat": 34.0049871,
   "lng": 71.5777045,
   "coordonnees": {
    "lat": 34.0049871,
    "lng": 71.5777045
   },
   "categorie": "Histoire",
   "mapsUrl": "https://maps.google.com/?q=34.0049871,71.5777045",
   "source": "osm"
  },
  {
   "nom": "s",
   "lat": 34.0047811,
   "lng": 71.5787316,
   "coordonnees": {
    "lat": 34.0047811,
    "lng": 71.5787316
   },
   "categorie": "Nature",
   "mapsUrl": "https://maps.google.com/?q=34.0047811,71.5787316",
   "source": "osm"
  },
  {
   "nom": "Hasht Nagri Gate",
   "lat": 34.013947,
   "lng": 71.5805483,
   "coordonnees": {
    "lat": 34.013947,
    "lng": 71.5805483
   },
   "categorie": "Histoire",
   "mapsUrl": "https://maps.google.com/?q=34.013947,71.5805483",
   "source": "osm"
  },
  {
   "nom": "Gorkhatri Tehsil",
   "lat": 34.0086403,
   "lng": 71.5816924,
   "coordonnees": {
    "lat": 34.0086403,
    "lng": 71.5816924
   },
   "categorie": "Histoire",
   "mapsUrl": "https://maps.google.com/?q=34.0086403,71.5816924",
   "source": "osm"
  },
  {
   "nom": "Ganj Gate",
   "lat": 34.006284,
   "lng": 71.5843844,
   "coordonnees": {
    "lat": 34.006284,
    "lng": 71.5843844
   },
   "categorie": "Histoire",
   "mapsUrl": "https://maps.google.com/?q=34.006284,71.5843844",
   "source": "osm"
  },
  {
   "nom": "Lahori Gate",
   "lat": 34.0104027,
   "lng": 71.5852314,
   "coordonnees": {
    "lat": 34.0104027,
    "lng": 71.5852314
   },
   "categorie": "Histoire",
   "mapsUrl": "https://maps.google.com/?q=34.0104027,71.5852314",
   "source": "osm"
  },
  {
   "nom": "شیخ آباد پارک 1",
   "lat": 34.0077935,
   "lng": 71.5882657,
   "coordonnees": {
    "lat": 34.0077935,
    "lng": 71.5882657
   },
   "categorie": "Nature",
   "mapsUrl": "https://maps.google.com/?q=34.0077935,71.5882657",
   "source": "osm"
  },
  {
   "nom": "sardar colony",
   "lat": 34.0382175,
   "lng": 71.5828042,
   "coordonnees": {
    "lat": 34.0382175,
    "lng": 71.5828042
   },
   "categorie": "À voir",
   "mapsUrl": "https://maps.google.com/?q=34.0382175,71.5828042",
   "source": "osm"
  },
  {
   "nom": "Shaji-ki-Dheri Remains (Kaniska Stupa)",
   "lat": 33.9994148,
   "lng": 71.5915476,
   "coordonnees": {
    "lat": 33.9994148,
    "lng": 71.5915476
   },
   "categorie": "À voir",
   "mapsUrl": "https://maps.google.com/?q=33.9994148,71.5915476",
   "source": "osm"
  },
  {
   "nom": "WePlay",
   "lat": 33.9741705,
   "lng": 71.4737127,
   "coordonnees": {
    "lat": 33.9741705,
    "lng": 71.4737127
   },
   "categorie": "Nature",
   "mapsUrl": "https://maps.google.com/?q=33.9741705,71.4737127",
   "source": "osm"
  },
  {
   "nom": "Mohammadzai Market",
   "lat": 33.9907244,
   "lng": 71.4518857,
   "coordonnees": {
    "lat": 33.9907244,
    "lng": 71.4518857
   },
   "categorie": "À voir",
   "mapsUrl": "https://maps.google.com/?q=33.9907244,71.4518857",
   "source": "osm"
  },
  {
   "nom": "Dr.Shoukat Jamal Amirzadah’s House",
   "lat": 33.9954528,
   "lng": 71.4470865,
   "coordonnees": {
    "lat": 33.9954528,
    "lng": 71.4470865
   },
   "categorie": "Panorama",
   "mapsUrl": "https://maps.google.com/?q=33.9954528,71.4470865",
   "source": "osm"
  },
  {
   "nom": "Peshawar",
   "lat": 34.0883058,
   "lng": 71.5133811,
   "coordonnees": {
    "lat": 34.0883058,
    "lng": 71.5133811
   },
   "categorie": "Famille",
   "mapsUrl": "https://maps.google.com/?q=34.0883058,71.5133811",
   "source": "osm"
  },
  {
   "nom": "Shakir Associates",
   "lat": 34.0172948,
   "lng": 71.6201699,
   "coordonnees": {
    "lat": 34.0172948,
    "lng": 71.6201699
   },
   "categorie": "À voir",
   "mapsUrl": "https://maps.google.com/?q=34.0172948,71.6201699",
   "source": "osm"
  },
  {
   "nom": "M2 Park",
   "lat": 34.0231228,
   "lng": 71.6197597,
   "coordonnees": {
    "lat": 34.0231228,
    "lng": 71.6197597
   },
   "categorie": "Nature",
   "mapsUrl": "https://maps.google.com/?q=34.0231228,71.6197597",
   "source": "osm"
  },
  {
   "nom": "Khyber Park",
   "lat": 33.9822607,
   "lng": 71.4379307,
   "coordonnees": {
    "lat": 33.9822607,
    "lng": 71.4379307
   },
   "categorie": "Nature",
   "mapsUrl": "https://maps.google.com/?q=33.9822607,71.4379307",
   "source": "osm"
  },
  {
   "nom": "Shama Market Park",
   "lat": 33.9811287,
   "lng": 71.4341125,
   "coordonnees": {
    "lat": 33.9811287,
    "lng": 71.4341125
   },
   "categorie": "Nature",
   "mapsUrl": "https://maps.google.com/?q=33.9811287,71.4341125",
   "source": "osm"
  },
  {
   "nom": "D Chowk DHA Peshawar",
   "lat": 34.0668561,
   "lng": 71.446717,
   "coordonnees": {
    "lat": 34.0668561,
    "lng": 71.446717
   },
   "categorie": "Panorama",
   "mapsUrl": "https://maps.google.com/?q=34.0668561,71.446717",
   "source": "osm"
  },
  {
   "nom": "Daoranpura Peshawar",
   "lat": 34.0265496,
   "lng": 71.6242163,
   "coordonnees": {
    "lat": 34.0265496,
    "lng": 71.6242163
   },
   "categorie": "À voir",
   "mapsUrl": "https://maps.google.com/?q=34.0265496,71.6242163",
   "source": "osm"
  },
  {
   "nom": "Hayatabad Museum",
   "lat": 33.9705627,
   "lng": 71.4391613,
   "coordonnees": {
    "lat": 33.9705627,
    "lng": 71.4391613
   },
   "categorie": "Culture",
   "mapsUrl": "https://maps.google.com/?q=33.9705627,71.4391613",
   "source": "osm"
  },
  {
   "nom": "hafeez afridi",
   "lat": 33.9669736,
   "lng": 71.4418224,
   "coordonnees": {
    "lat": 33.9669736,
    "lng": 71.4418224
   },
   "categorie": "À voir",
   "mapsUrl": "https://maps.google.com/?q=33.9669736,71.4418224",
   "source": "osm"
  },
  {
   "nom": "Ghani Bagh",
   "lat": 33.9691069,
   "lng": 71.4394958,
   "coordonnees": {
    "lat": 33.9691069,
    "lng": 71.4394958
   },
   "categorie": "Nature",
   "mapsUrl": "https://maps.google.com/?q=33.9691069,71.4394958",
   "source": "osm"
  },
  {
   "nom": "Defence Housing Authority Peshawar",
   "lat": 34.048965,
   "lng": 71.4300871,
   "coordonnees": {
    "lat": 34.048965,
    "lng": 71.4300871
   },
   "categorie": "Panorama",
   "mapsUrl": "https://maps.google.com/?q=34.048965,71.4300871",
   "source": "osm"
  },
  {
   "nom": "سیٹھی پل",
   "lat": 33.9960123,
   "lng": 71.6259185,
   "coordonnees": {
    "lat": 33.9960123,
    "lng": 71.6259185
   },
   "categorie": "À voir",
   "mapsUrl": "https://maps.google.com/?q=33.9960123,71.6259185",
   "source": "osm"
  },
  {
   "nom": "Pakistan Chowk",
   "lat": 34.0553203,
   "lng": 71.43095,
   "coordonnees": {
    "lat": 34.0553203,
    "lng": 71.43095
   },
   "categorie": "À voir",
   "mapsUrl": "https://maps.google.com/?q=34.0553203,71.43095",
   "source": "osm"
  },
  {
   "nom": "Central Park",
   "lat": 34.0290762,
   "lng": 71.4181617,
   "coordonnees": {
    "lat": 34.0290762,
    "lng": 71.4181617
   },
   "categorie": "Nature",
   "mapsUrl": "https://maps.google.com/?q=34.0290762,71.4181617",
   "source": "osm"
  },
  {
   "nom": "Rehman Masjid Garden",
   "lat": 33.9787545,
   "lng": 71.4235028,
   "coordonnees": {
    "lat": 33.9787545,
    "lng": 71.4235028
   },
   "categorie": "Nature",
   "mapsUrl": "https://maps.google.com/?q=33.9787545,71.4235028",
   "source": "osm"
  },
  {
   "nom": "Shalman Park",
   "lat": 33.9595258,
   "lng": 71.436212,
   "coordonnees": {
    "lat": 33.9595258,
    "lng": 71.436212
   },
   "categorie": "Nature",
   "mapsUrl": "https://maps.google.com/?q=33.9595258,71.436212",
   "source": "osm"
  },
  {
   "nom": "Shahtaj ROOM",
   "lat": 33.9983046,
   "lng": 71.4154276,
   "coordonnees": {
    "lat": 33.9983046,
    "lng": 71.4154276
   },
   "categorie": "À voir",
   "mapsUrl": "https://maps.google.com/?q=33.9983046,71.4154276",
   "source": "osm"
  },
  {
   "nom": "F-5 Park",
   "lat": 33.9557472,
   "lng": 71.4385362,
   "coordonnees": {
    "lat": 33.9557472,
    "lng": 71.4385362
   },
   "categorie": "Nature",
   "mapsUrl": "https://maps.google.com/?q=33.9557472,71.4385362",
   "source": "osm"
  },
  {
   "nom": "Hayatabad graveyard",
   "lat": 33.9653111,
   "lng": 71.4300674,
   "coordonnees": {
    "lat": 33.9653111,
    "lng": 71.4300674
   },
   "categorie": "Histoire",
   "mapsUrl": "https://maps.google.com/?q=33.9653111,71.4300674",
   "source": "osm"
  },
  {
   "nom": "HAJI ZAHIR SHAH TOMB",
   "lat": 33.9988418,
   "lng": 71.4140649,
   "coordonnees": {
    "lat": 33.9988418,
    "lng": 71.4140649
   },
   "categorie": "Nature",
   "mapsUrl": "https://maps.google.com/?q=33.9988418,71.4140649",
   "source": "osm"
  },
  {
   "nom": "Cricket Everywhere",
   "lat": 34.0254408,
   "lng": 71.6428208,
   "coordonnees": {
    "lat": 34.0254408,
    "lng": 71.6428208
   },
   "categorie": "À voir",
   "mapsUrl": "https://maps.google.com/?q=34.0254408,71.6428208",
   "source": "osm"
  },
  {
   "nom": "M-1 Mounment",
   "lat": 34.0262995,
   "lng": 71.6446211,
   "coordonnees": {
    "lat": 34.0262995,
    "lng": 71.6446211
   },
   "categorie": "Histoire",
   "mapsUrl": "https://maps.google.com/?q=34.0262995,71.6446211",
   "source": "osm"
  },
  {
   "nom": "F10 Park",
   "lat": 33.9591331,
   "lng": 71.4241028,
   "coordonnees": {
    "lat": 33.9591331,
    "lng": 71.4241028
   },
   "categorie": "Nature",
   "mapsUrl": "https://maps.google.com/?q=33.9591331,71.4241028",
   "source": "osm"
  },
  {
   "nom": "Arbab Villas",
   "lat": 34.0280911,
   "lng": 71.6514802,
   "coordonnees": {
    "lat": 34.0280911,
    "lng": 71.6514802
   },
   "categorie": "Nature",
   "mapsUrl": "https://maps.google.com/?q=34.0280911,71.6514802",
   "source": "osm"
  }
 ],
 "imageCredit": "Wikimedia Commons",
 "osmEnriched": true,
 "osmEnrichedAt": "2026-06-30",
 "description_en": "Peshawar, in Pakistan, is a halal-friendly destination with a Halal Trust Score of 4.5/5. Muslim travelers will find a selection of halal restaurants, 1 mosques, real-time prayer times and the Qibla direction — a complete guide to travel with peace of mind.",
 "metaDescription_en": "Halal guide to Peshawar: halal restaurants, 1 mosques, prayer times and tips for Muslim travelers. Halal Trust Score 4.5/5.",
 "nom_en": "Peshawar",
 "dataPurgedAt": "2026-07-15",
 "googleBakedAt": "2026-07-15"
}