{
  "slug": "peshawar",
  "nom": "Peshawar",
  "pays": "Pakistan",
  "pays_slug": "pakistan",
  "continent": "Asie",
  "region": "Pakistan",
  "coordonnees": {
    "lat": 34.0151,
    "lng": 71.5249
  },
  "codeISO": "",
  "score_halal": 4.5,
  "halalScore": 8.9,
  "description": "Ancienne cité de la Route de la soie aux portes du Khyber, Peshawar séduit par son bazar historique et sa mosquée Mahabat Khan moghole.",
  "image": "https://upload.wikimedia.org/wikipedia/commons/thumb/b/ba/Peshawar%27s_old_buses.jpg/1920px-Peshawar%27s_old_buses.jpg",
  "image_hero": "https://upload.wikimedia.org/wikipedia/commons/thumb/b/ba/Peshawar%27s_old_buses.jpg/1920px-Peshawar%27s_old_buses.jpg",
  "metaDescription": "Ancienne cité de la Route de la soie aux portes du Khyber, Peshawar séduit par son bazar historique et sa mosquée Mahabat Khan moghole.",
  "statistiques": {
    "restaurants_halal": 0,
    "mosquees": 1,
    "hotels": 70
  },
  "infoPratique": {
    "transport": "Accessible par avion / transports locaux.",
    "meilleureEpoque": "Printemps et automne."
  },
  "tags": [
    "halal"
  ],
  "restaurants": [],
  "hotels": [
    {
      "nom": "Grand Hotel",
      "categorie": "Hôtel",
      "priceRange": "€€",
      "mapsUrl": "https://maps.google.com/?q=34.0072046,71.508882",
      "lat": 34.0072046,
      "lng": 71.508882,
      "halalFriendly": false,
      "bookingUrl": "https://maps.google.com/?q=34.0072046,71.508882",
      "source": "osm"
    },
    {
      "nom": "Shiraz Arena",
      "categorie": "Hôtel",
      "priceRange": "€€",
      "mapsUrl": "https://maps.google.com/?q=34.0009367,71.5440875",
      "lat": 34.0009367,
      "lng": 71.5440875,
      "halalFriendly": false,
      "bookingUrl": "https://maps.google.com/?q=34.0009367,71.5440875",
      "source": "osm"
    },
    {
      "nom": "Chitral today",
      "categorie": "Hôtel",
      "priceRange": "€€",
      "mapsUrl": "https://maps.google.com/?q=33.9969832,71.5409195",
      "lat": 33.9969832,
      "lng": 71.5409195,
      "halalFriendly": false,
      "bookingUrl": "https://maps.google.com/?q=33.9969832,71.5409195",
      "source": "osm"
    },
    {
      "nom": "Executive lodges",
      "categorie": "Appartement",
      "priceRange": "€€",
      "mapsUrl": "https://maps.google.com/?q=34.0390185,71.5200634",
      "lat": 34.0390185,
      "lng": 71.5200634,
      "halalFriendly": false,
      "bookingUrl": "https://maps.google.com/?q=34.0390185,71.5200634",
      "source": "osm"
    },
    {
      "nom": "پشاور پریس کلب",
      "categorie": "Maison d'hôtes",
      "priceRange": "€€",
      "mapsUrl": "https://maps.google.com/?q=34.0039715,71.551132",
      "lat": 34.0039715,
      "lng": 71.551132,
      "halalFriendly": false,
      "bookingUrl": "https://maps.google.com/?q=34.0039715,71.551132",
      "source": "osm"
    },
    {
      "nom": "خلیل کامریڈ ہاسٹل راحت آباد",
      "categorie": "Auberge",
      "priceRange": "€€",
      "mapsUrl": "https://maps.google.com/?q=34.0157457,71.4953401",
      "lat": 34.0157457,
      "lng": 71.4953401,
      "halalFriendly": false,
      "bookingUrl": "https://maps.google.com/?q=34.0157457,71.4953401",
      "source": "osm"
    },
    {
      "nom": "ذوالفقار علی باباخیل ہاؤس",
      "categorie": "Auberge",
      "priceRange": "€€",
      "mapsUrl": "https://maps.google.com/?q=34.016644,71.4943435",
      "lat": 34.016644,
      "lng": 71.4943435,
      "halalFriendly": false,
      "bookingUrl": "https://maps.google.com/?q=34.016644,71.4943435",
      "source": "osm"
    },
    {
      "nom": "Revoli Guest House",
      "categorie": "Maison d'hôtes",
      "priceRange": "€€",
      "mapsUrl": "https://maps.google.com/?q=33.9989929,71.5001363",
      "lat": 33.9989929,
      "lng": 71.5001363,
      "halalFriendly": false,
      "bookingUrl": "https://maps.google.com/?q=33.9989929,71.5001363",
      "source": "osm"
    },
    {
      "nom": "Inter Con Guest House",
      "categorie": "Maison d'hôtes",
      "priceRange": "€€",
      "mapsUrl": "https://maps.google.com/?q=33.9973118,71.5012842",
      "lat": 33.9973118,
      "lng": 71.5012842,
      "halalFriendly": false,
      "bookingUrl": "https://maps.google.com/?q=33.9973118,71.5012842",
      "source": "osm"
    },
    {
      "nom": "Cant Hotel",
      "categorie": "Hôtel",
      "priceRange": "€€",
      "mapsUrl": "https://maps.google.com/?q=34.0140751,71.5567895",
      "lat": 34.0140751,
      "lng": 71.5567895,
      "halalFriendly": false,
      "bookingUrl": "https://maps.google.com/?q=34.0140751,71.5567895",
      "source": "osm"
    },
    {
      "nom": "Golf Club (Home)",
      "categorie": "Maison d'hôtes",
      "priceRange": "€€",
      "mapsUrl": "https://maps.google.com/?q=34.0197471,71.5564629",
      "lat": 34.0197471,
      "lng": 71.5564629,
      "halalFriendly": false,
      "bookingUrl": "https://maps.google.com/?q=34.0197471,71.5564629",
      "source": "osm"
    },
    {
      "nom": "Officers Garden Colony",
      "categorie": "Appartement",
      "priceRange": "€€",
      "mapsUrl": "https://maps.google.com/?q=34.0415402,71.5301972",
      "lat": 34.0415402,
      "lng": 71.5301972,
      "halalFriendly": false,
      "bookingUrl": "https://maps.google.com/?q=34.0415402,71.5301972",
      "source": "osm"
    },
    {
      "nom": "Sanan’s House",
      "categorie": "Appartement",
      "priceRange": "€€",
      "mapsUrl": "https://maps.google.com/?q=34.0214268,71.557341",
      "lat": 34.0214268,
      "lng": 71.557341,
      "halalFriendly": false,
      "bookingUrl": "https://maps.google.com/?q=34.0214268,71.557341",
      "source": "osm"
    },
    {
      "nom": "Northern Villas",
      "categorie": "Appartement",
      "priceRange": "€€",
      "mapsUrl": "https://maps.google.com/?q=34.0433247,71.5256547",
      "lat": 34.0433247,
      "lng": 71.5256547,
      "halalFriendly": false,
      "bookingUrl": "https://maps.google.com/?q=34.0433247,71.5256547",
      "source": "osm"
    },
    {
      "nom": "Wapda Guest House",
      "categorie": "Maison d'hôtes",
      "priceRange": "€€",
      "mapsUrl": "https://maps.google.com/?q=34.025034,71.5580231",
      "lat": 34.025034,
      "lng": 71.5580231,
      "halalFriendly": false,
      "bookingUrl": "https://maps.google.com/?q=34.025034,71.5580231",
      "source": "osm"
    },
    {
      "nom": "Peshawar Heights",
      "categorie": "Appartement",
      "priceRange": "€€",
      "mapsUrl": "https://maps.google.com/?q=33.9900284,71.5054169",
      "lat": 33.9900284,
      "lng": 71.5054169,
      "halalFriendly": false,
      "bookingUrl": "https://maps.google.com/?q=33.9900284,71.5054169",
      "source": "osm"
    },
    {
      "nom": "Blue Palace",
      "categorie": "Hôtel",
      "priceRange": "€€",
      "mapsUrl": "https://maps.google.com/?q=33.9902134,71.5021855",
      "lat": 33.9902134,
      "lng": 71.5021855,
      "halalFriendly": false,
      "bookingUrl": "https://maps.google.com/?q=33.9902134,71.5021855",
      "source": "osm"
    },
    {
      "nom": "Benazir Girls Hostel",
      "categorie": "Auberge",
      "priceRange": "€€",
      "mapsUrl": "https://maps.google.com/?q=34.0101338,71.4861923",
      "lat": 34.0101338,
      "lng": 71.4861923,
      "halalFriendly": false,
      "bookingUrl": "https://maps.google.com/?q=34.0101338,71.4861923",
      "source": "osm"
    },
    {
      "nom": "Serena Hotel Peshawar",
      "categorie": "Hôtel",
      "priceRange": "€€",
      "mapsUrl": "https://maps.google.com/?q=34.0159982,71.5640561",
      "lat": 34.0159982,
      "lng": 71.5640561,
      "halalFriendly": false,
      "bookingUrl": "https://maps.google.com/?q=34.0159982,71.5640561",
      "source": "osm"
    },
    {
      "nom": "Rose Hotel",
      "categorie": "Hôtel",
      "priceRange": "€€",
      "mapsUrl": "https://maps.google.com/?q=34.0085611,71.563989",
      "lat": 34.0085611,
      "lng": 71.563989,
      "halalFriendly": false,
      "bookingUrl": "https://maps.google.com/?q=34.0085611,71.563989",
      "source": "osm"
    },
    {
      "nom": "Tatara Girls Hostel",
      "categorie": "Auberge",
      "priceRange": "€€",
      "mapsUrl": "https://maps.google.com/?q=34.0121536,71.4850616",
      "lat": 34.0121536,
      "lng": 71.4850616,
      "halalFriendly": false,
      "bookingUrl": "https://maps.google.com/?q=34.0121536,71.4850616",
      "source": "osm"
    },
    {
      "nom": "Marwat Hostel",
      "categorie": "Auberge",
      "priceRange": "€€",
      "mapsUrl": "https://maps.google.com/?q=33.9891348,71.5500864",
      "lat": 33.9891348,
      "lng": 71.5500864,
      "halalFriendly": false,
      "bookingUrl": "https://maps.google.com/?q=33.9891348,71.5500864",
      "source": "osm"
    },
    {
      "nom": "Ansari Hostel",
      "categorie": "Auberge",
      "priceRange": "€€",
      "mapsUrl": "https://maps.google.com/?q=34.0247056,71.4863102",
      "lat": 34.0247056,
      "lng": 71.4863102,
      "halalFriendly": false,
      "bookingUrl": "https://maps.google.com/?q=34.0247056,71.4863102",
      "source": "osm"
    },
    {
      "nom": "KMC Girls Hostel",
      "categorie": "Auberge",
      "priceRange": "€€",
      "mapsUrl": "https://maps.google.com/?q=34.0107803,71.4845352",
      "lat": 34.0107803,
      "lng": 71.4845352,
      "halalFriendly": false,
      "bookingUrl": "https://maps.google.com/?q=34.0107803,71.4845352",
      "source": "osm"
    },
    {
      "nom": "Mazeban Hotel",
      "categorie": "Hôtel",
      "priceRange": "€€",
      "mapsUrl": "https://maps.google.com/?q=34.0071082,71.5646213",
      "lat": 34.0071082,
      "lng": 71.5646213,
      "halalFriendly": false,
      "bookingUrl": "https://maps.google.com/?q=34.0071082,71.5646213",
      "source": "osm"
    },
    {
      "nom": "Old Tribal Girls Hostel of Jinnah College For Women",
      "categorie": "Hôtel",
      "priceRange": "€€",
      "mapsUrl": "https://maps.google.com/?q=34.009825,71.4835245",
      "lat": 34.009825,
      "lng": 71.4835245,
      "halalFriendly": false,
      "bookingUrl": "https://maps.google.com/?q=34.009825,71.4835245",
      "source": "osm"
    },
    {
      "nom": "UET Girls Hostel",
      "categorie": "Auberge",
      "priceRange": "€€",
      "mapsUrl": "https://maps.google.com/?q=34.0097318,71.4818276",
      "lat": 34.0097318,
      "lng": 71.4818276,
      "halalFriendly": false,
      "bookingUrl": "https://maps.google.com/?q=34.0097318,71.4818276",
      "source": "osm"
    },
    {
      "nom": "Emaraat Hotel",
      "categorie": "Hôtel",
      "priceRange": "€€",
      "mapsUrl": "https://maps.google.com/?q=34.0042828,71.5665804",
      "lat": 34.0042828,
      "lng": 71.5665804,
      "halalFriendly": false,
      "bookingUrl": "https://maps.google.com/?q=34.0042828,71.5665804",
      "source": "osm"
    },
    {
      "nom": "Al-Ibadat Hotel",
      "categorie": "Hôtel",
      "priceRange": "€€",
      "mapsUrl": "https://maps.google.com/?q=34.00447,71.5668089",
      "lat": 34.00447,
      "lng": 71.5668089,
      "halalFriendly": false,
      "bookingUrl": "https://maps.google.com/?q=34.00447,71.5668089",
      "source": "osm"
    },
    {
      "nom": "Cenna Hall KMC",
      "categorie": "Auberge",
      "priceRange": "€€",
      "mapsUrl": "https://maps.google.com/?q=34.0055966,71.4823568",
      "lat": 34.0055966,
      "lng": 71.4823568,
      "halalFriendly": false,
      "bookingUrl": "https://maps.google.com/?q=34.0055966,71.4823568",
      "source": "osm"
    },
    {
      "nom": "Park Plaza Hotels",
      "categorie": "Hôtel",
      "priceRange": "€€",
      "mapsUrl": "https://maps.google.com/?q=34.0195643,71.5692858",
      "lat": 34.0195643,
      "lng": 71.5692858,
      "halalFriendly": false,
      "bookingUrl": "https://maps.google.com/?q=34.0195643,71.5692858",
      "source": "osm"
    },
    {
      "nom": "Hostel Block D",
      "categorie": "Auberge",
      "priceRange": "€€",
      "mapsUrl": "https://maps.google.com/?q=34.0044096,71.4814049",
      "lat": 34.0044096,
      "lng": 71.4814049,
      "halalFriendly": false,
      "bookingUrl": "https://maps.google.com/?q=34.0044096,71.4814049",
      "source": "osm"
    },
    {
      "nom": "Qasim Hall KMC",
      "categorie": "Auberge",
      "priceRange": "€€",
      "mapsUrl": "https://maps.google.com/?q=34.005413,71.4810603",
      "lat": 34.005413,
      "lng": 71.4810603,
      "halalFriendly": false,
      "bookingUrl": "https://maps.google.com/?q=34.005413,71.4810603",
      "source": "osm"
    },
    {
      "nom": "Paramedics Hostel",
      "categorie": "Auberge",
      "priceRange": "€€",
      "mapsUrl": "https://maps.google.com/?q=33.997213,71.4847827",
      "lat": 33.997213,
      "lng": 71.4847827,
      "halalFriendly": false,
      "bookingUrl": "https://maps.google.com/?q=33.997213,71.4847827",
      "source": "osm"
    },
    {
      "nom": "KTH New Doctor Hostel",
      "categorie": "Auberge",
      "priceRange": "€€",
      "mapsUrl": "https://maps.google.com/?q=33.9966595,71.4847064",
      "lat": 33.9966595,
      "lng": 71.4847064,
      "halalFriendly": false,
      "bookingUrl": "https://maps.google.com/?q=33.9966595,71.4847064",
      "source": "osm"
    },
    {
      "nom": "Haji Sahib Turangzai Hostel",
      "categorie": "Auberge",
      "priceRange": "€€",
      "mapsUrl": "https://maps.google.com/?q=34.0034127,71.4810442",
      "lat": 34.0034127,
      "lng": 71.4810442,
      "halalFriendly": false,
      "bookingUrl": "https://maps.google.com/?q=34.0034127,71.4810442",
      "source": "osm"
    },
    {
      "nom": "Razi Hall KMC",
      "categorie": "Auberge",
      "priceRange": "€€",
      "mapsUrl": "https://maps.google.com/?q=34.0053952,71.4800742",
      "lat": 34.0053952,
      "lng": 71.4800742,
      "halalFriendly": false,
      "bookingUrl": "https://maps.google.com/?q=34.0053952,71.4800742",
      "source": "osm"
    },
    {
      "nom": "KTH Nursing Hostel",
      "categorie": "Auberge",
      "priceRange": "€€",
      "mapsUrl": "https://maps.google.com/?q=33.9966595,71.48361",
      "lat": 33.9966595,
      "lng": 71.48361,
      "halalFriendly": false,
      "bookingUrl": "https://maps.google.com/?q=33.9966595,71.48361",
      "source": "osm"
    },
    {
      "nom": "Tribal Children Hostel",
      "categorie": "Auberge",
      "priceRange": "€€",
      "mapsUrl": "https://maps.google.com/?q=34.0033924,71.4801509",
      "lat": 34.0033924,
      "lng": 71.4801509,
      "halalFriendly": false,
      "bookingUrl": "https://maps.google.com/?q=34.0033924,71.4801509",
      "source": "osm"
    },
    {
      "nom": "Nishtar Hostel",
      "categorie": "Auberge",
      "priceRange": "€€",
      "mapsUrl": "https://maps.google.com/?q=34.0044777,71.4797053",
      "lat": 34.0044777,
      "lng": 71.4797053,
      "halalFriendly": false,
      "bookingUrl": "https://maps.google.com/?q=34.0044777,71.4797053",
      "source": "osm"
    },
    {
      "nom": "Nursing Hostel",
      "categorie": "Auberge",
      "priceRange": "€€",
      "mapsUrl": "https://maps.google.com/?q=33.996151,71.483838",
      "lat": 33.996151,
      "lng": 71.483838,
      "halalFriendly": false,
      "bookingUrl": "https://maps.google.com/?q=33.996151,71.483838",
      "source": "osm"
    },
    {
      "nom": "Hostel 3",
      "categorie": "Auberge",
      "priceRange": "€€",
      "mapsUrl": "https://maps.google.com/?q=34.0041432,71.4797301",
      "lat": 34.0041432,
      "lng": 71.4797301,
      "halalFriendly": false,
      "bookingUrl": "https://maps.google.com/?q=34.0041432,71.4797301",
      "source": "osm"
    },
    {
      "nom": "Hidayat Hotel",
      "categorie": "Hôtel",
      "priceRange": "€€",
      "mapsUrl": "https://maps.google.com/?q=34.0160404,71.5734886",
      "lat": 34.0160404,
      "lng": 71.5734886,
      "halalFriendly": false,
      "bookingUrl": "https://maps.google.com/?q=34.0160404,71.5734886",
      "source": "osm"
    },
    {
      "nom": "Tribal Engineering Hostel",
      "categorie": "Auberge",
      "priceRange": "€€",
      "mapsUrl": "https://maps.google.com/?q=34.0052487,71.4777723",
      "lat": 34.0052487,
      "lng": 71.4777723,
      "halalFriendly": false,
      "bookingUrl": "https://maps.google.com/?q=34.0052487,71.4777723",
      "source": "osm"
    },
    {
      "nom": "Rahim Shah Hostel",
      "categorie": "Auberge",
      "priceRange": "€€",
      "mapsUrl": "https://maps.google.com/?q=34.0030136,71.4783233",
      "lat": 34.0030136,
      "lng": 71.4783233,
      "halalFriendly": false,
      "bookingUrl": "https://maps.google.com/?q=34.0030136,71.4783233",
      "source": "osm"
    },
    {
      "nom": "Usmania Hostel",
      "categorie": "Auberge",
      "priceRange": "€€",
      "mapsUrl": "https://maps.google.com/?q=34.0030699,71.4754855",
      "lat": 34.0030699,
      "lng": 71.4754855,
      "halalFriendly": false,
      "bookingUrl": "https://maps.google.com/?q=34.0030699,71.4754855",
      "source": "osm"
    },
    {
      "nom": "ہاسٹل لین",
      "categorie": "Auberge",
      "priceRange": "€€",
      "mapsUrl": "https://maps.google.com/?q=33.995696,71.4782862",
      "lat": 33.995696,
      "lng": 71.4782862,
      "halalFriendly": false,
      "bookingUrl": "https://maps.google.com/?q=33.995696,71.4782862",
      "source": "osm"
    },
    {
      "nom": "Cricket Stadium Hostal",
      "categorie": "Auberge",
      "priceRange": "€€",
      "mapsUrl": "https://maps.google.com/?q=34.0210869,71.576999",
      "lat": 34.0210869,
      "lng": 71.576999,
      "halalFriendly": false,
      "bookingUrl": "https://maps.google.com/?q=34.0210869,71.576999",
      "source": "osm"
    },
    {
      "nom": "TOCHI BOYS HOSTEL",
      "categorie": "Auberge",
      "priceRange": "€€",
      "mapsUrl": "https://maps.google.com/?q=33.993047,71.477413",
      "lat": 33.993047,
      "lng": 71.477413,
      "halalFriendly": false,
      "bookingUrl": "https://maps.google.com/?q=33.993047,71.477413",
      "source": "osm"
    },
    {
      "nom": "ZAID HOSTEL",
      "categorie": "Auberge",
      "priceRange": "€€",
      "mapsUrl": "https://maps.google.com/?q=33.9927726,71.4771127",
      "lat": 33.9927726,
      "lng": 71.4771127,
      "halalFriendly": false,
      "bookingUrl": "https://maps.google.com/?q=33.9927726,71.4771127",
      "source": "osm"
    },
    {
      "nom": "HAMAD BOYS HOSTEL & SHOPS",
      "categorie": "Auberge",
      "priceRange": "€€",
      "mapsUrl": "https://maps.google.com/?q=33.9925736,71.4770745",
      "lat": 33.9925736,
      "lng": 71.4770745,
      "halalFriendly": false,
      "bookingUrl": "https://maps.google.com/?q=33.9925736,71.4770745",
      "source": "osm"
    },
    {
      "nom": "Karachi Hotel",
      "categorie": "Hôtel",
      "priceRange": "€€",
      "mapsUrl": "https://maps.google.com/?q=34.0147554,71.5802331",
      "lat": 34.0147554,
      "lng": 71.5802331,
      "halalFriendly": false,
      "bookingUrl": "https://maps.google.com/?q=34.0147554,71.5802331",
      "source": "osm"
    },
    {
      "nom": "Amin Hotel Peshawar",
      "categorie": "Hôtel",
      "priceRange": "€€",
      "mapsUrl": "https://maps.google.com/?q=34.0155327,71.5819412",
      "lat": 34.0155327,
      "lng": 71.5819412,
      "halalFriendly": false,
      "bookingUrl": "https://maps.google.com/?q=34.0155327,71.5819412",
      "source": "osm"
    },
    {
      "nom": "Shawal Hotel",
      "categorie": "Hôtel",
      "priceRange": "€€",
      "mapsUrl": "https://maps.google.com/?q=34.0148592,71.5821511",
      "lat": 34.0148592,
      "lng": 71.5821511,
      "halalFriendly": false,
      "bookingUrl": "https://maps.google.com/?q=34.0148592,71.5821511",
      "source": "osm"
    },
    {
      "nom": "Umar Farooq Hostel",
      "categorie": "Auberge",
      "priceRange": "€€",
      "mapsUrl": "https://maps.google.com/?q=33.9606352,71.5279887",
      "lat": 33.9606352,
      "lng": 71.5279887,
      "halalFriendly": false,
      "bookingUrl": "https://maps.google.com/?q=33.9606352,71.5279887",
      "source": "osm"
    },
    {
      "nom": "Abdul Hostel",
      "categorie": "Auberge",
      "priceRange": "€€",
      "mapsUrl": "https://maps.google.com/?q=33.9603447,71.5278316",
      "lat": 33.9603447,
      "lng": 71.5278316,
      "halalFriendly": false,
      "bookingUrl": "https://maps.google.com/?q=33.9603447,71.5278316",
      "source": "osm"
    },
    {
      "nom": "Hussain Hostel",
      "categorie": "Auberge",
      "priceRange": "€€",
      "mapsUrl": "https://maps.google.com/?q=34.034918,71.5874124",
      "lat": 34.034918,
      "lng": 71.5874124,
      "halalFriendly": false,
      "bookingUrl": "https://maps.google.com/?q=34.034918,71.5874124",
      "source": "osm"
    },
    {
      "nom": "Al-Mansoor",
      "categorie": "Hôtel",
      "priceRange": "€€",
      "mapsUrl": "https://maps.google.com/?q=34.0160147,71.5920212",
      "lat": 34.0160147,
      "lng": 71.5920212,
      "halalFriendly": false,
      "bookingUrl": "https://maps.google.com/?q=34.0160147,71.5920212",
      "source": "osm"
    },
    {
      "nom": "h",
      "categorie": "Appartement",
      "priceRange": "€€",
      "mapsUrl": "https://maps.google.com/?q=34.0335982,71.5893145",
      "lat": 34.0335982,
      "lng": 71.5893145,
      "halalFriendly": false,
      "bookingUrl": "https://maps.google.com/?q=34.0335982,71.5893145",
      "source": "osm"
    },
    {
      "nom": "hotel",
      "categorie": "Hôtel",
      "priceRange": "€€",
      "mapsUrl": "https://maps.google.com/?q=34.0162355,71.5950854",
      "lat": 34.0162355,
      "lng": 71.5950854,
      "halalFriendly": false,
      "bookingUrl": "https://maps.google.com/?q=34.0162355,71.5950854",
      "source": "osm"
    },
    {
      "nom": "Balahisar",
      "categorie": "Hôtel",
      "priceRange": "€€",
      "mapsUrl": "https://maps.google.com/?q=34.014797,71.5990183",
      "lat": 34.014797,
      "lng": 71.5990183,
      "halalFriendly": false,
      "bookingUrl": "https://maps.google.com/?q=34.014797,71.5990183",
      "source": "osm"
    },
    {
      "nom": "CityStar",
      "categorie": "Hôtel",
      "priceRange": "€€",
      "mapsUrl": "https://maps.google.com/?q=34.0155672,71.5998225",
      "lat": 34.0155672,
      "lng": 71.5998225,
      "halalFriendly": false,
      "bookingUrl": "https://maps.google.com/?q=34.0155672,71.5998225",
      "source": "osm"
    },
    {
      "nom": "FoodCourt",
      "categorie": "Hôtel",
      "priceRange": "€€",
      "mapsUrl": "https://maps.google.com/?q=34.0154762,71.5998354",
      "lat": 34.0154762,
      "lng": 71.5998354,
      "halalFriendly": false,
      "bookingUrl": "https://maps.google.com/?q=34.0154762,71.5998354",
      "source": "osm"
    },
    {
      "nom": "Marhaba",
      "categorie": "Hôtel",
      "priceRange": "€€",
      "mapsUrl": "https://maps.google.com/?q=34.0155985,71.5999932",
      "lat": 34.0155985,
      "lng": 71.5999932,
      "halalFriendly": false,
      "bookingUrl": "https://maps.google.com/?q=34.0155985,71.5999932",
      "source": "osm"
    },
    {
      "nom": "Doctor's Hostel",
      "categorie": "Auberge",
      "priceRange": "€€",
      "mapsUrl": "https://maps.google.com/?q=33.9943652,71.4520619",
      "lat": 33.9943652,
      "lng": 71.4520619,
      "halalFriendly": false,
      "bookingUrl": "https://maps.google.com/?q=33.9943652,71.4520619",
      "source": "osm"
    },
    {
      "nom": "Phase 4, Street 2.1",
      "categorie": "Auberge",
      "priceRange": "€€",
      "mapsUrl": "https://maps.google.com/?q=33.9901171,71.447514",
      "lat": 33.9901171,
      "lng": 71.447514,
      "halalFriendly": false,
      "bookingUrl": "https://maps.google.com/?q=33.9901171,71.447514",
      "source": "osm"
    },
    {
      "nom": "Youth Hostel",
      "categorie": "Auberge",
      "priceRange": "€€",
      "mapsUrl": "https://maps.google.com/?q=33.9915363,71.4387443",
      "lat": 33.9915363,
      "lng": 71.4387443,
      "halalFriendly": false,
      "bookingUrl": "https://maps.google.com/?q=33.9915363,71.4387443",
      "source": "osm"
    }
  ],
  "mosqueesPrincipales": [
    {
      "id": "m1",
      "nom": "Grande Mosquée de Peshawar",
      "type": "Mosquée",
      "adresse": "Centre-ville, Peshawar",
      "description": "Mosquée principale de la ville.",
      "note": 5,
      "acces_non_musulmans": false,
      "mapsUrl": "https://maps.google.com/?q=Mosque%20Peshawar%20Peshawar"
    }
  ],
  "activites": [
    {
      "id": "a1",
      "nom": "Mosquée Mahabat Khan",
      "categorie": "Spirituel",
      "description": "Mosquée moghole du XVIIe siècle au coeur du bazar.",
      "prix": "Gratuit",
      "duree": "",
      "mapsUrl": "https://maps.google.com/?q=Mosqu%C3%A9e%20Mahabat%20Khan%20Peshawar"
    },
    {
      "id": "a2",
      "nom": "Qissa Khwani Bazaar",
      "categorie": "Culture",
      "description": "'Bazar des conteurs', marché historique animé.",
      "prix": "Gratuit",
      "duree": "",
      "mapsUrl": "https://maps.google.com/?q=Qissa%20Khwani%20Bazaar%20Peshawar"
    },
    {
      "id": "a3",
      "nom": "Fort Bala Hissar",
      "categorie": "Histoire",
      "description": "Citadelle dominant la vieille ville.",
      "prix": "Gratuit",
      "duree": "",
      "mapsUrl": "https://maps.google.com/?q=Fort%20Bala%20Hissar%20Peshawar"
    }
  ],
  "imageCredit": "Wikimedia Commons",
  "osmEnriched": true,
  "osmEnrichedAt": "2026-06-30",
  "description_en": "Peshawar, in Pakistan, is a halal-friendly destination with a Halal Trust Score of 4.5/5. Muslim travelers will find a selection of halal restaurants, 1 mosques, real-time prayer times and the Qibla direction — a complete guide to travel with peace of mind.",
  "metaDescription_en": "Halal guide to Peshawar: halal restaurants, 1 mosques, prayer times and tips for Muslim travelers. Halal Trust Score 4.5/5.",
  "nom_en": "Peshawar"
}