{
  "slug": "quebec",
  "nom": "Québec",
  "pays": "Canada",
  "pays_slug": "canada",
  "continent": "Amérique du Nord",
  "region": "Canada",
  "coordonnees": {
    "lat": 46.8139,
    "lng": -71.208
  },
  "codeISO": "CA",
  "score_halal": 3.2,
  "halalScore": 6.4,
  "description": "Québec, Canada. Repérez les restaurants halal et les mosquées via l'application.",
  "metaDescription": "Québec, Canada. Repérez les restaurants halal et les mosquées via l'application.",
  "image": "https://images.unsplash.com/photo-1501785888041-af3ef285b470?w=1200&q=80",
  "image_hero": "https://images.unsplash.com/photo-1501785888041-af3ef285b470?w=1200&q=80",
  "imageAVenir": true,
  "imageCredit": "",
  "scoreIndicatif": true,
  "statistiques": {
    "restaurants_halal": 17,
    "mosquees": 1,
    "hotels": 110
  },
  "infoPratique": {
    "transport": "Accessible par avion et transports locaux.",
    "meilleureEpoque": "Selon la saison.",
    "conseilHalal": "Repérez restaurants halal et mosquées via l'application."
  },
  "tags": [
    "halal",
    "amérique du nord"
  ],
  "restaurants": [
    {
      "nom": "Maison Marocaine Québec",
      "type": "moroccan",
      "priceRange": "€€",
      "mapsUrl": "https://maps.google.com/?q=46.8142055,-71.2091324",
      "lat": 46.8142055,
      "lng": -71.2091324,
      "halalConfidence": "likely",
      "source": "osm"
    },
    {
      "nom": "Un Thé Au Sahara",
      "type": "moroccan",
      "priceRange": "€€",
      "mapsUrl": "https://maps.google.com/?q=46.8128881,-71.211998",
      "lat": 46.8128881,
      "lng": -71.211998,
      "halalConfidence": "likely",
      "source": "osm"
    },
    {
      "nom": "Liban",
      "type": "lebanese",
      "priceRange": "€€",
      "mapsUrl": "https://maps.google.com/?q=46.8126824,-71.2125478",
      "lat": 46.8126824,
      "lng": -71.2125478,
      "halalConfidence": "likely",
      "source": "osm"
    },
    {
      "nom": "Mana'ish",
      "type": "kebab",
      "priceRange": "€€",
      "mapsUrl": "https://maps.google.com/?q=46.8062682,-71.2162805",
      "lat": 46.8062682,
      "lng": -71.2162805,
      "halalConfidence": "likely",
      "source": "osm"
    },
    {
      "nom": "Al Waadi",
      "type": "kebab",
      "priceRange": "€€",
      "mapsUrl": "https://maps.google.com/?q=46.8060468,-71.2165935",
      "lat": 46.8060468,
      "lng": -71.2165935,
      "halalConfidence": "likely",
      "source": "osm"
    },
    {
      "nom": "Shiraz",
      "type": "persian",
      "priceRange": "€€",
      "mapsUrl": "https://maps.google.com/?q=46.8060017,-71.2166771",
      "lat": 46.8060017,
      "lng": -71.2166771,
      "halalConfidence": "likely",
      "source": "osm"
    },
    {
      "nom": "La Galette Libanaise",
      "type": "lebanese",
      "priceRange": "€€",
      "mapsUrl": "https://maps.google.com/?q=46.8148099,-71.2225078",
      "lat": 46.8148099,
      "lng": -71.2225078,
      "halalConfidence": "likely",
      "source": "osm"
    },
    {
      "nom": "Al Balade",
      "type": "kebab",
      "priceRange": "€€",
      "mapsUrl": "https://maps.google.com/?q=46.8133517,-71.2268495",
      "lat": 46.8133517,
      "lng": -71.2268495,
      "halalConfidence": "likely",
      "source": "osm"
    },
    {
      "nom": "Bachir",
      "type": "lebanese",
      "priceRange": "€€",
      "mapsUrl": "https://maps.google.com/?q=46.8046737,-71.2262826",
      "lat": 46.8046737,
      "lng": -71.2262826,
      "halalConfidence": "likely",
      "source": "osm"
    },
    {
      "nom": "Mansour Délices du Monde",
      "type": "kebab",
      "priceRange": "€€",
      "mapsUrl": "https://maps.google.com/?q=46.8047813,-71.2270714",
      "lat": 46.8047813,
      "lng": -71.2270714,
      "halalConfidence": "likely",
      "source": "osm"
    },
    {
      "nom": "Shady Café Resto Libanais",
      "type": "lebanese",
      "priceRange": "€€",
      "mapsUrl": "https://maps.google.com/?q=46.8374992,-71.2217564",
      "lat": 46.8374992,
      "lng": -71.2217564,
      "halalConfidence": "likely",
      "source": "osm"
    },
    {
      "nom": "Le Buffet des Continents",
      "type": "kebab",
      "priceRange": "€€",
      "mapsUrl": "https://maps.google.com/?q=46.8436747,-71.2462375",
      "lat": 46.8436747,
      "lng": -71.2462375,
      "halalConfidence": "likely",
      "source": "osm"
    },
    {
      "nom": "Shems",
      "type": "kebab",
      "priceRange": "€€",
      "mapsUrl": "https://maps.google.com/?q=46.8155591,-71.1488262",
      "lat": 46.8155591,
      "lng": -71.1488262,
      "halalConfidence": "likely",
      "source": "osm"
    },
    {
      "nom": "Le Cèdre Restaurant Libanais",
      "type": "lebanese",
      "priceRange": "€€",
      "mapsUrl": "https://maps.google.com/?q=46.7812418,-71.300343",
      "lat": 46.7812418,
      "lng": -71.300343,
      "halalConfidence": "likely",
      "source": "osm"
    },
    {
      "nom": "Épicerie Quatre Bourgeois",
      "type": "arab",
      "priceRange": "€€",
      "mapsUrl": "https://maps.google.com/?q=46.770661,-71.3056342",
      "lat": 46.770661,
      "lng": -71.3056342,
      "halalConfidence": "likely",
      "source": "osm"
    },
    {
      "nom": "Amir",
      "type": "lebanese",
      "priceRange": "€€",
      "mapsUrl": "https://maps.google.com/?q=46.8342852,-71.3531562",
      "lat": 46.8342852,
      "lng": -71.3531562,
      "halalConfidence": "likely",
      "source": "osm"
    }
  ],
  "hotels": [
    {
      "nom": "Monsieur Jean Hôtel Particulier",
      "categorie": "Hôtel",
      "priceRange": "€€",
      "mapsUrl": "https://maps.google.com/?q=46.8142519,-71.2089917",
      "lat": 46.8142519,
      "lng": -71.2089917,
      "halalFriendly": false,
      "bookingUrl": "https://maps.google.com/?q=46.8142519,-71.2089917",
      "source": "osm"
    },
    {
      "nom": "Les Lofts Ste-Anne",
      "categorie": "Hôtel",
      "priceRange": "€€",
      "mapsUrl": "https://maps.google.com/?q=46.8131664,-71.2072894",
      "lat": 46.8131664,
      "lng": -71.2072894,
      "halalFriendly": false,
      "bookingUrl": "https://loftssteanne.com/",
      "source": "osm"
    },
    {
      "nom": "Hôtel Marie Rollett",
      "categorie": "Hôtel",
      "priceRange": "€€",
      "mapsUrl": "https://maps.google.com/?q=46.8130486,-71.2089844",
      "lat": 46.8130486,
      "lng": -71.2089844,
      "halalFriendly": false,
      "bookingUrl": "https://www.hotelmarierollet.com/en/",
      "source": "osm"
    },
    {
      "nom": "Hotel Sainte-Anne",
      "categorie": "Hôtel",
      "priceRange": "€€",
      "mapsUrl": "https://maps.google.com/?q=46.8131457,-71.2067195",
      "lat": 46.8131457,
      "lng": -71.2067195,
      "halalFriendly": false,
      "bookingUrl": "https://maps.google.com/?q=46.8131457,-71.2067195",
      "source": "osm"
    },
    {
      "nom": "Auberge de la Paix",
      "categorie": "Auberge",
      "priceRange": "€€",
      "mapsUrl": "https://maps.google.com/?q=46.8150445,-71.2085392",
      "lat": 46.8150445,
      "lng": -71.2085392,
      "halalFriendly": false,
      "bookingUrl": "https://www.aubergedelapaix.com/",
      "source": "osm"
    },
    {
      "nom": "Auberge Place D'Armes",
      "categorie": "Hôtel",
      "priceRange": "€€",
      "mapsUrl": "https://maps.google.com/?q=46.8131395,-71.2064301",
      "lat": 46.8131395,
      "lng": -71.2064301,
      "halalFriendly": false,
      "bookingUrl": "https://maps.google.com/?q=46.8131395,-71.2064301",
      "source": "osm"
    },
    {
      "nom": "Hotel du Vieux-Quebec",
      "categorie": "Hôtel",
      "priceRange": "€€",
      "mapsUrl": "https://maps.google.com/?q=46.814611,-71.2097476",
      "lat": 46.814611,
      "lng": -71.2097476,
      "halalFriendly": false,
      "bookingUrl": "https://maps.google.com/?q=46.814611,-71.2097476",
      "source": "osm"
    },
    {
      "nom": "Les Du Lofts Tresor",
      "categorie": "Hôtel",
      "priceRange": "€€",
      "mapsUrl": "https://maps.google.com/?q=46.8134393,-71.2060284",
      "lat": 46.8134393,
      "lng": -71.2060284,
      "halalFriendly": false,
      "bookingUrl": "https://maps.google.com/?q=46.8134393,-71.2060284",
      "source": "osm"
    },
    {
      "nom": "Auberge du Trésor",
      "categorie": "Hôtel",
      "priceRange": "€€",
      "mapsUrl": "https://maps.google.com/?q=46.8130859,-71.2060976",
      "lat": 46.8130859,
      "lng": -71.2060976,
      "halalFriendly": false,
      "bookingUrl": "https://maps.google.com/?q=46.8130859,-71.2060976",
      "source": "osm"
    },
    {
      "nom": "Hotel Manoir Victoria",
      "categorie": "Hôtel",
      "priceRange": "€€€€",
      "score": 4,
      "mapsUrl": "https://maps.google.com/?q=46.8145206,-71.210841",
      "lat": 46.8145206,
      "lng": -71.210841,
      "halalFriendly": false,
      "bookingUrl": "https://maps.google.com/?q=46.8145206,-71.210841",
      "source": "osm"
    },
    {
      "nom": "Le Champlain Hotel",
      "categorie": "Hôtel",
      "priceRange": "€€",
      "mapsUrl": "https://maps.google.com/?q=46.8122713,-71.2103357",
      "lat": 46.8122713,
      "lng": -71.2103357,
      "halalFriendly": false,
      "bookingUrl": "https://maps.google.com/?q=46.8122713,-71.2103357",
      "source": "osm"
    },
    {
      "nom": "Auberge Saint-Louis",
      "categorie": "Hôtel",
      "priceRange": "€€",
      "mapsUrl": "https://maps.google.com/?q=46.8114144,-71.2081501",
      "lat": 46.8114144,
      "lng": -71.2081501,
      "halalFriendly": false,
      "bookingUrl": "https://maps.google.com/?q=46.8114144,-71.2081501",
      "source": "osm"
    },
    {
      "nom": "Auberge Internationale de Québec",
      "categorie": "Auberge",
      "priceRange": "€€",
      "mapsUrl": "https://maps.google.com/?q=46.8123644,-71.211124",
      "lat": 46.8123644,
      "lng": -71.211124,
      "halalFriendly": false,
      "bookingUrl": "https://maps.google.com/?q=46.8123644,-71.211124",
      "source": "osm"
    },
    {
      "nom": "Hotel Le Cavalier Du Moulin",
      "categorie": "Hôtel",
      "priceRange": "€€",
      "mapsUrl": "https://maps.google.com/?q=46.8111379,-71.208631",
      "lat": 46.8111379,
      "lng": -71.208631,
      "halalFriendly": false,
      "bookingUrl": "https://maps.google.com/?q=46.8111379,-71.208631",
      "source": "osm"
    },
    {
      "nom": "Hôtel Manoir des Remparts",
      "categorie": "Hôtel",
      "priceRange": "€€",
      "mapsUrl": "https://maps.google.com/?q=46.8159728,-71.2051813",
      "lat": 46.8159728,
      "lng": -71.2051813,
      "halalFriendly": false,
      "bookingUrl": "https://maps.google.com/?q=46.8159728,-71.2051813",
      "source": "osm"
    },
    {
      "nom": "Hotel Le Saint-Paul",
      "categorie": "Hôtel",
      "priceRange": "€€",
      "mapsUrl": "https://maps.google.com/?q=46.8167455,-71.209038",
      "lat": 46.8167455,
      "lng": -71.209038,
      "halalFriendly": false,
      "bookingUrl": "https://maps.google.com/?q=46.8167455,-71.209038",
      "source": "osm"
    },
    {
      "nom": "Hotel Acadia",
      "categorie": "Hôtel",
      "priceRange": "€€",
      "mapsUrl": "https://maps.google.com/?q=46.8112723,-71.2099613",
      "lat": 46.8112723,
      "lng": -71.2099613,
      "halalFriendly": false,
      "bookingUrl": "https://maps.google.com/?q=46.8112723,-71.2099613",
      "source": "osm"
    },
    {
      "nom": "Hôtel La Maison Ste-Ursule",
      "categorie": "Hôtel",
      "priceRange": "€€",
      "mapsUrl": "https://maps.google.com/?q=46.8114771,-71.2105289",
      "lat": 46.8114771,
      "lng": -71.2105289,
      "halalFriendly": false,
      "bookingUrl": "https://maps.google.com/?q=46.8114771,-71.2105289",
      "source": "osm"
    },
    {
      "nom": "Studios Nouvelle-France",
      "categorie": "Hôtel",
      "priceRange": "€€",
      "mapsUrl": "https://maps.google.com/?q=46.8112117,-71.209885",
      "lat": 46.8112117,
      "lng": -71.209885,
      "halalFriendly": false,
      "bookingUrl": "https://maps.google.com/?q=46.8112117,-71.209885",
      "source": "osm"
    },
    {
      "nom": "Au Petit Hôtel",
      "categorie": "Hôtel",
      "priceRange": "€€",
      "mapsUrl": "https://maps.google.com/?q=46.8110594,-71.2095147",
      "lat": 46.8110594,
      "lng": -71.2095147,
      "halalFriendly": false,
      "bookingUrl": "https://maps.google.com/?q=46.8110594,-71.2095147",
      "source": "osm"
    },
    {
      "nom": "Pavillon Louisbourg | Hôtels Nouvelle-France",
      "categorie": "Hôtel",
      "priceRange": "€€",
      "mapsUrl": "https://maps.google.com/?q=46.8109426,-71.2089625",
      "lat": 46.8109426,
      "lng": -71.2089625,
      "halalFriendly": false,
      "bookingUrl": "https://maps.google.com/?q=46.8109426,-71.2089625",
      "source": "osm"
    },
    {
      "nom": "Le Haute Ville",
      "categorie": "Hôtel",
      "priceRange": "€€",
      "mapsUrl": "https://maps.google.com/?q=46.8119085,-71.2115966",
      "lat": 46.8119085,
      "lng": -71.2115966,
      "halalFriendly": false,
      "bookingUrl": "https://maps.google.com/?q=46.8119085,-71.2115966",
      "source": "osm"
    },
    {
      "nom": "Hotel Maison du Général",
      "categorie": "Hôtel",
      "priceRange": "€€",
      "mapsUrl": "https://maps.google.com/?q=46.8108023,-71.2092019",
      "lat": 46.8108023,
      "lng": -71.2092019,
      "halalFriendly": false,
      "bookingUrl": "https://maps.google.com/?q=46.8108023,-71.2092019",
      "source": "osm"
    },
    {
      "nom": "Hôtel Belley",
      "categorie": "Hôtel",
      "priceRange": "€€",
      "mapsUrl": "https://maps.google.com/?q=46.8169025,-71.2097306",
      "lat": 46.8169025,
      "lng": -71.2097306,
      "halalFriendly": false,
      "bookingUrl": "https://maps.google.com/?q=46.8169025,-71.2097306",
      "source": "osm"
    },
    {
      "nom": "Hôtel Le Priori",
      "categorie": "Hôtel",
      "priceRange": "€€€€",
      "score": 4,
      "mapsUrl": "https://maps.google.com/?q=46.8144075,-71.2033226",
      "lat": 46.8144075,
      "lng": -71.2033226,
      "halalFriendly": false,
      "bookingUrl": "https://www.hotellepriori.com/",
      "source": "osm"
    },
    {
      "nom": "Hôtel Manoir Vieux-Québec",
      "categorie": "Hôtel",
      "priceRange": "€€",
      "mapsUrl": "https://maps.google.com/?q=46.8108678,-71.2063257",
      "lat": 46.8108678,
      "lng": -71.2063257,
      "halalFriendly": false,
      "bookingUrl": "https://maps.google.com/?q=46.8108678,-71.2063257",
      "source": "osm"
    },
    {
      "nom": "Hotel l'Ermitage",
      "categorie": "Hôtel",
      "priceRange": "€€",
      "mapsUrl": "https://maps.google.com/?q=46.8109024,-71.2098478",
      "lat": 46.8109024,
      "lng": -71.2098478,
      "halalFriendly": false,
      "bookingUrl": "https://maps.google.com/?q=46.8109024,-71.2098478",
      "source": "osm"
    },
    {
      "nom": "Hotel des Coutellier",
      "categorie": "Hôtel",
      "priceRange": "€€",
      "mapsUrl": "https://maps.google.com/?q=46.8168892,-71.2099097",
      "lat": 46.8168892,
      "lng": -71.2099097,
      "halalFriendly": false,
      "bookingUrl": "https://maps.google.com/?q=46.8168892,-71.2099097",
      "source": "osm"
    },
    {
      "nom": "Hotel Le Clos Saint-Louis",
      "categorie": "Hôtel",
      "priceRange": "€€",
      "mapsUrl": "https://maps.google.com/?q=46.810634,-71.2090217",
      "lat": 46.810634,
      "lng": -71.2090217,
      "halalFriendly": false,
      "bookingUrl": "https://maps.google.com/?q=46.810634,-71.2090217",
      "source": "osm"
    },
    {
      "nom": "le 31 McMahon",
      "categorie": "Hôtel",
      "priceRange": "€€",
      "mapsUrl": "https://maps.google.com/?q=46.8139005,-71.2129594",
      "lat": 46.8139005,
      "lng": -71.2129594,
      "halalFriendly": false,
      "bookingUrl": "https://le31mcmahon.com",
      "source": "osm"
    },
    {
      "nom": "Le Manoir d'Auteuil",
      "categorie": "Hôtel",
      "priceRange": "€€",
      "mapsUrl": "https://maps.google.com/?q=46.8114163,-71.2114541",
      "lat": 46.8114163,
      "lng": -71.2114541,
      "halalFriendly": false,
      "bookingUrl": "https://maps.google.com/?q=46.8114163,-71.2114541",
      "source": "osm"
    },
    {
      "nom": "Le Saint Pierre Auberge Distinctive",
      "categorie": "Hôtel",
      "priceRange": "€€",
      "mapsUrl": "https://maps.google.com/?q=46.8148544,-71.2031735",
      "lat": 46.8148544,
      "lng": -71.2031735,
      "halalFriendly": false,
      "bookingUrl": "https://auberge.qc.ca/",
      "source": "osm"
    },
    {
      "nom": "Hôtel 71",
      "categorie": "Hôtel",
      "priceRange": "€€",
      "mapsUrl": "https://maps.google.com/?q=46.8146266,-71.2030822",
      "lat": 46.8146266,
      "lng": -71.2030822,
      "halalFriendly": false,
      "bookingUrl": "https://maps.google.com/?q=46.8146266,-71.2030822",
      "source": "osm"
    },
    {
      "nom": "B&B À La Découverte",
      "categorie": "Hôtel",
      "priceRange": "€€",
      "mapsUrl": "https://maps.google.com/?q=46.8160087,-71.2121749",
      "lat": 46.8160087,
      "lng": -71.2121749,
      "halalFriendly": false,
      "bookingUrl": "https://maps.google.com/?q=46.8160087,-71.2121749",
      "source": "osm"
    },
    {
      "nom": "Hôtel Maison du Fort",
      "categorie": "Maison d'hôtes",
      "priceRange": "€€",
      "mapsUrl": "https://maps.google.com/?q=46.8103433,-71.2063448",
      "lat": 46.8103433,
      "lng": -71.2063448,
      "halalFriendly": false,
      "bookingUrl": "https://maps.google.com/?q=46.8103433,-71.2063448",
      "source": "osm"
    },
    {
      "nom": "Manoir Sur-le-Cap",
      "categorie": "Hôtel",
      "priceRange": "€€",
      "mapsUrl": "https://maps.google.com/?q=46.8104251,-71.2055492",
      "lat": 46.8104251,
      "lng": -71.2055492,
      "halalFriendly": false,
      "bookingUrl": "https://maps.google.com/?q=46.8104251,-71.2055492",
      "source": "osm"
    },
    {
      "nom": "Manoir L Esplanade",
      "categorie": "Hôtel",
      "priceRange": "€€",
      "mapsUrl": "https://maps.google.com/?q=46.8103264,-71.2102493",
      "lat": 46.8103264,
      "lng": -71.2102493,
      "halalFriendly": false,
      "bookingUrl": "https://maps.google.com/?q=46.8103264,-71.2102493",
      "source": "osm"
    },
    {
      "nom": "Château Fleur de Lys - L'hôtel",
      "categorie": "Hôtel",
      "priceRange": "€€",
      "mapsUrl": "https://maps.google.com/?q=46.8102681,-71.2059283",
      "lat": 46.8102681,
      "lng": -71.2059283,
      "halalFriendly": false,
      "bookingUrl": "https://chateaufleurdelys.com/",
      "source": "osm"
    },
    {
      "nom": "Hôtel Le Germain Québec",
      "categorie": "Hôtel",
      "priceRange": "€€",
      "mapsUrl": "https://maps.google.com/?q=46.8160734,-71.2032218",
      "lat": 46.8160734,
      "lng": -71.2032218,
      "halalFriendly": false,
      "bookingUrl": "https://maps.google.com/?q=46.8160734,-71.2032218",
      "source": "osm"
    },
    {
      "nom": "Auberge Saint-Antoine",
      "categorie": "Hôtel",
      "priceRange": "€€€€",
      "score": 5,
      "mapsUrl": "https://maps.google.com/?q=46.8144602,-71.2018231",
      "lat": 46.8144602,
      "lng": -71.2018231,
      "halalFriendly": false,
      "bookingUrl": "https://saint-antoine.com/",
      "source": "osm"
    },
    {
      "nom": "Le Capitole",
      "categorie": "Hôtel",
      "priceRange": "€€€",
      "score": 3,
      "mapsUrl": "https://maps.google.com/?q=46.8132483,-71.2141953",
      "lat": 46.8132483,
      "lng": -71.2141953,
      "halalFriendly": false,
      "bookingUrl": "https://www.lecapitole.com/",
      "source": "osm"
    },
    {
      "nom": "L'Hotel Port-Royal",
      "categorie": "Hôtel",
      "priceRange": "€€",
      "mapsUrl": "https://maps.google.com/?q=46.8165282,-71.2030443",
      "lat": 46.8165282,
      "lng": -71.2030443,
      "halalFriendly": false,
      "bookingUrl": "https://maps.google.com/?q=46.8165282,-71.2030443",
      "source": "osm"
    },
    {
      "nom": "Palace Royal",
      "categorie": "Hôtel",
      "priceRange": "€€",
      "mapsUrl": "https://maps.google.com/?q=46.8124145,-71.2152669",
      "lat": 46.8124145,
      "lng": -71.2152669,
      "halalFriendly": false,
      "bookingUrl": "https://www.hotelsjaro.com/palace-royal/",
      "source": "osm"
    },
    {
      "nom": "Hilton Quebec",
      "categorie": "Hôtel",
      "priceRange": "€€",
      "mapsUrl": "https://maps.google.com/?q=46.810587,-71.2147896",
      "lat": 46.810587,
      "lng": -71.2147896,
      "halalFriendly": false,
      "bookingUrl": "https://www.hilton.com/en/hotels/yqbhihh-hilton-quebec/",
      "source": "osm"
    },
    {
      "nom": "Delta Quebec",
      "categorie": "Hôtel",
      "priceRange": "€€",
      "mapsUrl": "https://maps.google.com/?q=46.8093738,-71.2178915",
      "lat": 46.8093738,
      "lng": -71.2178915,
      "halalFriendly": false,
      "bookingUrl": "https://www.marriott.com/en-us/hotels/yqbdr-delta-hotels-quebec/overview/",
      "source": "osm"
    },
    {
      "nom": "Loft Saint Joseph",
      "categorie": "Appartement",
      "priceRange": "€€",
      "mapsUrl": "https://maps.google.com/?q=46.8160011,-71.2197526",
      "lat": 46.8160011,
      "lng": -71.2197526,
      "halalFriendly": false,
      "bookingUrl": "https://loftsvieuxquebec.com/les-lofts-st-joseph/",
      "source": "osm"
    },
    {
      "nom": "Hôtel Château Laurier Quebec",
      "categorie": "Hôtel",
      "priceRange": "€€",
      "mapsUrl": "https://maps.google.com/?q=46.8066002,-71.2151384",
      "lat": 46.8066002,
      "lng": -71.2151384,
      "halalFriendly": false,
      "bookingUrl": "https://maps.google.com/?q=46.8066002,-71.2151384",
      "source": "osm"
    },
    {
      "nom": "Hôtel Chateau Laurier",
      "categorie": "Hôtel",
      "priceRange": "€€",
      "mapsUrl": "https://maps.google.com/?q=46.8064042,-71.2154048",
      "lat": 46.8064042,
      "lng": -71.2154048,
      "halalFriendly": false,
      "bookingUrl": "https://www.hotelchateaulaurier.com/",
      "source": "osm"
    },
    {
      "nom": "Gite Au Croissant de Lune",
      "categorie": "Maison d'hôtes",
      "priceRange": "€€",
      "mapsUrl": "https://maps.google.com/?q=46.8096943,-71.2197458",
      "lat": 46.8096943,
      "lng": -71.2197458,
      "halalFriendly": false,
      "bookingUrl": "https://maps.google.com/?q=46.8096943,-71.2197458",
      "source": "osm"
    },
    {
      "nom": "Auberge Maeva",
      "categorie": "Auberge",
      "priceRange": "€€",
      "mapsUrl": "https://maps.google.com/?q=46.8156319,-71.2214508",
      "lat": 46.8156319,
      "lng": -71.2214508,
      "halalFriendly": false,
      "bookingUrl": "https://maps.google.com/?q=46.8156319,-71.2214508",
      "source": "osm"
    },
    {
      "nom": "Auberge QBEDS",
      "categorie": "Auberge",
      "priceRange": "€€",
      "mapsUrl": "https://maps.google.com/?q=46.8061205,-71.2165744",
      "lat": 46.8061205,
      "lng": -71.2165744,
      "halalFriendly": false,
      "bookingUrl": "https://qbeds.ca/",
      "source": "osm"
    },
    {
      "nom": "Le Grande-Allee Hotel and Suites",
      "categorie": "Hôtel",
      "priceRange": "€€",
      "mapsUrl": "https://maps.google.com/?q=46.8059502,-71.2166637",
      "lat": 46.8059502,
      "lng": -71.2166637,
      "halalFriendly": false,
      "bookingUrl": "https://maps.google.com/?q=46.8059502,-71.2166637",
      "source": "osm"
    },
    {
      "nom": "Hotel Maurice",
      "categorie": "Hôtel",
      "priceRange": "€€",
      "mapsUrl": "https://maps.google.com/?q=46.8057587,-71.2171924",
      "lat": 46.8057587,
      "lng": -71.2171924,
      "halalFriendly": false,
      "bookingUrl": "https://hotelmaurice.ca/",
      "source": "osm"
    },
    {
      "nom": "Le Château du Faubourg",
      "categorie": "Maison d'hôtes",
      "priceRange": "€€",
      "mapsUrl": "https://maps.google.com/?q=46.8090817,-71.2218801",
      "lat": 46.8090817,
      "lng": -71.2218801,
      "halalFriendly": false,
      "bookingUrl": "https://www.lechateaudufaubourg.com/",
      "source": "osm"
    },
    {
      "nom": "Hôtel Le Concorde Québec",
      "categorie": "Hôtel",
      "priceRange": "€€",
      "mapsUrl": "https://maps.google.com/?q=46.8052983,-71.2171815",
      "lat": 46.8052983,
      "lng": -71.2171815,
      "halalFriendly": false,
      "bookingUrl": "https://maps.google.com/?q=46.8052983,-71.2171815",
      "source": "osm"
    },
    {
      "nom": "Villas Saint-Georges",
      "categorie": "Appartement",
      "priceRange": "€€",
      "mapsUrl": "https://maps.google.com/?q=46.8143394,-71.2238211",
      "lat": 46.8143394,
      "lng": -71.2238211,
      "halalFriendly": false,
      "bookingUrl": "https://maps.google.com/?q=46.8143394,-71.2238211",
      "source": "osm"
    },
    {
      "nom": "Les Maisons Montcalm",
      "categorie": "Hôtel",
      "priceRange": "€€",
      "mapsUrl": "https://maps.google.com/?q=46.8049421,-71.2176051",
      "lat": 46.8049421,
      "lng": -71.2176051,
      "halalFriendly": false,
      "bookingUrl": "https://maps.google.com/?q=46.8049421,-71.2176051",
      "source": "osm"
    },
    {
      "nom": "B & B Manoir Mon Calme",
      "categorie": "Hôtel",
      "priceRange": "€€",
      "mapsUrl": "https://maps.google.com/?q=46.805255,-71.2182099",
      "lat": 46.805255,
      "lng": -71.2182099,
      "halalFriendly": false,
      "bookingUrl": "https://www.expedia.com/Quebec-Hotels-BB-Manoir-Mon-Calme.h12463245.Hotel-Information",
      "source": "osm"
    },
    {
      "nom": "Hotel PUR, Quebec, A Tribute Portfolio Hotel",
      "categorie": "Hôtel",
      "priceRange": "€€€€",
      "score": 4,
      "mapsUrl": "https://maps.google.com/?q=46.814553,-71.2242169",
      "lat": 46.814553,
      "lng": -71.2242169,
      "halalFriendly": false,
      "bookingUrl": "https://www.marriott.com/en-us/hotels/yqbpu-hotel-pur-quebec-a-tribute-portfolio-hotel/overview/",
      "source": "osm"
    },
    {
      "nom": "Hôtel des Jardins",
      "categorie": "Hôtel",
      "priceRange": "€€",
      "mapsUrl": "https://maps.google.com/?q=46.8132739,-71.224648",
      "lat": 46.8132739,
      "lng": -71.224648,
      "halalFriendly": false,
      "bookingUrl": "https://maps.google.com/?q=46.8132739,-71.224648",
      "source": "osm"
    },
    {
      "nom": "Auberge Le Vincent",
      "categorie": "Hôtel",
      "priceRange": "€€",
      "mapsUrl": "https://maps.google.com/?q=46.8117118,-71.2246638",
      "lat": 46.8117118,
      "lng": -71.2246638,
      "halalFriendly": false,
      "bookingUrl": "https://maps.google.com/?q=46.8117118,-71.2246638",
      "source": "osm"
    },
    {
      "nom": "Hotel Royal William",
      "categorie": "Hôtel",
      "priceRange": "€€",
      "mapsUrl": "https://maps.google.com/?q=46.8135554,-71.2250535",
      "lat": 46.8135554,
      "lng": -71.2250535,
      "halalFriendly": false,
      "bookingUrl": "https://maps.google.com/?q=46.8135554,-71.2250535",
      "source": "osm"
    },
    {
      "nom": "Best Western Plus Centre-Ville",
      "categorie": "Hôtel",
      "priceRange": "€€",
      "mapsUrl": "https://maps.google.com/?q=46.8149154,-71.2257194",
      "lat": 46.8149154,
      "lng": -71.2257194,
      "halalFriendly": false,
      "bookingUrl": "https://maps.google.com/?q=46.8149154,-71.2257194",
      "source": "osm"
    },
    {
      "nom": "Les Lofts de la Fabrique",
      "categorie": "Hôtel",
      "priceRange": "€€",
      "mapsUrl": "https://maps.google.com/?q=46.8131272,-71.2261886",
      "lat": 46.8131272,
      "lng": -71.2261886,
      "halalFriendly": false,
      "bookingUrl": "https://loftsvieuxquebec.com/",
      "source": "osm"
    },
    {
      "nom": "Manoir De La Tour",
      "categorie": "Hôtel",
      "priceRange": "€€",
      "mapsUrl": "https://maps.google.com/?q=46.8041289,-71.2198661",
      "lat": 46.8041289,
      "lng": -71.2198661,
      "halalFriendly": false,
      "bookingUrl": "https://maps.google.com/?q=46.8041289,-71.2198661",
      "source": "osm"
    },
    {
      "nom": "Aux Deux Lions",
      "categorie": "Hôtel",
      "priceRange": "€€€",
      "score": 3,
      "mapsUrl": "https://maps.google.com/?q=46.8054271,-71.2244218",
      "lat": 46.8054271,
      "lng": -71.2244218,
      "halalFriendly": false,
      "bookingUrl": "https://maps.google.com/?q=46.8054271,-71.2244218",
      "source": "osm"
    },
    {
      "nom": "Relais Charles-Alexandre",
      "categorie": "Hôtel",
      "priceRange": "€€",
      "mapsUrl": "https://maps.google.com/?q=46.8028165,-71.2222683",
      "lat": 46.8028165,
      "lng": -71.2222683,
      "halalFriendly": false,
      "bookingUrl": "https://maps.google.com/?q=46.8028165,-71.2222683",
      "source": "osm"
    },
    {
      "nom": "Le Widor Bed and Breakfast",
      "categorie": "Hôtel",
      "priceRange": "€€€",
      "score": 3,
      "mapsUrl": "https://maps.google.com/?q=46.8028493,-71.2230305",
      "lat": 46.8028493,
      "lng": -71.2230305,
      "halalFriendly": false,
      "bookingUrl": "http://lewidor.ca/",
      "source": "osm"
    },
    {
      "nom": "Chez Mimi",
      "categorie": "Maison d'hôtes",
      "priceRange": "€€",
      "mapsUrl": "https://maps.google.com/?q=46.8041514,-71.2253697",
      "lat": 46.8041514,
      "lng": -71.2253697,
      "halalFriendly": false,
      "bookingUrl": "https://maps.google.com/?q=46.8041514,-71.2253697",
      "source": "osm"
    },
    {
      "nom": "L'Abri de la Maison Marie-Fréderick",
      "categorie": "Auberge",
      "priceRange": "€€",
      "mapsUrl": "https://maps.google.com/?q=46.8127878,-71.2319321",
      "lat": 46.8127878,
      "lng": -71.2319321,
      "halalFriendly": false,
      "bookingUrl": "https://maisonmariefrederic.com/services/",
      "source": "osm"
    },
    {
      "nom": "Le C3 Hotel",
      "categorie": "Hôtel",
      "priceRange": "€€",
      "mapsUrl": "https://maps.google.com/?q=46.8015584,-71.2253726",
      "lat": 46.8015584,
      "lng": -71.2253726,
      "halalFriendly": false,
      "bookingUrl": "https://www.lec3hotel.com/",
      "source": "osm"
    },
    {
      "nom": "La Sainte Paix",
      "categorie": "Hôtel",
      "priceRange": "€€",
      "mapsUrl": "https://maps.google.com/?q=46.8053583,-71.2300903",
      "lat": 46.8053583,
      "lng": -71.2300903,
      "halalFriendly": false,
      "bookingUrl": "https://lasaintepaix.ca/",
      "source": "osm"
    },
    {
      "nom": "Gîte BB 4 Saisons",
      "categorie": "Hôtel",
      "priceRange": "€€",
      "mapsUrl": "https://maps.google.com/?q=46.8025706,-71.2292898",
      "lat": 46.8025706,
      "lng": -71.2292898,
      "halalFriendly": false,
      "bookingUrl": "https://maps.google.com/?q=46.8025706,-71.2292898",
      "source": "osm"
    },
    {
      "nom": "Local À Tiry",
      "categorie": "Maison d'hôtes",
      "priceRange": "€€",
      "mapsUrl": "https://maps.google.com/?q=46.8050439,-71.2362273",
      "lat": 46.8050439,
      "lng": -71.2362273,
      "halalFriendly": false,
      "bookingUrl": "https://maps.google.com/?q=46.8050439,-71.2362273",
      "source": "osm"
    },
    {
      "nom": "Hotel du Nord",
      "categorie": "Hôtel",
      "priceRange": "€€",
      "mapsUrl": "https://maps.google.com/?q=46.8104371,-71.2451481",
      "lat": 46.8104371,
      "lng": -71.2451481,
      "halalFriendly": false,
      "bookingUrl": "https://maps.google.com/?q=46.8104371,-71.2451481",
      "source": "osm"
    },
    {
      "nom": "La Victorienne Urbaine",
      "categorie": "Maison d'hôtes",
      "priceRange": "€€",
      "mapsUrl": "https://maps.google.com/?q=46.8097709,-71.2462151",
      "lat": 46.8097709,
      "lng": -71.2462151,
      "halalFriendly": false,
      "bookingUrl": "https://maps.google.com/?q=46.8097709,-71.2462151",
      "source": "osm"
    },
    {
      "nom": "Hôtel Le Voyageur",
      "categorie": "Hôtel",
      "priceRange": "€€",
      "mapsUrl": "https://maps.google.com/?q=46.8416809,-71.2183417",
      "lat": 46.8416809,
      "lng": -71.2183417,
      "halalFriendly": false,
      "bookingUrl": "https://maps.google.com/?q=46.8416809,-71.2183417",
      "source": "osm"
    },
    {
      "nom": "Maison Roy",
      "categorie": "Maison d'hôtes",
      "priceRange": "€€",
      "mapsUrl": "https://maps.google.com/?q=46.7907235,-71.2500727",
      "lat": 46.7907235,
      "lng": -71.2500727,
      "halalFriendly": false,
      "bookingUrl": "https://maps.google.com/?q=46.7907235,-71.2500727",
      "source": "osm"
    },
    {
      "nom": "Grand Times Hotel",
      "categorie": "Hôtel",
      "priceRange": "€€",
      "mapsUrl": "https://maps.google.com/?q=46.7877527,-71.1649331",
      "lat": 46.7877527,
      "lng": -71.1649331,
      "halalFriendly": false,
      "bookingUrl": "https://maps.google.com/?q=46.7877527,-71.1649331",
      "source": "osm"
    },
    {
      "nom": "Four Points by Sheraton",
      "categorie": "Hôtel",
      "priceRange": "€€",
      "mapsUrl": "https://maps.google.com/?q=46.7896104,-71.1625072",
      "lat": 46.7896104,
      "lng": -71.1625072,
      "halalFriendly": false,
      "bookingUrl": "https://maps.google.com/?q=46.7896104,-71.1625072",
      "source": "osm"
    },
    {
      "nom": "Hotel Ambassadeur Quebec",
      "categorie": "Hôtel",
      "priceRange": "€€",
      "mapsUrl": "https://maps.google.com/?q=46.8531519,-71.1977569",
      "lat": 46.8531519,
      "lng": -71.1977569,
      "halalFriendly": false,
      "bookingUrl": "https://maps.google.com/?q=46.8531519,-71.1977569",
      "source": "osm"
    },
    {
      "nom": "Place Alexandra",
      "categorie": "Appartement",
      "priceRange": "€€",
      "mapsUrl": "https://maps.google.com/?q=46.8510395,-71.2315015",
      "lat": 46.8510395,
      "lng": -71.2315015,
      "halalFriendly": false,
      "bookingUrl": "https://maps.google.com/?q=46.8510395,-71.2315015",
      "source": "osm"
    },
    {
      "nom": "Hôtel L'Oie des neiges",
      "categorie": "Hôtel",
      "priceRange": "€€",
      "mapsUrl": "https://maps.google.com/?q=46.7854739,-71.1606785",
      "lat": 46.7854739,
      "lng": -71.1606785,
      "halalFriendly": false,
      "bookingUrl": "https://maps.google.com/?q=46.7854739,-71.1606785",
      "source": "osm"
    },
    {
      "nom": "Maison Nikita",
      "categorie": "Maison d'hôtes",
      "priceRange": "€€",
      "mapsUrl": "https://maps.google.com/?q=46.7861271,-71.2566149",
      "lat": 46.7861271,
      "lng": -71.2566149,
      "halalFriendly": false,
      "bookingUrl": "https://maps.google.com/?q=46.7861271,-71.2566149",
      "source": "osm"
    },
    {
      "nom": "Maison Christophe",
      "categorie": "Maison d'hôtes",
      "priceRange": "€€",
      "mapsUrl": "https://maps.google.com/?q=46.7838485,-71.2538522",
      "lat": 46.7838485,
      "lng": -71.2538522,
      "halalFriendly": false,
      "bookingUrl": "https://maps.google.com/?q=46.7838485,-71.2538522",
      "source": "osm"
    },
    {
      "nom": "Gîte du Vieux-Bourg",
      "categorie": "Maison d'hôtes",
      "priceRange": "€€€€",
      "score": 4,
      "mapsUrl": "https://maps.google.com/?q=46.8571553,-71.1956626",
      "lat": 46.8571553,
      "lng": -71.1956626,
      "halalFriendly": false,
      "bookingUrl": "https://maps.google.com/?q=46.8571553,-71.1956626",
      "source": "osm"
    },
    {
      "nom": "Quality Inn & Suites",
      "categorie": "Hôtel",
      "priceRange": "€€",
      "mapsUrl": "https://maps.google.com/?q=46.7859776,-71.1566554",
      "lat": 46.7859776,
      "lng": -71.1566554,
      "halalFriendly": false,
      "bookingUrl": "https://maps.google.com/?q=46.7859776,-71.1566554",
      "source": "osm"
    },
    {
      "nom": "Comfort Inn",
      "categorie": "Hôtel",
      "priceRange": "€€",
      "mapsUrl": "https://maps.google.com/?q=46.7813404,-71.1543235",
      "lat": 46.7813404,
      "lng": -71.1543235,
      "halalFriendly": false,
      "bookingUrl": "https://maps.google.com/?q=46.7813404,-71.1543235",
      "source": "osm"
    },
    {
      "nom": "Maison Gabichou",
      "categorie": "Maison d'hôtes",
      "priceRange": "€€",
      "mapsUrl": "https://maps.google.com/?q=46.7882151,-71.2709524",
      "lat": 46.7882151,
      "lng": -71.2709524,
      "halalFriendly": false,
      "bookingUrl": "https://maps.google.com/?q=46.7882151,-71.2709524",
      "source": "osm"
    },
    {
      "nom": "City central Apartment",
      "categorie": "Appartement",
      "priceRange": "€€",
      "mapsUrl": "https://maps.google.com/?q=46.7800986,-71.2636701",
      "lat": 46.7800986,
      "lng": -71.2636701,
      "halalFriendly": false,
      "bookingUrl": "https://maps.google.com/?q=46.7800986,-71.2636701",
      "source": "osm"
    },
    {
      "nom": "Hotel & Suites Normandin",
      "categorie": "Hôtel",
      "priceRange": "€€",
      "mapsUrl": "https://maps.google.com/?q=46.833552,-71.2795594",
      "lat": 46.833552,
      "lng": -71.2795594,
      "halalFriendly": false,
      "bookingUrl": "https://maps.google.com/?q=46.833552,-71.2795594",
      "source": "osm"
    },
    {
      "nom": "Maison Sillery",
      "categorie": "Maison d'hôtes",
      "priceRange": "€€",
      "mapsUrl": "https://maps.google.com/?q=46.7764059,-71.2623994",
      "lat": 46.7764059,
      "lng": -71.2623994,
      "halalFriendly": false,
      "bookingUrl": "https://maps.google.com/?q=46.7764059,-71.2623994",
      "source": "osm"
    },
    {
      "nom": "Hôtel & Suites Le Dauphin Québec",
      "categorie": "Hôtel",
      "priceRange": "€€",
      "mapsUrl": "https://maps.google.com/?q=46.8283938,-71.2827871",
      "lat": 46.8283938,
      "lng": -71.2827871,
      "halalFriendly": false,
      "bookingUrl": "https://maps.google.com/?q=46.8283938,-71.2827871",
      "source": "osm"
    },
    {
      "nom": "Courtyard",
      "categorie": "Hôtel",
      "priceRange": "€€",
      "mapsUrl": "https://maps.google.com/?q=46.8344183,-71.2811212",
      "lat": 46.8344183,
      "lng": -71.2811212,
      "halalFriendly": false,
      "bookingUrl": "https://maps.google.com/?q=46.8344183,-71.2811212",
      "source": "osm"
    },
    {
      "nom": "Hôtel Universel",
      "categorie": "Hôtel",
      "priceRange": "€€",
      "mapsUrl": "https://maps.google.com/?q=46.7871536,-71.2784975",
      "lat": 46.7871536,
      "lng": -71.2784975,
      "halalFriendly": false,
      "bookingUrl": "https://www.hoteluniversel.qc.ca/",
      "source": "osm"
    },
    {
      "nom": "Unilofts Hôtel",
      "categorie": "Hôtel",
      "priceRange": "€€",
      "mapsUrl": "https://maps.google.com/?q=46.7867507,-71.2792512",
      "lat": 46.7867507,
      "lng": -71.2792512,
      "halalFriendly": false,
      "bookingUrl": "https://maps.google.com/?q=46.7867507,-71.2792512",
      "source": "osm"
    },
    {
      "nom": "Auberge La Goéliche",
      "categorie": "Hôtel",
      "priceRange": "€€",
      "mapsUrl": "https://maps.google.com/?q=46.8453758,-71.1313989",
      "lat": 46.8453758,
      "lng": -71.1313989,
      "halalFriendly": false,
      "bookingUrl": "https://maps.google.com/?q=46.8453758,-71.1313989",
      "source": "osm"
    },
    {
      "nom": "ALT Hôtel",
      "categorie": "Hôtel",
      "priceRange": "€€",
      "mapsUrl": "https://maps.google.com/?q=46.7689278,-71.2877917",
      "lat": 46.7689278,
      "lng": -71.2877917,
      "halalFriendly": false,
      "bookingUrl": "https://maps.google.com/?q=46.7689278,-71.2877917",
      "source": "osm"
    },
    {
      "nom": "Hôtel Classique",
      "categorie": "Hôtel",
      "priceRange": "€€",
      "mapsUrl": "https://maps.google.com/?q=46.7674251,-71.2865396",
      "lat": 46.7674251,
      "lng": -71.2865396,
      "halalFriendly": false,
      "bookingUrl": "https://www.hotelclassique.com/",
      "source": "osm"
    },
    {
      "nom": "Hôtel Lindbergh",
      "categorie": "Hôtel",
      "priceRange": "€€",
      "mapsUrl": "https://maps.google.com/?q=46.7670292,-71.2870175",
      "lat": 46.7670292,
      "lng": -71.2870175,
      "halalFriendly": false,
      "bookingUrl": "https://maps.google.com/?q=46.7670292,-71.2870175",
      "source": "osm"
    },
    {
      "nom": "Hotel Quality Inn",
      "categorie": "Hôtel",
      "priceRange": "€€",
      "mapsUrl": "https://maps.google.com/?q=46.8055878,-71.3141926",
      "lat": 46.8055878,
      "lng": -71.3141926,
      "halalFriendly": false,
      "bookingUrl": "https://www.choicehotels.com/fr-ca/quebec/quebec/quality-inn-hotels/cnb74",
      "source": "osm"
    },
    {
      "nom": "Hôtel Quartier",
      "categorie": "Hôtel",
      "priceRange": "€€",
      "mapsUrl": "https://maps.google.com/?q=46.7652901,-71.2907023",
      "lat": 46.7652901,
      "lng": -71.2907023,
      "halalFriendly": false,
      "bookingUrl": "https://hotelquartier.com",
      "source": "osm"
    },
    {
      "nom": "Maison de Nicholas",
      "categorie": "Maison d'hôtes",
      "priceRange": "€€",
      "mapsUrl": "https://maps.google.com/?q=46.7623153,-71.288604",
      "lat": 46.7623153,
      "lng": -71.288604,
      "halalFriendly": false,
      "bookingUrl": "https://maps.google.com/?q=46.7623153,-71.288604",
      "source": "osm"
    },
    {
      "nom": "Hôtel Plaza Québec",
      "categorie": "Hôtel",
      "priceRange": "€€",
      "mapsUrl": "https://maps.google.com/?q=46.7641797,-71.2926996",
      "lat": 46.7641797,
      "lng": -71.2926996,
      "halalFriendly": false,
      "bookingUrl": "https://www.hotelsjaro.com/plaza-quebec/en/",
      "source": "osm"
    },
    {
      "nom": "Auberge Québec",
      "categorie": "Hôtel",
      "priceRange": "€€",
      "mapsUrl": "https://maps.google.com/?q=46.7638125,-71.2935278",
      "lat": 46.7638125,
      "lng": -71.2935278,
      "halalFriendly": false,
      "bookingUrl": "https://www.hotelsjaro.com/",
      "source": "osm"
    },
    {
      "nom": "Sir Wilfrid",
      "categorie": "Hôtel",
      "priceRange": "€€",
      "mapsUrl": "https://maps.google.com/?q=46.7635159,-71.293396",
      "lat": 46.7635159,
      "lng": -71.293396,
      "halalFriendly": false,
      "bookingUrl": "https://maps.google.com/?q=46.7635159,-71.293396",
      "source": "osm"
    },
    {
      "nom": "L'Hôtel Québec",
      "categorie": "Hôtel",
      "priceRange": "€€",
      "mapsUrl": "https://maps.google.com/?q=46.7624675,-71.2954484",
      "lat": 46.7624675,
      "lng": -71.2954484,
      "halalFriendly": false,
      "bookingUrl": "https://maps.google.com/?q=46.7624675,-71.2954484",
      "source": "osm"
    },
    {
      "nom": "Holiday Inn Express",
      "categorie": "Hôtel",
      "priceRange": "€€",
      "mapsUrl": "https://maps.google.com/?q=46.7592146,-71.2949539",
      "lat": 46.7592146,
      "lng": -71.2949539,
      "halalFriendly": false,
      "bookingUrl": "https://maps.google.com/?q=46.7592146,-71.2949539",
      "source": "osm"
    }
  ],
  "mosqueesPrincipales": [
    {
      "id": "m219208845",
      "nom": "Grande Mosquée de Québec",
      "type": "Mosquée",
      "adresse": "Chemin Sainte-Foy, Québec",
      "description": "Lieu de prière (OpenStreetMap).",
      "mapsUrl": "https://maps.google.com/?q=46.7779531,-71.3053718",
      "lat": 46.7779531,
      "lng": -71.3053718,
      "source": "osm"
    }
  ],
  "activites": [
    {
      "id": "a11115430405",
      "nom": "Horloge du Jura",
      "categorie": "monument",
      "description": "",
      "prix": "",
      "duree": "",
      "mapsUrl": "https://maps.google.com/?q=46.8133295,-71.2079854",
      "lat": 46.8133295,
      "lng": -71.2079854,
      "source": "osm"
    },
    {
      "id": "a948560661",
      "nom": "Taschereau",
      "categorie": "monument",
      "description": "",
      "prix": "",
      "duree": "",
      "mapsUrl": "https://maps.google.com/?q=46.8137946,-71.2071478",
      "lat": 46.8137946,
      "lng": -71.2071478,
      "source": "osm"
    },
    {
      "id": "a13017887601",
      "nom": "L'Envol",
      "categorie": "artwork",
      "description": "",
      "prix": "",
      "duree": "",
      "mapsUrl": "https://maps.google.com/?q=46.813229,-71.2087117",
      "lat": 46.813229,
      "lng": -71.2087117,
      "source": "osm"
    },
    {
      "id": "a1614499830",
      "nom": "L'Homme-Rivière",
      "categorie": "artwork",
      "description": "",
      "prix": "",
      "duree": "",
      "mapsUrl": "https://maps.google.com/?q=46.8130359,-71.2082879",
      "lat": 46.8130359,
      "lng": -71.2082879,
      "source": "osm"
    },
    {
      "id": "a13250945951",
      "nom": "Galerie Porte Rouge - Vieux-Québec",
      "categorie": "gallery",
      "description": "",
      "prix": "",
      "duree": "",
      "mapsUrl": "https://maps.google.com/?q=46.8135247,-71.206492",
      "lat": 46.8135247,
      "lng": -71.206492,
      "source": "osm"
    },
    {
      "id": "a392464680",
      "nom": "Musée des Ursulines",
      "categorie": "museum",
      "description": "",
      "prix": "",
      "duree": "",
      "mapsUrl": "https://maps.google.com/?q=46.8122948,-71.2078508",
      "lat": 46.8122948,
      "lng": -71.2078508,
      "source": "osm"
    },
    {
      "id": "a3956598677",
      "nom": "Monument to Religious Teaching Communities",
      "categorie": "monument",
      "description": "",
      "prix": "",
      "duree": "",
      "mapsUrl": "https://maps.google.com/?q=46.8121802,-71.207562",
      "lat": 46.8121802,
      "lng": -71.207562,
      "source": "osm"
    },
    {
      "id": "a13852510544",
      "nom": "Le musée du Monastère des Augustines",
      "categorie": "museum",
      "description": "",
      "prix": "",
      "duree": "",
      "mapsUrl": "https://maps.google.com/?q=46.8153109,-71.2100851",
      "lat": 46.8153109,
      "lng": -71.2100851,
      "source": "osm"
    },
    {
      "id": "a283264348",
      "nom": "Musée du Fort",
      "categorie": "museum",
      "description": "",
      "prix": "",
      "duree": "",
      "mapsUrl": "https://maps.google.com/?q=46.8130715,-71.2051909",
      "lat": 46.8130715,
      "lng": -71.2051909,
      "source": "osm"
    },
    {
      "id": "a401949694",
      "nom": "François de Laval de Montmorency",
      "categorie": "memorial",
      "description": "",
      "prix": "",
      "duree": "",
      "mapsUrl": "https://maps.google.com/?q=46.8135246,-71.2049643",
      "lat": 46.8135246,
      "lng": -71.2049643,
      "source": "osm"
    },
    {
      "id": "a5893092066",
      "nom": "Monument de l'UNESCO",
      "categorie": "memorial",
      "description": "",
      "prix": "",
      "duree": "",
      "mapsUrl": "https://maps.google.com/?q=46.8127404,-71.2050103",
      "lat": 46.8127404,
      "lng": -71.2050103,
      "source": "osm"
    },
    {
      "id": "a5788508253",
      "nom": "Rempart",
      "categorie": "attraction",
      "description": "",
      "prix": "",
      "duree": "",
      "mapsUrl": "https://maps.google.com/?q=46.8162805,-71.2065578",
      "lat": 46.8162805,
      "lng": -71.2065578,
      "source": "osm"
    },
    {
      "id": "a1615868119",
      "nom": "Louis-Hébert",
      "categorie": "monument",
      "description": "",
      "prix": "",
      "duree": "",
      "mapsUrl": "https://maps.google.com/?q=46.814171,-71.204193",
      "lat": 46.814171,
      "lng": -71.204193,
      "source": "osm"
    },
    {
      "id": "a4602260251",
      "nom": "George-Étienne Cartier",
      "categorie": "memorial",
      "description": "",
      "prix": "",
      "duree": "",
      "mapsUrl": "https://maps.google.com/?q=46.8135351,-71.2042043",
      "lat": 46.8135351,
      "lng": -71.2042043,
      "source": "osm"
    },
    {
      "id": "a947390817",
      "nom": "Samuel De Champlain",
      "categorie": "artwork",
      "description": "",
      "prix": "",
      "duree": "",
      "mapsUrl": "https://maps.google.com/?q=46.8126308,-71.2045736",
      "lat": 46.8126308,
      "lng": -71.2045736,
      "source": "osm"
    },
    {
      "id": "a6554061185",
      "nom": "Cannonball Tree",
      "categorie": "attraction",
      "description": "",
      "prix": "",
      "duree": "",
      "mapsUrl": "https://maps.google.com/?q=46.8111132,-71.2083792",
      "lat": 46.8111132,
      "lng": -71.2083792,
      "source": "osm"
    },
    {
      "id": "a396940762",
      "nom": "Funiculaire",
      "categorie": "attraction",
      "description": "",
      "prix": "",
      "duree": "",
      "mapsUrl": "https://maps.google.com/?q=46.8126253,-71.2043258",
      "lat": 46.8126253,
      "lng": -71.2043258,
      "source": "osm"
    },
    {
      "id": "a6711176117",
      "nom": "Galerie Perreault",
      "categorie": "gallery",
      "description": "",
      "prix": "",
      "duree": "",
      "mapsUrl": "https://maps.google.com/?q=46.8167291,-71.2082103",
      "lat": 46.8167291,
      "lng": -71.2082103,
      "source": "osm"
    },
    {
      "id": "a148301142",
      "nom": "Lieu historique national des Forts-et-Châteaux-Saint-Louis",
      "categorie": "museum",
      "description": "",
      "prix": "",
      "duree": "",
      "mapsUrl": "https://maps.google.com/?q=46.812314,-71.2043719",
      "lat": 46.812314,
      "lng": -71.2043719,
      "source": "osm"
    },
    {
      "id": "a2396812776",
      "nom": "Croix celtique",
      "categorie": "monument",
      "description": "",
      "prix": "",
      "duree": "",
      "mapsUrl": "https://maps.google.com/?q=46.8144791,-71.2123244",
      "lat": 46.8144791,
      "lng": -71.2123244,
      "source": "osm"
    },
    {
      "id": "a6711176113",
      "nom": "Galerie Roberge",
      "categorie": "gallery",
      "description": "",
      "prix": "",
      "duree": "",
      "mapsUrl": "https://maps.google.com/?q=46.8164083,-71.2054637",
      "lat": 46.8164083,
      "lng": -71.2054637,
      "source": "osm"
    },
    {
      "id": "a6711176114",
      "nom": "Galerie Alain Lacaze",
      "categorie": "gallery",
      "description": "",
      "prix": "",
      "duree": "",
      "mapsUrl": "https://maps.google.com/?q=46.8164019,-71.2053819",
      "lat": 46.8164019,
      "lng": -71.2053819,
      "source": "osm"
    },
    {
      "id": "a401881640",
      "nom": "Lorne",
      "categorie": "viewpoint",
      "description": "",
      "prix": "",
      "duree": "",
      "mapsUrl": "https://maps.google.com/?q=46.8119233,-71.2042604",
      "lat": 46.8119233,
      "lng": -71.2042604,
      "source": "osm"
    },
    {
      "id": "a6715524712",
      "nom": "L'Escalier Casse-Cou",
      "categorie": "attraction",
      "description": "",
      "prix": "",
      "duree": "",
      "mapsUrl": "https://maps.google.com/?q=46.812785,-71.2035506",
      "lat": 46.812785,
      "lng": -71.2035506,
      "source": "osm"
    },
    {
      "id": "a6711176108",
      "nom": "Galerie La Croix",
      "categorie": "gallery",
      "description": "",
      "prix": "",
      "duree": "",
      "mapsUrl": "https://maps.google.com/?q=46.8144979,-71.2032978",
      "lat": 46.8144979,
      "lng": -71.2032978,
      "source": "osm"
    },
    {
      "id": "a12987832689",
      "nom": "Louis Jolliet",
      "categorie": "monument",
      "description": "",
      "prix": "",
      "duree": "",
      "mapsUrl": "https://maps.google.com/?q=46.8124561,-71.2037054",
      "lat": 46.8124561,
      "lng": -71.2037054,
      "source": "osm"
    },
    {
      "id": "a217707517",
      "nom": "Musée de la place Royale",
      "categorie": "museum",
      "description": "",
      "prix": "",
      "duree": "",
      "mapsUrl": "https://maps.google.com/?q=46.8132981,-71.2031834",
      "lat": 46.8132981,
      "lng": -71.2031834,
      "source": "osm"
    },
    {
      "id": "a6711176111",
      "nom": "Galerie Gisèle Bouliane",
      "categorie": "gallery",
      "description": "",
      "prix": "",
      "duree": "",
      "mapsUrl": "https://maps.google.com/?q=46.8152014,-71.2034681",
      "lat": 46.8152014,
      "lng": -71.2034681,
      "source": "osm"
    },
    {
      "id": "a3955223477",
      "nom": "Monument Wolfe-Montcalm",
      "categorie": "monument",
      "description": "",
      "prix": "",
      "duree": "",
      "mapsUrl": "https://maps.google.com/?q=46.8110888,-71.2051538",
      "lat": 46.8110888,
      "lng": -71.2051538,
      "source": "osm"
    },
    {
      "id": "a397611565",
      "nom": "Galerie d'Art Internationale",
      "categorie": "gallery",
      "description": "",
      "prix": "",
      "duree": "",
      "mapsUrl": "https://maps.google.com/?q=46.8149741,-71.2032083",
      "lat": 46.8149741,
      "lng": -71.2032083,
      "source": "osm"
    },
    {
      "id": "a6711176107",
      "nom": "Galerie Beauchamp",
      "categorie": "gallery",
      "description": "",
      "prix": "",
      "duree": "",
      "mapsUrl": "https://maps.google.com/?q=46.8143603,-71.2030028",
      "lat": 46.8143603,
      "lng": -71.2030028,
      "source": "osm"
    },
    {
      "id": "a5060622627",
      "nom": "Galerie d'art Bel Art Classique",
      "categorie": "gallery",
      "description": "",
      "prix": "",
      "duree": "",
      "mapsUrl": "https://maps.google.com/?q=46.8140205,-71.202794",
      "lat": 46.8140205,
      "lng": -71.202794,
      "source": "osm"
    },
    {
      "id": "a11115432405",
      "nom": "Louis XIV",
      "categorie": "monument",
      "description": "",
      "prix": "",
      "duree": "",
      "mapsUrl": "https://maps.google.com/?q=46.8132268,-71.2028699",
      "lat": 46.8132268,
      "lng": -71.2028699,
      "source": "osm"
    },
    {
      "id": "a6711176112",
      "nom": "Galerie Bédard",
      "categorie": "gallery",
      "description": "",
      "prix": "",
      "duree": "",
      "mapsUrl": "https://maps.google.com/?q=46.8159834,-71.203668",
      "lat": 46.8159834,
      "lng": -71.203668,
      "source": "osm"
    },
    {
      "id": "a165059867",
      "nom": "Porte Saint-Jean",
      "categorie": "attraction",
      "description": "",
      "prix": "",
      "duree": "",
      "mapsUrl": "https://maps.google.com/?q=46.8127349,-71.2130814",
      "lat": 46.8127349,
      "lng": -71.2130814,
      "source": "osm"
    },
    {
      "id": "a217707516",
      "nom": "Maison historique Chevalier",
      "categorie": "museum",
      "description": "",
      "prix": "",
      "duree": "",
      "mapsUrl": "https://maps.google.com/?q=46.8123423,-71.2031169",
      "lat": 46.8123423,
      "lng": -71.2031169,
      "source": "osm"
    },
    {
      "id": "a377497852",
      "nom": "Porte Kent",
      "categorie": "attraction",
      "description": "",
      "prix": "",
      "duree": "",
      "mapsUrl": "https://maps.google.com/?q=46.8118885,-71.2126012",
      "lat": 46.8118885,
      "lng": -71.2126012,
      "source": "osm"
    },
    {
      "id": "a388330237",
      "nom": "Espace 400e Bell",
      "categorie": "museum",
      "description": "",
      "prix": "",
      "duree": "",
      "mapsUrl": "https://maps.google.com/?q=46.8173213,-71.2054402",
      "lat": 46.8173213,
      "lng": -71.2054402,
      "source": "osm"
    },
    {
      "id": "a401881582",
      "nom": "Victoria",
      "categorie": "viewpoint",
      "description": "",
      "prix": "",
      "duree": "",
      "mapsUrl": "https://maps.google.com/?q=46.8110221,-71.2041592",
      "lat": 46.8110221,
      "lng": -71.2041592,
      "source": "osm"
    },
    {
      "id": "a1019189158",
      "nom": "Galerie Artfolio",
      "categorie": "artwork",
      "description": "",
      "prix": "",
      "duree": "",
      "mapsUrl": "https://maps.google.com/?q=46.8156871,-71.2026836",
      "lat": 46.8156871,
      "lng": -71.2026836,
      "source": "osm"
    },
    {
      "id": "a7450604686",
      "nom": "Le fil rouge",
      "categorie": "artwork",
      "description": "",
      "prix": "",
      "duree": "",
      "mapsUrl": "https://maps.google.com/?q=46.8117521,-71.2130237",
      "lat": 46.8117521,
      "lng": -71.2130237,
      "source": "osm"
    },
    {
      "id": "a2546008681",
      "nom": "Musée de la Civilisation de Québec",
      "categorie": "museum",
      "description": "",
      "prix": "",
      "duree": "",
      "mapsUrl": "https://maps.google.com/?q=46.8151739,-71.2023007",
      "lat": 46.8151739,
      "lng": -71.2023007,
      "source": "osm"
    },
    {
      "id": "a6919494127",
      "nom": "ArtKela.com",
      "categorie": "gallery",
      "description": "",
      "prix": "",
      "duree": "",
      "mapsUrl": "https://maps.google.com/?q=46.813647,-71.2015887",
      "lat": 46.813647,
      "lng": -71.2015887,
      "source": "osm"
    },
    {
      "id": "a12987832658",
      "nom": "Fresque/Mural Petit-Champlain",
      "categorie": "artwork",
      "description": "",
      "prix": "",
      "duree": "",
      "mapsUrl": "https://maps.google.com/?q=46.8107077,-71.203561",
      "lat": 46.8107077,
      "lng": -71.203561,
      "source": "osm"
    },
    {
      "id": "a2245127053",
      "nom": "Les muses",
      "categorie": "artwork",
      "description": "",
      "prix": "",
      "duree": "",
      "mapsUrl": "https://maps.google.com/?q=46.8122601,-71.2140734",
      "lat": 46.8122601,
      "lng": -71.2140734,
      "source": "osm"
    },
    {
      "id": "a401881514",
      "nom": "Dufferin",
      "categorie": "viewpoint",
      "description": "",
      "prix": "",
      "duree": "",
      "mapsUrl": "https://maps.google.com/?q=46.8099828,-71.2040173",
      "lat": 46.8099828,
      "lng": -71.2040173,
      "source": "osm"
    },
    {
      "id": "a2396801717",
      "nom": "Bustes de Roosevelt et de Churchill",
      "categorie": "monument",
      "description": "",
      "prix": "",
      "duree": "",
      "mapsUrl": "https://maps.google.com/?q=46.8096299,-71.2111615",
      "lat": 46.8096299,
      "lng": -71.2111615,
      "source": "osm"
    },
    {
      "id": "a4988781279",
      "nom": "Place de l'Assemblée-Nationale",
      "categorie": "park",
      "description": "",
      "prix": "",
      "duree": "",
      "mapsUrl": "https://maps.google.com/?q=46.8099896,-71.2120632",
      "lat": 46.8099896,
      "lng": -71.2120632,
      "source": "osm"
    },
    {
      "id": "a3954210842",
      "nom": "Pierre Dugua de Mons",
      "categorie": "monument",
      "description": "",
      "prix": "",
      "duree": "",
      "mapsUrl": "https://maps.google.com/?q=46.8095637,-71.2049846",
      "lat": 46.8095637,
      "lng": -71.2049846,
      "source": "osm"
    },
    {
      "id": "a463014733",
      "nom": "Porte Saint-Louis",
      "categorie": "attraction",
      "description": "",
      "prix": "",
      "duree": "",
      "mapsUrl": "https://maps.google.com/?q=46.8094356,-71.2113047",
      "lat": 46.8094356,
      "lng": -71.2113047,
      "source": "osm"
    },
    {
      "id": "a2686085366",
      "nom": "Mahtma Ghandhi",
      "categorie": "artwork",
      "description": "",
      "prix": "",
      "duree": "",
      "mapsUrl": "https://maps.google.com/?q=46.8094265,-71.211622",
      "lat": 46.8094265,
      "lng": -71.211622,
      "source": "osm"
    },
    {
      "id": "a2396807682",
      "nom": "Mémorial à des soldats américains",
      "categorie": "memorial",
      "description": "",
      "prix": "",
      "duree": "",
      "mapsUrl": "https://maps.google.com/?q=46.8090414,-71.2109995",
      "lat": 46.8090414,
      "lng": -71.2109995,
      "source": "osm"
    },
    {
      "id": "a577383256",
      "nom": "Fontaine de Tourny",
      "categorie": "monument",
      "description": "",
      "prix": "",
      "duree": "",
      "mapsUrl": "https://maps.google.com/?q=46.809611,-71.2126724",
      "lat": 46.809611,
      "lng": -71.2126724,
      "source": "osm"
    },
    {
      "id": "a401881503",
      "nom": "Plessis",
      "categorie": "viewpoint",
      "description": "",
      "prix": "",
      "duree": "",
      "mapsUrl": "https://maps.google.com/?q=46.8090922,-71.2040241",
      "lat": 46.8090922,
      "lng": -71.2040241,
      "source": "osm"
    },
    {
      "id": "a12852462303",
      "nom": "Arturo Prat",
      "categorie": "artwork",
      "description": "",
      "prix": "",
      "duree": "",
      "mapsUrl": "https://maps.google.com/?q=46.8179727,-71.202453",
      "lat": 46.8179727,
      "lng": -71.202453,
      "source": "osm"
    },
    {
      "id": "a7447859974",
      "nom": "René Lévesque",
      "categorie": "artwork",
      "description": "",
      "prix": "",
      "duree": "",
      "mapsUrl": "https://maps.google.com/?q=46.8099745,-71.2138737",
      "lat": 46.8099745,
      "lng": -71.2138737,
      "source": "osm"
    },
    {
      "id": "a1614669393",
      "nom": "Monument Honoré-Mercier",
      "categorie": "monument",
      "description": "",
      "prix": "",
      "duree": "",
      "mapsUrl": "https://maps.google.com/?q=46.8091348,-71.2126669",
      "lat": 46.8091348,
      "lng": -71.2126669,
      "source": "osm"
    },
    {
      "id": "a7450242812",
      "nom": "Croix du sacrifice",
      "categorie": "memorial",
      "description": "",
      "prix": "",
      "duree": "",
      "mapsUrl": "https://maps.google.com/?q=46.8086637,-71.2120374",
      "lat": 46.8086637,
      "lng": -71.2120374,
      "source": "osm"
    },
    {
      "id": "a2686083675",
      "nom": "La halte dans la forêt",
      "categorie": "artwork",
      "description": "",
      "prix": "",
      "duree": "",
      "mapsUrl": "https://maps.google.com/?q=46.8090616,-71.2135342",
      "lat": 46.8090616,
      "lng": -71.2135342,
      "source": "osm"
    },
    {
      "id": "a1616631060",
      "nom": "monument Alphonse-et-Dorimène-Desjardins",
      "categorie": "monument",
      "description": "",
      "prix": "",
      "duree": "",
      "mapsUrl": "https://maps.google.com/?q=46.8101954,-71.2153119",
      "lat": 46.8101954,
      "lng": -71.2153119,
      "source": "osm"
    },
    {
      "id": "a8796205048",
      "nom": "Muraille",
      "categorie": "artwork",
      "description": "",
      "prix": "",
      "duree": "",
      "mapsUrl": "https://maps.google.com/?q=46.8159235,-71.2168924",
      "lat": 46.8159235,
      "lng": -71.2168924,
      "source": "osm"
    },
    {
      "id": "a2268229868",
      "nom": "Le quatuor d'airain",
      "categorie": "artwork",
      "description": "",
      "prix": "",
      "duree": "",
      "mapsUrl": "https://maps.google.com/?q=46.8100894,-71.2157682",
      "lat": 46.8100894,
      "lng": -71.2157682,
      "source": "osm"
    },
    {
      "id": "a106776418",
      "nom": "Musée Naval de Québec",
      "categorie": "museum",
      "description": "",
      "prix": "",
      "duree": "",
      "mapsUrl": "https://maps.google.com/?q=46.8184694,-71.2009166",
      "lat": 46.8184694,
      "lng": -71.2009166,
      "source": "osm"
    },
    {
      "id": "a2052989896",
      "nom": "Monument en hommage aux femmes en politique",
      "categorie": "artwork",
      "description": "",
      "prix": "",
      "duree": "",
      "mapsUrl": "https://maps.google.com/?q=46.8083695,-71.2134296",
      "lat": 46.8083695,
      "lng": -71.2134296,
      "source": "osm"
    },
    {
      "id": "a1596512889",
      "nom": "Maurice Duplessis",
      "categorie": "artwork",
      "description": "",
      "prix": "",
      "duree": "",
      "mapsUrl": "https://maps.google.com/?q=46.8080767,-71.2139074",
      "lat": 46.8080767,
      "lng": -71.2139074,
      "source": "osm"
    },
    {
      "id": "a4001331294",
      "nom": "Char d'assaut",
      "categorie": "monument",
      "description": "",
      "prix": "",
      "duree": "",
      "mapsUrl": "https://maps.google.com/?q=46.8065151,-71.2073905",
      "lat": 46.8065151,
      "lng": -71.2073905,
      "source": "osm"
    },
    {
      "id": "a4279287390",
      "nom": "Musée des plaines d'Abraham",
      "categorie": "museum",
      "description": "",
      "prix": "",
      "duree": "",
      "mapsUrl": "https://maps.google.com/?q=46.8070268,-71.2128445",
      "lat": 46.8070268,
      "lng": -71.2128445,
      "source": "osm"
    },
    {
      "id": "a1606715659",
      "nom": "Confucius",
      "categorie": "memorial",
      "description": "",
      "prix": "",
      "duree": "",
      "mapsUrl": "https://maps.google.com/?q=46.8074637,-71.2140629",
      "lat": 46.8074637,
      "lng": -71.2140629,
      "source": "osm"
    },
    {
      "id": "a2523411398",
      "nom": "Charles John Short & George Wallick",
      "categorie": "memorial",
      "description": "",
      "prix": "",
      "duree": "",
      "mapsUrl": "https://maps.google.com/?q=46.8073193,-71.2143734",
      "lat": 46.8073193,
      "lng": -71.2143734,
      "source": "osm"
    },
    {
      "id": "a13897905302",
      "nom": "Justice!",
      "categorie": "artwork",
      "description": "",
      "prix": "",
      "duree": "",
      "mapsUrl": "https://maps.google.com/?q=46.8193878,-71.2164212",
      "lat": 46.8193878,
      "lng": -71.2164212,
      "source": "osm"
    },
    {
      "id": "a2547846471",
      "nom": "José Martí",
      "categorie": "artwork",
      "description": "",
      "prix": "",
      "duree": "",
      "mapsUrl": "https://maps.google.com/?q=46.8196706,-71.2160376",
      "lat": 46.8196706,
      "lng": -71.2160376,
      "source": "osm"
    },
    {
      "id": "a1596511957",
      "nom": "« Je me souviens »",
      "categorie": "memorial",
      "description": "",
      "prix": "",
      "duree": "",
      "mapsUrl": "https://maps.google.com/?q=46.8070904,-71.2141063",
      "lat": 46.8070904,
      "lng": -71.2141063,
      "source": "osm"
    },
    {
      "id": "a2523411402",
      "nom": "Les Voltigeurs de Québec",
      "categorie": "memorial",
      "description": "",
      "prix": "",
      "duree": "",
      "mapsUrl": "https://maps.google.com/?q=46.8069737,-71.2139358",
      "lat": 46.8069737,
      "lng": -71.2139358,
      "source": "osm"
    },
    {
      "id": "a13158465895",
      "nom": "monument de la Bravoure",
      "categorie": "memorial",
      "description": "",
      "prix": "",
      "duree": "",
      "mapsUrl": "https://maps.google.com/?q=46.8069166,-71.2138349",
      "lat": 46.8069166,
      "lng": -71.2138349,
      "source": "osm"
    },
    {
      "id": "a2547846477",
      "nom": "Statue équestre du Libertador Simon-Bolivar",
      "categorie": "memorial",
      "description": "",
      "prix": "",
      "duree": "",
      "mapsUrl": "https://maps.google.com/?q=46.8198174,-71.2160093",
      "lat": 46.8198174,
      "lng": -71.2160093,
      "source": "osm"
    },
    {
      "id": "a2547846484",
      "nom": "Juan Montalvo",
      "categorie": "artwork",
      "description": "",
      "prix": "",
      "duree": "",
      "mapsUrl": "https://maps.google.com/?q=46.8199602,-71.2159827",
      "lat": 46.8199602,
      "lng": -71.2159827,
      "source": "osm"
    },
    {
      "id": "a2547846466",
      "nom": "Juana Azurduy de Padilla",
      "categorie": "artwork",
      "description": "",
      "prix": "",
      "duree": "",
      "mapsUrl": "https://maps.google.com/?q=46.8196461,-71.216562",
      "lat": 46.8196461,
      "lng": -71.216562,
      "source": "osm"
    },
    {
      "id": "a2547846474",
      "nom": "Miguel Grau",
      "categorie": "artwork",
      "description": "",
      "prix": "",
      "duree": "",
      "mapsUrl": "https://maps.google.com/?q=46.8197881,-71.2165337",
      "lat": 46.8197881,
      "lng": -71.2165337,
      "source": "osm"
    },
    {
      "id": "a2547846481",
      "nom": "Statue équestre de Bernardo O'Higgins",
      "categorie": "memorial",
      "description": "",
      "prix": "",
      "duree": "",
      "mapsUrl": "https://maps.google.com/?q=46.8199316,-71.2165105",
      "lat": 46.8199316,
      "lng": -71.2165105,
      "source": "osm"
    },
    {
      "id": "a2547846491",
      "nom": "José Gervasio Artigas",
      "categorie": "artwork",
      "description": "",
      "prix": "",
      "duree": "",
      "mapsUrl": "https://maps.google.com/?q=46.8200737,-71.2164805",
      "lat": 46.8200737,
      "lng": -71.2164805,
      "source": "osm"
    },
    {
      "id": "a2547846487",
      "nom": "Monument Toussaint-Louverture",
      "categorie": "memorial",
      "description": "",
      "prix": "",
      "duree": "",
      "mapsUrl": "https://maps.google.com/?q=46.8200104,-71.2169297",
      "lat": 46.8200104,
      "lng": -71.2169297,
      "source": "osm"
    },
    {
      "id": "a4009132921",
      "nom": "Observatoire de la Capitale",
      "categorie": "attraction",
      "description": "",
      "prix": "",
      "duree": "",
      "mapsUrl": "https://maps.google.com/?q=46.8080416,-71.217802",
      "lat": 46.8080416,
      "lng": -71.217802,
      "source": "osm"
    },
    {
      "id": "a8231632797",
      "nom": "Site commémoratif de la Première Guerre mondiale",
      "categorie": "memorial",
      "description": "",
      "prix": "",
      "duree": "",
      "mapsUrl": "https://maps.google.com/?q=46.8056944,-71.2133339",
      "lat": 46.8056944,
      "lng": -71.2133339,
      "source": "osm"
    },
    {
      "id": "a146380122",
      "nom": "Chapelle Historique du Bon-Pasteur",
      "categorie": "monument",
      "description": "",
      "prix": "",
      "duree": "",
      "mapsUrl": "https://maps.google.com/?q=46.807302,-71.2181533",
      "lat": 46.807302,
      "lng": -71.2181533,
      "source": "osm"
    },
    {
      "id": "a12307709869",
      "nom": "Monument René-Richard",
      "categorie": "artwork",
      "description": "",
      "prix": "",
      "duree": "",
      "mapsUrl": "https://maps.google.com/?q=46.8124562,-71.222565",
      "lat": 46.8124562,
      "lng": -71.222565,
      "source": "osm"
    },
    {
      "id": "a2794876022",
      "nom": "Maison Gérard Morrissette",
      "categorie": "memorial",
      "description": "",
      "prix": "",
      "duree": "",
      "mapsUrl": "https://maps.google.com/?q=46.8089086,-71.2210154",
      "lat": 46.8089086,
      "lng": -71.2210154,
      "source": "osm"
    },
    {
      "id": "a1747200059",
      "nom": "Des Lettres",
      "categorie": "artwork",
      "description": "",
      "prix": "",
      "duree": "",
      "mapsUrl": "https://maps.google.com/?q=46.8135083,-71.2236469",
      "lat": 46.8135083,
      "lng": -71.2236469,
      "source": "osm"
    },
    {
      "id": "a12307831452",
      "nom": "Charles de Gaulle",
      "categorie": "memorial",
      "description": "",
      "prix": "",
      "duree": "",
      "mapsUrl": "https://maps.google.com/?q=46.8048863,-71.2172284",
      "lat": 46.8048863,
      "lng": -71.2172284,
      "source": "osm"
    },
    {
      "id": "a1615848243",
      "nom": "Le monument aux Acadiens",
      "categorie": "monument",
      "description": "",
      "prix": "",
      "duree": "",
      "mapsUrl": "https://maps.google.com/?q=46.8074706,-71.2211952",
      "lat": 46.8074706,
      "lng": -71.2211952,
      "source": "osm"
    },
    {
      "id": "a1606709286",
      "nom": "Jeanne-D'Arc",
      "categorie": "memorial",
      "description": "",
      "prix": "",
      "duree": "",
      "mapsUrl": "https://maps.google.com/?q=46.8040499,-71.2177914",
      "lat": 46.8040499,
      "lng": -71.2177914,
      "source": "osm"
    },
    {
      "id": "a7646500861",
      "nom": "Parc Gilles-Lamontagne",
      "categorie": "park",
      "description": "",
      "prix": "",
      "duree": "",
      "mapsUrl": "https://maps.google.com/?q=46.8185431,-71.2242673",
      "lat": 46.8185431,
      "lng": -71.2242673,
      "source": "osm"
    },
    {
      "id": "a2527418385",
      "nom": "Galerie d'art la Gazelle",
      "categorie": "gallery",
      "description": "",
      "prix": "",
      "duree": "",
      "mapsUrl": "https://maps.google.com/?q=46.8082892,-71.2247789",
      "lat": 46.8082892,
      "lng": -71.2247789,
      "source": "osm"
    },
    {
      "id": "a6231554632",
      "nom": "Monument Etienne Paschal Taché",
      "categorie": "memorial",
      "description": "",
      "prix": "",
      "duree": "",
      "mapsUrl": "https://maps.google.com/?q=46.8004238,-71.2119936",
      "lat": 46.8004238,
      "lng": -71.2119936,
      "source": "osm"
    },
    {
      "id": "a8872997453",
      "nom": "ruelle 1",
      "categorie": "park",
      "description": "",
      "prix": "",
      "duree": "",
      "mapsUrl": "https://maps.google.com/?q=46.821944,-71.2245103",
      "lat": 46.821944,
      "lng": -71.2245103,
      "source": "osm"
    },
    {
      "id": "a4459862592",
      "nom": "Capt. Bernier",
      "categorie": "artwork",
      "description": "",
      "prix": "",
      "duree": "",
      "mapsUrl": "https://maps.google.com/?q=46.8116167,-71.1878956",
      "lat": 46.8116167,
      "lng": -71.1878956,
      "source": "osm"
    },
    {
      "id": "a6231554633",
      "nom": "Parc Bassin Brown",
      "categorie": "park",
      "description": "",
      "prix": "",
      "duree": "",
      "mapsUrl": "https://maps.google.com/?q=46.7998071,-71.213677",
      "lat": 46.7998071,
      "lng": -71.213677,
      "source": "osm"
    },
    {
      "id": "a2339610338",
      "nom": "Les Ados De Mio",
      "categorie": "artwork",
      "description": "",
      "prix": "",
      "duree": "",
      "mapsUrl": "https://maps.google.com/?q=46.8061831,-71.2263057",
      "lat": 46.8061831,
      "lng": -71.2263057,
      "source": "osm"
    },
    {
      "id": "a12056083860",
      "nom": "Regart",
      "categorie": "gallery",
      "description": "",
      "prix": "",
      "duree": "",
      "mapsUrl": "https://maps.google.com/?q=46.8108295,-71.1864564",
      "lat": 46.8108295,
      "lng": -71.1864564,
      "source": "osm"
    },
    {
      "id": "a12056083856",
      "nom": "Atelier-galerie La Traversée",
      "categorie": "gallery",
      "description": "",
      "prix": "",
      "duree": "",
      "mapsUrl": "https://maps.google.com/?q=46.8093513,-71.1865941",
      "lat": 46.8093513,
      "lng": -71.1865941,
      "source": "osm"
    }
  ],
  "villeNonMusulmane": true,
  "osmEnriched": true,
  "osmEnrichedAt": "2026-06-30",
  "description_en": "Quebec may not be a Muslim-majority destination, but it welcomes Muslim travelers with real halal options. You'll find 17 halal restaurants and 1 mosques nearby, plus real-time prayer times and the Qibla direction — everything to explore Quebec, Canada, with peace of mind.",
  "metaDescription_en": "Halal guide to Quebec: 17+ halal restaurants, 1 mosques, prayer times and tips for Muslim travelers. Halal Trust Score 3.2/5.",
  "nom_en": "Quebec"
}