{
 "slug": "ras-al-khaimah",
 "nom": "Ras el Khaïmah",
 "pays": "Émirats Arabes Unis",
 "pays_slug": "emirats-arabes-unis",
 "continent": "Moyen-Orient",
 "region": "Émirats Arabes Unis",
 "coordonnees": {
  "lat": 25.7895,
  "lng": 55.9432
 },
 "codeISO": "AE",
 "score_halal": 4.2,
 "halalScore": 8.4,
 "description": "Ras el Khaïmah, Émirats Arabes Unis. Forte présence musulmane : nombreuses adresses halal et mosquées.",
 "metaDescription": "Ras el Khaïmah, Émirats Arabes Unis. Forte présence musulmane : nombreuses adresses halal et mosquées.",
 "image": "https://images.unsplash.com/photo-1469474968028-56623f02e42e?w=1200&q=80",
 "image_hero": "https://images.unsplash.com/photo-1469474968028-56623f02e42e?w=1200&q=80",
 "imageAVenir": true,
 "imageCredit": "",
 "scoreIndicatif": true,
 "statistiques": {
  "restaurants_halal": 16,
  "mosquees": 8,
  "hotels": 15
 },
 "infoPratique": {
  "transport": "Accessible par avion et transports locaux.",
  "meilleureEpoque": "Selon la saison.",
  "conseilHalal": "Repérez restaurants halal et mosquées via l'application."
 },
 "tags": [
  "halal",
  "moyen-orient"
 ],
 "restaurants": [
  {
   "nom": "مطعم شاورما الفروج",
   "type": "chicken, burger, sandwich, mexican, kebab",
   "priceRange": "€€",
   "mapsUrl": "https://maps.google.com/?q=25.7920826,55.9473148",
   "lat": 25.7920826,
   "lng": 55.9473148,
   "halalConfidence": "yes",
   "source": "osm"
  },
  {
   "nom": "Al Farooj Shawarma Restaurant",
   "type": "sandwich, burger, mexican, chicken, kebab",
   "priceRange": "€€",
   "mapsUrl": "https://maps.google.com/?q=25.7921047,55.9472798",
   "lat": 25.7921047,
   "lng": 55.9472798,
   "halalConfidence": "likely",
   "source": "osm"
  },
  {
   "nom": "Murad Zahi Restaurant",
   "type": "pakistani",
   "priceRange": "€€",
   "mapsUrl": "https://maps.google.com/?q=25.7948294,55.9506975",
   "lat": 25.7948294,
   "lng": 55.9506975,
   "halalConfidence": "likely",
   "source": "osm"
  },
  {
   "nom": "Dissolve",
   "type": "arab",
   "priceRange": "€€",
   "mapsUrl": "https://maps.google.com/?q=25.7983421,55.9455718",
   "lat": 25.7983421,
   "lng": 55.9455718,
   "halalConfidence": "likely",
   "source": "osm"
  },
  {
   "nom": "بابا كومبير",
   "type": "turkish",
   "priceRange": "€€",
   "mapsUrl": "https://maps.google.com/?q=25.8046677,55.9616091",
   "lat": 25.8046677,
   "lng": 55.9616091,
   "halalConfidence": "likely",
   "source": "osm"
  },
  {
   "nom": "Al Mashir cafeferia",
   "type": "burger, kebab, local, sandwich",
   "priceRange": "€€",
   "mapsUrl": "https://maps.google.com/?q=25.7910292,55.9702038",
   "lat": 25.7910292,
   "lng": 55.9702038,
   "halalConfidence": "likely",
   "source": "osm"
  },
  {
   "nom": "Lebanese Resthouse",
   "type": "lebanese",
   "priceRange": "€€",
   "mapsUrl": "https://maps.google.com/?q=25.7962812,55.9722265",
   "lat": 25.7962812,
   "lng": 55.9722265,
   "halalConfidence": "likely",
   "source": "osm"
  },
  {
   "nom": "Linx Restaurant",
   "type": "arab",
   "priceRange": "€€",
   "mapsUrl": "https://maps.google.com/?q=25.7632831,55.9558453",
   "lat": 25.7632831,
   "lng": 55.9558453,
   "halalConfidence": "likely",
   "source": "osm"
  },
  {
   "nom": "Orient",
   "type": "turkish",
   "priceRange": "€€",
   "mapsUrl": "https://maps.google.com/?q=25.8187331,55.9612141",
   "lat": 25.8187331,
   "lng": 55.9612141,
   "halalConfidence": "likely",
   "source": "osm"
  },
  {
   "nom": "Al Fanar",
   "type": "arab, local",
   "priceRange": "€€",
   "mapsUrl": "https://maps.google.com/?q=25.7614824,55.9161356",
   "lat": 25.7614824,
   "lng": 55.9161356,
   "halalConfidence": "likely",
   "source": "osm"
  },
  {
   "nom": "Emirates seafood",
   "type": "arab, indian",
   "priceRange": "€€",
   "mapsUrl": "https://maps.google.com/?q=25.7506294,55.9075746",
   "lat": 25.7506294,
   "lng": 55.9075746,
   "halalConfidence": "likely",
   "source": "osm"
  },
  {
   "nom": "كبت و تبؤ لت",
   "type": "arab",
   "priceRange": "€€",
   "mapsUrl": "https://maps.google.com/?q=25.7432996,55.9003082",
   "lat": 25.7432996,
   "lng": 55.9003082,
   "halalConfidence": "likely",
   "source": "osm"
  },
  {
   "nom": "Basilico",
   "type": "arab, italian",
   "priceRange": "€€",
   "mapsUrl": "https://maps.google.com/?q=25.7374179,55.8875957",
   "lat": 25.7374179,
   "lng": 55.8875957,
   "halalConfidence": "likely",
   "source": "osm"
  },
  {
   "nom": "Gazebo",
   "lat": 25.7843394,
   "lng": 55.9654545,
   "type": "indian",
   "halalConfidence": "likely",
   "mapsUrl": "https://maps.google.com/?q=25.7843394,55.9654545",
   "source": "osm"
  },
  {
   "nom": "Pure Vege",
   "lat": 25.8007886,
   "lng": 55.9741173,
   "type": "indian",
   "halalConfidence": "likely",
   "mapsUrl": "https://maps.google.com/?q=25.8007886,55.9741173",
   "source": "osm"
  },
  {
   "nom": "M14",
   "lat": 25.7885951,
   "lng": 55.9970044,
   "type": "international, sushi, breakfast, arab",
   "halalConfidence": "likely",
   "mapsUrl": "https://maps.google.com/?q=25.7885951,55.9970044",
   "source": "osm"
  }
 ],
 "hotels": [
  {
   "nom": "Oasis Apartment Hotel",
   "categorie": "Hôtel",
   "priceRange": "€€",
   "mapsUrl": "https://maps.google.com/?q=25.7845654,55.9428134",
   "lat": 25.7845654,
   "lng": 55.9428134,
   "halalFriendly": false,
   "bookingUrl": "https://maps.google.com/?q=25.7845654,55.9428134",
   "source": "osm"
  },
  {
   "nom": "Mangrove Hotel",
   "categorie": "Hôtel",
   "priceRange": "€€",
   "mapsUrl": "https://maps.google.com/?q=25.7832349,55.9423439",
   "lat": 25.7832349,
   "lng": 55.9423439,
   "halalFriendly": false,
   "bookingUrl": "https://maps.google.com/?q=25.7832349,55.9423439",
   "source": "osm"
  },
  {
   "nom": "Tulip Inn Ras Al Khaimah",
   "categorie": "Hôtel",
   "priceRange": "€€€",
   "score": 3,
   "mapsUrl": "https://maps.google.com/?q=25.7994958,55.9598201",
   "lat": 25.7994958,
   "lng": 55.9598201,
   "halalFriendly": false,
   "bookingUrl": "https://maps.google.com/?q=25.7994958,55.9598201",
   "source": "osm"
  },
  {
   "nom": "RAK Hotel",
   "categorie": "Hôtel",
   "priceRange": "€€",
   "mapsUrl": "https://maps.google.com/?q=25.7688594,55.9384135",
   "lat": 25.7688594,
   "lng": 55.9384135,
   "halalFriendly": false,
   "bookingUrl": "https://maps.google.com/?q=25.7688594,55.9384135",
   "source": "osm"
  },
  {
   "nom": "Hilton Garden Inn Ras Al Khaimah",
   "categorie": "Hôtel",
   "priceRange": "€€€€",
   "score": 4,
   "mapsUrl": "https://maps.google.com/?q=25.793871,55.967244",
   "lat": 25.793871,
   "lng": 55.967244,
   "halalFriendly": false,
   "bookingUrl": "https://www.hilton.com/en/hotels/rkthigi-hilton-garden-inn-ras-al-khaimah/",
   "source": "osm"
  },
  {
   "nom": "هلتون غاردن إن",
   "categorie": "Hôtel",
   "priceRange": "€€€€",
   "score": 4,
   "mapsUrl": "https://maps.google.com/?q=25.7943765,55.9678309",
   "lat": 25.7943765,
   "lng": 55.9678309,
   "halalFriendly": false,
   "bookingUrl": "https://www.hilton.com/ar/hotels/rkthigi-hilton-garden-inn-ras-al-khaimah/",
   "source": "osm"
  },
  {
   "nom": "City Hotel",
   "categorie": "Hôtel",
   "priceRange": "€€",
   "mapsUrl": "https://maps.google.com/?q=25.781571,55.967397",
   "lat": 25.781571,
   "lng": 55.967397,
   "halalFriendly": false,
   "bookingUrl": "https://maps.google.com/?q=25.781571,55.967397",
   "source": "osm"
  },
  {
   "nom": "دبل تري من هلتون رأس الخيمة",
   "categorie": "Hôtel",
   "priceRange": "€€€€",
   "score": 4,
   "mapsUrl": "https://maps.google.com/?q=25.7961671,55.9686976",
   "lat": 25.7961671,
   "lng": 55.9686976,
   "halalFriendly": false,
   "bookingUrl": "https://www.hilton.com/ar/hotels/rktdtdi-doubletree-ras-al-khaimah/",
   "source": "osm"
  },
  {
   "nom": "Mughal Suites (Hotel)",
   "categorie": "Hôtel",
   "priceRange": "€€€€",
   "score": 4,
   "mapsUrl": "https://maps.google.com/?q=25.8137608,55.9593501",
   "lat": 25.8137608,
   "lng": 55.9593501,
   "halalFriendly": false,
   "bookingUrl": "https://www.mughalsuites.ae/",
   "source": "osm"
  },
  {
   "nom": "صلاح المهل",
   "categorie": "Maison d'hôtes",
   "priceRange": "€€",
   "mapsUrl": "https://maps.google.com/?q=25.7702376,55.9730818",
   "lat": 25.7702376,
   "lng": 55.9730818,
   "halalFriendly": false,
   "bookingUrl": "https://maps.google.com/?q=25.7702376,55.9730818",
   "source": "osm"
  },
  {
   "nom": "Concord Residence",
   "categorie": "Appartement",
   "priceRange": "€€",
   "mapsUrl": "https://maps.google.com/?q=25.7642041,55.9726059",
   "lat": 25.7642041,
   "lng": 55.9726059,
   "halalFriendly": false,
   "bookingUrl": "https://maps.google.com/?q=25.7642041,55.9726059",
   "source": "osm"
  },
  {
   "nom": "Bin Majid Beach Hotel",
   "categorie": "Hôtel",
   "priceRange": "€€",
   "mapsUrl": "https://maps.google.com/?q=25.7558386,55.9085093",
   "lat": 25.7558386,
   "lng": 55.9085093,
   "halalFriendly": false,
   "bookingUrl": "https://maps.google.com/?q=25.7558386,55.9085093",
   "source": "osm"
  },
  {
   "nom": "فندق شاطئ ابن ماجد",
   "categorie": "Hôtel",
   "priceRange": "€€",
   "mapsUrl": "https://maps.google.com/?q=25.7558682,55.9083228",
   "lat": 25.7558682,
   "lng": 55.9083228,
   "halalFriendly": false,
   "bookingUrl": "https://maps.google.com/?q=25.7558682,55.9083228",
   "source": "osm"
  },
  {
   "nom": "Hotel The Cove Rotana Resort",
   "categorie": "Hôtel",
   "priceRange": "€€€€",
   "score": 5,
   "mapsUrl": "https://maps.google.com/?q=25.7376806,55.888052",
   "lat": 25.7376806,
   "lng": 55.888052,
   "halalFriendly": false,
   "bookingUrl": "https://www.rotana.com/rotanahotelandresorts/unitedarabemirates/rasalkhaimah/thecoverotanaresort",
   "source": "osm"
  },
  {
   "nom": "وليد الزيط",
   "categorie": "Maison d'hôtes",
   "priceRange": "€€",
   "mapsUrl": "https://maps.google.com/?q=25.7166205,55.9131852",
   "lat": 25.7166205,
   "lng": 55.9131852,
   "halalFriendly": false,
   "bookingUrl": "https://maps.google.com/?q=25.7166205,55.9131852",
   "source": "osm"
  }
 ],
 "mosqueesPrincipales": [
  {
   "id": "m145313779",
   "nom": "مسجد رأس الخيمة القديم",
   "type": "Mosquée",
   "adresse": "رأس الخيمة",
   "description": "Lieu de prière (OpenStreetMap).",
   "mapsUrl": "https://maps.google.com/?q=25.8003536,55.9483528",
   "lat": 25.8003536,
   "lng": 55.9483528,
   "source": "osm"
  },
  {
   "id": "m1608967279",
   "nom": "مسجد زايد",
   "type": "Mosquée",
   "adresse": "",
   "description": "Lieu de prière (OpenStreetMap).",
   "mapsUrl": "https://maps.google.com/?q=25.7744962,55.9354219",
   "lat": 25.7744962,
   "lng": 55.9354219,
   "source": "osm"
  },
  {
   "id": "m145034780",
   "nom": "ساحة الصلاة",
   "type": "Mosquée",
   "adresse": "",
   "description": "Lieu de prière (OpenStreetMap).",
   "mapsUrl": "https://maps.google.com/?q=25.7719999,55.9342289",
   "lat": 25.7719999,
   "lng": 55.9342289,
   "source": "osm"
  },
  {
   "id": "m6237759830",
   "nom": "Sultan bin Saqr Al Qasimi Mosque",
   "type": "Mosquée",
   "adresse": "",
   "description": "Lieu de prière (OpenStreetMap).",
   "mapsUrl": "https://maps.google.com/?q=25.7874447,55.9680175",
   "lat": 25.7874447,
   "lng": 55.9680175,
   "source": "osm"
  },
  {
   "id": "m342443270",
   "nom": "مصلى العيد",
   "type": "Mosquée",
   "adresse": "",
   "description": "Lieu de prière (OpenStreetMap).",
   "mapsUrl": "https://maps.google.com/?q=25.814489,55.9675632",
   "lat": 25.814489,
   "lng": 55.9675632,
   "source": "osm"
  },
  {
   "id": "m1608964118",
   "nom": "Mosque Suhaib Al Roomi",
   "type": "Mosquée",
   "adresse": "",
   "description": "Lieu de prière (OpenStreetMap).",
   "mapsUrl": "https://maps.google.com/?q=25.7591817,55.983348",
   "lat": 25.7591817,
   "lng": 55.983348,
   "source": "osm"
  },
  {
   "id": "m342665476",
   "nom": "مسجد",
   "type": "Mosquée",
   "adresse": "",
   "description": "Lieu de prière (OpenStreetMap).",
   "mapsUrl": "https://maps.google.com/?q=25.8287682,55.9873507",
   "lat": 25.8287682,
   "lng": 55.9873507,
   "source": "osm"
  },
  {
   "id": "m5018675404",
   "nom": "Haqeel Valley Mosque",
   "type": "Mosquée",
   "adresse": "",
   "description": "Lieu de prière (OpenStreetMap).",
   "mapsUrl": "https://maps.google.com/?q=25.8119447,56.0476558",
   "lat": 25.8119447,
   "lng": 56.0476558,
   "source": "osm"
  }
 ],
 "activites": [
  {
   "id": "a3431106417",
   "nom": "مركب شراعي تقليدي",
   "categorie": "artwork",
   "description": "",
   "prix": "",
   "duree": "",
   "mapsUrl": "https://maps.google.com/?q=25.7887768,55.9430997",
   "lat": 25.7887768,
   "lng": 55.9430997,
   "source": "osm"
  },
  {
   "id": "a1593505030",
   "nom": "National Museum of Ras al Khaimah",
   "categorie": "museum",
   "description": "",
   "prix": "",
   "duree": "",
   "mapsUrl": "https://maps.google.com/?q=25.794387,55.945197",
   "lat": 25.794387,
   "lng": 55.945197,
   "source": "osm"
  },
  {
   "id": "a146060786",
   "nom": "Al Hisn Fort",
   "categorie": "castle",
   "description": "",
   "prix": "",
   "duree": "",
   "mapsUrl": "https://maps.google.com/?q=25.7944911,55.9449937",
   "lat": 25.7944911,
   "lng": 55.9449937,
   "source": "osm"
  },
  {
   "id": "a3431106414",
   "nom": "Pearls and Shells",
   "categorie": "artwork",
   "description": "",
   "prix": "",
   "duree": "",
   "mapsUrl": "https://maps.google.com/?q=25.7931261,55.9478311",
   "lat": 25.7931261,
   "lng": 55.9478311,
   "source": "osm"
  },
  {
   "id": "a146050973",
   "nom": "Ras al Khaimah Old Watch Tower",
   "categorie": "attraction",
   "description": "",
   "prix": "",
   "duree": "",
   "mapsUrl": "https://maps.google.com/?q=25.7949703,55.9494192",
   "lat": 25.7949703,
   "lng": 55.9494192,
   "source": "osm"
  },
  {
   "id": "a6011381851",
   "nom": "Balance scale sculpture",
   "categorie": "artwork",
   "description": "",
   "prix": "",
   "duree": "",
   "mapsUrl": "https://maps.google.com/?q=25.7769737,55.9340679",
   "lat": 25.7769737,
   "lng": 55.9340679,
   "source": "osm"
  },
  {
   "id": "a8022677233",
   "nom": "Fly Zone Trampoline Park",
   "categorie": "trampoline park",
   "description": "",
   "prix": "",
   "duree": "",
   "mapsUrl": "https://maps.google.com/?q=25.7748791,55.9375962",
   "lat": 25.7748791,
   "lng": 55.9375962,
   "source": "osm"
  },
  {
   "id": "a11528025369",
   "nom": "Crown Roundabout",
   "categorie": "attraction",
   "description": "",
   "prix": "",
   "duree": "",
   "mapsUrl": "https://maps.google.com/?q=25.7893276,55.9627605",
   "lat": 25.7893276,
   "lng": 55.9627605,
   "source": "osm"
  },
  {
   "id": "a338757954",
   "nom": "متحف أحمد بن ماجد",
   "categorie": "museum",
   "description": "",
   "prix": "",
   "duree": "",
   "mapsUrl": "https://maps.google.com/?q=25.8053918,55.958702",
   "lat": 25.8053918,
   "lng": 55.958702,
   "source": "osm"
  },
  {
   "id": "a1645509245",
   "nom": "قلعة العريبي",
   "categorie": "castle",
   "description": "",
   "prix": "",
   "duree": "",
   "mapsUrl": "https://maps.google.com/?q=25.7881273,55.9773534",
   "lat": 25.7881273,
   "lng": 55.9773534,
   "source": "osm"
  },
  {
   "id": "a3488002045",
   "nom": "Last Dhow Building Station",
   "categorie": "museum",
   "description": "",
   "prix": "",
   "duree": "",
   "mapsUrl": "https://maps.google.com/?q=25.8210185,55.9743264",
   "lat": 25.8210185,
   "lng": 55.9743264,
   "source": "osm"
  },
  {
   "id": "a13955564401",
   "nom": "Ak Khaaran Roundabout.",
   "categorie": "viewpoint",
   "description": "",
   "prix": "",
   "duree": "",
   "mapsUrl": "https://maps.google.com/?q=25.7135179,55.9710062",
   "lat": 25.7135179,
   "lng": 55.9710062,
   "source": "osm"
  }
 ],
 "osmEnriched": true,
 "osmEnrichedAt": "2026-06-30",
 "description_en": "Ras el Khaïmah, in the UAE, is a halal-friendly destination with a Halal Trust Score of 4.2/5. Muslim travelers will find 16 halal restaurants listed, 8 mosques, real-time prayer times and the Qibla direction — a complete guide to travel with peace of mind.",
 "metaDescription_en": "Halal guide to Ras el Khaïmah: 16 halal restaurants listed, 8 mosques, prayer times and tips for Muslim travelers. Halal Trust Score 4.2/5.",
 "nom_en": "Ras el Khaïmah",
 "boucheries": [],
 "dataPurgedAt": "2026-07-15",
 "googleBakedAt": "2026-07-15"
}