{
 "slug": "rio-de-janeiro",
 "nom": "Rio de Janeiro",
 "pays": "Brésil",
 "pays_slug": "bresil",
 "continent": "Amérique du Sud",
 "region": "Brésil",
 "coordonnees": {
  "lat": -22.9068,
  "lng": -43.1729
 },
 "codeISO": "BR",
 "score_halal": 2.9,
 "halalScore": 5.8,
 "villeNonMusulmane": true,
 "description": "Ville merveilleuse entre mer et montagne. Offre halal modeste et lieux de prière ; communauté musulmane présente.",
 "metaDescription": "Ville merveilleuse entre mer et montagne. Offre halal modeste et lieux de prière ; communauté musulmane présente.",
 "image": "https://upload.wikimedia.org/wikipedia/commons/8/86/Rio_de_Janeiro_from_Sugarloaf_mountain%2C_May_2004.jpg",
 "image_hero": "https://upload.wikimedia.org/wikipedia/commons/8/86/Rio_de_Janeiro_from_Sugarloaf_mountain%2C_May_2004.jpg",
 "imageCredit": "Wikimedia Commons",
 "statistiques": {
  "restaurants_halal": 10,
  "mosquees": 10,
  "hotels": 30
 },
 "infoPratique": {
  "transport": "Accessible par avion et transports en commun locaux.",
  "meilleureEpoque": "Printemps et automne (climat tempéré).",
  "conseilHalal": "Ville non-musulmane : repérez les restaurants halal certifiés et les mosquées via l'application avant votre visite."
 },
 "tags": [
  "halal",
  "ville non-musulmane",
  "amérique du sud"
 ],
 "restaurants": [
  {
   "nom": "Bar do Elias",
   "type": "arab",
   "priceRange": "€€",
   "mapsUrl": "https://maps.google.com/?q=-22.9323491,-43.1772824",
   "lat": -22.9323491,
   "lng": -43.1772824,
   "halalConfidence": "likely",
   "source": "osm"
  },
  {
   "nom": "Futura lanchonete",
   "type": "arab",
   "priceRange": "€€",
   "mapsUrl": "https://maps.google.com/?q=-22.9361606,-43.1774118",
   "lat": -22.9361606,
   "lng": -43.1774118,
   "halalConfidence": "likely",
   "source": "osm"
  },
  {
   "nom": "Ben Ali",
   "type": "arab",
   "priceRange": "€€",
   "mapsUrl": "https://maps.google.com/?q=-22.9484843,-43.1826709",
   "lat": -22.9484843,
   "lng": -43.1826709,
   "halalConfidence": "likely",
   "source": "osm"
  },
  {
   "nom": "Elias Gourmet",
   "type": "international, arabic, salad",
   "priceRange": "€€",
   "mapsUrl": "https://maps.google.com/?q=-22.9491574,-43.1852559",
   "lat": -22.9491574,
   "lng": -43.1852559,
   "halalConfidence": "likely",
   "source": "osm"
  },
  {
   "nom": "Árabe Carioca",
   "type": "arab",
   "priceRange": "€€",
   "mapsUrl": "https://maps.google.com/?q=-22.9178965,-43.2244798",
   "lat": -22.9178965,
   "lng": -43.2244798,
   "halalConfidence": "likely",
   "source": "osm"
  },
  {
   "nom": "Camelo's",
   "type": "arab",
   "priceRange": "€€",
   "mapsUrl": "https://maps.google.com/?q=-22.9248011,-43.2314873",
   "lat": -22.9248011,
   "lng": -43.2314873,
   "halalConfidence": "likely",
   "source": "osm"
  },
  {
   "nom": "Basha",
   "type": "lebanese",
   "priceRange": "€€",
   "mapsUrl": "https://maps.google.com/?q=-22.9651609,-43.1770668",
   "lat": -22.9651609,
   "lng": -43.1770668,
   "halalConfidence": "likely",
   "source": "osm"
  },
  {
   "nom": "Amir",
   "type": "lebanese",
   "priceRange": "€€",
   "mapsUrl": "https://maps.google.com/?q=-22.965539,-43.176642",
   "lat": -22.965539,
   "lng": -43.176642,
   "halalConfidence": "likely",
   "source": "osm"
  },
  {
   "nom": "Ibra Árabe",
   "type": "arab, lebanese",
   "priceRange": "€€",
   "mapsUrl": "https://maps.google.com/?q=-22.9730362,-43.1922396",
   "lat": -22.9730362,
   "lng": -43.1922396,
   "halalConfidence": "likely",
   "source": "osm"
  },
  {
   "nom": "Stambul",
   "type": "lebanese",
   "priceRange": "€€",
   "mapsUrl": "https://maps.google.com/?q=-22.975576,-43.188609",
   "lat": -22.975576,
   "lng": -43.188609,
   "halalConfidence": "likely",
   "source": "osm"
  }
 ],
 "hotels": [
  {
   "nom": "Organic Hostel",
   "categorie": "Auberge",
   "priceRange": "€€",
   "mapsUrl": "https://maps.google.com/?q=-22.9092719,-43.1718217",
   "lat": -22.9092719,
   "lng": -43.1718217,
   "halalFriendly": false,
   "bookingUrl": "https://maps.google.com/?q=-22.9092719,-43.1718217",
   "source": "osm"
  },
  {
   "nom": "Ibis Santos Dumont",
   "categorie": "Hôtel",
   "priceRange": "€€€",
   "score": 3,
   "mapsUrl": "https://maps.google.com/?q=-22.908527,-43.1693556",
   "lat": -22.908527,
   "lng": -43.1693556,
   "halalFriendly": false,
   "bookingUrl": "http://www.ibis.com/pt-br/hotel-5691-ibis-rio-de-janeiro-santos-dumont/index.shtml",
   "source": "osm"
  },
  {
   "nom": "Novotel Santos Dumont",
   "categorie": "Hôtel",
   "priceRange": "€€€€",
   "score": 4,
   "mapsUrl": "https://maps.google.com/?q=-22.908763,-43.1693226",
   "lat": -22.908763,
   "lng": -43.1693226,
   "halalFriendly": false,
   "bookingUrl": "http://www.novotel.com/pt-br/hotel-6522-novotel-rj-santos-dumont-/index.shtml",
   "source": "osm"
  },
  {
   "nom": "Hostel Centro RJ",
   "categorie": "Auberge",
   "priceRange": "€€",
   "mapsUrl": "https://maps.google.com/?q=-22.9091173,-43.1782908",
   "lat": -22.9091173,
   "lng": -43.1782908,
   "halalFriendly": false,
   "bookingUrl": "https://maps.google.com/?q=-22.9091173,-43.1782908",
   "source": "osm"
  },
  {
   "nom": "Hotel Lips",
   "categorie": "Hôtel",
   "priceRange": "€€",
   "mapsUrl": "https://maps.google.com/?q=-22.910838,-43.1769934",
   "lat": -22.910838,
   "lng": -43.1769934,
   "halalFriendly": false,
   "bookingUrl": "https://maps.google.com/?q=-22.910838,-43.1769934",
   "source": "osm"
  },
  {
   "nom": "Itajubá Hotel",
   "categorie": "Hôtel",
   "priceRange": "€€",
   "mapsUrl": "https://maps.google.com/?q=-22.911368,-43.1763007",
   "lat": -22.911368,
   "lng": -43.1763007,
   "halalFriendly": false,
   "bookingUrl": "https://itajuba-null.riodejaneiro-hotels.net/pt/",
   "source": "osm"
  },
  {
   "nom": "Hotéis OK",
   "categorie": "Hôtel",
   "priceRange": "€€",
   "mapsUrl": "https://maps.google.com/?q=-22.9113066,-43.1765566",
   "lat": -22.9113066,
   "lng": -43.1765566,
   "halalFriendly": false,
   "bookingUrl": "https://maps.google.com/?q=-22.9113066,-43.1765566",
   "source": "osm"
  },
  {
   "nom": "Hotel Atlântico Business Centro",
   "categorie": "Hôtel",
   "priceRange": "€€",
   "mapsUrl": "https://maps.google.com/?q=-22.9113569,-43.1769281",
   "lat": -22.9113569,
   "lng": -43.1769281,
   "halalFriendly": false,
   "bookingUrl": "https://maps.google.com/?q=-22.9113569,-43.1769281",
   "source": "osm"
  },
  {
   "nom": "Windsor Astúrias",
   "categorie": "Hôtel",
   "priceRange": "€€",
   "mapsUrl": "https://maps.google.com/?q=-22.9116545,-43.1764953",
   "lat": -22.9116545,
   "lng": -43.1764953,
   "halalFriendly": false,
   "bookingUrl": "https://www.windsorhoteis.com.br/pt-br/loca.asp?hid=59",
   "source": "osm"
  },
  {
   "nom": "Valentina Rio Hotel",
   "categorie": "Auberge",
   "priceRange": "€€",
   "mapsUrl": "https://maps.google.com/?q=-22.9020506,-43.1771815",
   "lat": -22.9020506,
   "lng": -43.1771815,
   "halalFriendly": false,
   "bookingUrl": "https://maps.google.com/?q=-22.9020506,-43.1771815",
   "source": "osm"
  },
  {
   "nom": "Rio's Hotel",
   "categorie": "Hôtel",
   "priceRange": "€€",
   "mapsUrl": "https://maps.google.com/?q=-22.9072636,-43.1815853",
   "lat": -22.9072636,
   "lng": -43.1815853,
   "halalFriendly": false,
   "bookingUrl": "https://maps.google.com/?q=-22.9072636,-43.1815853",
   "source": "osm"
  },
  {
   "nom": "Ibis Budget Rio de Janeiro Centro",
   "categorie": "Hôtel",
   "priceRange": "€€",
   "mapsUrl": "https://maps.google.com/?q=-22.9073756,-43.1819038",
   "lat": -22.9073756,
   "lng": -43.1819038,
   "halalFriendly": false,
   "bookingUrl": "https://www.accorhotels.com/de/hotel-5521-ibis-budget-rio-de-janeiro-centro/index.shtml",
   "source": "osm"
  },
  {
   "nom": "Ibis Rio de Janeiro Centro",
   "categorie": "Hôtel",
   "priceRange": "€€",
   "mapsUrl": "https://maps.google.com/?q=-22.9077076,-43.1818888",
   "lat": -22.9077076,
   "lng": -43.1818888,
   "halalFriendly": false,
   "bookingUrl": "http://www.ibis.com/gb/hotel-5534-ibis-rio-de-janeiro-centro/index.shtml",
   "source": "osm"
  },
  {
   "nom": "Windsor Guanabara Hotel",
   "categorie": "Hôtel",
   "priceRange": "€€",
   "mapsUrl": "https://maps.google.com/?q=-22.9010321,-43.1795544",
   "lat": -22.9010321,
   "lng": -43.1795544,
   "halalFriendly": false,
   "bookingUrl": "https://maps.google.com/?q=-22.9010321,-43.1795544",
   "source": "osm"
  },
  {
   "nom": "Rio's Presidente Hotel",
   "categorie": "Hôtel",
   "priceRange": "€€",
   "mapsUrl": "https://maps.google.com/?q=-22.9077901,-43.1823579",
   "lat": -22.9077901,
   "lng": -43.1823579,
   "halalFriendly": false,
   "bookingUrl": "https://maps.google.com/?q=-22.9077901,-43.1823579",
   "source": "osm"
  },
  {
   "nom": "Selina",
   "categorie": "Hôtel",
   "priceRange": "€€",
   "mapsUrl": "https://maps.google.com/?q=-22.9142981,-43.1785715",
   "lat": -22.9142981,
   "lng": -43.1785715,
   "halalFriendly": false,
   "bookingUrl": "https://maps.google.com/?q=-22.9142981,-43.1785715",
   "source": "osm"
  },
  {
   "nom": "Prodigy Santos Dumont",
   "categorie": "Hôtel",
   "priceRange": "€€",
   "mapsUrl": "https://maps.google.com/?q=-22.914328,-43.1666443",
   "lat": -22.914328,
   "lng": -43.1666443,
   "halalFriendly": false,
   "bookingUrl": "https://maps.google.com/?q=-22.914328,-43.1666443",
   "source": "osm"
  },
  {
   "nom": "Bossa Nova Mall",
   "categorie": "Hôtel",
   "priceRange": "€€",
   "mapsUrl": "https://maps.google.com/?q=-22.9144534,-43.1664395",
   "lat": -22.9144534,
   "lng": -43.1664395,
   "halalFriendly": false,
   "bookingUrl": "https://www.saphyr.com.br/",
   "source": "osm"
  },
  {
   "nom": "Casa Blanca",
   "categorie": "Hôtel",
   "priceRange": "€€",
   "mapsUrl": "https://maps.google.com/?q=-22.9095621,-43.1834043",
   "lat": -22.9095621,
   "lng": -43.1834043,
   "halalFriendly": false,
   "bookingUrl": "https://maps.google.com/?q=-22.9095621,-43.1834043",
   "source": "osm"
  },
  {
   "nom": "Castelo",
   "categorie": "Hôtel",
   "priceRange": "€€",
   "mapsUrl": "https://maps.google.com/?q=-22.9094247,-43.1834507",
   "lat": -22.9094247,
   "lng": -43.1834507,
   "halalFriendly": false,
   "bookingUrl": "https://maps.google.com/?q=-22.9094247,-43.1834507",
   "source": "osm"
  },
  {
   "nom": "Hospedagem Municipal",
   "categorie": "Auberge",
   "priceRange": "€€",
   "mapsUrl": "https://maps.google.com/?q=-22.9066152,-43.1840047",
   "lat": -22.9066152,
   "lng": -43.1840047,
   "halalFriendly": false,
   "bookingUrl": "https://maps.google.com/?q=-22.9066152,-43.1840047",
   "source": "osm"
  },
  {
   "nom": "Manga Hostel",
   "categorie": "Auberge",
   "priceRange": "€€",
   "mapsUrl": "https://maps.google.com/?q=-22.9125104,-43.1821247",
   "lat": -22.9125104,
   "lng": -43.1821247,
   "halalFriendly": false,
   "bookingUrl": "https://maps.google.com/?q=-22.9125104,-43.1821247",
   "source": "osm"
  },
  {
   "nom": "Hotel Esperança",
   "categorie": "Hôtel",
   "priceRange": "€€",
   "mapsUrl": "https://maps.google.com/?q=-22.9091208,-43.1837499",
   "lat": -22.9091208,
   "lng": -43.1837499,
   "halalFriendly": false,
   "bookingUrl": "https://maps.google.com/?q=-22.9091208,-43.1837499",
   "source": "osm"
  },
  {
   "nom": "Hotel Americano",
   "categorie": "Hôtel",
   "priceRange": "€€",
   "mapsUrl": "https://maps.google.com/?q=-22.9157181,-43.1787868",
   "lat": -22.9157181,
   "lng": -43.1787868,
   "halalFriendly": false,
   "bookingUrl": "https://maps.google.com/?q=-22.9157181,-43.1787868",
   "source": "osm"
  },
  {
   "nom": "Le Chateau Lapa - BoutiqueGastroArte Hotel",
   "categorie": "Hôtel",
   "priceRange": "€€",
   "mapsUrl": "https://maps.google.com/?q=-22.9133312,-43.1817452",
   "lat": -22.9133312,
   "lng": -43.1817452,
   "halalFriendly": false,
   "bookingUrl": "https://maps.google.com/?q=-22.9133312,-43.1817452",
   "source": "osm"
  },
  {
   "nom": "Hotel Villa Rica",
   "categorie": "Hôtel",
   "priceRange": "€€",
   "mapsUrl": "https://maps.google.com/?q=-22.9161202,-43.1781815",
   "lat": -22.9161202,
   "lng": -43.1781815,
   "halalFriendly": false,
   "bookingUrl": "https://maps.google.com/?q=-22.9161202,-43.1781815",
   "source": "osm"
  },
  {
   "nom": "Hostel 53Dº",
   "categorie": "Auberge",
   "priceRange": "€€",
   "mapsUrl": "https://maps.google.com/?q=-22.9154444,-43.1795927",
   "lat": -22.9154444,
   "lng": -43.1795927,
   "halalFriendly": false,
   "bookingUrl": "https://maps.google.com/?q=-22.9154444,-43.1795927",
   "source": "osm"
  },
  {
   "nom": "atelier hostel",
   "categorie": "Auberge",
   "priceRange": "€€",
   "mapsUrl": "https://maps.google.com/?q=-22.9154286,-43.1796173",
   "lat": -22.9154286,
   "lng": -43.1796173,
   "halalFriendly": false,
   "bookingUrl": "https://maps.google.com/?q=-22.9154286,-43.1796173",
   "source": "osm"
  },
  {
   "nom": "Viña del mar",
   "categorie": "Hôtel",
   "priceRange": "€€",
   "mapsUrl": "https://maps.google.com/?q=-22.9160422,-43.1786677",
   "lat": -22.9160422,
   "lng": -43.1786677,
   "halalFriendly": false,
   "bookingUrl": "https://maps.google.com/?q=-22.9160422,-43.1786677",
   "source": "osm"
  },
  {
   "nom": "Massapê Rio Hostel",
   "categorie": "Auberge",
   "priceRange": "€€",
   "mapsUrl": "https://maps.google.com/?q=-22.9102603,-43.1839067",
   "lat": -22.9102603,
   "lng": -43.1839067,
   "halalFriendly": false,
   "bookingUrl": "massaperiohostel.com",
   "source": "osm"
  }
 ],
 "mosqueesPrincipales": [
  {
   "id": "m140538722",
   "nom": "Igreja do Glorioso Patriarca São José",
   "type": "Mosquée",
   "adresse": "Avenida Presidente Antônio Carlos, Rio de Janeiro",
   "description": "Lieu de prière (OpenStreetMap).",
   "mapsUrl": "https://maps.google.com/?q=-22.9044197,-43.1739568",
   "lat": -22.9044197,
   "lng": -43.1739568,
   "source": "osm"
  },
  {
   "id": "m198746798",
   "nom": "Igreja de Nossa Senhora do Monte do Carmo",
   "type": "Mosquée",
   "adresse": "Rua Primeiro de Março, Rio de Janeiro",
   "description": "Lieu de prière (OpenStreetMap).",
   "mapsUrl": "https://maps.google.com/?q=-22.9034301,-43.1754843",
   "lat": -22.9034301,
   "lng": -43.1754843,
   "source": "osm"
  },
  {
   "id": "m198745876",
   "nom": "Igreja de Nossa Senhora da Lapa dos Mercadores",
   "type": "Mosquée",
   "adresse": "Rua do Ouvidor",
   "description": "Lieu de prière (OpenStreetMap).",
   "mapsUrl": "https://maps.google.com/?q=-22.9021923,-43.1752886",
   "lat": -22.9021923,
   "lng": -43.1752886,
   "source": "osm"
  },
  {
   "id": "m1052067544",
   "nom": "Igreja da Santa Cruz dos Militares",
   "type": "Mosquée",
   "adresse": "Rua Primeiro de Março",
   "description": "Lieu de prière (OpenStreetMap).",
   "mapsUrl": "https://maps.google.com/?q=-22.9021274,-43.1756079",
   "lat": -22.9021274,
   "lng": -43.1756079,
   "source": "osm"
  },
  {
   "id": "m198749587",
   "nom": "Igreja da Ordem Terceira de São Francisco da Penitência",
   "type": "Mosquée",
   "adresse": "Largo da Carioca",
   "description": "Lieu de prière (OpenStreetMap).",
   "mapsUrl": "https://maps.google.com/?q=-22.9069153,-43.1792559",
   "lat": -22.9069153,
   "lng": -43.1792559,
   "source": "osm"
  },
  {
   "id": "m49859977",
   "nom": "Igreja de São Francisco de Paula",
   "type": "Mosquée",
   "adresse": "Largo São Francisco de Paula",
   "description": "Lieu de prière (OpenStreetMap).",
   "mapsUrl": "https://maps.google.com/?q=-22.905612,-43.1805396",
   "lat": -22.905612,
   "lng": -43.1805396,
   "source": "osm"
  },
  {
   "id": "m30839484",
   "nom": "Igreja de Nossa Senhora da Candelária",
   "type": "Mosquée",
   "adresse": "Praça Pio X",
   "description": "Lieu de prière (OpenStreetMap).",
   "mapsUrl": "https://maps.google.com/?q=-22.9008464,-43.1777938",
   "lat": -22.9008464,
   "lng": -43.1777938,
   "source": "osm"
  },
  {
   "id": "m30621926",
   "nom": "Catedral de São Sebastião",
   "type": "Mosquée",
   "adresse": "Avenida República do Chile",
   "description": "Lieu de prière (OpenStreetMap).",
   "mapsUrl": "https://maps.google.com/?q=-22.9107984,-43.1806914",
   "lat": -22.9107984,
   "lng": -43.1806914,
   "source": "osm"
  },
  {
   "id": "m30775624",
   "nom": "Igreja e Mosteiro de São Bento",
   "type": "Mosquée",
   "adresse": "Rua Dom Gerardo",
   "description": "Lieu de prière (OpenStreetMap).",
   "mapsUrl": "https://maps.google.com/?q=-22.8968236,-43.1779064",
   "lat": -22.8968236,
   "lng": -43.1779064,
   "source": "osm"
  },
  {
   "id": "m30626207",
   "nom": "Igreja de Nossa Senhora da Glória do Outeiro",
   "type": "Mosquée",
   "adresse": "",
   "description": "Lieu de prière (OpenStreetMap).",
   "mapsUrl": "https://maps.google.com/?q=-22.9215166,-43.1753928",
   "lat": -22.9215166,
   "lng": -43.1753928,
   "source": "osm"
  }
 ],
 "activites": [
  {
   "id": "a5176976397",
   "nom": "Barão do Rio Branco",
   "categorie": "artwork",
   "description": "",
   "prix": "",
   "duree": "",
   "mapsUrl": "https://maps.google.com/?q=-22.9065548,-43.1721121",
   "lat": -22.9065548,
   "lng": -43.1721121,
   "source": "osm"
  },
  {
   "id": "a9270800766",
   "nom": "Rui Barbosa",
   "categorie": "artwork",
   "description": "",
   "prix": "",
   "duree": "",
   "mapsUrl": "https://maps.google.com/?q=-22.9069286,-43.1719316",
   "lat": -22.9069286,
   "lng": -43.1719316,
   "source": "osm"
  },
  {
   "id": "a468787011",
   "nom": "Museu da Imagem e do Som",
   "categorie": "museum",
   "description": "",
   "prix": "",
   "duree": "",
   "mapsUrl": "https://maps.google.com/?q=-22.9058248,-43.1709345",
   "lat": -22.9058248,
   "lng": -43.1709345,
   "source": "osm"
  },
  {
   "id": "a5244576059",
   "nom": "Museu da Farmacia da Santa Casa de Misericórdia",
   "categorie": "museum",
   "description": "",
   "prix": "",
   "duree": "",
   "mapsUrl": "https://maps.google.com/?q=-22.9077034,-43.170701",
   "lat": -22.9077034,
   "lng": -43.170701,
   "source": "osm"
  },
  {
   "id": "a506239957",
   "nom": "Tiradentes",
   "categorie": "artwork",
   "description": "",
   "prix": "",
   "duree": "",
   "mapsUrl": "https://maps.google.com/?q=-22.9042048,-43.1743466",
   "lat": -22.9042048,
   "lng": -43.1743466,
   "source": "osm"
  },
  {
   "id": "a30839053",
   "nom": "Museu Naval",
   "categorie": "museum",
   "description": "",
   "prix": "",
   "duree": "",
   "mapsUrl": "https://maps.google.com/?q=-22.9038552,-43.1730099",
   "lat": -22.9038552,
   "lng": -43.1730099,
   "source": "osm"
  },
  {
   "id": "a1051455251",
   "nom": "Museu Histórico Nacional",
   "categorie": "museum",
   "description": "",
   "prix": "",
   "duree": "",
   "mapsUrl": "https://maps.google.com/?q=-22.9057967,-43.1697089",
   "lat": -22.9057967,
   "lng": -43.1697089,
   "source": "osm"
  },
  {
   "id": "a9270800770",
   "nom": "Manuel Bandeira",
   "categorie": "artwork",
   "description": "",
   "prix": "",
   "duree": "",
   "mapsUrl": "https://maps.google.com/?q=-22.9100468,-43.1725252",
   "lat": -22.9100468,
   "lng": -43.1725252,
   "source": "osm"
  },
  {
   "id": "a9270800763",
   "nom": "Joaquim Nabuco",
   "categorie": "artwork",
   "description": "",
   "prix": "",
   "duree": "",
   "mapsUrl": "https://maps.google.com/?q=-22.9101234,-43.1724326",
   "lat": -22.9101234,
   "lng": -43.1724326,
   "source": "osm"
  },
  {
   "id": "a10279776291",
   "nom": "Lions",
   "categorie": "monument",
   "description": "",
   "prix": "",
   "duree": "",
   "mapsUrl": "https://maps.google.com/?q=-22.9061711,-43.1765253",
   "lat": -22.9061711,
   "lng": -43.1765253,
   "source": "osm"
  },
  {
   "id": "a4618587289",
   "nom": "Museu Judaico",
   "categorie": "museum",
   "description": "",
   "prix": "",
   "duree": "",
   "mapsUrl": "https://maps.google.com/?q=-22.9097789,-43.1747382",
   "lat": -22.9097789,
   "lng": -43.1747382,
   "source": "osm"
  },
  {
   "id": "a12434239967",
   "nom": "Monumento à Primeira Foto na América do Sul",
   "categorie": "monument",
   "description": "",
   "prix": "",
   "duree": "",
   "mapsUrl": "https://maps.google.com/?q=-22.9032579,-43.1732625",
   "lat": -22.9032579,
   "lng": -43.1732625,
   "source": "osm"
  },
  {
   "id": "a460622010",
   "nom": "Antigo Convento de Nossa Senhora do Carmo",
   "categorie": "museum",
   "description": "",
   "prix": "",
   "duree": "",
   "mapsUrl": "https://maps.google.com/?q=-22.9037721,-43.1750152",
   "lat": -22.9037721,
   "lng": -43.1750152,
   "source": "osm"
  },
  {
   "id": "a1229035013",
   "nom": "Biblioteca Nacional",
   "categorie": "attraction",
   "description": "",
   "prix": "",
   "duree": "",
   "mapsUrl": "https://maps.google.com/?q=-22.9097047,-43.1754182",
   "lat": -22.9097047,
   "lng": -43.1754182,
   "source": "osm"
  },
  {
   "id": "a6146058219",
   "nom": "Cápsula do Tempo (1969–2019) da Federação de Bandeirantes",
   "categorie": "monument",
   "description": "",
   "prix": "",
   "duree": "",
   "mapsUrl": "https://maps.google.com/?q=-22.9093835,-43.1699034",
   "lat": -22.9093835,
   "lng": -43.1699034,
   "source": "osm"
  },
  {
   "id": "a4977864450",
   "nom": "Augusto Teixeira de Freitas",
   "categorie": "memorial",
   "description": "",
   "prix": "",
   "duree": "",
   "mapsUrl": "https://maps.google.com/?q=-22.9091009,-43.1696322",
   "lat": -22.9091009,
   "lng": -43.1696322,
   "source": "osm"
  },
  {
   "id": "a9270800759",
   "nom": "Machado de Assis",
   "categorie": "artwork",
   "description": "",
   "prix": "",
   "duree": "",
   "mapsUrl": "https://maps.google.com/?q=-22.9106113,-43.1730388",
   "lat": -22.9106113,
   "lng": -43.1730388,
   "source": "osm"
  },
  {
   "id": "a460622011",
   "nom": "Antigo Convento de Nossa Senhora do Carmo",
   "categorie": "museum",
   "description": "",
   "prix": "",
   "duree": "",
   "mapsUrl": "https://maps.google.com/?q=-22.9037068,-43.1753827",
   "lat": -22.9037068,
   "lng": -43.1753827,
   "source": "osm"
  },
  {
   "id": "a431492252",
   "nom": "Centro Cultural do Ministério da Saúde",
   "categorie": "museum",
   "description": "",
   "prix": "",
   "duree": "",
   "mapsUrl": "https://maps.google.com/?q=-22.9046661,-43.1694037",
   "lat": -22.9046661,
   "lng": -43.1694037,
   "source": "osm"
  },
  {
   "id": "a460622012",
   "nom": "Antigo Convento de Nossa Senhora do Carmo",
   "categorie": "museum",
   "description": "",
   "prix": "",
   "duree": "",
   "mapsUrl": "https://maps.google.com/?q=-22.9038588,-43.1756477",
   "lat": -22.9038588,
   "lng": -43.1756477,
   "source": "osm"
  },
  {
   "id": "a3307795787",
   "nom": "General Osório",
   "categorie": "artwork",
   "description": "",
   "prix": "",
   "duree": "",
   "mapsUrl": "https://maps.google.com/?q=-22.9031587,-43.1745818",
   "lat": -22.9031587,
   "lng": -43.1745818,
   "source": "osm"
  },
  {
   "id": "a107748847",
   "nom": "Theatro Municipal",
   "categorie": "attraction",
   "description": "",
   "prix": "",
   "duree": "",
   "mapsUrl": "https://maps.google.com/?q=-22.9090075,-43.1766894",
   "lat": -22.9090075,
   "lng": -43.1766894,
   "source": "osm"
  },
  {
   "id": "a254262298",
   "nom": "Centro Cultural Justiça Federal",
   "categorie": "museum",
   "description": "",
   "prix": "",
   "duree": "",
   "mapsUrl": "https://maps.google.com/?q=-22.9105223,-43.1751797",
   "lat": -22.9105223,
   "lng": -43.1751797,
   "source": "osm"
  },
  {
   "id": "a4902219021",
   "nom": "Carlos Gomes",
   "categorie": "artwork",
   "description": "",
   "prix": "",
   "duree": "",
   "mapsUrl": "https://maps.google.com/?q=-22.9094642,-43.1766384",
   "lat": -22.9094642,
   "lng": -43.1766384,
   "source": "osm"
  },
  {
   "id": "a342963099",
   "nom": "Dom João VI",
   "categorie": "artwork",
   "description": "",
   "prix": "",
   "duree": "",
   "mapsUrl": "https://maps.google.com/?q=-22.9023851,-43.1728791",
   "lat": -22.9023851,
   "lng": -43.1728791,
   "source": "osm"
  },
  {
   "id": "a166179423",
   "nom": "Arco do Teles",
   "categorie": "attraction",
   "description": "",
   "prix": "",
   "duree": "",
   "mapsUrl": "https://maps.google.com/?q=-22.9026883,-43.174681",
   "lat": -22.9026883,
   "lng": -43.174681,
   "source": "osm"
  },
  {
   "id": "a342963757",
   "nom": "Monumento ao Almirante Negro",
   "categorie": "artwork",
   "description": "",
   "prix": "",
   "duree": "",
   "mapsUrl": "https://maps.google.com/?q=-22.9019832,-43.1729885",
   "lat": -22.9019832,
   "lng": -43.1729885,
   "source": "osm"
  },
  {
   "id": "a6290572090",
   "nom": "Juscelino Kubitschek",
   "categorie": "artwork",
   "description": "",
   "prix": "",
   "duree": "",
   "mapsUrl": "https://maps.google.com/?q=-22.9107158,-43.1759613",
   "lat": -22.9107158,
   "lng": -43.1759613,
   "source": "osm"
  },
  {
   "id": "a9270800742",
   "nom": "Getúlio Vargas",
   "categorie": "artwork",
   "description": "",
   "prix": "",
   "duree": "",
   "mapsUrl": "https://maps.google.com/?q=-22.9110163,-43.1758491",
   "lat": -22.9110163,
   "lng": -43.1758491,
   "source": "osm"
  },
  {
   "id": "a9270800757",
   "nom": "Francisco Serrador",
   "categorie": "artwork",
   "description": "",
   "prix": "",
   "duree": "",
   "mapsUrl": "https://maps.google.com/?q=-22.9112923,-43.1757461",
   "lat": -22.9112923,
   "lng": -43.1757461,
   "source": "osm"
  }
 ],
 "scoreIndicatif": true,
 "osmEnriched": true,
 "osmEnrichedAt": "2026-06-30"
}
