{
  "slug": "rio-de-janeiro",
  "nom": "Rio de Janeiro",
  "pays": "Brésil",
  "pays_slug": "bresil",
  "continent": "Amérique du Sud",
  "region": "Brésil",
  "coordonnees": {
    "lat": -22.9068,
    "lng": -43.1729
  },
  "codeISO": "BR",
  "score_halal": 2.9,
  "halalScore": 5.8,
  "villeNonMusulmane": true,
  "description": "Ville merveilleuse entre mer et montagne. Offre halal modeste et lieux de prière ; communauté musulmane présente.",
  "metaDescription": "Ville merveilleuse entre mer et montagne. Offre halal modeste et lieux de prière ; communauté musulmane présente.",
  "image": "https://upload.wikimedia.org/wikipedia/commons/8/86/Rio_de_Janeiro_from_Sugarloaf_mountain%2C_May_2004.jpg",
  "image_hero": "https://upload.wikimedia.org/wikipedia/commons/8/86/Rio_de_Janeiro_from_Sugarloaf_mountain%2C_May_2004.jpg",
  "imageCredit": "Wikimedia Commons",
  "statistiques": {
    "restaurants_halal": 12,
    "mosquees": 10,
    "hotels": 120
  },
  "infoPratique": {
    "transport": "Accessible par avion et transports en commun locaux.",
    "meilleureEpoque": "Printemps et automne (climat tempéré).",
    "conseilHalal": "Ville non-musulmane : repérez les restaurants halal certifiés et les mosquées via l'application avant votre visite."
  },
  "tags": [
    "halal",
    "ville non-musulmane",
    "amérique du sud"
  ],
  "restaurants": [
    {
      "nom": "Bar do Elias",
      "type": "arab",
      "priceRange": "€€",
      "mapsUrl": "https://maps.google.com/?q=-22.9323491,-43.1772824",
      "lat": -22.9323491,
      "lng": -43.1772824,
      "halalConfidence": "likely",
      "source": "osm"
    },
    {
      "nom": "Futura lanchonete",
      "type": "arab",
      "priceRange": "€€",
      "mapsUrl": "https://maps.google.com/?q=-22.9361606,-43.1774118",
      "lat": -22.9361606,
      "lng": -43.1774118,
      "halalConfidence": "likely",
      "source": "osm"
    },
    {
      "nom": "Ben Ali",
      "type": "arab",
      "priceRange": "€€",
      "mapsUrl": "https://maps.google.com/?q=-22.9484843,-43.1826709",
      "lat": -22.9484843,
      "lng": -43.1826709,
      "halalConfidence": "likely",
      "source": "osm"
    },
    {
      "nom": "Elias Gourmet",
      "type": "international, arabic, salad",
      "priceRange": "€€",
      "mapsUrl": "https://maps.google.com/?q=-22.9491574,-43.1852559",
      "lat": -22.9491574,
      "lng": -43.1852559,
      "halalConfidence": "likely",
      "source": "osm"
    },
    {
      "nom": "Árabe Carioca",
      "type": "arab",
      "priceRange": "€€",
      "mapsUrl": "https://maps.google.com/?q=-22.9178965,-43.2244798",
      "lat": -22.9178965,
      "lng": -43.2244798,
      "halalConfidence": "likely",
      "source": "osm"
    },
    {
      "nom": "Camelo's",
      "type": "arab",
      "priceRange": "€€",
      "mapsUrl": "https://maps.google.com/?q=-22.9248011,-43.2314873",
      "lat": -22.9248011,
      "lng": -43.2314873,
      "halalConfidence": "likely",
      "source": "osm"
    },
    {
      "nom": "Basha",
      "type": "lebanese",
      "priceRange": "€€",
      "mapsUrl": "https://maps.google.com/?q=-22.9651609,-43.1770668",
      "lat": -22.9651609,
      "lng": -43.1770668,
      "halalConfidence": "likely",
      "source": "osm"
    },
    {
      "nom": "Amir",
      "type": "lebanese",
      "priceRange": "€€",
      "mapsUrl": "https://maps.google.com/?q=-22.965539,-43.176642",
      "lat": -22.965539,
      "lng": -43.176642,
      "halalConfidence": "likely",
      "source": "osm"
    },
    {
      "nom": "Ibra Árabe",
      "type": "arab, lebanese",
      "priceRange": "€€",
      "mapsUrl": "https://maps.google.com/?q=-22.9730362,-43.1922396",
      "lat": -22.9730362,
      "lng": -43.1922396,
      "halalConfidence": "likely",
      "source": "osm"
    },
    {
      "nom": "Stambul",
      "type": "lebanese",
      "priceRange": "€€",
      "mapsUrl": "https://maps.google.com/?q=-22.975576,-43.188609",
      "lat": -22.975576,
      "lng": -43.188609,
      "halalConfidence": "likely",
      "source": "osm"
    },
    {
      "nom": "Laffa",
      "type": "arab",
      "priceRange": "€€",
      "mapsUrl": "https://maps.google.com/?q=-22.9846794,-43.2002314",
      "lat": -22.9846794,
      "lng": -43.2002314,
      "halalConfidence": "likely",
      "source": "osm"
    },
    {
      "nom": "Lemi",
      "type": "arab",
      "priceRange": "€€",
      "mapsUrl": "https://maps.google.com/?q=-22.9848862,-43.2027914",
      "lat": -22.9848862,
      "lng": -43.2027914,
      "halalConfidence": "likely",
      "source": "osm"
    }
  ],
  "hotels": [
    {
      "nom": "Organic Hostel",
      "categorie": "Auberge",
      "priceRange": "€€",
      "mapsUrl": "https://maps.google.com/?q=-22.9092719,-43.1718217",
      "lat": -22.9092719,
      "lng": -43.1718217,
      "halalFriendly": false,
      "bookingUrl": "https://maps.google.com/?q=-22.9092719,-43.1718217",
      "source": "osm"
    },
    {
      "nom": "Ibis Santos Dumont",
      "categorie": "Hôtel",
      "priceRange": "€€€",
      "score": 3,
      "mapsUrl": "https://maps.google.com/?q=-22.908527,-43.1693556",
      "lat": -22.908527,
      "lng": -43.1693556,
      "halalFriendly": false,
      "bookingUrl": "http://www.ibis.com/pt-br/hotel-5691-ibis-rio-de-janeiro-santos-dumont/index.shtml",
      "source": "osm"
    },
    {
      "nom": "Novotel Santos Dumont",
      "categorie": "Hôtel",
      "priceRange": "€€€€",
      "score": 4,
      "mapsUrl": "https://maps.google.com/?q=-22.908763,-43.1693226",
      "lat": -22.908763,
      "lng": -43.1693226,
      "halalFriendly": false,
      "bookingUrl": "http://www.novotel.com/pt-br/hotel-6522-novotel-rj-santos-dumont-/index.shtml",
      "source": "osm"
    },
    {
      "nom": "Hostel Centro RJ",
      "categorie": "Auberge",
      "priceRange": "€€",
      "mapsUrl": "https://maps.google.com/?q=-22.9091173,-43.1782908",
      "lat": -22.9091173,
      "lng": -43.1782908,
      "halalFriendly": false,
      "bookingUrl": "https://maps.google.com/?q=-22.9091173,-43.1782908",
      "source": "osm"
    },
    {
      "nom": "Hotel Lips",
      "categorie": "Hôtel",
      "priceRange": "€€",
      "mapsUrl": "https://maps.google.com/?q=-22.910838,-43.1769934",
      "lat": -22.910838,
      "lng": -43.1769934,
      "halalFriendly": false,
      "bookingUrl": "https://maps.google.com/?q=-22.910838,-43.1769934",
      "source": "osm"
    },
    {
      "nom": "Itajubá Hotel",
      "categorie": "Hôtel",
      "priceRange": "€€",
      "mapsUrl": "https://maps.google.com/?q=-22.911368,-43.1763007",
      "lat": -22.911368,
      "lng": -43.1763007,
      "halalFriendly": false,
      "bookingUrl": "https://itajuba-null.riodejaneiro-hotels.net/pt/",
      "source": "osm"
    },
    {
      "nom": "Hotéis OK",
      "categorie": "Hôtel",
      "priceRange": "€€",
      "mapsUrl": "https://maps.google.com/?q=-22.9113066,-43.1765566",
      "lat": -22.9113066,
      "lng": -43.1765566,
      "halalFriendly": false,
      "bookingUrl": "https://maps.google.com/?q=-22.9113066,-43.1765566",
      "source": "osm"
    },
    {
      "nom": "Hotel Atlântico Business Centro",
      "categorie": "Hôtel",
      "priceRange": "€€",
      "mapsUrl": "https://maps.google.com/?q=-22.9113569,-43.1769281",
      "lat": -22.9113569,
      "lng": -43.1769281,
      "halalFriendly": false,
      "bookingUrl": "https://maps.google.com/?q=-22.9113569,-43.1769281",
      "source": "osm"
    },
    {
      "nom": "Windsor Astúrias",
      "categorie": "Hôtel",
      "priceRange": "€€",
      "mapsUrl": "https://maps.google.com/?q=-22.9116545,-43.1764953",
      "lat": -22.9116545,
      "lng": -43.1764953,
      "halalFriendly": false,
      "bookingUrl": "https://www.windsorhoteis.com.br/pt-br/loca.asp?hid=59",
      "source": "osm"
    },
    {
      "nom": "Valentina Rio Hotel",
      "categorie": "Auberge",
      "priceRange": "€€",
      "mapsUrl": "https://maps.google.com/?q=-22.9020506,-43.1771815",
      "lat": -22.9020506,
      "lng": -43.1771815,
      "halalFriendly": false,
      "bookingUrl": "https://maps.google.com/?q=-22.9020506,-43.1771815",
      "source": "osm"
    },
    {
      "nom": "Rio's Hotel",
      "categorie": "Hôtel",
      "priceRange": "€€",
      "mapsUrl": "https://maps.google.com/?q=-22.9072636,-43.1815853",
      "lat": -22.9072636,
      "lng": -43.1815853,
      "halalFriendly": false,
      "bookingUrl": "https://maps.google.com/?q=-22.9072636,-43.1815853",
      "source": "osm"
    },
    {
      "nom": "Ibis Budget Rio de Janeiro Centro",
      "categorie": "Hôtel",
      "priceRange": "€€",
      "mapsUrl": "https://maps.google.com/?q=-22.9073756,-43.1819038",
      "lat": -22.9073756,
      "lng": -43.1819038,
      "halalFriendly": false,
      "bookingUrl": "https://www.accorhotels.com/de/hotel-5521-ibis-budget-rio-de-janeiro-centro/index.shtml",
      "source": "osm"
    },
    {
      "nom": "Ibis Rio de Janeiro Centro",
      "categorie": "Hôtel",
      "priceRange": "€€",
      "mapsUrl": "https://maps.google.com/?q=-22.9077076,-43.1818888",
      "lat": -22.9077076,
      "lng": -43.1818888,
      "halalFriendly": false,
      "bookingUrl": "http://www.ibis.com/gb/hotel-5534-ibis-rio-de-janeiro-centro/index.shtml",
      "source": "osm"
    },
    {
      "nom": "Windsor Guanabara Hotel",
      "categorie": "Hôtel",
      "priceRange": "€€",
      "mapsUrl": "https://maps.google.com/?q=-22.9010321,-43.1795544",
      "lat": -22.9010321,
      "lng": -43.1795544,
      "halalFriendly": false,
      "bookingUrl": "https://maps.google.com/?q=-22.9010321,-43.1795544",
      "source": "osm"
    },
    {
      "nom": "Rio's Presidente Hotel",
      "categorie": "Hôtel",
      "priceRange": "€€",
      "mapsUrl": "https://maps.google.com/?q=-22.9077901,-43.1823579",
      "lat": -22.9077901,
      "lng": -43.1823579,
      "halalFriendly": false,
      "bookingUrl": "https://maps.google.com/?q=-22.9077901,-43.1823579",
      "source": "osm"
    },
    {
      "nom": "Selina",
      "categorie": "Hôtel",
      "priceRange": "€€",
      "mapsUrl": "https://maps.google.com/?q=-22.9142981,-43.1785715",
      "lat": -22.9142981,
      "lng": -43.1785715,
      "halalFriendly": false,
      "bookingUrl": "https://maps.google.com/?q=-22.9142981,-43.1785715",
      "source": "osm"
    },
    {
      "nom": "Prodigy Santos Dumont",
      "categorie": "Hôtel",
      "priceRange": "€€",
      "mapsUrl": "https://maps.google.com/?q=-22.914328,-43.1666443",
      "lat": -22.914328,
      "lng": -43.1666443,
      "halalFriendly": false,
      "bookingUrl": "https://maps.google.com/?q=-22.914328,-43.1666443",
      "source": "osm"
    },
    {
      "nom": "Bossa Nova Mall",
      "categorie": "Hôtel",
      "priceRange": "€€",
      "mapsUrl": "https://maps.google.com/?q=-22.9144534,-43.1664395",
      "lat": -22.9144534,
      "lng": -43.1664395,
      "halalFriendly": false,
      "bookingUrl": "https://www.saphyr.com.br/",
      "source": "osm"
    },
    {
      "nom": "Casa Blanca",
      "categorie": "Hôtel",
      "priceRange": "€€",
      "mapsUrl": "https://maps.google.com/?q=-22.9095621,-43.1834043",
      "lat": -22.9095621,
      "lng": -43.1834043,
      "halalFriendly": false,
      "bookingUrl": "https://maps.google.com/?q=-22.9095621,-43.1834043",
      "source": "osm"
    },
    {
      "nom": "Castelo",
      "categorie": "Hôtel",
      "priceRange": "€€",
      "mapsUrl": "https://maps.google.com/?q=-22.9094247,-43.1834507",
      "lat": -22.9094247,
      "lng": -43.1834507,
      "halalFriendly": false,
      "bookingUrl": "https://maps.google.com/?q=-22.9094247,-43.1834507",
      "source": "osm"
    },
    {
      "nom": "Hospedagem Municipal",
      "categorie": "Auberge",
      "priceRange": "€€",
      "mapsUrl": "https://maps.google.com/?q=-22.9066152,-43.1840047",
      "lat": -22.9066152,
      "lng": -43.1840047,
      "halalFriendly": false,
      "bookingUrl": "https://maps.google.com/?q=-22.9066152,-43.1840047",
      "source": "osm"
    },
    {
      "nom": "Manga Hostel",
      "categorie": "Auberge",
      "priceRange": "€€",
      "mapsUrl": "https://maps.google.com/?q=-22.9125104,-43.1821247",
      "lat": -22.9125104,
      "lng": -43.1821247,
      "halalFriendly": false,
      "bookingUrl": "https://maps.google.com/?q=-22.9125104,-43.1821247",
      "source": "osm"
    },
    {
      "nom": "Hotel Esperança",
      "categorie": "Hôtel",
      "priceRange": "€€",
      "mapsUrl": "https://maps.google.com/?q=-22.9091208,-43.1837499",
      "lat": -22.9091208,
      "lng": -43.1837499,
      "halalFriendly": false,
      "bookingUrl": "https://maps.google.com/?q=-22.9091208,-43.1837499",
      "source": "osm"
    },
    {
      "nom": "Hotel Americano",
      "categorie": "Hôtel",
      "priceRange": "€€",
      "mapsUrl": "https://maps.google.com/?q=-22.9157181,-43.1787868",
      "lat": -22.9157181,
      "lng": -43.1787868,
      "halalFriendly": false,
      "bookingUrl": "https://maps.google.com/?q=-22.9157181,-43.1787868",
      "source": "osm"
    },
    {
      "nom": "Le Chateau Lapa - BoutiqueGastroArte Hotel",
      "categorie": "Hôtel",
      "priceRange": "€€",
      "mapsUrl": "https://maps.google.com/?q=-22.9133312,-43.1817452",
      "lat": -22.9133312,
      "lng": -43.1817452,
      "halalFriendly": false,
      "bookingUrl": "https://maps.google.com/?q=-22.9133312,-43.1817452",
      "source": "osm"
    },
    {
      "nom": "Hotel Villa Rica",
      "categorie": "Hôtel",
      "priceRange": "€€",
      "mapsUrl": "https://maps.google.com/?q=-22.9161202,-43.1781815",
      "lat": -22.9161202,
      "lng": -43.1781815,
      "halalFriendly": false,
      "bookingUrl": "https://maps.google.com/?q=-22.9161202,-43.1781815",
      "source": "osm"
    },
    {
      "nom": "Hostel 53Dº",
      "categorie": "Auberge",
      "priceRange": "€€",
      "mapsUrl": "https://maps.google.com/?q=-22.9154444,-43.1795927",
      "lat": -22.9154444,
      "lng": -43.1795927,
      "halalFriendly": false,
      "bookingUrl": "https://maps.google.com/?q=-22.9154444,-43.1795927",
      "source": "osm"
    },
    {
      "nom": "atelier hostel",
      "categorie": "Auberge",
      "priceRange": "€€",
      "mapsUrl": "https://maps.google.com/?q=-22.9154286,-43.1796173",
      "lat": -22.9154286,
      "lng": -43.1796173,
      "halalFriendly": false,
      "bookingUrl": "https://maps.google.com/?q=-22.9154286,-43.1796173",
      "source": "osm"
    },
    {
      "nom": "Viña del mar",
      "categorie": "Hôtel",
      "priceRange": "€€",
      "mapsUrl": "https://maps.google.com/?q=-22.9160422,-43.1786677",
      "lat": -22.9160422,
      "lng": -43.1786677,
      "halalFriendly": false,
      "bookingUrl": "https://maps.google.com/?q=-22.9160422,-43.1786677",
      "source": "osm"
    },
    {
      "nom": "Massapê Rio Hostel",
      "categorie": "Auberge",
      "priceRange": "€€",
      "mapsUrl": "https://maps.google.com/?q=-22.9102603,-43.1839067",
      "lat": -22.9102603,
      "lng": -43.1839067,
      "halalFriendly": false,
      "bookingUrl": "massaperiohostel.com",
      "source": "osm"
    },
    {
      "nom": "Casa da Escada",
      "categorie": "Auberge",
      "priceRange": "€€",
      "mapsUrl": "https://maps.google.com/?q=-22.9155496,-43.1797493",
      "lat": -22.9155496,
      "lng": -43.1797493,
      "halalFriendly": false,
      "bookingUrl": "https://maps.google.com/?q=-22.9155496,-43.1797493",
      "source": "osm"
    },
    {
      "nom": "villa rica",
      "categorie": "Hôtel",
      "priceRange": "€€",
      "mapsUrl": "https://maps.google.com/?q=-22.916621,-43.1778656",
      "lat": -22.916621,
      "lng": -43.1778656,
      "halalFriendly": false,
      "bookingUrl": "https://maps.google.com/?q=-22.916621,-43.1778656",
      "source": "osm"
    },
    {
      "nom": "Hotel Gomes Freire",
      "categorie": "Hôtel",
      "priceRange": "€€",
      "mapsUrl": "https://maps.google.com/?q=-22.9090224,-43.1844586",
      "lat": -22.9090224,
      "lng": -43.1844586,
      "halalFriendly": false,
      "bookingUrl": "https://maps.google.com/?q=-22.9090224,-43.1844586",
      "source": "osm"
    },
    {
      "nom": "rbnb",
      "categorie": "Maison d'hôtes",
      "priceRange": "€€",
      "mapsUrl": "https://maps.google.com/?q=-22.9170633,-43.1769045",
      "lat": -22.9170633,
      "lng": -43.1769045,
      "halalFriendly": false,
      "bookingUrl": "https://maps.google.com/?q=-22.9170633,-43.1769045",
      "source": "osm"
    },
    {
      "nom": "Hotel Carioca",
      "categorie": "Hôtel",
      "priceRange": "€€",
      "mapsUrl": "https://maps.google.com/?q=-22.9105848,-43.1840927",
      "lat": -22.9105848,
      "lng": -43.1840927,
      "halalFriendly": false,
      "bookingUrl": "https://maps.google.com/?q=-22.9105848,-43.1840927",
      "source": "osm"
    },
    {
      "nom": "Hotel Hostal",
      "categorie": "Hôtel",
      "priceRange": "€€",
      "mapsUrl": "https://maps.google.com/?q=-22.9082713,-43.1847751",
      "lat": -22.9082713,
      "lng": -43.1847751,
      "halalFriendly": false,
      "bookingUrl": "https://maps.google.com/?q=-22.9082713,-43.1847751",
      "source": "osm"
    },
    {
      "nom": "Granada Hotel",
      "categorie": "Hôtel",
      "priceRange": "€€",
      "mapsUrl": "https://maps.google.com/?q=-22.9114988,-43.1837738",
      "lat": -22.9114988,
      "lng": -43.1837738,
      "halalFriendly": false,
      "bookingUrl": "https://maps.google.com/?q=-22.9114988,-43.1837738",
      "source": "osm"
    },
    {
      "nom": "Estadual",
      "categorie": "Hôtel",
      "priceRange": "€€",
      "mapsUrl": "https://maps.google.com/?q=-22.9123515,-43.1834098",
      "lat": -22.9123515,
      "lng": -43.1834098,
      "halalFriendly": false,
      "bookingUrl": "https://maps.google.com/?q=-22.9123515,-43.1834098",
      "source": "osm"
    },
    {
      "nom": "Hotel Midway",
      "categorie": "Hôtel",
      "priceRange": "€€",
      "mapsUrl": "https://maps.google.com/?q=-22.9092272,-43.1847521",
      "lat": -22.9092272,
      "lng": -43.1847521,
      "halalFriendly": false,
      "bookingUrl": "https://www.midwayhotel.com.br/",
      "source": "osm"
    },
    {
      "nom": "Pouso Real",
      "categorie": "Hôtel",
      "priceRange": "€€",
      "mapsUrl": "https://maps.google.com/?q=-22.9123899,-43.1835634",
      "lat": -22.9123899,
      "lng": -43.1835634,
      "halalFriendly": false,
      "bookingUrl": "https://maps.google.com/?q=-22.9123899,-43.1835634",
      "source": "osm"
    },
    {
      "nom": "Diamond Hotel",
      "categorie": "Hôtel",
      "priceRange": "€€",
      "mapsUrl": "https://maps.google.com/?q=-22.9175068,-43.1773673",
      "lat": -22.9175068,
      "lng": -43.1773673,
      "halalFriendly": false,
      "bookingUrl": "https://maps.google.com/?q=-22.9175068,-43.1773673",
      "source": "osm"
    },
    {
      "nom": "Hotel Primor",
      "categorie": "Hôtel",
      "priceRange": "€€",
      "mapsUrl": "https://maps.google.com/?q=-22.9074733,-43.1853679",
      "lat": -22.9074733,
      "lng": -43.1853679,
      "halalFriendly": false,
      "bookingUrl": "https://maps.google.com/?q=-22.9074733,-43.1853679",
      "source": "osm"
    },
    {
      "nom": "La Costa",
      "categorie": "Hôtel",
      "priceRange": "€€",
      "mapsUrl": "https://maps.google.com/?q=-22.9146563,-43.1822845",
      "lat": -22.9146563,
      "lng": -43.1822845,
      "halalFriendly": false,
      "bookingUrl": "https://maps.google.com/?q=-22.9146563,-43.1822845",
      "source": "osm"
    },
    {
      "nom": "Hotel La Costa",
      "categorie": "Hôtel",
      "priceRange": "€€",
      "mapsUrl": "https://maps.google.com/?q=-22.9142993,-43.1826263",
      "lat": -22.9142993,
      "lng": -43.1826263,
      "halalFriendly": false,
      "bookingUrl": "https://maps.google.com/?q=-22.9142993,-43.1826263",
      "source": "osm"
    },
    {
      "nom": "Andorinha",
      "categorie": "Hôtel",
      "priceRange": "€€",
      "mapsUrl": "https://maps.google.com/?q=-22.912398,-43.1840727",
      "lat": -22.912398,
      "lng": -43.1840727,
      "halalFriendly": false,
      "bookingUrl": "https://maps.google.com/?q=-22.912398,-43.1840727",
      "source": "osm"
    },
    {
      "nom": "Dora Residence",
      "categorie": "Hôtel",
      "priceRange": "€€",
      "mapsUrl": "https://maps.google.com/?q=-22.9128806,-43.1838607",
      "lat": -22.9128806,
      "lng": -43.1838607,
      "halalFriendly": false,
      "bookingUrl": "https://maps.google.com/?q=-22.9128806,-43.1838607",
      "source": "osm"
    },
    {
      "nom": "Books Hostel",
      "categorie": "Auberge",
      "priceRange": "€€",
      "mapsUrl": "https://maps.google.com/?q=-22.9145986,-43.1826289",
      "lat": -22.9145986,
      "lng": -43.1826289,
      "halalFriendly": false,
      "bookingUrl": "https://bookshostel.com/",
      "source": "osm"
    },
    {
      "nom": "Casa Igba",
      "categorie": "Hôtel",
      "priceRange": "€€",
      "mapsUrl": "https://maps.google.com/?q=-22.9164265,-43.1804817",
      "lat": -22.9164265,
      "lng": -43.1804817,
      "halalFriendly": false,
      "bookingUrl": "https://maps.google.com/?q=-22.9164265,-43.1804817",
      "source": "osm"
    },
    {
      "nom": "Rio Aplauso Hostel",
      "categorie": "Auberge",
      "priceRange": "€€",
      "mapsUrl": "https://maps.google.com/?q=-22.9149667,-43.182295",
      "lat": -22.9149667,
      "lng": -43.182295,
      "halalFriendly": false,
      "bookingUrl": "http://www.rioaplausohostel.com.br/",
      "source": "osm"
    },
    {
      "nom": "Mambembe Hostel",
      "categorie": "Auberge",
      "priceRange": "€€",
      "mapsUrl": "https://maps.google.com/?q=-22.9162053,-43.180929",
      "lat": -22.9162053,
      "lng": -43.180929,
      "halalFriendly": false,
      "bookingUrl": "https://maps.google.com/?q=-22.9162053,-43.180929",
      "source": "osm"
    },
    {
      "nom": "Casa Nova Hotel",
      "categorie": "Hôtel",
      "priceRange": "€€",
      "mapsUrl": "https://maps.google.com/?q=-22.9146266,-43.1837975",
      "lat": -22.9146266,
      "lng": -43.1837975,
      "halalFriendly": false,
      "bookingUrl": "https://www.casanovahotel.com.br/",
      "source": "osm"
    },
    {
      "nom": "Vovó House Hotel Geriátrico",
      "categorie": "Hôtel",
      "priceRange": "€€",
      "mapsUrl": "https://maps.google.com/?q=-22.9172701,-43.1809843",
      "lat": -22.9172701,
      "lng": -43.1809843,
      "halalFriendly": false,
      "bookingUrl": "https://maps.google.com/?q=-22.9172701,-43.1809843",
      "source": "osm"
    },
    {
      "nom": "Casa Geranio",
      "categorie": "Hôtel",
      "priceRange": "€€",
      "mapsUrl": "https://maps.google.com/?q=-22.9169853,-43.181791",
      "lat": -22.9169853,
      "lng": -43.181791,
      "halalFriendly": false,
      "bookingUrl": "https://maps.google.com/?q=-22.9169853,-43.181791",
      "source": "osm"
    },
    {
      "nom": "Vila Galé",
      "categorie": "Hôtel",
      "priceRange": "€€€€",
      "score": 4,
      "mapsUrl": "https://maps.google.com/?q=-22.913971,-43.1850287",
      "lat": -22.913971,
      "lng": -43.1850287,
      "halalFriendly": false,
      "bookingUrl": "https://www.vilagale.com/pt/hoteis/rio-de-janeiro/vila-gale-rio-de-janeiro",
      "source": "osm"
    },
    {
      "nom": "Sugar Lofy",
      "categorie": "Hôtel",
      "priceRange": "€€",
      "mapsUrl": "https://maps.google.com/?q=-22.9179199,-43.1810613",
      "lat": -22.9179199,
      "lng": -43.1810613,
      "halalFriendly": false,
      "bookingUrl": "https://maps.google.com/?q=-22.9179199,-43.1810613",
      "source": "osm"
    },
    {
      "nom": "Hotel Atlântico Prime",
      "categorie": "Hôtel",
      "priceRange": "€€",
      "mapsUrl": "https://maps.google.com/?q=-22.9131593,-43.1857686",
      "lat": -22.9131593,
      "lng": -43.1857686,
      "halalFriendly": false,
      "bookingUrl": "https://atlanticoprime.com.br/",
      "source": "osm"
    },
    {
      "nom": "Hotel Alameda",
      "categorie": "Hôtel",
      "priceRange": "€€",
      "mapsUrl": "https://maps.google.com/?q=-22.9193957,-43.1783317",
      "lat": -22.9193957,
      "lng": -43.1783317,
      "halalFriendly": false,
      "bookingUrl": "https://maps.google.com/?q=-22.9193957,-43.1783317",
      "source": "osm"
    },
    {
      "nom": "Guesthouse Casa Amarela",
      "categorie": "Auberge",
      "priceRange": "€€",
      "mapsUrl": "https://maps.google.com/?q=-22.9162329,-43.1835168",
      "lat": -22.9162329,
      "lng": -43.1835168,
      "halalFriendly": false,
      "bookingUrl": "https://maps.google.com/?q=-22.9162329,-43.1835168",
      "source": "osm"
    },
    {
      "nom": "Terra Brasilis (bonne adresse)",
      "categorie": "Hôtel",
      "priceRange": "€€",
      "mapsUrl": "https://maps.google.com/?q=-22.9174242,-43.1820993",
      "lat": -22.9174242,
      "lng": -43.1820993,
      "halalFriendly": false,
      "bookingUrl": "https://maps.google.com/?q=-22.9174242,-43.1820993",
      "source": "osm"
    },
    {
      "nom": "Hotel Galícia",
      "categorie": "Hôtel",
      "priceRange": "€€",
      "mapsUrl": "https://maps.google.com/?q=-22.9106615,-43.1872932",
      "lat": -22.9106615,
      "lng": -43.1872932,
      "halalFriendly": false,
      "bookingUrl": "https://www.hotelgalicia.com.br/",
      "source": "osm"
    },
    {
      "nom": "DaysInn Rio de Janeiro Lapa",
      "categorie": "Hôtel",
      "priceRange": "€€",
      "mapsUrl": "https://maps.google.com/?q=-22.9132971,-43.1861817",
      "lat": -22.9132971,
      "lng": -43.1861817,
      "halalFriendly": false,
      "bookingUrl": "https://www.wyndhamhotels.com/pt-br/days-inn/rio-de-janeiro-brazil/days-inn-rio-de-janeiro-lapa/overview",
      "source": "osm"
    },
    {
      "nom": "Cidade Maravilhosa Hostel",
      "categorie": "Auberge",
      "priceRange": "€€",
      "mapsUrl": "https://maps.google.com/?q=-22.9191926,-43.1796947",
      "lat": -22.9191926,
      "lng": -43.1796947,
      "halalFriendly": false,
      "bookingUrl": "http://cidademaravilhosahostel.com.br/",
      "source": "osm"
    },
    {
      "nom": "Airbnb Mauricio",
      "categorie": "Appartement",
      "priceRange": "€€",
      "mapsUrl": "https://maps.google.com/?q=-22.9108354,-43.1875446",
      "lat": -22.9108354,
      "lng": -43.1875446,
      "halalFriendly": false,
      "bookingUrl": "https://maps.google.com/?q=-22.9108354,-43.1875446",
      "source": "osm"
    },
    {
      "nom": "Hotel Monte Castelo",
      "categorie": "Hôtel",
      "priceRange": "€€",
      "mapsUrl": "https://maps.google.com/?q=-22.9198325,-43.1790216",
      "lat": -22.9198325,
      "lng": -43.1790216,
      "halalFriendly": false,
      "bookingUrl": "https://www.hotelmontecastelo.com.br/",
      "source": "osm"
    },
    {
      "nom": "Discovery Hostel",
      "categorie": "Auberge",
      "priceRange": "€€",
      "mapsUrl": "https://maps.google.com/?q=-22.9205416,-43.177384",
      "lat": -22.9205416,
      "lng": -43.177384,
      "halalFriendly": false,
      "bookingUrl": "https://maps.google.com/?q=-22.9205416,-43.177384",
      "source": "osm"
    },
    {
      "nom": "Senado Rio Hotel",
      "categorie": "Hôtel",
      "priceRange": "€€",
      "mapsUrl": "https://maps.google.com/?q=-22.9103467,-43.188137",
      "lat": -22.9103467,
      "lng": -43.188137,
      "halalFriendly": false,
      "bookingUrl": "https://maps.google.com/?q=-22.9103467,-43.188137",
      "source": "osm"
    },
    {
      "nom": "H Rio",
      "categorie": "Hôtel",
      "priceRange": "€€",
      "mapsUrl": "https://maps.google.com/?q=-22.9105264,-43.188382",
      "lat": -22.9105264,
      "lng": -43.188382,
      "halalFriendly": false,
      "bookingUrl": "https://maps.google.com/?q=-22.9105264,-43.188382",
      "source": "osm"
    },
    {
      "nom": "Villa Santana",
      "categorie": "Hôtel",
      "priceRange": "€€",
      "mapsUrl": "https://maps.google.com/?q=-22.9095402,-43.1887325",
      "lat": -22.9095402,
      "lng": -43.1887325,
      "halalFriendly": false,
      "bookingUrl": "http://www.hostelvillasantana.com.br",
      "source": "osm"
    },
    {
      "nom": "Hotel Aymoré",
      "categorie": "Hôtel",
      "priceRange": "€€",
      "mapsUrl": "https://maps.google.com/?q=-22.9113825,-43.1883392",
      "lat": -22.9113825,
      "lng": -43.1883392,
      "halalFriendly": false,
      "bookingUrl": "https://maps.google.com/?q=-22.9113825,-43.1883392",
      "source": "osm"
    },
    {
      "nom": "Kriok Hostel",
      "categorie": "Auberge",
      "priceRange": "€€",
      "mapsUrl": "https://maps.google.com/?q=-22.9206251,-43.179481",
      "lat": -22.9206251,
      "lng": -43.179481,
      "halalFriendly": false,
      "bookingUrl": "https://www.kariok.com.br/",
      "source": "osm"
    },
    {
      "nom": "Golden hotel empresa gol",
      "categorie": "Hôtel",
      "priceRange": "€€",
      "mapsUrl": "https://maps.google.com/?q=-22.9221185,-43.1744019",
      "lat": -22.9221185,
      "lng": -43.1744019,
      "halalFriendly": false,
      "bookingUrl": "https://maps.google.com/?q=-22.9221185,-43.1744019",
      "source": "osm"
    },
    {
      "nom": "Love Time Hotel",
      "categorie": "Hôtel",
      "priceRange": "€€",
      "mapsUrl": "https://maps.google.com/?q=-22.9220847,-43.1765722",
      "lat": -22.9220847,
      "lng": -43.1765722,
      "halalFriendly": false,
      "bookingUrl": "https://maps.google.com/?q=-22.9220847,-43.1765722",
      "source": "osm"
    },
    {
      "nom": "Challon Motel",
      "categorie": "Hôtel",
      "priceRange": "€€",
      "mapsUrl": "https://maps.google.com/?q=-22.9208354,-43.1806023",
      "lat": -22.9208354,
      "lng": -43.1806023,
      "halalFriendly": false,
      "bookingUrl": "https://maps.google.com/?q=-22.9208354,-43.1806023",
      "source": "osm"
    },
    {
      "nom": "Hotel Monte Alegre",
      "categorie": "Hôtel",
      "priceRange": "€€",
      "mapsUrl": "https://maps.google.com/?q=-22.9151198,-43.1875486",
      "lat": -22.9151198,
      "lng": -43.1875486,
      "halalFriendly": false,
      "bookingUrl": "https://maps.google.com/?q=-22.9151198,-43.1875486",
      "source": "osm"
    },
    {
      "nom": "São Jorge",
      "categorie": "Hôtel",
      "priceRange": "€€",
      "mapsUrl": "https://maps.google.com/?q=-22.9156626,-43.1872996",
      "lat": -22.9156626,
      "lng": -43.1872996,
      "halalFriendly": false,
      "bookingUrl": "https://maps.google.com/?q=-22.9156626,-43.1872996",
      "source": "osm"
    },
    {
      "nom": "Hospedaria Glória",
      "categorie": "Auberge",
      "priceRange": "€€",
      "mapsUrl": "https://maps.google.com/?q=-22.9224416,-43.1773063",
      "lat": -22.9224416,
      "lng": -43.1773063,
      "halalFriendly": false,
      "bookingUrl": "https://maps.google.com/?q=-22.9224416,-43.1773063",
      "source": "osm"
    },
    {
      "nom": "Hotel Oásis do Catete",
      "categorie": "Hôtel",
      "priceRange": "€",
      "score": 1,
      "mapsUrl": "https://maps.google.com/?q=-22.9225252,-43.1773209",
      "lat": -22.9225252,
      "lng": -43.1773209,
      "halalFriendly": false,
      "bookingUrl": "https://maps.google.com/?q=-22.9225252,-43.1773209",
      "source": "osm"
    },
    {
      "nom": "Paraguai Hotel",
      "categorie": "Hôtel",
      "priceRange": "€€",
      "mapsUrl": "https://maps.google.com/?q=-22.9107365,-43.1901567",
      "lat": -22.9107365,
      "lng": -43.1901567,
      "halalFriendly": false,
      "bookingUrl": "https://maps.google.com/?q=-22.9107365,-43.1901567",
      "source": "osm"
    },
    {
      "nom": "Pousada baron garden",
      "categorie": "Hôtel",
      "priceRange": "€€",
      "mapsUrl": "https://maps.google.com/?q=-22.9231263,-43.1750559",
      "lat": -22.9231263,
      "lng": -43.1750559,
      "halalFriendly": false,
      "bookingUrl": "https://www.barongarden.com/",
      "source": "osm"
    },
    {
      "nom": "Rede Andrade Lapa Hotel",
      "categorie": "Hôtel",
      "priceRange": "€€",
      "mapsUrl": "https://maps.google.com/?q=-22.9145968,-43.1888413",
      "lat": -22.9145968,
      "lng": -43.1888413,
      "halalFriendly": false,
      "bookingUrl": "https://redeandradelapa.com.br/",
      "source": "osm"
    },
    {
      "nom": "Hotel Glória - Anexo",
      "categorie": "Hôtel",
      "priceRange": "€€",
      "mapsUrl": "https://maps.google.com/?q=-22.9236797,-43.1733155",
      "lat": -22.9236797,
      "lng": -43.1733155,
      "halalFriendly": false,
      "bookingUrl": "https://maps.google.com/?q=-22.9236797,-43.1733155",
      "source": "osm"
    },
    {
      "nom": "Cruz de Ouro Hotel",
      "categorie": "Hôtel",
      "priceRange": "€€",
      "mapsUrl": "https://maps.google.com/?q=-22.9112174,-43.1910928",
      "lat": -22.9112174,
      "lng": -43.1910928,
      "halalFriendly": false,
      "bookingUrl": "https://maps.google.com/?q=-22.9112174,-43.1910928",
      "source": "osm"
    },
    {
      "nom": "Arosa Rio Hotel",
      "categorie": "Hôtel",
      "priceRange": "€€",
      "mapsUrl": "https://maps.google.com/?q=-22.912701,-43.1908308",
      "lat": -22.912701,
      "lng": -43.1908308,
      "halalFriendly": false,
      "bookingUrl": "http://www.arosariohotel.com/",
      "source": "osm"
    },
    {
      "nom": "Art Hostel Rio",
      "categorie": "Auberge",
      "priceRange": "€€",
      "mapsUrl": "https://maps.google.com/?q=-22.924087,-43.1765891",
      "lat": -22.924087,
      "lng": -43.1765891,
      "halalFriendly": false,
      "bookingUrl": "http://www.arthostelrio.com/",
      "source": "osm"
    },
    {
      "nom": "Hostel Rio Casa da Cacaia e do Henrique",
      "categorie": "Auberge",
      "priceRange": "€€",
      "mapsUrl": "https://maps.google.com/?q=-22.9203885,-43.1854084",
      "lat": -22.9203885,
      "lng": -43.1854084,
      "halalFriendly": false,
      "bookingUrl": "https://maps.google.com/?q=-22.9203885,-43.1854084",
      "source": "osm"
    },
    {
      "nom": "Alma de Santa Guest House",
      "categorie": "Auberge",
      "priceRange": "€€",
      "mapsUrl": "https://maps.google.com/?q=-22.9219936,-43.1830115",
      "lat": -22.9219936,
      "lng": -43.1830115,
      "halalFriendly": false,
      "bookingUrl": "https://www.almadesanta.com/",
      "source": "osm"
    },
    {
      "nom": "Villa Leonor",
      "categorie": "Hôtel",
      "priceRange": "€€",
      "mapsUrl": "https://maps.google.com/?q=-22.9165694,-43.1897788",
      "lat": -22.9165694,
      "lng": -43.1897788,
      "halalFriendly": false,
      "bookingUrl": "https://www.villaleonor.com/",
      "source": "osm"
    },
    {
      "nom": "Hotel Novo Mundo",
      "categorie": "Hôtel",
      "priceRange": "€€",
      "mapsUrl": "https://maps.google.com/?q=-22.9252036,-43.1732739",
      "lat": -22.9252036,
      "lng": -43.1732739,
      "halalFriendly": false,
      "bookingUrl": "https://maps.google.com/?q=-22.9252036,-43.1732739",
      "source": "osm"
    },
    {
      "nom": "Hotel Pedro Américo",
      "categorie": "Hôtel",
      "priceRange": "€€",
      "mapsUrl": "https://maps.google.com/?q=-22.9244917,-43.1785727",
      "lat": -22.9244917,
      "lng": -43.1785727,
      "halalFriendly": false,
      "bookingUrl": "https://maps.google.com/?q=-22.9244917,-43.1785727",
      "source": "osm"
    },
    {
      "nom": "Hotel Inglês",
      "categorie": "Hôtel",
      "priceRange": "€€",
      "score": 2,
      "mapsUrl": "https://maps.google.com/?q=-22.9253222,-43.1736816",
      "lat": -22.9253222,
      "lng": -43.1736816,
      "halalFriendly": false,
      "bookingUrl": "http://www.hotelingles.com.br/",
      "source": "osm"
    },
    {
      "nom": "MODERNISTAS, HOSPEDAGEM E ARTE E ANEXO GALERIA DE ARTE",
      "categorie": "Hôtel",
      "priceRange": "€€",
      "mapsUrl": "https://maps.google.com/?q=-22.9202949,-43.1873331",
      "lat": -22.9202949,
      "lng": -43.1873331,
      "halalFriendly": false,
      "bookingUrl": "https://maps.google.com/?q=-22.9202949,-43.1873331",
      "source": "osm"
    },
    {
      "nom": "EasyGoing Hostel",
      "categorie": "Auberge",
      "priceRange": "€€",
      "mapsUrl": "https://maps.google.com/?q=-22.9249823,-43.179964",
      "lat": -22.9249823,
      "lng": -43.179964,
      "halalFriendly": false,
      "bookingUrl": "https://maps.google.com/?q=-22.9249823,-43.179964",
      "source": "osm"
    },
    {
      "nom": "Airbnb",
      "categorie": "Maison d'hôtes",
      "priceRange": "€€",
      "mapsUrl": "https://maps.google.com/?q=-22.921695,-43.1865096",
      "lat": -22.921695,
      "lng": -43.1865096,
      "halalFriendly": false,
      "bookingUrl": "https://maps.google.com/?q=-22.921695,-43.1865096",
      "source": "osm"
    },
    {
      "nom": "Santinhas de Santa",
      "categorie": "Hôtel",
      "priceRange": "€€",
      "mapsUrl": "https://maps.google.com/?q=-22.921672,-43.1868756",
      "lat": -22.921672,
      "lng": -43.1868756,
      "halalFriendly": false,
      "bookingUrl": "https://maps.google.com/?q=-22.921672,-43.1868756",
      "source": "osm"
    },
    {
      "nom": "Hostel República",
      "categorie": "Auberge",
      "priceRange": "€€",
      "mapsUrl": "https://maps.google.com/?q=-22.926004,-43.1777746",
      "lat": -22.926004,
      "lng": -43.1777746,
      "halalFriendly": false,
      "bookingUrl": "https://www.hostelrepublica.com.br/",
      "source": "osm"
    },
    {
      "nom": "Chez Georges",
      "categorie": "Hôtel",
      "priceRange": "€€",
      "mapsUrl": "https://maps.google.com/?q=-22.9224808,-43.1859736",
      "lat": -22.9224808,
      "lng": -43.1859736,
      "halalFriendly": false,
      "bookingUrl": "https://maps.google.com/?q=-22.9224808,-43.1859736",
      "source": "osm"
    },
    {
      "nom": "Hotel Riazor",
      "categorie": "Hôtel",
      "priceRange": "€€",
      "mapsUrl": "https://maps.google.com/?q=-22.9262485,-43.1767661",
      "lat": -22.9262485,
      "lng": -43.1767661,
      "halalFriendly": false,
      "bookingUrl": "https://maps.google.com/?q=-22.9262485,-43.1767661",
      "source": "osm"
    },
    {
      "nom": "Vitória",
      "categorie": "Hôtel",
      "priceRange": "€€",
      "mapsUrl": "https://maps.google.com/?q=-22.9264561,-43.176775",
      "lat": -22.9264561,
      "lng": -43.176775,
      "halalFriendly": false,
      "bookingUrl": "https://maps.google.com/?q=-22.9264561,-43.176775",
      "source": "osm"
    },
    {
      "nom": "Hostel Flamengo",
      "categorie": "Auberge",
      "priceRange": "€€",
      "mapsUrl": "https://maps.google.com/?q=-22.9261177,-43.1791104",
      "lat": -22.9261177,
      "lng": -43.1791104,
      "halalFriendly": false,
      "bookingUrl": "https://maps.google.com/?q=-22.9261177,-43.1791104",
      "source": "osm"
    },
    {
      "nom": "Ferreira Viana",
      "categorie": "Hôtel",
      "priceRange": "€€",
      "mapsUrl": "https://maps.google.com/?q=-22.9268437,-43.1758703",
      "lat": -22.9268437,
      "lng": -43.1758703,
      "halalFriendly": false,
      "bookingUrl": "https://maps.google.com/?q=-22.9268437,-43.1758703",
      "source": "osm"
    },
    {
      "nom": "Térèze",
      "categorie": "Hôtel",
      "priceRange": "€€",
      "mapsUrl": "https://maps.google.com/?q=-22.9216906,-43.1880122",
      "lat": -22.9216906,
      "lng": -43.1880122,
      "halalFriendly": false,
      "bookingUrl": "https://www.tereze.com.br/",
      "source": "osm"
    },
    {
      "nom": "Windsor Florida Hotel",
      "categorie": "Hôtel",
      "priceRange": "€€",
      "mapsUrl": "https://maps.google.com/?q=-22.9271554,-43.1761669",
      "lat": -22.9271554,
      "lng": -43.1761669,
      "halalFriendly": false,
      "bookingUrl": "https://maps.google.com/?q=-22.9271554,-43.1761669",
      "source": "osm"
    },
    {
      "nom": "Beija Flor",
      "categorie": "Hôtel",
      "priceRange": "€€",
      "mapsUrl": "https://maps.google.com/?q=-22.9274418,-43.1741429",
      "lat": -22.9274418,
      "lng": -43.1741429,
      "halalFriendly": false,
      "bookingUrl": "http://www.hotelbeijaflor.com.br/",
      "source": "osm"
    },
    {
      "nom": "Riale Imperial Flamengo",
      "categorie": "Hôtel",
      "priceRange": "€€€",
      "score": 3,
      "mapsUrl": "https://maps.google.com/?q=-22.9271653,-43.1768541",
      "lat": -22.9271653,
      "lng": -43.1768541,
      "halalFriendly": false,
      "bookingUrl": "https://rialehoteis.com.br/hoteis/riale-imperial-flamengo/",
      "source": "osm"
    },
    {
      "nom": "Regina",
      "categorie": "Hôtel",
      "priceRange": "€€",
      "mapsUrl": "https://maps.google.com/?q=-22.9277035,-43.1745722",
      "lat": -22.9277035,
      "lng": -43.1745722,
      "halalFriendly": false,
      "bookingUrl": "https://www.hotelregina.com.br/",
      "source": "osm"
    },
    {
      "nom": "Sante Hostel",
      "categorie": "Auberge",
      "priceRange": "€€",
      "mapsUrl": "https://maps.google.com/?q=-22.9225499,-43.1881489",
      "lat": -22.9225499,
      "lng": -43.1881489,
      "halalFriendly": false,
      "bookingUrl": "https://maps.google.com/?q=-22.9225499,-43.1881489",
      "source": "osm"
    },
    {
      "nom": "Caxambú",
      "categorie": "Hôtel",
      "priceRange": "€€",
      "mapsUrl": "https://maps.google.com/?q=-22.9280591,-43.174687",
      "lat": -22.9280591,
      "lng": -43.174687,
      "halalFriendly": false,
      "bookingUrl": "https://maps.google.com/?q=-22.9280591,-43.174687",
      "source": "osm"
    },
    {
      "nom": "Mengo Palace",
      "categorie": "Hôtel",
      "priceRange": "€€",
      "mapsUrl": "https://maps.google.com/?q=-22.9282864,-43.1751483",
      "lat": -22.9282864,
      "lng": -43.1751483,
      "halalFriendly": false,
      "bookingUrl": "https://maps.google.com/?q=-22.9282864,-43.1751483",
      "source": "osm"
    },
    {
      "nom": "Elegance",
      "categorie": "Hôtel",
      "priceRange": "€€",
      "mapsUrl": "https://maps.google.com/?q=-22.928362,-43.1747683",
      "lat": -22.928362,
      "lng": -43.1747683,
      "halalFriendly": false,
      "bookingUrl": "https://maps.google.com/?q=-22.928362,-43.1747683",
      "source": "osm"
    },
    {
      "nom": "m santinhas de santa",
      "categorie": "Auberge",
      "priceRange": "€€",
      "mapsUrl": "https://maps.google.com/?q=-22.9236436,-43.1876644",
      "lat": -22.9236436,
      "lng": -43.1876644,
      "halalFriendly": false,
      "bookingUrl": "https://maps.google.com/?q=-22.9236436,-43.1876644",
      "source": "osm"
    },
    {
      "nom": "Casa Cool Beans",
      "categorie": "Maison d'hôtes",
      "priceRange": "€€",
      "mapsUrl": "https://maps.google.com/?q=-22.9229105,-43.1891549",
      "lat": -22.9229105,
      "lng": -43.1891549,
      "halalFriendly": false,
      "bookingUrl": "https://maps.google.com/?q=-22.9229105,-43.1891549",
      "source": "osm"
    },
    {
      "nom": "Rio Claro",
      "categorie": "Hôtel",
      "priceRange": "€€",
      "mapsUrl": "https://maps.google.com/?q=-22.9284795,-43.1770436",
      "lat": -22.9284795,
      "lng": -43.1770436,
      "halalFriendly": false,
      "bookingUrl": "https://maps.google.com/?q=-22.9284795,-43.1770436",
      "source": "osm"
    },
    {
      "nom": "Rondônia Palace",
      "categorie": "Hôtel",
      "priceRange": "€€",
      "mapsUrl": "https://maps.google.com/?q=-22.928783,-43.1760511",
      "lat": -22.928783,
      "lng": -43.1760511,
      "halalFriendly": false,
      "bookingUrl": "https://www.hotelrondonia.com.br/",
      "source": "osm"
    },
    {
      "nom": "Único",
      "categorie": "Hôtel",
      "priceRange": "€€",
      "mapsUrl": "https://maps.google.com/?q=-22.9289213,-43.1756649",
      "lat": -22.9289213,
      "lng": -43.1756649,
      "halalFriendly": false,
      "bookingUrl": "http://www.unicohotel.com.br/",
      "source": "osm"
    },
    {
      "nom": "Carnaval Rio Hostel",
      "categorie": "Auberge",
      "priceRange": "€€",
      "mapsUrl": "https://maps.google.com/?q=-22.9153941,-43.1953033",
      "lat": -22.9153941,
      "lng": -43.1953033,
      "halalFriendly": false,
      "bookingUrl": "https://maps.google.com/?q=-22.9153941,-43.1953033",
      "source": "osm"
    },
    {
      "nom": "Hotel 1900",
      "categorie": "Hôtel",
      "priceRange": "€€",
      "mapsUrl": "https://maps.google.com/?q=-22.9288223,-43.1780926",
      "lat": -22.9288223,
      "lng": -43.1780926,
      "halalFriendly": false,
      "bookingUrl": "http://www.hotel1900.com.br",
      "source": "osm"
    },
    {
      "nom": "Petit Rio Hotel",
      "categorie": "Hôtel",
      "priceRange": "€€",
      "mapsUrl": "https://maps.google.com/?q=-22.9287586,-43.1784111",
      "lat": -22.9287586,
      "lng": -43.1784111,
      "halalFriendly": false,
      "bookingUrl": "https://petitriohotel.com.br/",
      "source": "osm"
    }
  ],
  "mosqueesPrincipales": [
    {
      "id": "m140538722",
      "nom": "Igreja do Glorioso Patriarca São José",
      "type": "Mosquée",
      "adresse": "Avenida Presidente Antônio Carlos, Rio de Janeiro",
      "description": "Lieu de prière (OpenStreetMap).",
      "mapsUrl": "https://maps.google.com/?q=-22.9044197,-43.1739568",
      "lat": -22.9044197,
      "lng": -43.1739568,
      "source": "osm"
    },
    {
      "id": "m198746798",
      "nom": "Igreja de Nossa Senhora do Monte do Carmo",
      "type": "Mosquée",
      "adresse": "Rua Primeiro de Março, Rio de Janeiro",
      "description": "Lieu de prière (OpenStreetMap).",
      "mapsUrl": "https://maps.google.com/?q=-22.9034301,-43.1754843",
      "lat": -22.9034301,
      "lng": -43.1754843,
      "source": "osm"
    },
    {
      "id": "m198745876",
      "nom": "Igreja de Nossa Senhora da Lapa dos Mercadores",
      "type": "Mosquée",
      "adresse": "Rua do Ouvidor",
      "description": "Lieu de prière (OpenStreetMap).",
      "mapsUrl": "https://maps.google.com/?q=-22.9021923,-43.1752886",
      "lat": -22.9021923,
      "lng": -43.1752886,
      "source": "osm"
    },
    {
      "id": "m1052067544",
      "nom": "Igreja da Santa Cruz dos Militares",
      "type": "Mosquée",
      "adresse": "Rua Primeiro de Março",
      "description": "Lieu de prière (OpenStreetMap).",
      "mapsUrl": "https://maps.google.com/?q=-22.9021274,-43.1756079",
      "lat": -22.9021274,
      "lng": -43.1756079,
      "source": "osm"
    },
    {
      "id": "m198749587",
      "nom": "Igreja da Ordem Terceira de São Francisco da Penitência",
      "type": "Mosquée",
      "adresse": "Largo da Carioca",
      "description": "Lieu de prière (OpenStreetMap).",
      "mapsUrl": "https://maps.google.com/?q=-22.9069153,-43.1792559",
      "lat": -22.9069153,
      "lng": -43.1792559,
      "source": "osm"
    },
    {
      "id": "m49859977",
      "nom": "Igreja de São Francisco de Paula",
      "type": "Mosquée",
      "adresse": "Largo São Francisco de Paula",
      "description": "Lieu de prière (OpenStreetMap).",
      "mapsUrl": "https://maps.google.com/?q=-22.905612,-43.1805396",
      "lat": -22.905612,
      "lng": -43.1805396,
      "source": "osm"
    },
    {
      "id": "m30839484",
      "nom": "Igreja de Nossa Senhora da Candelária",
      "type": "Mosquée",
      "adresse": "Praça Pio X",
      "description": "Lieu de prière (OpenStreetMap).",
      "mapsUrl": "https://maps.google.com/?q=-22.9008464,-43.1777938",
      "lat": -22.9008464,
      "lng": -43.1777938,
      "source": "osm"
    },
    {
      "id": "m30621926",
      "nom": "Catedral de São Sebastião",
      "type": "Mosquée",
      "adresse": "Avenida República do Chile",
      "description": "Lieu de prière (OpenStreetMap).",
      "mapsUrl": "https://maps.google.com/?q=-22.9107984,-43.1806914",
      "lat": -22.9107984,
      "lng": -43.1806914,
      "source": "osm"
    },
    {
      "id": "m30775624",
      "nom": "Igreja e Mosteiro de São Bento",
      "type": "Mosquée",
      "adresse": "Rua Dom Gerardo",
      "description": "Lieu de prière (OpenStreetMap).",
      "mapsUrl": "https://maps.google.com/?q=-22.8968236,-43.1779064",
      "lat": -22.8968236,
      "lng": -43.1779064,
      "source": "osm"
    },
    {
      "id": "m30626207",
      "nom": "Igreja de Nossa Senhora da Glória do Outeiro",
      "type": "Mosquée",
      "adresse": "",
      "description": "Lieu de prière (OpenStreetMap).",
      "mapsUrl": "https://maps.google.com/?q=-22.9215166,-43.1753928",
      "lat": -22.9215166,
      "lng": -43.1753928,
      "source": "osm"
    }
  ],
  "activites": [
    {
      "id": "a5176976397",
      "nom": "Barão do Rio Branco",
      "categorie": "artwork",
      "description": "",
      "prix": "",
      "duree": "",
      "mapsUrl": "https://maps.google.com/?q=-22.9065548,-43.1721121",
      "lat": -22.9065548,
      "lng": -43.1721121,
      "source": "osm"
    },
    {
      "id": "a9270800766",
      "nom": "Rui Barbosa",
      "categorie": "artwork",
      "description": "",
      "prix": "",
      "duree": "",
      "mapsUrl": "https://maps.google.com/?q=-22.9069286,-43.1719316",
      "lat": -22.9069286,
      "lng": -43.1719316,
      "source": "osm"
    },
    {
      "id": "a468787011",
      "nom": "Museu da Imagem e do Som",
      "categorie": "museum",
      "description": "",
      "prix": "",
      "duree": "",
      "mapsUrl": "https://maps.google.com/?q=-22.9058248,-43.1709345",
      "lat": -22.9058248,
      "lng": -43.1709345,
      "source": "osm"
    },
    {
      "id": "a5244576059",
      "nom": "Museu da Farmacia da Santa Casa de Misericórdia",
      "categorie": "museum",
      "description": "",
      "prix": "",
      "duree": "",
      "mapsUrl": "https://maps.google.com/?q=-22.9077034,-43.170701",
      "lat": -22.9077034,
      "lng": -43.170701,
      "source": "osm"
    },
    {
      "id": "a3188418897",
      "nom": "Memorial Pessoas Imprescindíveis",
      "categorie": "artwork",
      "description": "",
      "prix": "",
      "duree": "",
      "mapsUrl": "https://maps.google.com/?q=-22.9089815,-43.1715913",
      "lat": -22.9089815,
      "lng": -43.1715913,
      "source": "osm"
    },
    {
      "id": "a506239957",
      "nom": "Tiradentes",
      "categorie": "artwork",
      "description": "",
      "prix": "",
      "duree": "",
      "mapsUrl": "https://maps.google.com/?q=-22.9042048,-43.1743466",
      "lat": -22.9042048,
      "lng": -43.1743466,
      "source": "osm"
    },
    {
      "id": "a30839053",
      "nom": "Museu Naval",
      "categorie": "museum",
      "description": "",
      "prix": "",
      "duree": "",
      "mapsUrl": "https://maps.google.com/?q=-22.9038552,-43.1730099",
      "lat": -22.9038552,
      "lng": -43.1730099,
      "source": "osm"
    },
    {
      "id": "a9270800762",
      "nom": "Juventude",
      "categorie": "artwork",
      "description": "",
      "prix": "",
      "duree": "",
      "mapsUrl": "https://maps.google.com/?q=-22.9097491,-43.1737335",
      "lat": -22.9097491,
      "lng": -43.1737335,
      "source": "osm"
    },
    {
      "id": "a1051455251",
      "nom": "Museu Histórico Nacional",
      "categorie": "museum",
      "description": "",
      "prix": "",
      "duree": "",
      "mapsUrl": "https://maps.google.com/?q=-22.9057967,-43.1697089",
      "lat": -22.9057967,
      "lng": -43.1697089,
      "source": "osm"
    },
    {
      "id": "a9270800765",
      "nom": "Âncora",
      "categorie": "artwork",
      "description": "",
      "prix": "",
      "duree": "",
      "mapsUrl": "https://maps.google.com/?q=-22.9042185,-43.1709145",
      "lat": -22.9042185,
      "lng": -43.1709145,
      "source": "osm"
    },
    {
      "id": "a10280256279",
      "nom": "Marielle Franco",
      "categorie": "artwork",
      "description": "",
      "prix": "",
      "duree": "",
      "mapsUrl": "https://maps.google.com/?q=-22.9061073,-43.1763566",
      "lat": -22.9061073,
      "lng": -43.1763566,
      "source": "osm"
    },
    {
      "id": "a9270800770",
      "nom": "Manuel Bandeira",
      "categorie": "artwork",
      "description": "",
      "prix": "",
      "duree": "",
      "mapsUrl": "https://maps.google.com/?q=-22.9100468,-43.1725252",
      "lat": -22.9100468,
      "lng": -43.1725252,
      "source": "osm"
    },
    {
      "id": "a481595601",
      "nom": "Terra",
      "categorie": "artwork",
      "description": "",
      "prix": "",
      "duree": "",
      "mapsUrl": "https://maps.google.com/?q=-22.9040472,-43.1748287",
      "lat": -22.9040472,
      "lng": -43.1748287,
      "source": "osm"
    },
    {
      "id": "a9270800763",
      "nom": "Joaquim Nabuco",
      "categorie": "artwork",
      "description": "",
      "prix": "",
      "duree": "",
      "mapsUrl": "https://maps.google.com/?q=-22.9101234,-43.1724326",
      "lat": -22.9101234,
      "lng": -43.1724326,
      "source": "osm"
    },
    {
      "id": "a10279776291",
      "nom": "Lions",
      "categorie": "monument",
      "description": "",
      "prix": "",
      "duree": "",
      "mapsUrl": "https://maps.google.com/?q=-22.9061711,-43.1765253",
      "lat": -22.9061711,
      "lng": -43.1765253,
      "source": "osm"
    },
    {
      "id": "a4618587289",
      "nom": "Museu Judaico",
      "categorie": "museum",
      "description": "",
      "prix": "",
      "duree": "",
      "mapsUrl": "https://maps.google.com/?q=-22.9097789,-43.1747382",
      "lat": -22.9097789,
      "lng": -43.1747382,
      "source": "osm"
    },
    {
      "id": "a12434239967",
      "nom": "Monumento à Primeira Foto na América do Sul",
      "categorie": "monument",
      "description": "",
      "prix": "",
      "duree": "",
      "mapsUrl": "https://maps.google.com/?q=-22.9032579,-43.1732625",
      "lat": -22.9032579,
      "lng": -43.1732625,
      "source": "osm"
    },
    {
      "id": "a460622010",
      "nom": "Antigo Convento de Nossa Senhora do Carmo",
      "categorie": "museum",
      "description": "",
      "prix": "",
      "duree": "",
      "mapsUrl": "https://maps.google.com/?q=-22.9037721,-43.1750152",
      "lat": -22.9037721,
      "lng": -43.1750152,
      "source": "osm"
    },
    {
      "id": "a9270800764",
      "nom": "Coluna Média em Cantoneira",
      "categorie": "artwork",
      "description": "",
      "prix": "",
      "duree": "",
      "mapsUrl": "https://maps.google.com/?q=-22.9091883,-43.1698966",
      "lat": -22.9091883,
      "lng": -43.1698966,
      "source": "osm"
    },
    {
      "id": "a1229035013",
      "nom": "Biblioteca Nacional",
      "categorie": "attraction",
      "description": "",
      "prix": "",
      "duree": "",
      "mapsUrl": "https://maps.google.com/?q=-22.9097047,-43.1754182",
      "lat": -22.9097047,
      "lng": -43.1754182,
      "source": "osm"
    },
    {
      "id": "a6146058219",
      "nom": "Cápsula do Tempo (1969–2019) da Federação de Bandeirantes",
      "categorie": "monument",
      "description": "",
      "prix": "",
      "duree": "",
      "mapsUrl": "https://maps.google.com/?q=-22.9093835,-43.1699034",
      "lat": -22.9093835,
      "lng": -43.1699034,
      "source": "osm"
    },
    {
      "id": "a4977864450",
      "nom": "Augusto Teixeira de Freitas",
      "categorie": "memorial",
      "description": "",
      "prix": "",
      "duree": "",
      "mapsUrl": "https://maps.google.com/?q=-22.9091009,-43.1696322",
      "lat": -22.9091009,
      "lng": -43.1696322,
      "source": "osm"
    },
    {
      "id": "a9270800759",
      "nom": "Machado de Assis",
      "categorie": "artwork",
      "description": "",
      "prix": "",
      "duree": "",
      "mapsUrl": "https://maps.google.com/?q=-22.9106113,-43.1730388",
      "lat": -22.9106113,
      "lng": -43.1730388,
      "source": "osm"
    },
    {
      "id": "a431492252",
      "nom": "Centro Cultural do Ministério da Saúde",
      "categorie": "museum",
      "description": "",
      "prix": "",
      "duree": "",
      "mapsUrl": "https://maps.google.com/?q=-22.9046661,-43.1694037",
      "lat": -22.9046661,
      "lng": -43.1694037,
      "source": "osm"
    },
    {
      "id": "a3307795787",
      "nom": "General Osório",
      "categorie": "artwork",
      "description": "",
      "prix": "",
      "duree": "",
      "mapsUrl": "https://maps.google.com/?q=-22.9031587,-43.1745818",
      "lat": -22.9031587,
      "lng": -43.1745818,
      "source": "osm"
    },
    {
      "id": "a107748847",
      "nom": "Theatro Municipal",
      "categorie": "attraction",
      "description": "",
      "prix": "",
      "duree": "",
      "mapsUrl": "https://maps.google.com/?q=-22.9090075,-43.1766894",
      "lat": -22.9090075,
      "lng": -43.1766894,
      "source": "osm"
    },
    {
      "id": "a432943704",
      "nom": "Chafariz da Pirâmide",
      "categorie": "artwork",
      "description": "",
      "prix": "",
      "duree": "",
      "mapsUrl": "https://maps.google.com/?q=-22.9027049,-43.1738682",
      "lat": -22.9027049,
      "lng": -43.1738682,
      "source": "osm"
    },
    {
      "id": "a12434145813",
      "nom": "Imperatriz Teresa Cristina",
      "categorie": "artwork",
      "description": "",
      "prix": "",
      "duree": "",
      "mapsUrl": "https://maps.google.com/?q=-22.9107754,-43.1713625",
      "lat": -22.9107754,
      "lng": -43.1713625,
      "source": "osm"
    },
    {
      "id": "a13630050095",
      "nom": "teste02",
      "categorie": "park",
      "description": "",
      "prix": "",
      "duree": "",
      "mapsUrl": "https://maps.google.com/?q=-22.9097463,-43.1762414",
      "lat": -22.9097463,
      "lng": -43.1762414,
      "source": "osm"
    },
    {
      "id": "a254262298",
      "nom": "Centro Cultural Justiça Federal",
      "categorie": "museum",
      "description": "",
      "prix": "",
      "duree": "",
      "mapsUrl": "https://maps.google.com/?q=-22.9105223,-43.1751797",
      "lat": -22.9105223,
      "lng": -43.1751797,
      "source": "osm"
    },
    {
      "id": "a9270800810",
      "nom": "Escultura para o Rio",
      "categorie": "artwork",
      "description": "",
      "prix": "",
      "duree": "",
      "mapsUrl": "https://maps.google.com/?q=-22.9109103,-43.1715448",
      "lat": -22.9109103,
      "lng": -43.1715448,
      "source": "osm"
    },
    {
      "id": "a1051297281",
      "nom": "Marechal Floriano Peixoto",
      "categorie": "artwork",
      "description": "",
      "prix": "",
      "duree": "",
      "mapsUrl": "https://maps.google.com/?q=-22.9100609,-43.1760256",
      "lat": -22.9100609,
      "lng": -43.1760256,
      "source": "osm"
    },
    {
      "id": "a4902219021",
      "nom": "Carlos Gomes",
      "categorie": "artwork",
      "description": "",
      "prix": "",
      "duree": "",
      "mapsUrl": "https://maps.google.com/?q=-22.9094642,-43.1766384",
      "lat": -22.9094642,
      "lng": -43.1766384,
      "source": "osm"
    },
    {
      "id": "a342963099",
      "nom": "Dom João VI",
      "categorie": "artwork",
      "description": "",
      "prix": "",
      "duree": "",
      "mapsUrl": "https://maps.google.com/?q=-22.9023851,-43.1728791",
      "lat": -22.9023851,
      "lng": -43.1728791,
      "source": "osm"
    },
    {
      "id": "a166179423",
      "nom": "Arco do Teles",
      "categorie": "attraction",
      "description": "",
      "prix": "",
      "duree": "",
      "mapsUrl": "https://maps.google.com/?q=-22.9026883,-43.174681",
      "lat": -22.9026883,
      "lng": -43.174681,
      "source": "osm"
    },
    {
      "id": "a9270800809",
      "nom": "O Passante",
      "categorie": "artwork",
      "description": "",
      "prix": "",
      "duree": "",
      "mapsUrl": "https://maps.google.com/?q=-22.9081623,-43.1778145",
      "lat": -22.9081623,
      "lng": -43.1778145,
      "source": "osm"
    },
    {
      "id": "a342963757",
      "nom": "Monumento ao Almirante Negro",
      "categorie": "artwork",
      "description": "",
      "prix": "",
      "duree": "",
      "mapsUrl": "https://maps.google.com/?q=-22.9019832,-43.1729885",
      "lat": -22.9019832,
      "lng": -43.1729885,
      "source": "osm"
    },
    {
      "id": "a6290572090",
      "nom": "Juscelino Kubitschek",
      "categorie": "artwork",
      "description": "",
      "prix": "",
      "duree": "",
      "mapsUrl": "https://maps.google.com/?q=-22.9107158,-43.1759613",
      "lat": -22.9107158,
      "lng": -43.1759613,
      "source": "osm"
    },
    {
      "id": "a9270800751",
      "nom": "Aquele Abraço",
      "categorie": "artwork",
      "description": "",
      "prix": "",
      "duree": "",
      "mapsUrl": "https://maps.google.com/?q=-22.9110579,-43.1756884",
      "lat": -22.9110579,
      "lng": -43.1756884,
      "source": "osm"
    },
    {
      "id": "a4799919526",
      "nom": "Fundição Brazileira",
      "categorie": "artwork",
      "description": "",
      "prix": "",
      "duree": "",
      "mapsUrl": "https://maps.google.com/?q=-22.9066361,-43.1783056",
      "lat": -22.9066361,
      "lng": -43.1783056,
      "source": "osm"
    },
    {
      "id": "a9270800742",
      "nom": "Getúlio Vargas",
      "categorie": "artwork",
      "description": "",
      "prix": "",
      "duree": "",
      "mapsUrl": "https://maps.google.com/?q=-22.9110163,-43.1758491",
      "lat": -22.9110163,
      "lng": -43.1758491,
      "source": "osm"
    },
    {
      "id": "a4938732227",
      "nom": "Monumento ao Nunca Mais",
      "categorie": "artwork",
      "description": "",
      "prix": "",
      "duree": "",
      "mapsUrl": "https://maps.google.com/?q=-22.9112246,-43.1757713",
      "lat": -22.9112246,
      "lng": -43.1757713,
      "source": "osm"
    },
    {
      "id": "a9270800757",
      "nom": "Francisco Serrador",
      "categorie": "artwork",
      "description": "",
      "prix": "",
      "duree": "",
      "mapsUrl": "https://maps.google.com/?q=-22.9112923,-43.1757461",
      "lat": -22.9112923,
      "lng": -43.1757461,
      "source": "osm"
    },
    {
      "id": "a1106862397",
      "nom": "Amizade entre os Povos",
      "categorie": "artwork",
      "description": "",
      "prix": "",
      "duree": "",
      "mapsUrl": "https://maps.google.com/?q=-22.9119738,-43.173507",
      "lat": -22.9119738,
      "lng": -43.173507,
      "source": "osm"
    },
    {
      "id": "a5596398741",
      "nom": "Pixinguinha",
      "categorie": "artwork",
      "description": "",
      "prix": "",
      "duree": "",
      "mapsUrl": "https://maps.google.com/?q=-22.9037285,-43.1775262",
      "lat": -22.9037285,
      "lng": -43.1775262,
      "source": "osm"
    },
    {
      "id": "a9270800758",
      "nom": "Paulo de Frontin",
      "categorie": "artwork",
      "description": "",
      "prix": "",
      "duree": "",
      "mapsUrl": "https://maps.google.com/?q=-22.9114797,-43.1756761",
      "lat": -22.9114797,
      "lng": -43.1756761,
      "source": "osm"
    },
    {
      "id": "a4938731414",
      "nom": "À Paz, Ampulheta",
      "categorie": "artwork",
      "description": "",
      "prix": "",
      "duree": "",
      "mapsUrl": "https://maps.google.com/?q=-22.9104286,-43.1686562",
      "lat": -22.9104286,
      "lng": -43.1686562,
      "source": "osm"
    },
    {
      "id": "a1052067203",
      "nom": "Centro Cultural da Justiça Eleitoral",
      "categorie": "museum",
      "description": "",
      "prix": "",
      "duree": "",
      "mapsUrl": "https://maps.google.com/?q=-22.9019162,-43.175742",
      "lat": -22.9019162,
      "lng": -43.175742,
      "source": "osm"
    },
    {
      "id": "a338511051",
      "nom": "Confeitaria Colombo",
      "categorie": "attraction",
      "description": "",
      "prix": "",
      "duree": "",
      "mapsUrl": "https://maps.google.com/?q=-22.9051703,-43.1787441",
      "lat": -22.9051703,
      "lng": -43.1787441,
      "source": "osm"
    },
    {
      "id": "a9270800811",
      "nom": "Tartaruga",
      "categorie": "artwork",
      "description": "",
      "prix": "",
      "duree": "",
      "mapsUrl": "https://maps.google.com/?q=-22.9017106,-43.1757197",
      "lat": -22.9017106,
      "lng": -43.1757197,
      "source": "osm"
    },
    {
      "id": "a1346432383",
      "nom": "Vênus Reclinada",
      "categorie": "artwork",
      "description": "",
      "prix": "",
      "duree": "",
      "mapsUrl": "https://maps.google.com/?q=-22.9016551,-43.1757493",
      "lat": -22.9016551,
      "lng": -43.1757493,
      "source": "osm"
    },
    {
      "id": "a9270800767",
      "nom": "Brasil",
      "categorie": "artwork",
      "description": "",
      "prix": "",
      "duree": "",
      "mapsUrl": "https://maps.google.com/?q=-22.9080777,-43.1790268",
      "lat": -22.9080777,
      "lng": -43.1790268,
      "source": "osm"
    },
    {
      "id": "a6023184194",
      "nom": "11",
      "categorie": "ruins",
      "description": "",
      "prix": "",
      "duree": "",
      "mapsUrl": "https://maps.google.com/?q=-22.9074224,-43.1793197",
      "lat": -22.9074224,
      "lng": -43.1793197,
      "source": "osm"
    },
    {
      "id": "a95341200",
      "nom": "Espaço Cultural da Marinha",
      "categorie": "museum",
      "description": "",
      "prix": "",
      "duree": "",
      "mapsUrl": "https://maps.google.com/?q=-22.900959,-43.1744468",
      "lat": -22.900959,
      "lng": -43.1744468,
      "source": "osm"
    },
    {
      "id": "a1190268863",
      "nom": "General Francisco de Paula Santander",
      "categorie": "artwork",
      "description": "",
      "prix": "",
      "duree": "",
      "mapsUrl": "https://maps.google.com/?q=-22.9127212,-43.1741427",
      "lat": -22.9127212,
      "lng": -43.1741427,
      "source": "osm"
    },
    {
      "id": "a1106862352",
      "nom": "Mahatma Gandhi",
      "categorie": "memorial",
      "description": "",
      "prix": "",
      "duree": "",
      "mapsUrl": "https://maps.google.com/?q=-22.9122085,-43.1760019",
      "lat": -22.9122085,
      "lng": -43.1760019,
      "source": "osm"
    },
    {
      "id": "a1190268864",
      "nom": "Obelisco da Avenida Central",
      "categorie": "memorial",
      "description": "",
      "prix": "",
      "duree": "",
      "mapsUrl": "https://maps.google.com/?q=-22.9127227,-43.1747827",
      "lat": -22.9127227,
      "lng": -43.1747827,
      "source": "osm"
    },
    {
      "id": "a1052066209",
      "nom": "Centro Cultural Correios",
      "categorie": "museum",
      "description": "",
      "prix": "",
      "duree": "",
      "mapsUrl": "https://maps.google.com/?q=-22.9010856,-43.1756804",
      "lat": -22.9010856,
      "lng": -43.1756804,
      "source": "osm"
    },
    {
      "id": "a9270800768",
      "nom": "BNDES",
      "categorie": "artwork",
      "description": "",
      "prix": "",
      "duree": "",
      "mapsUrl": "https://maps.google.com/?q=-22.9086422,-43.1794962",
      "lat": -22.9086422,
      "lng": -43.1794962,
      "source": "osm"
    },
    {
      "id": "a6208651320",
      "nom": "Museu do Bonde",
      "categorie": "museum",
      "description": "",
      "prix": "",
      "duree": "",
      "mapsUrl": "https://maps.google.com/?q=-22.9104284,-43.1785596",
      "lat": -22.9104284,
      "lng": -43.1785596,
      "source": "osm"
    },
    {
      "id": "a30775640",
      "nom": "Centro Cultural Banco do Brasil",
      "categorie": "museum",
      "description": "",
      "prix": "",
      "duree": "",
      "mapsUrl": "https://maps.google.com/?q=-22.9010646,-43.176289",
      "lat": -22.9010646,
      "lng": -43.176289,
      "source": "osm"
    },
    {
      "id": "a95341197",
      "nom": "Submarino-Museu Riachuelo",
      "categorie": "museum",
      "description": "",
      "prix": "",
      "duree": "",
      "mapsUrl": "https://maps.google.com/?q=-22.9004217,-43.1745945",
      "lat": -22.9004217,
      "lng": -43.1745945,
      "source": "osm"
    },
    {
      "id": "a95341407",
      "nom": "Navio-Museu Bauru",
      "categorie": "museum",
      "description": "",
      "prix": "",
      "duree": "",
      "mapsUrl": "https://maps.google.com/?q=-22.9001996,-43.1741227",
      "lat": -22.9001996,
      "lng": -43.1741227,
      "source": "osm"
    },
    {
      "id": "a2843117724",
      "nom": "Santos Dumont",
      "categorie": "artwork",
      "description": "",
      "prix": "",
      "duree": "",
      "mapsUrl": "https://maps.google.com/?q=-22.9116141,-43.1677591",
      "lat": -22.9116141,
      "lng": -43.1677591,
      "source": "osm"
    },
    {
      "id": "a1052066211",
      "nom": "Casa França-Brasil",
      "categorie": "museum",
      "description": "",
      "prix": "",
      "duree": "",
      "mapsUrl": "https://maps.google.com/?q=-22.9005617,-43.1759128",
      "lat": -22.9005617,
      "lng": -43.1759128,
      "source": "osm"
    },
    {
      "id": "a324822045",
      "nom": "Nau dos Descobrimentos",
      "categorie": "museum",
      "description": "",
      "prix": "",
      "duree": "",
      "mapsUrl": "https://maps.google.com/?q=-22.9001662,-43.1750081",
      "lat": -22.9001662,
      "lng": -43.1750081,
      "source": "osm"
    },
    {
      "id": "a11051316330",
      "nom": "OLavo Bilac",
      "categorie": "artwork",
      "description": "",
      "prix": "",
      "duree": "",
      "mapsUrl": "https://maps.google.com/?q=-22.9129096,-43.176692",
      "lat": -22.9129096,
      "lng": -43.176692,
      "source": "osm"
    },
    {
      "id": "a4575375006",
      "nom": "Kintetic, a Pira do Povo",
      "categorie": "artwork",
      "description": "",
      "prix": "",
      "duree": "",
      "mapsUrl": "https://maps.google.com/?q=-22.9001706,-43.1759638",
      "lat": -22.9001706,
      "lng": -43.1759638,
      "source": "osm"
    },
    {
      "id": "a4483860013",
      "nom": "Grande Quadrado Vermelho",
      "categorie": "artwork",
      "description": "",
      "prix": "",
      "duree": "",
      "mapsUrl": "https://maps.google.com/?q=-22.9074624,-43.1809533",
      "lat": -22.9074624,
      "lng": -43.1809533,
      "source": "osm"
    },
    {
      "id": "a11051316328",
      "nom": "Irineu Marinho",
      "categorie": "artwork",
      "description": "",
      "prix": "",
      "duree": "",
      "mapsUrl": "https://maps.google.com/?q=-22.913183,-43.1771395",
      "lat": -22.913183,
      "lng": -43.1771395,
      "source": "osm"
    },
    {
      "id": "a3649910675",
      "nom": "José Bonifácio",
      "categorie": "artwork",
      "description": "",
      "prix": "",
      "duree": "",
      "mapsUrl": "https://maps.google.com/?q=-22.9051161,-43.1808487",
      "lat": -22.9051161,
      "lng": -43.1808487,
      "source": "osm"
    },
    {
      "id": "a1071998494",
      "nom": "Monumento a Marechal Deodoro da Fonseca",
      "categorie": "monument",
      "description": "",
      "prix": "",
      "duree": "",
      "mapsUrl": "https://maps.google.com/?q=-22.914033,-43.175133",
      "lat": -22.914033,
      "lng": -43.175133,
      "source": "osm"
    },
    {
      "id": "a11051316331",
      "nom": "Outono",
      "categorie": "artwork",
      "description": "",
      "prix": "",
      "duree": "",
      "mapsUrl": "https://maps.google.com/?q=-22.9133027,-43.1772288",
      "lat": -22.9133027,
      "lng": -43.1772288,
      "source": "osm"
    },
    {
      "id": "a9270800769",
      "nom": "Pereira Passos",
      "categorie": "artwork",
      "description": "",
      "prix": "",
      "duree": "",
      "mapsUrl": "https://maps.google.com/?q=-22.9012054,-43.1789135",
      "lat": -22.9012054,
      "lng": -43.1789135,
      "source": "osm"
    },
    {
      "id": "a6129040088",
      "nom": "Santa Teresa",
      "categorie": "artwork",
      "description": "",
      "prix": "",
      "duree": "",
      "mapsUrl": "https://maps.google.com/?q=-22.9099206,-43.1808217",
      "lat": -22.9099206,
      "lng": -43.1808217,
      "source": "osm"
    },
    {
      "id": "a11051316329",
      "nom": "Chiquinha Gonzaga",
      "categorie": "artwork",
      "description": "",
      "prix": "",
      "duree": "",
      "mapsUrl": "https://maps.google.com/?q=-22.913542,-43.1774625",
      "lat": -22.913542,
      "lng": -43.1774625,
      "source": "osm"
    },
    {
      "id": "a6129040086",
      "nom": "João Paulo II",
      "categorie": "artwork",
      "description": "",
      "prix": "",
      "duree": "",
      "mapsUrl": "https://maps.google.com/?q=-22.9097847,-43.1810819",
      "lat": -22.9097847,
      "lng": -43.1810819,
      "source": "osm"
    },
    {
      "id": "a6129040087",
      "nom": "Jesus Sem-teto",
      "categorie": "artwork",
      "description": "",
      "prix": "",
      "duree": "",
      "mapsUrl": "https://maps.google.com/?q=-22.9100219,-43.1811356",
      "lat": -22.9100219,
      "lng": -43.1811356,
      "source": "osm"
    },
    {
      "id": "a4363729096",
      "nom": "Retângulo Vazado",
      "categorie": "artwork",
      "description": "",
      "prix": "",
      "duree": "",
      "mapsUrl": "https://maps.google.com/?q=-22.9058783,-43.1820615",
      "lat": -22.9058783,
      "lng": -43.1820615,
      "source": "osm"
    },
    {
      "id": "a339536813",
      "nom": "Brigadeiro Eduardo Gomes",
      "categorie": "artwork",
      "description": "",
      "prix": "",
      "duree": "",
      "mapsUrl": "https://maps.google.com/?q=-22.9153363,-43.1740156",
      "lat": -22.9153363,
      "lng": -43.1740156,
      "source": "osm"
    },
    {
      "id": "a9270800760",
      "nom": "João Caetano",
      "categorie": "artwork",
      "description": "",
      "prix": "",
      "duree": "",
      "mapsUrl": "https://maps.google.com/?q=-22.9063198,-43.1822274",
      "lat": -22.9063198,
      "lng": -43.1822274,
      "source": "osm"
    },
    {
      "id": "a11050087754",
      "nom": "Fidelidade",
      "categorie": "artwork",
      "description": "",
      "prix": "",
      "duree": "",
      "mapsUrl": "https://maps.google.com/?q=-22.9068909,-43.1822936",
      "lat": -22.9068909,
      "lng": -43.1822936,
      "source": "osm"
    },
    {
      "id": "a196742718",
      "nom": "Real Gabinete Português de Leitura",
      "categorie": "museum",
      "description": "",
      "prix": "",
      "duree": "",
      "mapsUrl": "https://maps.google.com/?q=-22.9053383,-43.1822346",
      "lat": -22.9053383,
      "lng": -43.1822346,
      "source": "osm"
    },
    {
      "id": "a677594843",
      "nom": "Lampadário Monumental da Lapa",
      "categorie": "artwork",
      "description": "",
      "prix": "",
      "duree": "",
      "mapsUrl": "https://maps.google.com/?q=-22.9142406,-43.1780405",
      "lat": -22.9142406,
      "lng": -43.1780405,
      "source": "osm"
    },
    {
      "id": "a154966398",
      "nom": "Arcos da Lapa",
      "categorie": "attraction",
      "description": "",
      "prix": "",
      "duree": "",
      "mapsUrl": "https://maps.google.com/?q=-22.9130271,-43.1799525",
      "lat": -22.9130271,
      "lng": -43.1799525,
      "source": "osm"
    },
    {
      "id": "a3882446658",
      "nom": "Museu da Polícia Civil",
      "categorie": "museum",
      "description": "",
      "prix": "",
      "duree": "",
      "mapsUrl": "https://maps.google.com/?q=-22.9082359,-43.1826614",
      "lat": -22.9082359,
      "lng": -43.1826614,
      "source": "osm"
    },
    {
      "id": "a11050087755",
      "nom": "Justiça",
      "categorie": "artwork",
      "description": "",
      "prix": "",
      "duree": "",
      "mapsUrl": "https://maps.google.com/?q=-22.9071487,-43.1832389",
      "lat": -22.9071487,
      "lng": -43.1832389,
      "source": "osm"
    },
    {
      "id": "a9684055117",
      "nom": "Mural Mapa Mundi",
      "categorie": "attraction",
      "description": "",
      "prix": "",
      "duree": "",
      "mapsUrl": "https://maps.google.com/?q=-22.9149327,-43.1787493",
      "lat": -22.9149327,
      "lng": -43.1787493,
      "source": "osm"
    },
    {
      "id": "a324035540",
      "nom": "Monumento Nacional aos Mortos da Segunda Guerra Mundial",
      "categorie": "attraction",
      "description": "",
      "prix": "",
      "duree": "",
      "mapsUrl": "https://maps.google.com/?q=-22.9165961,-43.173642",
      "lat": -22.9165961,
      "lng": -43.173642,
      "source": "osm"
    },
    {
      "id": "a9270800761",
      "nom": "Lima Barreto",
      "categorie": "artwork",
      "description": "",
      "prix": "",
      "duree": "",
      "mapsUrl": "https://maps.google.com/?q=-22.9113513,-43.1823716",
      "lat": -22.9113513,
      "lng": -43.1823716,
      "source": "osm"
    },
    {
      "id": "a4362185889",
      "nom": "Três soldados (Pracinhas)",
      "categorie": "artwork",
      "description": "",
      "prix": "",
      "duree": "",
      "mapsUrl": "https://maps.google.com/?q=-22.9168317,-43.1738364",
      "lat": -22.9168317,
      "lng": -43.1738364,
      "source": "osm"
    },
    {
      "id": "a4318736492",
      "nom": "Centro Sebrae de Referência do Artesanato Brasileiro (CRAB)",
      "categorie": "museum",
      "description": "",
      "prix": "",
      "duree": "",
      "mapsUrl": "https://maps.google.com/?q=-22.9074799,-43.1839027",
      "lat": -22.9074799,
      "lng": -43.1839027,
      "source": "osm"
    },
    {
      "id": "a5279846087",
      "nom": "Ateliê Codorna",
      "categorie": "gallery",
      "description": "",
      "prix": "",
      "duree": "",
      "mapsUrl": "https://maps.google.com/?q=-22.9085745,-43.1838286",
      "lat": -22.9085745,
      "lng": -43.1838286,
      "source": "osm"
    },
    {
      "id": "a237171010",
      "nom": "Escadaria Selarón",
      "categorie": "artwork",
      "description": "",
      "prix": "",
      "duree": "",
      "mapsUrl": "https://maps.google.com/?q=-22.9155183,-43.1796354",
      "lat": -22.9155183,
      "lng": -43.1796354,
      "source": "osm"
    },
    {
      "id": "a12857124377",
      "nom": "Thaddeus von Bellingshausen",
      "categorie": "monument",
      "description": "",
      "prix": "",
      "duree": "",
      "mapsUrl": "https://maps.google.com/?q=-22.9157616,-43.1659823",
      "lat": -22.9157616,
      "lng": -43.1659823,
      "source": "osm"
    },
    {
      "id": "a5294589824",
      "nom": "Monumento ao Mascate",
      "categorie": "artwork",
      "description": "",
      "prix": "",
      "duree": "",
      "mapsUrl": "https://maps.google.com/?q=-22.9053754,-43.1849971",
      "lat": -22.9053754,
      "lng": -43.1849971,
      "source": "osm"
    }
  ],
  "scoreIndicatif": true,
  "osmEnriched": true,
  "osmEnrichedAt": "2026-06-30"
}