{
 "nom": "Riyadh",
 "pays": "Arabie Saoudite",
 "slug": "riyadh",
 "image": "https://images.unsplash.com/photo-1586724237569-f3d0c1dee8c6?w=1400&q=85",
 "image_hero": "https://images.unsplash.com/photo-1586724237569-f3d0c1dee8c6?w=1400&q=85",
 "description": "Riyadh, capitale du royaume, marie gratte-ciel futuristes et patrimoine najdi. Diriyah, berceau de l'État saoudien, est classée à l'UNESCO.",
 "descriptionLongue": "Riyadh incarne la transformation de l'Arabie : la Kingdom Centre Tower et les nouveaux quartiers côtoient les forteresses de terre du vieux Najd. Diriyah, fondée au XVe siècle et inscrite à l'UNESCO, raconte les origines du royaume. La cuisine najdie — kabsa, jareesh, dattes — y est reine. Ville entièrement halal, Riyadh offre musées modernes, souks traditionnels et l'impressionnant Edge of the World aux portes du désert.",
 "halalScore": 9.3,
 "score_halal": 4.7,
 "mosquees": 4000,
 "population": "7,7 millions",
 "langue": "Arabe",
 "monnaie": "Riyal saoudien (SAR)",
 "fuseau": "UTC+3",
 "meilleureEpoque": "Novembre à Mars",
 "prixMoyenNuit": "130€",
 "continent": "Asie",
 "codeISO": "SA",
 "pays_slug": "arabie-saoudite",
 "region": "Najd",
 "meta_title": "Voyage Halal à Riyadh — Guide Complet 2026",
 "meta_description": "Restaurants halal signalés, mosquées et guide pratique pour Riyadh — Halal Trust Score 9.3/10.",
 "metaDescription": "Restaurants halal signalés, mosquées et guide pratique pour Riyadh — Halal Trust Score 9.3/10.",
 "coordonnees": {
  "lat": 24.7136,
  "lng": 46.6753
 },
 "image_alt": "Vue de Riyadh, Arabie Saoudite",
 "statistiques": {
  "mosquees": 50,
  "restaurants_halal": 27,
  "habitants_musulmans_pct": 99,
  "hotels": 94
 },
 "infos_pratiques": {
  "langue": "Arabe",
  "monnaie": "Riyal saoudien (SAR)",
  "meilleure_periode": "Novembre à Mars",
  "appel_priere": "5 fois par jour",
  "nourriture_halal": "Largement disponible",
  "alcool": "Interdit",
  "securite": "Précautions habituelles"
 },
 "infoPratique": {
  "visa": "e-Visa touristique disponible en ligne",
  "vaccins": "Aucun obligatoire (hors Hajj)",
  "transport": "Nouveau métro de Riyadh, taxis, Uber/Careem",
  "priseElectrique": "Type G — 220V",
  "decalageHoraire": "+2h par rapport à Paris (hiver)"
 },
 "restaurants": [
  {
   "nom": "Shikara Restaurant",
   "lat": 24.7128171,
   "lng": 46.6711407,
   "type": "indian",
   "halalConfidence": "likely",
   "mapsUrl": "https://maps.google.com/?q=24.7128171,46.6711407",
   "source": "osm"
  },
  {
   "nom": "أوفردو لاونج",
   "lat": 24.7155403,
   "lng": 46.659654,
   "type": "burger, coffee shop, sandwich",
   "halalConfidence": "high",
   "mapsUrl": "https://maps.google.com/?q=24.7155403,46.659654",
   "source": "osm"
  },
  {
   "nom": "TOPKAPI Tahlia",
   "lat": 24.6942229,
   "lng": 46.6794301,
   "type": "international",
   "halalConfidence": "high",
   "mapsUrl": "https://maps.google.com/?q=24.6942229,46.6794301",
   "source": "osm"
  },
  {
   "nom": "Golden Saj",
   "lat": 24.7396443,
   "lng": 46.6707885,
   "type": "lebanese",
   "halalConfidence": "likely",
   "mapsUrl": "https://maps.google.com/?q=24.7396443,46.6707885",
   "source": "osm"
  },
  {
   "nom": "Em Sherif Cafe",
   "lat": 24.7313364,
   "lng": 46.6494167,
   "type": "middle eastern, lebanese, armenian",
   "halalConfidence": "likely",
   "mapsUrl": "https://maps.google.com/?q=24.7313364,46.6494167",
   "source": "osm"
  },
  {
   "nom": "Shawaya House",
   "lat": 24.7429454,
   "lng": 46.6724232,
   "type": "arabic",
   "halalConfidence": "likely",
   "mapsUrl": "https://maps.google.com/?q=24.7429454,46.6724232",
   "source": "osm"
  },
  {
   "nom": "قصر حلو عبد الرحمن الحلاب وأولاده ١٨٨١",
   "lat": 24.7088068,
   "lng": 46.7076196,
   "type": "lebanese",
   "halalConfidence": "likely",
   "mapsUrl": "https://maps.google.com/?q=24.7088068,46.7076196",
   "source": "osm"
  },
  {
   "nom": "Darbar Restaurant",
   "lat": 24.6833024,
   "lng": 46.6885331,
   "type": "indian",
   "halalConfidence": "likely",
   "mapsUrl": "https://maps.google.com/?q=24.6833024,46.6885331",
   "source": "osm"
  },
  {
   "nom": "ماما نورة",
   "lat": 24.6915798,
   "lng": 46.7017661,
   "type": "kebab",
   "halalConfidence": "likely",
   "mapsUrl": "https://maps.google.com/?q=24.6915798,46.7017661",
   "source": "osm"
  },
  {
   "nom": "Be Karam بي كرم",
   "lat": 24.7413004,
   "lng": 46.6463797,
   "type": "lebanese",
   "halalConfidence": "likely",
   "mapsUrl": "https://maps.google.com/?q=24.7413004,46.6463797",
   "source": "osm"
  },
  {
   "nom": "تنجه",
   "lat": 24.7522673,
   "lng": 46.6749519,
   "type": "moroccan",
   "halalConfidence": "likely",
   "mapsUrl": "https://maps.google.com/?q=24.7522673,46.6749519",
   "source": "osm"
  },
  {
   "nom": "الوسام",
   "lat": 24.6807883,
   "lng": 46.7005638,
   "type": "arab",
   "halalConfidence": "likely",
   "mapsUrl": "https://maps.google.com/?q=24.6807883,46.7005638",
   "source": "osm"
  },
  {
   "nom": "حاشي باشا",
   "lat": 24.754934,
   "lng": 46.6789905,
   "type": "middle eastern",
   "halalConfidence": "high",
   "mapsUrl": "https://maps.google.com/?q=24.754934,46.6789905",
   "source": "osm"
  },
  {
   "nom": "ذوق المذاق",
   "lat": 24.7509161,
   "lng": 46.6994231,
   "type": "turkish, shawarma, kebab, chicken",
   "halalConfidence": "likely",
   "mapsUrl": "https://maps.google.com/?q=24.7509161,46.6994231",
   "source": "osm"
  },
  {
   "nom": "Shawarma House",
   "lat": 24.756185,
   "lng": 46.6568924,
   "type": "shawarma, burger, chicken",
   "halalConfidence": "likely",
   "mapsUrl": "https://maps.google.com/?q=24.756185,46.6568924",
   "source": "osm"
  },
  {
   "nom": "مطاعم وادى الزمرد",
   "lat": 24.7583909,
   "lng": 46.6866194,
   "type": "arab, middle eastern",
   "halalConfidence": "likely",
   "mapsUrl": "https://maps.google.com/?q=24.7583909,46.6866194",
   "source": "osm"
  },
  {
   "nom": "دار رمان",
   "lat": 24.7591845,
   "lng": 46.6862123,
   "type": "levantine, lebanese",
   "halalConfidence": "likely",
   "mapsUrl": "https://maps.google.com/?q=24.7591845,46.6862123",
   "source": "osm"
  },
  {
   "nom": "جست تشل",
   "lat": 24.7614566,
   "lng": 46.6739618,
   "type": "indian",
   "halalConfidence": "likely",
   "mapsUrl": "https://maps.google.com/?q=24.7614566,46.6739618",
   "source": "osm"
  },
  {
   "nom": "بخاري",
   "lat": 24.7616992,
   "lng": 46.6728833,
   "type": "middle eastern, arab",
   "halalConfidence": "likely",
   "mapsUrl": "https://maps.google.com/?q=24.7616992,46.6728833",
   "source": "osm"
  },
  {
   "nom": "مطعم مصري مأكولات نعمه",
   "lat": 24.7658938,
   "lng": 46.6828036,
   "type": "egyptian, 1",
   "halalConfidence": "likely",
   "mapsUrl": "https://maps.google.com/?q=24.7658938,46.6828036",
   "source": "osm"
  },
  {
   "nom": "مطاعم الافراح",
   "lat": 24.7645343,
   "lng": 46.692568,
   "type": "middle eastern, arab, breakfast",
   "halalConfidence": "likely",
   "mapsUrl": "https://maps.google.com/?q=24.7645343,46.692568",
   "source": "osm"
  },
  {
   "nom": "bof - بوف",
   "lat": 24.7501152,
   "lng": 46.722583,
   "type": "american",
   "halalConfidence": "high",
   "mapsUrl": "https://maps.google.com/?q=24.7501152,46.722583",
   "source": "osm"
  },
  {
   "nom": "Koushari Express",
   "lat": 24.670807,
   "lng": 46.7303883,
   "type": "kebab",
   "halalConfidence": "likely",
   "mapsUrl": "https://maps.google.com/?q=24.670807,46.7303883",
   "source": "osm"
  },
  {
   "nom": "السلطان",
   "lat": 24.7499952,
   "lng": 46.6141769,
   "type": "turkish",
   "halalConfidence": "high",
   "mapsUrl": "https://maps.google.com/?q=24.7499952,46.6141769",
   "source": "osm"
  },
  {
   "nom": "Express Arabic & Persian Restaurant",
   "lat": 24.678041,
   "lng": 46.7435589,
   "type": "arab, persian",
   "halalConfidence": "likely",
   "mapsUrl": "https://maps.google.com/?q=24.678041,46.7435589",
   "source": "osm"
  },
  {
   "nom": "Shuwa Express شوا اكسبرس",
   "lat": 24.7855994,
   "lng": 46.6340773,
   "type": "arabic",
   "halalConfidence": "likely",
   "mapsUrl": "https://maps.google.com/?q=24.7855994,46.6340773",
   "source": "osm"
  },
  {
   "nom": "Usta Asim",
   "lat": 24.795466,
   "lng": 46.6983377,
   "type": "shawarma",
   "halalConfidence": "high",
   "mapsUrl": "https://maps.google.com/?q=24.795466,46.6983377",
   "source": "osm"
  }
 ],
 "hotels": [
  {
   "nom": "Ibis Olaya",
   "categorie": "Hôtel",
   "priceRange": "€€",
   "mapsUrl": "https://maps.google.com/?q=24.7123353,46.6764097",
   "lat": 24.7123353,
   "lng": 46.6764097,
   "halalFriendly": false,
   "bookingUrl": "https://maps.google.com/?q=24.7123353,46.6764097",
   "source": "osm"
  },
  {
   "nom": "Four Seasons Hotel",
   "categorie": "Hôtel",
   "priceRange": "€€€€",
   "score": 5,
   "mapsUrl": "https://maps.google.com/?q=24.711037,46.6733604",
   "lat": 24.711037,
   "lng": 46.6733604,
   "halalFriendly": false,
   "bookingUrl": "https://maps.google.com/?q=24.711037,46.6733604",
   "source": "osm"
  },
  {
   "nom": "Hilton Riyadh Olaya",
   "categorie": "Hôtel",
   "priceRange": "€€€€",
   "score": 5,
   "mapsUrl": "https://maps.google.com/?q=24.7102272,46.6721862",
   "lat": 24.7102272,
   "lng": 46.6721862,
   "halalFriendly": false,
   "bookingUrl": "https://www.hilton.com/en/hotels/ruhkfhi-hilton-riyadh-olaya/",
   "source": "osm"
  },
  {
   "nom": "Executive hotel, Riyadh",
   "categorie": "Hôtel",
   "priceRange": "€€",
   "mapsUrl": "https://maps.google.com/?q=24.7148858,46.6698492",
   "lat": 24.7148858,
   "lng": 46.6698492,
   "halalFriendly": false,
   "bookingUrl": "https://maps.google.com/?q=24.7148858,46.6698492",
   "source": "osm"
  },
  {
   "nom": "Carawan Al Fahad Hotel",
   "categorie": "Hôtel",
   "priceRange": "€€",
   "mapsUrl": "https://maps.google.com/?q=24.710709,46.6706252",
   "lat": 24.710709,
   "lng": 46.6706252,
   "halalFriendly": false,
   "bookingUrl": "http://carawan-alfahad.com",
   "source": "osm"
  },
  {
   "nom": "Comfort Hotel",
   "categorie": "Hôtel",
   "priceRange": "€€€€",
   "score": 4,
   "mapsUrl": "https://maps.google.com/?q=24.7069863,46.6771387",
   "lat": 24.7069863,
   "lng": 46.6771387,
   "halalFriendly": false,
   "bookingUrl": "https://maps.google.com/?q=24.7069863,46.6771387",
   "source": "osm"
  },
  {
   "nom": "بارك هاوس للشقق المفروشة",
   "categorie": "Hôtel",
   "priceRange": "€€",
   "mapsUrl": "https://maps.google.com/?q=24.7188047,46.6804981",
   "lat": 24.7188047,
   "lng": 46.6804981,
   "halalFriendly": false,
   "bookingUrl": "https://maps.google.com/?q=24.7188047,46.6804981",
   "source": "osm"
  },
  {
   "nom": "شقق الضيافة",
   "categorie": "Appartement",
   "priceRange": "€€",
   "mapsUrl": "https://maps.google.com/?q=24.7043791,46.6781684",
   "lat": 24.7043791,
   "lng": 46.6781684,
   "halalFriendly": false,
   "bookingUrl": "https://maps.google.com/?q=24.7043791,46.6781684",
   "source": "osm"
  },
  {
   "nom": "Courtyard Riyadh Olaya",
   "categorie": "Hôtel",
   "priceRange": "€€",
   "mapsUrl": "https://maps.google.com/?q=24.7022186,46.678603",
   "lat": 24.7022186,
   "lng": 46.678603,
   "halalFriendly": false,
   "bookingUrl": "https://maps.google.com/?q=24.7022186,46.678603",
   "source": "osm"
  },
  {
   "nom": "Rand by Wandalus Hotel",
   "categorie": "Hôtel",
   "priceRange": "€€",
   "mapsUrl": "https://maps.google.com/?q=24.7066724,46.6872491",
   "lat": 24.7066724,
   "lng": 46.6872491,
   "halalFriendly": false,
   "bookingUrl": "https://maps.google.com/?q=24.7066724,46.6872491",
   "source": "osm"
  },
  {
   "nom": "فندق وأبراج شيراتون الرياض",
   "categorie": "Hôtel",
   "priceRange": "€€",
   "mapsUrl": "https://maps.google.com/?q=24.7273382,46.6653544",
   "lat": 24.7273382,
   "lng": 46.6653544,
   "halalFriendly": false,
   "bookingUrl": "https://maps.google.com/?q=24.7273382,46.6653544",
   "source": "osm"
  },
  {
   "nom": "فندق لو مريديان",
   "categorie": "Hôtel",
   "priceRange": "€€",
   "mapsUrl": "https://maps.google.com/?q=24.7287458,46.6680264",
   "lat": 24.7287458,
   "lng": 46.6680264,
   "halalFriendly": false,
   "bookingUrl": "https://maps.google.com/?q=24.7287458,46.6680264",
   "source": "osm"
  },
  {
   "nom": "Hyatt Regency Riyadh Olaya",
   "categorie": "Hôtel",
   "priceRange": "€€€€",
   "score": 5,
   "mapsUrl": "https://maps.google.com/?q=24.6981992,46.6821164",
   "lat": 24.6981992,
   "lng": 46.6821164,
   "halalFriendly": false,
   "bookingUrl": "https://www.hyatt.com/hyatt-regency/en-US/ruhhr-hyatt-regency-riyadh-olaya",
   "source": "osm"
  },
  {
   "nom": "Rand",
   "categorie": "Hôtel",
   "priceRange": "€€",
   "mapsUrl": "https://maps.google.com/?q=24.6980344,46.6679956",
   "lat": 24.6980344,
   "lng": 46.6679956,
   "halalFriendly": false,
   "bookingUrl": "https://maps.google.com/?q=24.6980344,46.6679956",
   "source": "osm"
  },
  {
   "nom": "Sulaimaniah Hotel",
   "categorie": "Hôtel",
   "priceRange": "€€",
   "mapsUrl": "https://maps.google.com/?q=24.7114349,46.6950791",
   "lat": 24.7114349,
   "lng": 46.6950791,
   "halalFriendly": false,
   "bookingUrl": "https://maps.google.com/?q=24.7114349,46.6950791",
   "source": "osm"
  },
  {
   "nom": "فندق نارسيس",
   "categorie": "Hôtel",
   "priceRange": "€€",
   "mapsUrl": "https://maps.google.com/?q=24.6957579,46.6834872",
   "lat": 24.6957579,
   "lng": 46.6834872,
   "halalFriendly": false,
   "bookingUrl": "https://maps.google.com/?q=24.6957579,46.6834872",
   "source": "osm"
  },
  {
   "nom": "Al Muhaidb Tahaliya Hotel",
   "categorie": "Hôtel",
   "priceRange": "€€",
   "mapsUrl": "https://maps.google.com/?q=24.6944085,46.6831536",
   "lat": 24.6944085,
   "lng": 46.6831536,
   "halalFriendly": false,
   "bookingUrl": "https://maps.google.com/?q=24.6944085,46.6831536",
   "source": "osm"
  },
  {
   "nom": "رافال سكاي جاردنز",
   "categorie": "Hôtel",
   "priceRange": "€€",
   "mapsUrl": "https://maps.google.com/?q=24.7302471,46.6620054",
   "lat": 24.7302471,
   "lng": 46.6620054,
   "halalFriendly": false,
   "bookingUrl": "https://maps.google.com/?q=24.7302471,46.6620054",
   "source": "osm"
  },
  {
   "nom": "Almuthana",
   "categorie": "Hôtel",
   "priceRange": "€€",
   "mapsUrl": "https://maps.google.com/?q=24.6926104,46.6824445",
   "lat": 24.6926104,
   "lng": 46.6824445,
   "halalFriendly": false,
   "bookingUrl": "https://maps.google.com/?q=24.6926104,46.6824445",
   "source": "osm"
  },
  {
   "nom": "Royal Hotel",
   "categorie": "Hôtel",
   "priceRange": "€€",
   "mapsUrl": "https://maps.google.com/?q=24.734302,46.6650513",
   "lat": 24.734302,
   "lng": 46.6650513,
   "halalFriendly": false,
   "bookingUrl": "https://maps.google.com/?q=24.734302,46.6650513",
   "source": "osm"
  },
  {
   "nom": "Al khariah Apartment",
   "categorie": "Appartement",
   "priceRange": "€€",
   "mapsUrl": "https://maps.google.com/?q=24.6917811,46.6843404",
   "lat": 24.6917811,
   "lng": 46.6843404,
   "halalFriendly": false,
   "bookingUrl": "https://maps.google.com/?q=24.6917811,46.6843404",
   "source": "osm"
  },
  {
   "nom": "درر رامه 9 السليمانية",
   "categorie": "Hôtel",
   "priceRange": "€€€",
   "score": 3,
   "mapsUrl": "https://maps.google.com/?q=24.7113889,46.702563",
   "lat": 24.7113889,
   "lng": 46.702563,
   "halalFriendly": false,
   "bookingUrl": "https://maps.google.com/?q=24.7113889,46.702563",
   "source": "osm"
  },
  {
   "nom": "درر رامه السليمانية فرع 8",
   "categorie": "Hôtel",
   "priceRange": "€€€",
   "score": 3,
   "mapsUrl": "https://maps.google.com/?q=24.7108631,46.7030816",
   "lat": 24.7108631,
   "lng": 46.7030816,
   "halalFriendly": false,
   "bookingUrl": "https://maps.google.com/?q=24.7108631,46.7030816",
   "source": "osm"
  },
  {
   "nom": "شقق فاخرة التخصصي",
   "categorie": "Hôtel",
   "priceRange": "€€",
   "mapsUrl": "https://maps.google.com/?q=24.686132,46.6753644",
   "lat": 24.686132,
   "lng": 46.6753644,
   "halalFriendly": false,
   "bookingUrl": "https://maps.google.com/?q=24.686132,46.6753644",
   "source": "osm"
  },
  {
   "nom": "Mena Hotel",
   "categorie": "Hôtel",
   "priceRange": "€€",
   "mapsUrl": "https://maps.google.com/?q=24.6851693,46.6881375",
   "lat": 24.6851693,
   "lng": 46.6881375,
   "halalFriendly": false,
   "bookingUrl": "https://maps.google.com/?q=24.6851693,46.6881375",
   "source": "osm"
  },
  {
   "nom": "Hyatt Place Riyadh Al Sulaimania",
   "categorie": "Hôtel",
   "priceRange": "€€€€",
   "score": 4,
   "mapsUrl": "https://maps.google.com/?q=24.7074022,46.7084531",
   "lat": 24.7074022,
   "lng": 46.7084531,
   "halalFriendly": false,
   "bookingUrl": "https://www.hyatt.com/hyatt-place/en-US/ruhzs-hyatt-place-riyadh-sulaimania",
   "source": "osm"
  },
  {
   "nom": "Tulip Inn, Olaya House",
   "categorie": "Hôtel",
   "priceRange": "€€",
   "mapsUrl": "https://maps.google.com/?q=24.6850832,46.6888007",
   "lat": 24.6850832,
   "lng": 46.6888007,
   "halalFriendly": false,
   "bookingUrl": "https://maps.google.com/?q=24.6850832,46.6888007",
   "source": "osm"
  },
  {
   "nom": "Holiday Inn",
   "categorie": "Hôtel",
   "priceRange": "€€",
   "mapsUrl": "https://maps.google.com/?q=24.6839068,46.6879721",
   "lat": 24.6839068,
   "lng": 46.6879721,
   "halalFriendly": false,
   "bookingUrl": "https://maps.google.com/?q=24.6839068,46.6879721",
   "source": "osm"
  },
  {
   "nom": "Novotel Suite Riyadh Olaya",
   "categorie": "Hôtel",
   "priceRange": "€€",
   "mapsUrl": "https://maps.google.com/?q=24.6844763,46.6900921",
   "lat": 24.6844763,
   "lng": 46.6900921,
   "halalFriendly": false,
   "bookingUrl": "http://www.suitenovotel.com/gb/hotel-9048-suite-novotel-riyadh-olaya",
   "source": "osm"
  },
  {
   "nom": "RHSA3248",
   "categorie": "Appartement",
   "priceRange": "€€",
   "mapsUrl": "https://maps.google.com/?q=24.7076334,46.7115057",
   "lat": 24.7076334,
   "lng": 46.7115057,
   "halalFriendly": false,
   "bookingUrl": "https://maps.google.com/?q=24.7076334,46.7115057",
   "source": "osm"
  },
  {
   "nom": "Rest Inn Suites",
   "categorie": "Hôtel",
   "priceRange": "€€",
   "mapsUrl": "https://maps.google.com/?q=24.6913424,46.7034161",
   "lat": 24.6913424,
   "lng": 46.7034161,
   "halalFriendly": false,
   "bookingUrl": "http://www.rest-inn.com/",
   "source": "osm"
  },
  {
   "nom": "Alwaha Palace",
   "categorie": "Hôtel",
   "priceRange": "€€",
   "mapsUrl": "https://maps.google.com/?q=24.680951,46.6892488",
   "lat": 24.680951,
   "lng": 46.6892488,
   "halalFriendly": false,
   "bookingUrl": "https://maps.google.com/?q=24.680951,46.6892488",
   "source": "osm"
  },
  {
   "nom": "Brezeen hotel",
   "categorie": "Hôtel",
   "priceRange": "€€",
   "mapsUrl": "https://maps.google.com/?q=24.6989595,46.6400414",
   "lat": 24.6989595,
   "lng": 46.6400414,
   "halalFriendly": false,
   "bookingUrl": "https://maps.google.com/?q=24.6989595,46.6400414",
   "source": "osm"
  },
  {
   "nom": "هوليدي ان العليا",
   "categorie": "Hôtel",
   "priceRange": "€€",
   "mapsUrl": "https://maps.google.com/?q=24.6803307,46.690487",
   "lat": 24.6803307,
   "lng": 46.690487,
   "halalFriendly": false,
   "bookingUrl": "https://maps.google.com/?q=24.6803307,46.690487",
   "source": "osm"
  },
  {
   "nom": "Boudl Furnished Apartments",
   "categorie": "Hôtel",
   "priceRange": "€€",
   "mapsUrl": "https://maps.google.com/?q=24.6800004,46.692879",
   "lat": 24.6800004,
   "lng": 46.692879,
   "halalFriendly": false,
   "bookingUrl": "https://maps.google.com/?q=24.6800004,46.692879",
   "source": "osm"
  },
  {
   "nom": "Holiday Inn Meydan",
   "categorie": "Hôtel",
   "priceRange": "€€",
   "mapsUrl": "https://maps.google.com/?q=24.6785701,46.6915593",
   "lat": 24.6785701,
   "lng": 46.6915593,
   "halalFriendly": false,
   "bookingUrl": "https://maps.google.com/?q=24.6785701,46.6915593",
   "source": "osm"
  },
  {
   "nom": "فندق الضيافة بالرياض",
   "categorie": "Hôtel",
   "priceRange": "€€",
   "mapsUrl": "https://maps.google.com/?q=24.6845103,46.703761",
   "lat": 24.6845103,
   "lng": 46.703761,
   "halalFriendly": false,
   "bookingUrl": "https://maps.google.com/?q=24.6845103,46.703761",
   "source": "osm"
  },
  {
   "nom": "درر رامه للوحدات السكنية فرع1",
   "categorie": "Hôtel",
   "priceRange": "€€",
   "mapsUrl": "https://maps.google.com/?q=24.7523951,46.6700347",
   "lat": 24.7523951,
   "lng": 46.6700347,
   "halalFriendly": false,
   "bookingUrl": "https://maps.google.com/?q=24.7523951,46.6700347",
   "source": "osm"
  },
  {
   "nom": "درر رامه للوحدات السكنية فرع 5",
   "categorie": "Hôtel",
   "priceRange": "€€",
   "score": 2,
   "mapsUrl": "https://maps.google.com/?q=24.7526021,46.669893",
   "lat": 24.7526021,
   "lng": 46.669893,
   "halalFriendly": false,
   "bookingUrl": "https://maps.google.com/?q=24.7526021,46.669893",
   "source": "osm"
  },
  {
   "nom": "Sama AlQasr hotel apartments سما القصر شقق فندقية",
   "categorie": "Hôtel",
   "priceRange": "€€",
   "mapsUrl": "https://maps.google.com/?q=24.6756905,46.6636955",
   "lat": 24.6756905,
   "lng": 46.6636955,
   "halalFriendly": false,
   "bookingUrl": "https://maps.google.com/?q=24.6756905,46.6636955",
   "source": "osm"
  },
  {
   "nom": "درر رامه للوحدات السكنية فرع 6",
   "categorie": "Hôtel",
   "priceRange": "€€",
   "score": 2,
   "mapsUrl": "https://maps.google.com/?q=24.7528287,46.6697482",
   "lat": 24.7528287,
   "lng": 46.6697482,
   "halalFriendly": false,
   "bookingUrl": "https://maps.google.com/?q=24.7528287,46.6697482",
   "source": "osm"
  },
  {
   "nom": "Hilton Garden Inn",
   "categorie": "Hôtel",
   "priceRange": "€€",
   "mapsUrl": "https://maps.google.com/?q=24.677069,46.6941085",
   "lat": 24.677069,
   "lng": 46.6941085,
   "halalFriendly": false,
   "bookingUrl": "https://maps.google.com/?q=24.677069,46.6941085",
   "source": "osm"
  },
  {
   "nom": "Al Mutlaq Hotel",
   "categorie": "Hôtel",
   "priceRange": "€€",
   "mapsUrl": "https://maps.google.com/?q=24.7000812,46.7181402",
   "lat": 24.7000812,
   "lng": 46.7181402,
   "halalFriendly": false,
   "bookingUrl": "https://maps.google.com/?q=24.7000812,46.7181402",
   "source": "osm"
  },
  {
   "nom": "mansour orkida اوركيدا منصور",
   "categorie": "Hôtel",
   "priceRange": "€€",
   "mapsUrl": "https://maps.google.com/?q=24.6995086,46.7184348",
   "lat": 24.6995086,
   "lng": 46.7184348,
   "halalFriendly": false,
   "bookingUrl": "https://maps.google.com/?q=24.6995086,46.7184348",
   "source": "osm"
  },
  {
   "nom": "BEST WESTERN PLUS Riyadh Hotel",
   "categorie": "Hôtel",
   "priceRange": "€€",
   "mapsUrl": "https://maps.google.com/?q=24.6796137,46.7020892",
   "lat": 24.6796137,
   "lng": 46.7020892,
   "halalFriendly": false,
   "bookingUrl": "https://maps.google.com/?q=24.6796137,46.7020892",
   "source": "osm"
  },
  {
   "nom": "Riyadh Marriott",
   "categorie": "Hôtel",
   "priceRange": "€€€€",
   "score": 5,
   "mapsUrl": "https://maps.google.com/?q=24.6858962,46.7125375",
   "lat": 24.6858962,
   "lng": 46.7125375,
   "halalFriendly": false,
   "bookingUrl": "https://maps.google.com/?q=24.6858962,46.7125375",
   "source": "osm"
  },
  {
   "nom": "كراون بلازا",
   "categorie": "Hôtel",
   "priceRange": "€€",
   "mapsUrl": "https://maps.google.com/?q=24.7387824,46.6358044",
   "lat": 24.7387824,
   "lng": 46.6358044,
   "halalFriendly": false,
   "bookingUrl": "https://maps.google.com/?q=24.7387824,46.6358044",
   "source": "osm"
  },
  {
   "nom": "Zahran Mentinanc .co",
   "categorie": "Auberge",
   "priceRange": "€€",
   "mapsUrl": "https://maps.google.com/?q=24.6827388,46.7105548",
   "lat": 24.6827388,
   "lng": 46.7105548,
   "halalFriendly": false,
   "bookingUrl": "https://maps.google.com/?q=24.6827388,46.7105548",
   "source": "osm"
  },
  {
   "nom": "Crowne Plaza - Minhal",
   "categorie": "Hôtel",
   "priceRange": "€€€€",
   "score": 4,
   "mapsUrl": "https://maps.google.com/?q=24.6895959,46.7173114",
   "lat": 24.6895959,
   "lng": 46.7173114,
   "halalFriendly": false,
   "bookingUrl": "https://maps.google.com/?q=24.6895959,46.7173114",
   "source": "osm"
  },
  {
   "nom": "Abha Palace",
   "categorie": "Hôtel",
   "priceRange": "€€",
   "mapsUrl": "https://maps.google.com/?q=24.6913718,46.718978",
   "lat": 24.6913718,
   "lng": 46.718978,
   "halalFriendly": false,
   "bookingUrl": "https://maps.google.com/?q=24.6913718,46.718978",
   "source": "osm"
  },
  {
   "nom": "House Cris",
   "categorie": "Hôtel",
   "priceRange": "€€",
   "mapsUrl": "https://maps.google.com/?q=24.6840844,46.7141427",
   "lat": 24.6840844,
   "lng": 46.7141427,
   "halalFriendly": false,
   "bookingUrl": "https://maps.google.com/?q=24.6840844,46.7141427",
   "source": "osm"
  },
  {
   "nom": "Centro Waha",
   "categorie": "Hôtel",
   "priceRange": "€€",
   "mapsUrl": "https://maps.google.com/?q=24.7560245,46.6533231",
   "lat": 24.7560245,
   "lng": 46.6533231,
   "halalFriendly": false,
   "bookingUrl": "https://maps.google.com/?q=24.7560245,46.6533231",
   "source": "osm"
  },
  {
   "nom": "waw hotel suites",
   "categorie": "Hôtel",
   "priceRange": "€€",
   "mapsUrl": "https://maps.google.com/?q=24.7479083,46.710548",
   "lat": 24.7479083,
   "lng": 46.710548,
   "halalFriendly": false,
   "bookingUrl": "https://maps.google.com/?q=24.7479083,46.710548",
   "source": "osm"
  },
  {
   "nom": "White Palace Hotel",
   "categorie": "Hôtel",
   "priceRange": "€€",
   "mapsUrl": "https://maps.google.com/?q=24.687374,46.7188117",
   "lat": 24.687374,
   "lng": 46.7188117,
   "halalFriendly": false,
   "bookingUrl": "https://maps.google.com/?q=24.687374,46.7188117",
   "source": "osm"
  },
  {
   "nom": "توبال للشقق الفندقيه",
   "categorie": "Hôtel",
   "priceRange": "€€",
   "mapsUrl": "https://maps.google.com/?q=24.6877928,46.7196117",
   "lat": 24.6877928,
   "lng": 46.7196117,
   "halalFriendly": false,
   "bookingUrl": "https://maps.google.com/?q=24.6877928,46.7196117",
   "source": "osm"
  },
  {
   "nom": "Grand Plaza Hotel",
   "categorie": "Hôtel",
   "priceRange": "€€",
   "mapsUrl": "https://maps.google.com/?q=24.6847672,46.7185038",
   "lat": 24.6847672,
   "lng": 46.7185038,
   "halalFriendly": false,
   "bookingUrl": "https://www.booking.com/hotel/sa/grand-plaza-gulf.html",
   "source": "osm"
  },
  {
   "nom": "Intercontinental Hotel, Riyadh",
   "categorie": "Hôtel",
   "priceRange": "€€€€",
   "score": 5,
   "mapsUrl": "https://maps.google.com/?q=24.6671024,46.6913095",
   "lat": 24.6671024,
   "lng": 46.6913095,
   "halalFriendly": false,
   "bookingUrl": "https://maps.google.com/?q=24.6671024,46.6913095",
   "source": "osm"
  },
  {
   "nom": "Vivienda Hotel Villas, Diplomatic Quarters",
   "categorie": "Hôtel",
   "priceRange": "€€",
   "mapsUrl": "https://maps.google.com/?q=24.6831122,46.6312089",
   "lat": 24.6831122,
   "lng": 46.6312089,
   "halalFriendly": false,
   "bookingUrl": "https://vivienda.com.sa/en/destinations/riyadh/diplomatic-quarter/",
   "source": "osm"
  },
  {
   "nom": "Yardvilla",
   "categorie": "Hôtel",
   "priceRange": "€€",
   "mapsUrl": "https://maps.google.com/?q=24.6630482,46.6807527",
   "lat": 24.6630482,
   "lng": 46.6807527,
   "halalFriendly": false,
   "bookingUrl": "https://maps.google.com/?q=24.6630482,46.6807527",
   "source": "osm"
  },
  {
   "nom": "درر رامه للوحدات السكنية فرع 7",
   "categorie": "Hôtel",
   "priceRange": "€€",
   "score": 2,
   "mapsUrl": "https://maps.google.com/?q=24.7652516,46.6690432",
   "lat": 24.7652516,
   "lng": 46.6690432,
   "halalFriendly": false,
   "bookingUrl": "https://maps.google.com/?q=24.7652516,46.6690432",
   "source": "osm"
  },
  {
   "nom": "درر رامه للوحدات السكنية فرع 2",
   "categorie": "Hôtel",
   "priceRange": "€€",
   "score": 2,
   "mapsUrl": "https://maps.google.com/?q=24.7654594,46.6684649",
   "lat": 24.7654594,
   "lng": 46.6684649,
   "halalFriendly": false,
   "bookingUrl": "https://maps.google.com/?q=24.7654594,46.6684649",
   "source": "osm"
  },
  {
   "nom": "DoubleTree by Hilton Hotel Riyadh - Al Muroj Business Gate",
   "categorie": "Hôtel",
   "priceRange": "€€€€",
   "score": 4,
   "mapsUrl": "https://maps.google.com/?q=24.7645215,46.6573828",
   "lat": 24.7645215,
   "lng": 46.6573828,
   "halalFriendly": false,
   "bookingUrl": "https://www.hilton.com/en/hotels/ruhamdi-doubletree-riyadh-al-muroj-business-gate/",
   "source": "osm"
  },
  {
   "nom": "Rayhanah Oasis",
   "categorie": "Appartement",
   "priceRange": "€€",
   "mapsUrl": "https://maps.google.com/?q=24.6890044,46.7276781",
   "lat": 24.6890044,
   "lng": 46.7276781,
   "halalFriendly": false,
   "bookingUrl": "https://maps.google.com/?q=24.6890044,46.7276781",
   "source": "osm"
  },
  {
   "nom": "فندق راديسون بلو",
   "categorie": "Hôtel",
   "priceRange": "€€",
   "mapsUrl": "https://maps.google.com/?q=24.6842332,46.6251984",
   "lat": 24.6842332,
   "lng": 46.6251984,
   "halalFriendly": false,
   "bookingUrl": "https://maps.google.com/?q=24.6842332,46.6251984",
   "source": "osm"
  },
  {
   "nom": "Mövenpick Hotel and Residences Riyadh",
   "categorie": "Hôtel",
   "priceRange": "€€",
   "mapsUrl": "https://maps.google.com/?q=24.7639917,46.653144",
   "lat": 24.7639917,
   "lng": 46.653144,
   "halalFriendly": false,
   "bookingUrl": "https://maps.google.com/?q=24.7639917,46.653144",
   "source": "osm"
  },
  {
   "nom": "DoubleTree by Hilton Riyadh Financial District Hotel & Suites",
   "categorie": "Hôtel",
   "priceRange": "€€",
   "mapsUrl": "https://maps.google.com/?q=24.7648666,46.6547368",
   "lat": 24.7648666,
   "lng": 46.6547368,
   "halalFriendly": false,
   "bookingUrl": "https://www.hilton.com/en/hotels/ruhfddi-doubletree-riyadh-financial-district/",
   "source": "osm"
  },
  {
   "nom": "فندق وريزيدنس موفنبيك الرياض",
   "categorie": "Hôtel",
   "priceRange": "€€",
   "mapsUrl": "https://maps.google.com/?q=24.7644907,46.6535363",
   "lat": 24.7644907,
   "lng": 46.6535363,
   "halalFriendly": false,
   "bookingUrl": "https://maps.google.com/?q=24.7644907,46.6535363",
   "source": "osm"
  },
  {
   "nom": "Hilton Garden Inn Riyadh Financial District",
   "categorie": "Hôtel",
   "priceRange": "€€€€",
   "score": 4,
   "mapsUrl": "https://maps.google.com/?q=24.7649617,46.6548815",
   "lat": 24.7649617,
   "lng": 46.6548815,
   "halalFriendly": false,
   "bookingUrl": "https://www.hilton.com/en/hotels/ruhskgi-hilton-garden-inn-riyadh-financial-district/?WT.mc_id=zMDEC0SA1GI2NaturalSearch3Google_LGHotelListing4DGGeneric_5LocalSearch6RUHSKGI7EN8i98626",
   "source": "osm"
  },
  {
   "nom": "فندق ميركيور العنود",
   "categorie": "Hôtel",
   "priceRange": "€€",
   "mapsUrl": "https://maps.google.com/?q=24.6640945,46.701478",
   "lat": 24.6640945,
   "lng": 46.701478,
   "halalFriendly": false,
   "bookingUrl": "https://all.accor.com/",
   "source": "osm"
  },
  {
   "nom": "Sands Inn Hostel",
   "categorie": "Auberge",
   "priceRange": "€€",
   "mapsUrl": "https://maps.google.com/?q=24.6657892,46.7063234",
   "lat": 24.6657892,
   "lng": 46.7063234,
   "halalFriendly": false,
   "bookingUrl": "https://www.sandsinnhostel.com/",
   "source": "osm"
  },
  {
   "nom": "Art View Hotel",
   "categorie": "Hôtel",
   "priceRange": "€€",
   "mapsUrl": "https://maps.google.com/?q=24.7529512,46.7225596",
   "lat": 24.7529512,
   "lng": 46.7225596,
   "halalFriendly": false,
   "bookingUrl": "https://maps.google.com/?q=24.7529512,46.7225596",
   "source": "osm"
  },
  {
   "nom": "Radisson Blu (SAS)",
   "categorie": "Hôtel",
   "priceRange": "€€",
   "mapsUrl": "https://maps.google.com/?q=24.670729,46.7192443",
   "lat": 24.670729,
   "lng": 46.7192443,
   "halalFriendly": false,
   "bookingUrl": "https://maps.google.com/?q=24.670729,46.7192443",
   "source": "osm"
  },
  {
   "nom": "Crowne Plaza Riyadh Palace",
   "categorie": "Hôtel",
   "priceRange": "€€",
   "mapsUrl": "https://maps.google.com/?q=24.6646109,46.7117319",
   "lat": 24.6646109,
   "lng": 46.7117319,
   "halalFriendly": false,
   "bookingUrl": "https://www.ihg.com/crowneplaza/hotels/us/en/riyadh/ruhrp/hoteldetail",
   "source": "osm"
  },
  {
   "nom": "Malaz restaurant",
   "categorie": "Hôtel",
   "priceRange": "€€",
   "mapsUrl": "https://maps.google.com/?q=24.6782598,46.7278361",
   "lat": 24.6782598,
   "lng": 46.7278361,
   "halalFriendly": false,
   "bookingUrl": "https://maps.google.com/?q=24.6782598,46.7278361",
   "source": "osm"
  },
  {
   "nom": "Radisson Blu Hotel, Riyadh Convention & Exhibition Center",
   "categorie": "Hôtel",
   "priceRange": "€€",
   "mapsUrl": "https://maps.google.com/?q=24.7523077,46.7250531",
   "lat": 24.7523077,
   "lng": 46.7250531,
   "halalFriendly": false,
   "bookingUrl": "https://www.radissonhotels.com/en-us/hotels/radisson-blu-riyadh-convention-center",
   "source": "osm"
  },
  {
   "nom": "الماجدية61",
   "categorie": "Appartement",
   "priceRange": "€€",
   "mapsUrl": "https://maps.google.com/?q=24.7717828,46.6953487",
   "lat": 24.7717828,
   "lng": 46.6953487,
   "halalFriendly": false,
   "bookingUrl": "https://maps.google.com/?q=24.7717828,46.6953487",
   "source": "osm"
  },
  {
   "nom": "Marriott Riyadh Diplomatic Quarter",
   "categorie": "Hôtel",
   "priceRange": "€€",
   "mapsUrl": "https://maps.google.com/?q=24.6743014,46.623711",
   "lat": 24.6743014,
   "lng": 46.623711,
   "halalFriendly": false,
   "bookingUrl": "https://www.marriott.com/en-us/hotels/ruhdq-marriott-riyadh-diplomatic-quarter/overview/",
   "source": "osm"
  },
  {
   "nom": "المصيف هاوس",
   "categorie": "Hôtel",
   "priceRange": "€€",
   "mapsUrl": "https://maps.google.com/?q=24.7756656,46.6838796",
   "lat": 24.7756656,
   "lng": 46.6838796,
   "halalFriendly": false,
   "bookingUrl": "https://maps.google.com/?q=24.7756656,46.6838796",
   "source": "osm"
  },
  {
   "nom": "ريتز كارلتون",
   "categorie": "Hôtel",
   "priceRange": "€€",
   "mapsUrl": "https://maps.google.com/?q=24.665826,46.6308188",
   "lat": 24.665826,
   "lng": 46.6308188,
   "halalFriendly": false,
   "bookingUrl": "https://maps.google.com/?q=24.665826,46.6308188",
   "source": "osm"
  },
  {
   "nom": "KSU Hostel",
   "categorie": "Auberge",
   "priceRange": "€€",
   "mapsUrl": "https://maps.google.com/?q=24.7086481,46.7449965",
   "lat": 24.7086481,
   "lng": 46.7449965,
   "halalFriendly": false,
   "bookingUrl": "https://maps.google.com/?q=24.7086481,46.7449965",
   "source": "osm"
  },
  {
   "nom": "St.Regis",
   "categorie": "Hôtel",
   "priceRange": "€€",
   "mapsUrl": "https://maps.google.com/?q=24.6664186,46.6261311",
   "lat": 24.6664186,
   "lng": 46.6261311,
   "halalFriendly": false,
   "bookingUrl": "https://maps.google.com/?q=24.6664186,46.6261311",
   "source": "osm"
  },
  {
   "nom": "Dir'iyah Palace",
   "categorie": "Hôtel",
   "priceRange": "€€",
   "mapsUrl": "https://maps.google.com/?q=24.6632041,46.6278291",
   "lat": 24.6632041,
   "lng": 46.6278291,
   "halalFriendly": false,
   "bookingUrl": "https://maps.google.com/?q=24.6632041,46.6278291",
   "source": "osm"
  },
  {
   "nom": "Marriott Courtyard Riyadh Diplomatic Quarter",
   "categorie": "Hôtel",
   "priceRange": "€€",
   "mapsUrl": "https://maps.google.com/?q=24.6663655,46.6234488",
   "lat": 24.6663655,
   "lng": 46.6234488,
   "halalFriendly": false,
   "bookingUrl": "https://maps.google.com/?q=24.6663655,46.6234488",
   "source": "osm"
  },
  {
   "nom": "فندق التنفيذيين",
   "categorie": "Hôtel",
   "priceRange": "€€",
   "mapsUrl": "https://maps.google.com/?q=24.774335,46.6397206",
   "lat": 24.774335,
   "lng": 46.6397206,
   "halalFriendly": false,
   "bookingUrl": "https://maps.google.com/?q=24.774335,46.6397206",
   "source": "osm"
  },
  {
   "nom": "Rest Night AL-Nafal",
   "categorie": "Hôtel",
   "priceRange": "€€",
   "mapsUrl": "https://maps.google.com/?q=24.7827876,46.6728308",
   "lat": 24.7827876,
   "lng": 46.6728308,
   "halalFriendly": false,
   "bookingUrl": "https://maps.google.com/?q=24.7827876,46.6728308",
   "source": "osm"
  },
  {
   "nom": "Neeyaara Hotel",
   "categorie": "Hôtel",
   "priceRange": "€€",
   "mapsUrl": "https://maps.google.com/?q=24.6635542,46.7302511",
   "lat": 24.6635542,
   "lng": 46.7302511,
   "halalFriendly": false,
   "bookingUrl": "https://maps.google.com/?q=24.6635542,46.7302511",
   "source": "osm"
  },
  {
   "nom": "الخالدية للوحدات السكنية المفروشة",
   "categorie": "Hôtel",
   "priceRange": "€€",
   "mapsUrl": "https://maps.google.com/?q=24.7535124,46.7436554",
   "lat": 24.7535124,
   "lng": 46.7436554,
   "halalFriendly": false,
   "bookingUrl": "https://maps.google.com/?q=24.7535124,46.7436554",
   "source": "osm"
  },
  {
   "nom": "الوسام",
   "categorie": "Hôtel",
   "priceRange": "€€",
   "mapsUrl": "https://maps.google.com/?q=24.7537763,46.7444292",
   "lat": 24.7537763,
   "lng": 46.7444292,
   "halalFriendly": false,
   "bookingUrl": "https://maps.google.com/?q=24.7537763,46.7444292",
   "source": "osm"
  },
  {
   "nom": "فندق موفنبيك قاسم",
   "categorie": "Hôtel",
   "priceRange": "€€",
   "mapsUrl": "https://maps.google.com/?q=24.6393,46.6864",
   "lat": 24.6393,
   "lng": 46.6864,
   "halalFriendly": false,
   "bookingUrl": "https://maps.google.com/?q=24.6393,46.6864",
   "source": "osm"
  },
  {
   "nom": "قصر التوت",
   "categorie": "Hôtel",
   "priceRange": "€€",
   "mapsUrl": "https://maps.google.com/?q=24.6473873,46.714386",
   "lat": 24.6473873,
   "lng": 46.714386,
   "halalFriendly": false,
   "bookingUrl": "https://maps.google.com/?q=24.6473873,46.714386",
   "source": "osm"
  },
  {
   "nom": "فندق مريوت رياض",
   "categorie": "Hôtel",
   "priceRange": "€€",
   "mapsUrl": "https://maps.google.com/?q=24.647,46.714",
   "lat": 24.647,
   "lng": 46.714,
   "halalFriendly": false,
   "bookingUrl": "https://maps.google.com/?q=24.647,46.714",
   "source": "osm"
  },
  {
   "nom": "فندق ارفاد",
   "categorie": "Hôtel",
   "priceRange": "€€",
   "mapsUrl": "https://maps.google.com/?q=24.787683,46.6600594",
   "lat": 24.787683,
   "lng": 46.6600594,
   "halalFriendly": false,
   "bookingUrl": "https://enala.sa/hotel/erfad",
   "source": "osm"
  },
  {
   "nom": "Compund",
   "categorie": "Hôtel",
   "priceRange": "€€",
   "mapsUrl": "https://maps.google.com/?q=24.7865538,46.7104615",
   "lat": 24.7865538,
   "lng": 46.7104615,
   "halalFriendly": false,
   "bookingUrl": "https://maps.google.com/?q=24.7865538,46.7104615",
   "source": "osm"
  },
  {
   "nom": "فندق هولدي ان الازدهار",
   "categorie": "Hôtel",
   "priceRange": "€€",
   "mapsUrl": "https://maps.google.com/?q=24.7870357,46.7117383",
   "lat": 24.7870357,
   "lng": 46.7117383,
   "halalFriendly": false,
   "bookingUrl": "https://maps.google.com/?q=24.7870357,46.7117383",
   "source": "osm"
  }
 ],
 "activites": [
  {
   "nom": "دار الرياض",
   "lat": 24.7106232,
   "lng": 46.694056,
   "coordonnees": {
    "lat": 24.7106232,
    "lng": 46.694056
   },
   "categorie": "À voir",
   "mapsUrl": "https://maps.google.com/?q=24.7106232,46.694056",
   "source": "osm"
  },
  {
   "nom": "شركة صرح التقنية للمقاولات",
   "lat": 24.7383629,
   "lng": 46.6659902,
   "coordonnees": {
    "lat": 24.7383629,
    "lng": 46.6659902
   },
   "categorie": "À voir",
   "mapsUrl": "https://maps.google.com/?q=24.7383629,46.6659902",
   "source": "osm"
  },
  {
   "nom": "work",
   "lat": 24.6929648,
   "lng": 46.6957569,
   "coordonnees": {
    "lat": 24.6929648,
    "lng": 46.6957569
   },
   "categorie": "À voir",
   "mapsUrl": "https://maps.google.com/?q=24.6929648,46.6957569",
   "source": "osm"
  },
  {
   "nom": "المكتب. هيف",
   "lat": 24.6785565,
   "lng": 46.686305,
   "coordonnees": {
    "lat": 24.6785565,
    "lng": 46.686305
   },
   "categorie": "À voir",
   "mapsUrl": "https://maps.google.com/?q=24.6785565,46.686305",
   "source": "osm"
  },
  {
   "nom": "حديقة حي النخيل",
   "lat": 24.7468932,
   "lng": 46.6495901,
   "coordonnees": {
    "lat": 24.7468932,
    "lng": 46.6495901
   },
   "categorie": "Nature",
   "mapsUrl": "https://maps.google.com/?q=24.7468932,46.6495901",
   "source": "osm"
  },
  {
   "nom": "Light Calligraphy",
   "lat": 24.7356646,
   "lng": 46.7201164,
   "coordonnees": {
    "lat": 24.7356646,
    "lng": 46.7201164
   },
   "categorie": "À voir",
   "mapsUrl": "https://maps.google.com/?q=24.7356646,46.7201164",
   "source": "osm"
  },
  {
   "nom": "مكتب النقش المميز",
   "lat": 24.7515471,
   "lng": 46.640246,
   "coordonnees": {
    "lat": 24.7515471,
    "lng": 46.640246
   },
   "categorie": "À voir",
   "mapsUrl": "https://maps.google.com/?q=24.7515471,46.640246",
   "source": "osm"
  },
  {
   "nom": "The Palace Museum",
   "lat": 24.6584815,
   "lng": 46.6702334,
   "coordonnees": {
    "lat": 24.6584815,
    "lng": 46.6702334
   },
   "categorie": "Culture",
   "mapsUrl": "https://maps.google.com/?q=24.6584815,46.6702334",
   "source": "osm"
  },
  {
   "nom": "Diplomatic Club Site",
   "lat": 24.6885812,
   "lng": 46.619366,
   "coordonnees": {
    "lat": 24.6885812,
    "lng": 46.619366
   },
   "categorie": "Nature",
   "mapsUrl": "https://maps.google.com/?q=24.6885812,46.619366",
   "source": "osm"
  },
  {
   "nom": "سباركيز",
   "lat": 24.7670917,
   "lng": 46.717614,
   "coordonnees": {
    "lat": 24.7670917,
    "lng": 46.717614
   },
   "categorie": "Famille",
   "mapsUrl": "https://maps.google.com/?q=24.7670917,46.717614",
   "source": "osm"
  },
  {
   "nom": "الادارة hr",
   "lat": 24.7718512,
   "lng": 46.7103526,
   "coordonnees": {
    "lat": 24.7718512,
    "lng": 46.7103526
   },
   "categorie": "À voir",
   "mapsUrl": "https://maps.google.com/?q=24.7718512,46.7103526",
   "source": "osm"
  },
  {
   "nom": "حديقة الحيوانات",
   "lat": 24.6768038,
   "lng": 46.7373,
   "coordonnees": {
    "lat": 24.6768038,
    "lng": 46.7373
   },
   "categorie": "Famille",
   "mapsUrl": "https://maps.google.com/?q=24.6768038,46.7373",
   "source": "osm"
  },
  {
   "nom": "حديقة دوار الكويت",
   "lat": 24.666211,
   "lng": 46.72823,
   "coordonnees": {
    "lat": 24.666211,
    "lng": 46.72823
   },
   "categorie": "Nature",
   "mapsUrl": "https://maps.google.com/?q=24.666211,46.72823",
   "source": "osm"
  },
  {
   "nom": "عطلات الغازي للسياحة و السفريات",
   "lat": 24.6513135,
   "lng": 46.7062662,
   "coordonnees": {
    "lat": 24.6513135,
    "lng": 46.7062662
   },
   "categorie": "À voir",
   "mapsUrl": "https://maps.google.com/?q=24.6513135,46.7062662",
   "source": "osm"
  },
  {
   "nom": "Palace wall",
   "lat": 24.6588025,
   "lng": 46.629064,
   "coordonnees": {
    "lat": 24.6588025,
    "lng": 46.629064
   },
   "categorie": "À voir",
   "mapsUrl": "https://maps.google.com/?q=24.6588025,46.629064",
   "source": "osm"
  },
  {
   "nom": "Sumeasi",
   "lat": 24.6447844,
   "lng": 46.6882708,
   "coordonnees": {
    "lat": 24.6447844,
    "lng": 46.6882708
   },
   "categorie": "À voir",
   "mapsUrl": "https://maps.google.com/?q=24.6447844,46.6882708",
   "source": "osm"
  },
  {
   "nom": "حديقة النهضة",
   "lat": 24.6956092,
   "lng": 46.7511414,
   "coordonnees": {
    "lat": 24.6956092,
    "lng": 46.7511414
   },
   "categorie": "Nature",
   "mapsUrl": "https://maps.google.com/?q=24.6956092,46.7511414",
   "source": "osm"
  },
  {
   "nom": "Sakr al Jazeera Aviation Museum",
   "lat": 24.754052,
   "lng": 46.7402015,
   "coordonnees": {
    "lat": 24.754052,
    "lng": 46.7402015
   },
   "categorie": "Culture",
   "mapsUrl": "https://maps.google.com/?q=24.754052,46.7402015",
   "source": "osm"
  },
  {
   "nom": "World Sights Park",
   "lat": 24.7625938,
   "lng": 46.7361111,
   "coordonnees": {
    "lat": 24.7625938,
    "lng": 46.7361111
   },
   "categorie": "Famille",
   "mapsUrl": "https://maps.google.com/?q=24.7625938,46.7361111",
   "source": "osm"
  },
  {
   "nom": "القصر الأحمر",
   "lat": 24.6428435,
   "lng": 46.709801,
   "coordonnees": {
    "lat": 24.6428435,
    "lng": 46.709801
   },
   "categorie": "Culture",
   "mapsUrl": "https://maps.google.com/?q=24.6428435,46.709801",
   "source": "osm"
  },
  {
   "nom": "طور العدم",
   "lat": 24.7647843,
   "lng": 46.6102163,
   "coordonnees": {
    "lat": 24.7647843,
    "lng": 46.6102163
   },
   "categorie": "À voir",
   "mapsUrl": "https://maps.google.com/?q=24.7647843,46.6102163",
   "source": "osm"
  },
  {
   "nom": "Bazy Trading",
   "lat": 24.6605671,
   "lng": 46.7409746,
   "coordonnees": {
    "lat": 24.6605671,
    "lng": 46.7409746
   },
   "categorie": "À voir",
   "mapsUrl": "https://maps.google.com/?q=24.6605671,46.7409746",
   "source": "osm"
  },
  {
   "nom": "برج الفنون",
   "lat": 24.7610753,
   "lng": 46.6017635,
   "coordonnees": {
    "lat": 24.7610753,
    "lng": 46.6017635
   },
   "categorie": "À voir",
   "mapsUrl": "https://maps.google.com/?q=24.7610753,46.6017635",
   "source": "osm"
  },
  {
   "nom": "AlRaja Park",
   "lat": 24.6976646,
   "lng": 46.7659844,
   "coordonnees": {
    "lat": 24.6976646,
    "lng": 46.7659844
   },
   "categorie": "Nature",
   "mapsUrl": "https://maps.google.com/?q=24.6976646,46.7659844",
   "source": "osm"
  },
  {
   "nom": "Globe",
   "lat": 24.7676969,
   "lng": 46.6045891,
   "coordonnees": {
    "lat": 24.7676969,
    "lng": 46.6045891
   },
   "categorie": "À voir",
   "mapsUrl": "https://maps.google.com/?q=24.7676969,46.6045891",
   "source": "osm"
  },
  {
   "nom": "Lucaland",
   "lat": 24.7688219,
   "lng": 46.605399,
   "coordonnees": {
    "lat": 24.7688219,
    "lng": 46.605399
   },
   "categorie": "À voir",
   "mapsUrl": "https://maps.google.com/?q=24.7688219,46.605399",
   "source": "osm"
  },
  {
   "nom": "وادي خنيفه",
   "lat": 24.6564111,
   "lng": 46.6064839,
   "coordonnees": {
    "lat": 24.6564111,
    "lng": 46.6064839
   },
   "categorie": "À voir",
   "mapsUrl": "https://maps.google.com/?q=24.6564111,46.6064839",
   "source": "osm"
  },
  {
   "nom": "منطقه مظلله",
   "lat": 24.7960985,
   "lng": 46.7085535,
   "coordonnees": {
    "lat": 24.7960985,
    "lng": 46.7085535
   },
   "categorie": "Nature",
   "mapsUrl": "https://maps.google.com/?q=24.7960985,46.7085535",
   "source": "osm"
  },
  {
   "nom": "منطقة جلوس",
   "lat": 24.7971595,
   "lng": 46.7082229,
   "coordonnees": {
    "lat": 24.7971595,
    "lng": 46.7082229
   },
   "categorie": "Nature",
   "mapsUrl": "https://maps.google.com/?q=24.7971595,46.7082229",
   "source": "osm"
  },
  {
   "nom": "منطقة جلوس",
   "lat": 24.7973007,
   "lng": 46.709207,
   "coordonnees": {
    "lat": 24.7973007,
    "lng": 46.709207
   },
   "categorie": "Nature",
   "mapsUrl": "https://maps.google.com/?q=24.7973007,46.709207",
   "source": "osm"
  },
  {
   "nom": "دروازة الثميري",
   "lat": 24.6310982,
   "lng": 46.7155074,
   "coordonnees": {
    "lat": 24.6310982,
    "lng": 46.7155074
   },
   "categorie": "Histoire",
   "mapsUrl": "https://maps.google.com/?q=24.6310982,46.7155074",
   "source": "osm"
  },
  {
   "nom": "المسار الرياضي",
   "lat": 24.755431,
   "lng": 46.5868573,
   "coordonnees": {
    "lat": 24.755431,
    "lng": 46.5868573
   },
   "categorie": "Nature",
   "mapsUrl": "https://maps.google.com/?q=24.755431,46.5868573",
   "source": "osm"
  },
  {
   "nom": "Ad Diriyah",
   "lat": 24.7389262,
   "lng": 46.5784238,
   "coordonnees": {
    "lat": 24.7389262,
    "lng": 46.5784238
   },
   "categorie": "Culture",
   "mapsUrl": "https://maps.google.com/?q=24.7389262,46.5784238",
   "source": "osm"
  },
  {
   "nom": "مهد آل سعود",
   "lat": 24.7340566,
   "lng": 46.575797,
   "coordonnees": {
    "lat": 24.7340566,
    "lng": 46.575797
   },
   "categorie": "Culture",
   "mapsUrl": "https://maps.google.com/?q=24.7340566,46.575797",
   "source": "osm"
  },
  {
   "nom": "Traditional Architecture Museum",
   "lat": 24.733609,
   "lng": 46.5738151,
   "coordonnees": {
    "lat": 24.733609,
    "lng": 46.5738151
   },
   "categorie": "Culture",
   "mapsUrl": "https://maps.google.com/?q=24.733609,46.5738151",
   "source": "osm"
  },
  {
   "nom": "Diriyyah Park حديقة الدرعية",
   "lat": 24.7379379,
   "lng": 46.5732065,
   "coordonnees": {
    "lat": 24.7379379,
    "lng": 46.5732065
   },
   "categorie": "Nature",
   "mapsUrl": "https://maps.google.com/?q=24.7379379,46.5732065",
   "source": "osm"
  },
  {
   "nom": "حديقة منتزه البجيري",
   "lat": 24.7387948,
   "lng": 46.573269,
   "coordonnees": {
    "lat": 24.7387948,
    "lng": 46.573269
   },
   "categorie": "Nature",
   "mapsUrl": "https://maps.google.com/?q=24.7387948,46.573269",
   "source": "osm"
  },
  {
   "nom": "وادي حنيفة",
   "lat": 24.6130433,
   "lng": 46.6938599,
   "coordonnees": {
    "lat": 24.6130433,
    "lng": 46.6938599
   },
   "categorie": "À voir",
   "mapsUrl": "https://maps.google.com/?q=24.6130433,46.6938599",
   "source": "osm"
  },
  {
   "nom": "Arizona Ranch Resort",
   "lat": 24.8132163,
   "lng": 46.7297038,
   "coordonnees": {
    "lat": 24.8132163,
    "lng": 46.7297038
   },
   "categorie": "À voir",
   "mapsUrl": "https://maps.google.com/?q=24.8132163,46.7297038",
   "source": "osm"
  },
  {
   "nom": "aljajirah",
   "lat": 24.680433,
   "lng": 46.7933634,
   "coordonnees": {
    "lat": 24.680433,
    "lng": 46.7933634
   },
   "categorie": "À voir",
   "mapsUrl": "https://maps.google.com/?q=24.680433,46.7933634",
   "source": "osm"
  }
 ],
 "mosqueesPrincipales": [
  {
   "nom": "Mosque",
   "lat": 24.7193744,
   "lng": 46.6767386,
   "coordonnees": {
    "lat": 24.7193744,
    "lng": 46.6767386
   },
   "mapsUrl": "https://maps.google.com/?q=24.7193744,46.6767386",
   "source": "osm"
  },
  {
   "nom": "Al Rajhi Mosque",
   "lat": 24.7071458,
   "lng": 46.6871281,
   "coordonnees": {
    "lat": 24.7071458,
    "lng": 46.6871281
   },
   "mapsUrl": "https://maps.google.com/?q=24.7071458,46.6871281",
   "source": "osm"
  },
  {
   "nom": "ويحانة كلينك Rihana Clinic",
   "lat": 24.7007818,
   "lng": 46.6676645,
   "coordonnees": {
    "lat": 24.7007818,
    "lng": 46.6676645
   },
   "adresse": "شارع التخصصي",
   "mapsUrl": "https://maps.google.com/?q=24.7007818,46.6676645",
   "source": "osm"
  },
  {
   "nom": "Al Ray Mosque",
   "lat": 24.6968939,
   "lng": 46.6867636,
   "coordonnees": {
    "lat": 24.6968939,
    "lng": 46.6867636
   },
   "mapsUrl": "https://maps.google.com/?q=24.6968939,46.6867636",
   "source": "osm"
  },
  {
   "nom": "جامع الاحسان",
   "lat": 24.6860598,
   "lng": 46.677687,
   "coordonnees": {
    "lat": 24.6860598,
    "lng": 46.677687
   },
   "adresse": "الحسين الكندي, الرياض",
   "mapsUrl": "https://maps.google.com/?q=24.6860598,46.677687",
   "source": "osm"
  },
  {
   "nom": "مسجد القبة",
   "lat": 24.7405868,
   "lng": 46.6346355,
   "coordonnees": {
    "lat": 24.7405868,
    "lng": 46.6346355
   },
   "mapsUrl": "https://maps.google.com/?q=24.7405868,46.6346355",
   "source": "osm"
  },
  {
   "nom": "جامع معاذ بن جبل",
   "lat": 24.7622122,
   "lng": 46.670608,
   "coordonnees": {
    "lat": 24.7622122,
    "lng": 46.670608
   },
   "mapsUrl": "https://maps.google.com/?q=24.7622122,46.670608",
   "source": "osm"
  },
  {
   "nom": "مسجد حي المربع",
   "lat": 24.6677267,
   "lng": 46.7038897,
   "coordonnees": {
    "lat": 24.6677267,
    "lng": 46.7038897
   },
   "mapsUrl": "https://maps.google.com/?q=24.6677267,46.7038897",
   "source": "osm"
  },
  {
   "nom": "Al-Rajhi Bank Operations Center Prayer Area",
   "lat": 24.7521108,
   "lng": 46.6308266,
   "coordonnees": {
    "lat": 24.7521108,
    "lng": 46.6308266
   },
   "mapsUrl": "https://maps.google.com/?q=24.7521108,46.6308266",
   "source": "osm"
  },
  {
   "nom": "KAFD Grand Mosque",
   "lat": 24.7614281,
   "lng": 46.6390781,
   "coordonnees": {
    "lat": 24.7614281,
    "lng": 46.6390781
   },
   "mapsUrl": "https://maps.google.com/?q=24.7614281,46.6390781",
   "source": "osm"
  },
  {
   "nom": "The Late Prince Ahmad Bin Salman Mosque",
   "lat": 24.707551,
   "lng": 46.6085174,
   "coordonnees": {
    "lat": 24.707551,
    "lng": 46.6085174
   },
   "mapsUrl": "https://maps.google.com/?q=24.707551,46.6085174",
   "source": "osm"
  },
  {
   "nom": "Alghadeer Mosque",
   "lat": 24.7733482,
   "lng": 46.6453465,
   "coordonnees": {
    "lat": 24.7733482,
    "lng": 46.6453465
   },
   "mapsUrl": "https://maps.google.com/?q=24.7733482,46.6453465",
   "source": "osm"
  },
  {
   "nom": "مسجد الشيخ حمد المشعل",
   "lat": 24.7635852,
   "lng": 46.7229242,
   "coordonnees": {
    "lat": 24.7635852,
    "lng": 46.7229242
   },
   "adresse": "Abi Sofian Ibn Harb",
   "mapsUrl": "https://maps.google.com/?q=24.7635852,46.7229242",
   "source": "osm"
  },
  {
   "nom": "Saad bin Maaz Masjid",
   "lat": 24.660171,
   "lng": 46.7213395,
   "coordonnees": {
    "lat": 24.660171,
    "lng": 46.7213395
   },
   "adresse": "Afzal Al Hashemi Street, Riyadh",
   "mapsUrl": "https://maps.google.com/?q=24.660171,46.7213395",
   "source": "osm"
  },
  {
   "nom": "مسجد جامع",
   "lat": 24.6652848,
   "lng": 46.7343406,
   "coordonnees": {
    "lat": 24.6652848,
    "lng": 46.7343406
   },
   "mapsUrl": "https://maps.google.com/?q=24.6652848,46.7343406",
   "source": "osm"
  },
  {
   "nom": "Al Hudaithy Mosque",
   "lat": 24.7601498,
   "lng": 46.7376753,
   "coordonnees": {
    "lat": 24.7601498,
    "lng": 46.7376753
   },
   "mapsUrl": "https://maps.google.com/?q=24.7601498,46.7376753",
   "source": "osm"
  },
  {
   "nom": "مصلى",
   "lat": 24.6896928,
   "lng": 46.7522567,
   "coordonnees": {
    "lat": 24.6896928,
    "lng": 46.7522567
   },
   "adresse": "مسكة, الرياض",
   "mapsUrl": "https://maps.google.com/?q=24.6896928,46.7522567",
   "source": "osm"
  },
  {
   "nom": "مسجد النور",
   "lat": 24.6924732,
   "lng": 46.7539407,
   "coordonnees": {
    "lat": 24.6924732,
    "lng": 46.7539407
   },
   "mapsUrl": "https://maps.google.com/?q=24.6924732,46.7539407",
   "source": "osm"
  },
  {
   "nom": "جامع الموسى",
   "lat": 24.7033717,
   "lng": 46.7583378,
   "coordonnees": {
    "lat": 24.7033717,
    "lng": 46.7583378
   },
   "mapsUrl": "https://maps.google.com/?q=24.7033717,46.7583378",
   "source": "osm"
  },
  {
   "nom": "مسجد البراء بن مالك",
   "lat": 24.783659,
   "lng": 46.7125536,
   "coordonnees": {
    "lat": 24.783659,
    "lng": 46.7125536
   },
   "mapsUrl": "https://maps.google.com/?q=24.783659,46.7125536",
   "source": "osm"
  },
  {
   "nom": "مسجد عبدالله بن أنيس",
   "lat": 24.751747,
   "lng": 46.751321,
   "coordonnees": {
    "lat": 24.751747,
    "lng": 46.751321
   },
   "adresse": "Al Qoton, Riyadh",
   "mapsUrl": "https://maps.google.com/?q=24.751747,46.751321",
   "source": "osm"
  },
  {
   "nom": "جامع لولوة المطوع - رحمها الله",
   "lat": 24.7884097,
   "lng": 46.6451836,
   "coordonnees": {
    "lat": 24.7884097,
    "lng": 46.6451836
   },
   "adresse": "جبل العوصاء, الرياض",
   "mapsUrl": "https://maps.google.com/?q=24.7884097,46.6451836",
   "source": "osm"
  },
  {
   "nom": "مسجد أنس بن مالك",
   "lat": 24.6878778,
   "lng": 46.758385,
   "coordonnees": {
    "lat": 24.6878778,
    "lng": 46.758385
   },
   "mapsUrl": "https://maps.google.com/?q=24.6878778,46.758385",
   "source": "osm"
  },
  {
   "nom": "مسجد الفدا",
   "lat": 24.7817015,
   "lng": 46.6266925,
   "coordonnees": {
    "lat": 24.7817015,
    "lng": 46.6266925
   },
   "adresse": "Ath Thaliah",
   "mapsUrl": "https://maps.google.com/?q=24.7817015,46.6266925",
   "source": "osm"
  },
  {
   "nom": "مسجد علي بن المديني",
   "lat": 24.743277,
   "lng": 46.7588475,
   "coordonnees": {
    "lat": 24.743277,
    "lng": 46.7588475
   },
   "mapsUrl": "https://maps.google.com/?q=24.743277,46.7588475",
   "source": "osm"
  },
  {
   "nom": "جامع الجوهرة بنت سعود الكبير",
   "lat": 24.7567599,
   "lng": 46.752681,
   "coordonnees": {
    "lat": 24.7567599,
    "lng": 46.752681
   },
   "adresse": "Prince Saud Al Kabeer Ibn Abdulaziz Al Saud",
   "mapsUrl": "https://maps.google.com/?q=24.7567599,46.752681",
   "source": "osm"
  },
  {
   "nom": "مسجد",
   "lat": 24.781494,
   "lng": 46.621916,
   "coordonnees": {
    "lat": 24.781494,
    "lng": 46.621916
   },
   "adresse": "As Sulamaniyah",
   "mapsUrl": "https://maps.google.com/?q=24.781494,46.621916",
   "source": "osm"
  },
  {
   "nom": "مسجد خالد بن الوليد",
   "lat": 24.742794,
   "lng": 46.7616299,
   "coordonnees": {
    "lat": 24.742794,
    "lng": 46.7616299
   },
   "mapsUrl": "https://maps.google.com/?q=24.742794,46.7616299",
   "source": "osm"
  },
  {
   "nom": "مسجد الجميح",
   "lat": 24.6870861,
   "lng": 46.7660472,
   "coordonnees": {
    "lat": 24.6870861,
    "lng": 46.7660472
   },
   "mapsUrl": "https://maps.google.com/?q=24.6870861,46.7660472",
   "source": "osm"
  },
  {
   "nom": "Women's Prayer Room",
   "lat": 24.7712697,
   "lng": 46.6039684,
   "coordonnees": {
    "lat": 24.7712697,
    "lng": 46.6039684
   },
   "mapsUrl": "https://maps.google.com/?q=24.7712697,46.6039684",
   "source": "osm"
  },
  {
   "nom": "مواقف  اماميه للمسجد",
   "lat": 24.7973713,
   "lng": 46.7086552,
   "coordonnees": {
    "lat": 24.7973713,
    "lng": 46.7086552
   },
   "adresse": "شارع عبدالله المخضوب, Riyadh",
   "mapsUrl": "https://maps.google.com/?q=24.7973713,46.7086552",
   "source": "osm"
  },
  {
   "nom": "مسجد العويمرية الشمالي",
   "lat": 24.6270505,
   "lng": 46.7015628,
   "coordonnees": {
    "lat": 24.6270505,
    "lng": 46.7015628
   },
   "mapsUrl": "https://maps.google.com/?q=24.6270505,46.7015628",
   "source": "osm"
  },
  {
   "nom": "مسجد الشميسي قديم",
   "lat": 24.6271594,
   "lng": 46.7030419,
   "coordonnees": {
    "lat": 24.6271594,
    "lng": 46.7030419
   },
   "mapsUrl": "https://maps.google.com/?q=24.6271594,46.7030419",
   "source": "osm"
  },
  {
   "nom": "مسجد اللحيدن",
   "lat": 24.677983,
   "lng": 46.766877,
   "coordonnees": {
    "lat": 24.677983,
    "lng": 46.766877
   },
   "mapsUrl": "https://maps.google.com/?q=24.677983,46.766877",
   "source": "osm"
  },
  {
   "nom": "جامع الشيخ محمد بن علي الصانع",
   "lat": 24.8012008,
   "lng": 46.6494774,
   "coordonnees": {
    "lat": 24.8012008,
    "lng": 46.6494774
   },
   "mapsUrl": "https://maps.google.com/?q=24.8012008,46.6494774",
   "source": "osm"
  },
  {
   "nom": "مسجد الاحسان",
   "lat": 24.7774134,
   "lng": 46.7494363,
   "coordonnees": {
    "lat": 24.7774134,
    "lng": 46.7494363
   },
   "mapsUrl": "https://maps.google.com/?q=24.7774134,46.7494363",
   "source": "osm"
  },
  {
   "nom": "مسجد موضي بنت عبدالرحمن الهديان",
   "lat": 24.8057269,
   "lng": 46.6874709,
   "coordonnees": {
    "lat": 24.8057269,
    "lng": 46.6874709
   },
   "mapsUrl": "https://maps.google.com/?q=24.8057269,46.6874709",
   "source": "osm"
  },
  {
   "nom": "Al Rayan Mosque",
   "lat": 24.7024224,
   "lng": 46.7773491,
   "coordonnees": {
    "lat": 24.7024224,
    "lng": 46.7773491
   },
   "mapsUrl": "https://maps.google.com/?q=24.7024224,46.7773491",
   "source": "osm"
  },
  {
   "nom": "مسجد الطيار",
   "lat": 24.6854975,
   "lng": 46.5769873,
   "coordonnees": {
    "lat": 24.6854975,
    "lng": 46.5769873
   },
   "mapsUrl": "https://maps.google.com/?q=24.6854975,46.5769873",
   "source": "osm"
  },
  {
   "nom": "جامع عبدالرحمن الرويتع",
   "lat": 24.6889472,
   "lng": 46.5741579,
   "coordonnees": {
    "lat": 24.6889472,
    "lng": 46.5741579
   },
   "mapsUrl": "https://maps.google.com/?q=24.6889472,46.5741579",
   "source": "osm"
  },
  {
   "nom": "Heritage Mosque مسجد السريحة بالدرعية",
   "lat": 24.7369121,
   "lng": 46.5726301,
   "coordonnees": {
    "lat": 24.7369121,
    "lng": 46.5726301
   },
   "mapsUrl": "https://maps.google.com/?q=24.7369121,46.5726301",
   "source": "osm"
  },
  {
   "nom": "جامع الصفاء",
   "lat": 24.7039409,
   "lng": 46.7823958,
   "coordonnees": {
    "lat": 24.7039409,
    "lng": 46.7823958
   },
   "mapsUrl": "https://maps.google.com/?q=24.7039409,46.7823958",
   "source": "osm"
  },
  {
   "nom": "Al Rawabi Mosque",
   "lat": 24.699547,
   "lng": 46.782971,
   "coordonnees": {
    "lat": 24.699547,
    "lng": 46.782971
   },
   "mapsUrl": "https://maps.google.com/?q=24.699547,46.782971",
   "source": "osm"
  },
  {
   "nom": "جامع العمار",
   "lat": 24.7755277,
   "lng": 46.5881372,
   "coordonnees": {
    "lat": 24.7755277,
    "lng": 46.5881372
   },
   "mapsUrl": "https://maps.google.com/?q=24.7755277,46.5881372",
   "source": "osm"
  },
  {
   "nom": "مسجد الأمير سلطان",
   "lat": 24.6148087,
   "lng": 46.6981266,
   "coordonnees": {
    "lat": 24.6148087,
    "lng": 46.6981266
   },
   "mapsUrl": "https://maps.google.com/?q=24.6148087,46.6981266",
   "source": "osm"
  },
  {
   "nom": "جامع القدس",
   "lat": 24.6983764,
   "lng": 46.7858855,
   "coordonnees": {
    "lat": 24.6983764,
    "lng": 46.7858855
   },
   "mapsUrl": "https://maps.google.com/?q=24.6983764,46.7858855",
   "source": "osm"
  },
  {
   "nom": "جامع عبد الله المبيريك",
   "lat": 24.7010432,
   "lng": 46.7868314,
   "coordonnees": {
    "lat": 24.7010432,
    "lng": 46.7868314
   },
   "mapsUrl": "https://maps.google.com/?q=24.7010432,46.7868314",
   "source": "osm"
  },
  {
   "nom": "مسجد البردين",
   "lat": 24.6512957,
   "lng": 46.5857036,
   "coordonnees": {
    "lat": 24.6512957,
    "lng": 46.5857036
   },
   "mapsUrl": "https://maps.google.com/?q=24.6512957,46.5857036",
   "source": "osm"
  },
  {
   "nom": "مسجد الهاجري",
   "lat": 24.775866,
   "lng": 46.583583,
   "coordonnees": {
    "lat": 24.775866,
    "lng": 46.583583
   },
   "mapsUrl": "https://maps.google.com/?q=24.775866,46.583583",
   "source": "osm"
  },
  {
   "nom": "ابي هريرة",
   "lat": 24.699114,
   "lng": 46.7898472,
   "coordonnees": {
    "lat": 24.699114,
    "lng": 46.7898472
   },
   "mapsUrl": "https://maps.google.com/?q=24.699114,46.7898472",
   "source": "osm"
  }
 ],
 "tags": [
  "capitale",
  "modernite",
  "najd",
  "unesco",
  "desert",
  "famille"
 ],
 "description_en": "Riyadh, in Saudi Arabia, is a halal-friendly destination with a Halal Trust Score of 4.7/5. Muslim travelers will find 77 halal restaurants listed, 4,000 mosques, real-time prayer times and the Qibla direction — a complete guide to travel with peace of mind.",
 "metaDescription_en": "Halal guide to Riyadh: 77 halal restaurants listed, 4,000 mosques, prayer times and tips for Muslim travelers. Halal Trust Score 4.7/5.",
 "nom_en": "Riyadh",
 "boucheries": [],
 "infos_pratiques_en": {
  "langue": "Arabic",
  "monnaie": "Saudi riyal (SAR)",
  "meilleure_periode": "November to March",
  "appel_priere": "5 times a day",
  "nourriture_halal": "Largement disponible",
  "alcool": "Forbidden"
 },
 "dataPurgedAt": "2026-07-15"
}