{
  "slug": "rotterdam",
  "nom": "Rotterdam",
  "pays": "Pays-Bas",
  "pays_slug": "pays-bas",
  "continent": "Europe",
  "region": "Pays-Bas",
  "coordonnees": {
    "lat": 51.9244,
    "lng": 4.4777
  },
  "codeISO": "NL",
  "score_halal": 3.9,
  "halalScore": 7.8,
  "villeNonMusulmane": true,
  "description": "Port majeur à l'architecture moderne. Importante communauté musulmane et nombreux restaurants halal.",
  "metaDescription": "Port majeur à l'architecture moderne. Importante communauté musulmane et nombreux restaurants halal.",
  "image": "https://upload.wikimedia.org/wikipedia/commons/a/a2/Trams_de_Rotterdam_%28Pays_Bas%29_%286542426015%29.jpg",
  "image_hero": "https://upload.wikimedia.org/wikipedia/commons/a/a2/Trams_de_Rotterdam_%28Pays_Bas%29_%286542426015%29.jpg",
  "imageCredit": "Wikimedia Commons",
  "statistiques": {
    "restaurants_halal": 130,
    "mosquees": 20,
    "hotels": 110
  },
  "infoPratique": {
    "transport": "Accessible par avion et transports en commun locaux.",
    "meilleureEpoque": "Printemps et automne (climat tempéré).",
    "conseilHalal": "Ville non-musulmane : repérez les restaurants halal signalés et les mosquées via l'application avant votre visite."
  },
  "tags": [
    "halal",
    "ville non-musulmane",
    "europe"
  ],
  "restaurants": [
    {
      "nom": "Chicken spot",
      "type": "chicken, sandwich, friture",
      "priceRange": "€€",
      "mapsUrl": "https://maps.google.com/?q=51.9214766,4.4809629",
      "lat": 51.9214766,
      "lng": 4.4809629,
      "halalConfidence": "yes",
      "source": "osm"
    },
    {
      "nom": "Bazar",
      "type": "middle eastern, north african, mediterranean",
      "priceRange": "€€",
      "mapsUrl": "https://maps.google.com/?q=51.9159347,4.4788527",
      "lat": 51.9159347,
      "lng": 4.4788527,
      "halalConfidence": "yes",
      "source": "osm"
    },
    {
      "nom": "Chiking",
      "type": "chicken",
      "priceRange": "€€",
      "mapsUrl": "https://maps.google.com/?q=51.9330667,4.4785132",
      "lat": 51.9330667,
      "lng": 4.4785132,
      "halalConfidence": "only",
      "source": "osm"
    },
    {
      "nom": "Pizzeria Forni",
      "type": "pizza",
      "priceRange": "€€",
      "mapsUrl": "https://maps.google.com/?q=51.9118878,4.4987164",
      "lat": 51.9118878,
      "lng": 4.4987164,
      "halalConfidence": "yes",
      "source": "osm"
    },
    {
      "nom": "Kan Zaman",
      "type": "kebab",
      "priceRange": "€€",
      "mapsUrl": "https://maps.google.com/?q=51.9100075,4.4473114",
      "lat": 51.9100075,
      "lng": 4.4473114,
      "halalConfidence": "yes",
      "source": "osm"
    },
    {
      "nom": "Meat & Zo",
      "type": "middle eastern",
      "priceRange": "€€",
      "mapsUrl": "https://maps.google.com/?q=51.902146,4.4945259",
      "lat": 51.902146,
      "lng": 4.4945259,
      "halalConfidence": "yes",
      "source": "osm"
    },
    {
      "nom": "Simitçi Dünyası",
      "type": "turkish",
      "priceRange": "€€",
      "mapsUrl": "https://maps.google.com/?q=51.8980534,4.5110595",
      "lat": 51.8980534,
      "lng": 4.5110595,
      "halalConfidence": "yes",
      "source": "osm"
    },
    {
      "nom": "Mehmet Usta",
      "type": "turkish, kebab, mediterranean",
      "priceRange": "€€",
      "mapsUrl": "https://maps.google.com/?q=51.8700695,4.4547426",
      "lat": 51.8700695,
      "lng": 4.4547426,
      "halalConfidence": "yes",
      "source": "osm"
    },
    {
      "nom": "Maydonoz Döner",
      "type": "kebab",
      "priceRange": "€€",
      "mapsUrl": "https://maps.google.com/?q=51.9221739,4.4775282",
      "lat": 51.9221739,
      "lng": 4.4775282,
      "halalConfidence": "likely",
      "source": "osm"
    },
    {
      "nom": "Munzur",
      "type": "turkish",
      "priceRange": "€€",
      "mapsUrl": "https://maps.google.com/?q=51.9271175,4.4750639",
      "lat": 51.9271175,
      "lng": 4.4750639,
      "halalConfidence": "likely",
      "source": "osm"
    },
    {
      "nom": "The Döner Company",
      "type": "kebab",
      "priceRange": "€€",
      "mapsUrl": "https://maps.google.com/?q=51.9252697,4.4693518",
      "lat": 51.9252697,
      "lng": 4.4693518,
      "halalConfidence": "likely",
      "source": "osm"
    },
    {
      "nom": "Ekmekci",
      "type": "turkish, salad",
      "priceRange": "€€",
      "mapsUrl": "https://maps.google.com/?q=51.9258116,4.4691377",
      "lat": 51.9258116,
      "lng": 4.4691377,
      "halalConfidence": "likely",
      "source": "osm"
    },
    {
      "nom": "Konak",
      "type": "kebab",
      "priceRange": "€€",
      "mapsUrl": "https://maps.google.com/?q=51.9263037,4.4684043",
      "lat": 51.9263037,
      "lng": 4.4684043,
      "halalConfidence": "likely",
      "source": "osm"
    },
    {
      "nom": "El Aviv",
      "type": "doner",
      "priceRange": "€€",
      "mapsUrl": "https://maps.google.com/?q=51.9190478,4.4846018",
      "lat": 51.9190478,
      "lng": 4.4846018,
      "halalConfidence": "likely",
      "source": "osm"
    },
    {
      "nom": "Zayt & Za'atar",
      "type": "lebanese",
      "priceRange": "€€",
      "mapsUrl": "https://maps.google.com/?q=51.9176465,4.4757535",
      "lat": 51.9176465,
      "lng": 4.4757535,
      "halalConfidence": "likely",
      "source": "osm"
    },
    {
      "nom": "Center",
      "type": "kebab",
      "priceRange": "€€",
      "mapsUrl": "https://maps.google.com/?q=51.9175875,4.4749764",
      "lat": 51.9175875,
      "lng": 4.4749764,
      "halalConfidence": "likely",
      "source": "osm"
    },
    {
      "nom": "Sofra",
      "type": "kebab",
      "priceRange": "€€",
      "mapsUrl": "https://maps.google.com/?q=51.930595,4.483799",
      "lat": 51.930595,
      "lng": 4.483799,
      "halalConfidence": "likely",
      "source": "osm"
    },
    {
      "nom": "Çiğköftem",
      "type": "turkish",
      "priceRange": "€€",
      "mapsUrl": "https://maps.google.com/?q=51.9200733,4.4872643",
      "lat": 51.9200733,
      "lng": 4.4872643,
      "halalConfidence": "likely",
      "source": "osm"
    },
    {
      "nom": "De Palmboom",
      "type": "kebab",
      "priceRange": "€€",
      "mapsUrl": "https://maps.google.com/?q=51.9200767,4.4875014",
      "lat": 51.9200767,
      "lng": 4.4875014,
      "halalConfidence": "likely",
      "source": "osm"
    },
    {
      "nom": "'t Fonteintje",
      "type": "kebab",
      "priceRange": "€€",
      "mapsUrl": "https://maps.google.com/?q=51.9308665,4.484153",
      "lat": 51.9308665,
      "lng": 4.484153,
      "halalConfidence": "likely",
      "source": "osm"
    },
    {
      "nom": "Istanbul Döner Kebab",
      "type": "friture, turkish, kebab, sandwich, pizza",
      "priceRange": "€€",
      "mapsUrl": "https://maps.google.com/?q=51.9206081,4.4891942",
      "lat": 51.9206081,
      "lng": 4.4891942,
      "halalConfidence": "likely",
      "source": "osm"
    },
    {
      "nom": "Alhambra",
      "type": "moroccan",
      "priceRange": "€€",
      "mapsUrl": "https://maps.google.com/?q=51.9322153,4.4813935",
      "lat": 51.9322153,
      "lng": 4.4813935,
      "halalConfidence": "likely",
      "source": "osm"
    },
    {
      "nom": "Anadolu Sofra",
      "type": "turkish",
      "priceRange": "€€",
      "mapsUrl": "https://maps.google.com/?q=51.9322352,4.4813123",
      "lat": 51.9322352,
      "lng": 4.4813123,
      "halalConfidence": "likely",
      "source": "osm"
    },
    {
      "nom": "Cappadocia Restaurant",
      "type": "turkish",
      "priceRange": "€€",
      "mapsUrl": "https://maps.google.com/?q=51.9329885,4.4787337",
      "lat": 51.9329885,
      "lng": 4.4787337,
      "halalConfidence": "likely",
      "source": "osm"
    },
    {
      "nom": "Jaffa",
      "type": "kebab",
      "priceRange": "€€",
      "mapsUrl": "https://maps.google.com/?q=51.9155922,4.4775063",
      "lat": 51.9155922,
      "lng": 4.4775063,
      "halalConfidence": "likely",
      "source": "osm"
    },
    {
      "nom": "Le Ksar",
      "type": "moroccan",
      "priceRange": "€€",
      "mapsUrl": "https://maps.google.com/?q=51.9335228,4.4773022",
      "lat": 51.9335228,
      "lng": 4.4773022,
      "halalConfidence": "likely",
      "source": "osm"
    },
    {
      "nom": "Grillroom Tel Aviv",
      "type": "kebab",
      "priceRange": "€€",
      "mapsUrl": "https://maps.google.com/?q=51.9152119,4.4760139",
      "lat": 51.9152119,
      "lng": 4.4760139,
      "halalConfidence": "likely",
      "source": "osm"
    },
    {
      "nom": "Kapadokya",
      "type": "kebab",
      "priceRange": "€€",
      "mapsUrl": "https://maps.google.com/?q=51.9152602,4.4753143",
      "lat": 51.9152602,
      "lng": 4.4753143,
      "halalConfidence": "likely",
      "source": "osm"
    },
    {
      "nom": "Fafi",
      "type": "kebab",
      "priceRange": "€€",
      "mapsUrl": "https://maps.google.com/?q=51.9152302,4.4751642",
      "lat": 51.9152302,
      "lng": 4.4751642,
      "halalConfidence": "likely",
      "source": "osm"
    },
    {
      "nom": "Jasmine",
      "type": "moroccan",
      "priceRange": "€€",
      "mapsUrl": "https://maps.google.com/?q=51.9327268,4.485861",
      "lat": 51.9327268,
      "lng": 4.485861,
      "halalConfidence": "likely",
      "source": "osm"
    },
    {
      "nom": "Bakkerij Avrasya",
      "type": "kebab",
      "priceRange": "€€",
      "mapsUrl": "https://maps.google.com/?q=51.9341213,4.4750916",
      "lat": 51.9341213,
      "lng": 4.4750916,
      "halalConfidence": "likely",
      "source": "osm"
    },
    {
      "nom": "HAS",
      "type": "kebab",
      "priceRange": "€€",
      "mapsUrl": "https://maps.google.com/?q=51.918888,4.463501",
      "lat": 51.918888,
      "lng": 4.463501,
      "halalConfidence": "likely",
      "source": "osm"
    },
    {
      "nom": "Tagine",
      "type": "moroccan",
      "priceRange": "€€",
      "mapsUrl": "https://maps.google.com/?q=51.9191094,4.4627317",
      "lat": 51.9191094,
      "lng": 4.4627317,
      "halalConfidence": "likely",
      "source": "osm"
    },
    {
      "nom": "Sahlan",
      "type": "turkish",
      "priceRange": "€€",
      "mapsUrl": "https://maps.google.com/?q=51.9348682,4.4737446",
      "lat": 51.9348682,
      "lng": 4.4737446,
      "halalConfidence": "likely",
      "source": "osm"
    },
    {
      "nom": "Masada",
      "type": "kebab",
      "priceRange": "€€",
      "mapsUrl": "https://maps.google.com/?q=51.935432,4.479023",
      "lat": 51.935432,
      "lng": 4.479023,
      "halalConfidence": "likely",
      "source": "osm"
    },
    {
      "nom": "Tasty Döner",
      "type": "kebab",
      "priceRange": "€€",
      "mapsUrl": "https://maps.google.com/?q=51.9340783,4.486581",
      "lat": 51.9340783,
      "lng": 4.486581,
      "halalConfidence": "likely",
      "source": "osm"
    },
    {
      "nom": "Maxima Döner",
      "type": "kebab",
      "priceRange": "€€",
      "mapsUrl": "https://maps.google.com/?q=51.9316463,4.4617272",
      "lat": 51.9316463,
      "lng": 4.4617272,
      "halalConfidence": "likely",
      "source": "osm"
    },
    {
      "nom": "Mozaik Pizzeria Eethuis",
      "type": "turkish, pizza",
      "priceRange": "€€",
      "mapsUrl": "https://maps.google.com/?q=51.9232927,4.4988588",
      "lat": 51.9232927,
      "lng": 4.4988588,
      "halalConfidence": "likely",
      "source": "osm"
    },
    {
      "nom": "Madrid",
      "type": "kebab",
      "priceRange": "€€",
      "mapsUrl": "https://maps.google.com/?q=51.913649,4.462062",
      "lat": 51.913649,
      "lng": 4.462062,
      "halalConfidence": "likely",
      "source": "osm"
    },
    {
      "nom": "Tadim",
      "type": "turkish",
      "priceRange": "€€",
      "mapsUrl": "https://maps.google.com/?q=51.913575,4.461634",
      "lat": 51.913575,
      "lng": 4.461634,
      "halalConfidence": "likely",
      "source": "osm"
    },
    {
      "nom": "Hanzade Çiğköfte",
      "type": "turkish",
      "priceRange": "€€",
      "mapsUrl": "https://maps.google.com/?q=51.92875,4.5004877",
      "lat": 51.92875,
      "lng": 4.5004877,
      "halalConfidence": "likely",
      "source": "osm"
    },
    {
      "nom": "Orlena",
      "type": "turkish, tapas, grill",
      "priceRange": "€€",
      "mapsUrl": "https://maps.google.com/?q=51.9287889,4.5008219",
      "lat": 51.9287889,
      "lng": 4.5008219,
      "halalConfidence": "likely",
      "source": "osm"
    },
    {
      "nom": "Eethuis Vlietlaan",
      "type": "friture, turkish, kebab, shawarma",
      "priceRange": "€€",
      "mapsUrl": "https://maps.google.com/?q=51.9269774,4.5016856",
      "lat": 51.9269774,
      "lng": 4.5016856,
      "halalConfidence": "likely",
      "source": "osm"
    },
    {
      "nom": "Simurg",
      "type": "turkish, barbecue, grill",
      "priceRange": "€€",
      "mapsUrl": "https://maps.google.com/?q=51.9280782,4.5014998",
      "lat": 51.9280782,
      "lng": 4.5014998,
      "halalConfidence": "likely",
      "source": "osm"
    },
    {
      "nom": "Fadi's",
      "type": "turkish",
      "priceRange": "€€",
      "mapsUrl": "https://maps.google.com/?q=51.9138261,4.4968013",
      "lat": 51.9138261,
      "lng": 4.4968013,
      "halalConfidence": "likely",
      "source": "osm"
    },
    {
      "nom": "Pistache Halab",
      "type": "arab, mediterranean",
      "priceRange": "€€",
      "mapsUrl": "https://maps.google.com/?q=51.9130502,4.4587264",
      "lat": 51.9130502,
      "lng": 4.4587264,
      "halalConfidence": "likely",
      "source": "osm"
    },
    {
      "nom": "Olympia",
      "type": "kebab",
      "priceRange": "€€",
      "mapsUrl": "https://maps.google.com/?q=51.917246,4.453563",
      "lat": 51.917246,
      "lng": 4.453563,
      "halalConfidence": "likely",
      "source": "osm"
    },
    {
      "nom": "Lixus",
      "type": "moroccan",
      "priceRange": "€€",
      "mapsUrl": "https://maps.google.com/?q=51.916648,4.452824",
      "lat": 51.916648,
      "lng": 4.452824,
      "halalConfidence": "likely",
      "source": "osm"
    },
    {
      "nom": "Elvan",
      "type": "kebab",
      "priceRange": "€€",
      "mapsUrl": "https://maps.google.com/?q=51.912715,4.456757",
      "lat": 51.912715,
      "lng": 4.456757,
      "halalConfidence": "likely",
      "source": "osm"
    },
    {
      "nom": "Lider BBQ Villa",
      "type": "turkish, grill, breakfast, diner",
      "priceRange": "€€",
      "mapsUrl": "https://maps.google.com/?q=51.9287956,4.5055848",
      "lat": 51.9287956,
      "lng": 4.5055848,
      "halalConfidence": "likely",
      "source": "osm"
    },
    {
      "nom": "Patat Haven",
      "type": "kebab",
      "priceRange": "€€",
      "mapsUrl": "https://maps.google.com/?q=51.9092194,4.4586512",
      "lat": 51.9092194,
      "lng": 4.4586512,
      "halalConfidence": "likely",
      "source": "osm"
    },
    {
      "nom": "Jaffo",
      "type": "kebab",
      "priceRange": "€€",
      "mapsUrl": "https://maps.google.com/?q=51.9447907,4.4821131",
      "lat": 51.9447907,
      "lng": 4.4821131,
      "halalConfidence": "likely",
      "source": "osm"
    },
    {
      "nom": "bella mersin",
      "type": "kebab",
      "priceRange": "€€",
      "mapsUrl": "https://maps.google.com/?q=51.9107139,4.4512568",
      "lat": 51.9107139,
      "lng": 4.4512568,
      "halalConfidence": "likely",
      "source": "osm"
    },
    {
      "nom": "Meram",
      "type": "turkish",
      "priceRange": "€€",
      "mapsUrl": "https://maps.google.com/?q=51.916553,4.444975",
      "lat": 51.916553,
      "lng": 4.444975,
      "halalConfidence": "likely",
      "source": "osm"
    },
    {
      "nom": "Metro Döner",
      "type": "kebab",
      "priceRange": "€€",
      "mapsUrl": "https://maps.google.com/?q=51.9252075,4.5135136",
      "lat": 51.9252075,
      "lng": 4.5135136,
      "halalConfidence": "likely",
      "source": "osm"
    },
    {
      "nom": "Pidecin",
      "type": "turkish",
      "priceRange": "€€",
      "mapsUrl": "https://maps.google.com/?q=51.9100099,4.4471497",
      "lat": 51.9100099,
      "lng": 4.4471497,
      "halalConfidence": "likely",
      "source": "osm"
    },
    {
      "nom": "El Aviva",
      "type": "kebab",
      "priceRange": "€€",
      "mapsUrl": "https://maps.google.com/?q=51.909682,4.447305",
      "lat": 51.909682,
      "lng": 4.447305,
      "halalConfidence": "likely",
      "source": "osm"
    },
    {
      "nom": "Lider",
      "type": "kebab",
      "priceRange": "€€",
      "mapsUrl": "https://maps.google.com/?q=51.9103548,4.4456791",
      "lat": 51.9103548,
      "lng": 4.4456791,
      "halalConfidence": "likely",
      "source": "osm"
    },
    {
      "nom": "Efes",
      "type": "kebab",
      "priceRange": "€€",
      "mapsUrl": "https://maps.google.com/?q=51.9096545,4.4461498",
      "lat": 51.9096545,
      "lng": 4.4461498,
      "halalConfidence": "likely",
      "source": "osm"
    },
    {
      "nom": "Aksu",
      "type": "kebab",
      "priceRange": "€€",
      "mapsUrl": "https://maps.google.com/?q=51.9102113,4.4450868",
      "lat": 51.9102113,
      "lng": 4.4450868,
      "halalConfidence": "likely",
      "source": "osm"
    },
    {
      "nom": "Le Souq",
      "type": "lebanese",
      "priceRange": "€€",
      "mapsUrl": "https://maps.google.com/?q=51.9071233,4.4487901",
      "lat": 51.9071233,
      "lng": 4.4487901,
      "halalConfidence": "likely",
      "source": "osm"
    },
    {
      "nom": "Marrakech",
      "type": "kebab, moroccan",
      "priceRange": "€€",
      "mapsUrl": "https://maps.google.com/?q=51.9107911,4.4422281",
      "lat": 51.9107911,
      "lng": 4.4422281,
      "halalConfidence": "likely",
      "source": "osm"
    },
    {
      "nom": "Feyza Döner",
      "type": "kebab",
      "priceRange": "€€",
      "mapsUrl": "https://maps.google.com/?q=51.9067858,4.4458656",
      "lat": 51.9067858,
      "lng": 4.4458656,
      "halalConfidence": "likely",
      "source": "osm"
    },
    {
      "nom": "Eethuis Tandir",
      "type": "turkish, pizza",
      "priceRange": "€€",
      "mapsUrl": "https://maps.google.com/?q=51.9112482,4.4402435",
      "lat": 51.9112482,
      "lng": 4.4402435,
      "halalConfidence": "likely",
      "source": "osm"
    },
    {
      "nom": "Kasap",
      "type": "turkish",
      "priceRange": "€€",
      "mapsUrl": "https://maps.google.com/?q=51.897521,4.4667338",
      "lat": 51.897521,
      "lng": 4.4667338,
      "halalConfidence": "likely",
      "source": "osm"
    },
    {
      "nom": "Restaurant Baskent",
      "type": "turkish",
      "priceRange": "€€",
      "mapsUrl": "https://maps.google.com/?q=51.8971655,4.4958359",
      "lat": 51.8971655,
      "lng": 4.4958359,
      "halalConfidence": "likely",
      "source": "osm"
    },
    {
      "nom": "Mozza",
      "type": "mediterranean, turkish",
      "priceRange": "€€",
      "mapsUrl": "https://maps.google.com/?q=51.9168769,4.5254723",
      "lat": 51.9168769,
      "lng": 4.5254723,
      "halalConfidence": "likely",
      "source": "osm"
    },
    {
      "nom": "Has Döner Kebab",
      "type": "kebab",
      "priceRange": "€€",
      "mapsUrl": "https://maps.google.com/?q=51.916685,4.5254094",
      "lat": 51.916685,
      "lng": 4.5254094,
      "halalConfidence": "likely",
      "source": "osm"
    },
    {
      "nom": "Corner",
      "type": "kebab",
      "priceRange": "€€",
      "mapsUrl": "https://maps.google.com/?q=51.8951431,4.4975668",
      "lat": 51.8951431,
      "lng": 4.4975668,
      "halalConfidence": "likely",
      "source": "osm"
    },
    {
      "nom": "Babbu Shoarma Snacks",
      "type": "turkish, shawarma",
      "priceRange": "€€",
      "mapsUrl": "https://maps.google.com/?q=51.8940334,4.494295",
      "lat": 51.8940334,
      "lng": 4.494295,
      "halalConfidence": "likely",
      "source": "osm"
    },
    {
      "nom": "Grillroom Feijenoord",
      "type": "kebab",
      "priceRange": "€€",
      "mapsUrl": "https://maps.google.com/?q=51.8988755,4.5094534",
      "lat": 51.8988755,
      "lng": 4.5094534,
      "halalConfidence": "likely",
      "source": "osm"
    },
    {
      "nom": "Lezzet",
      "type": "kebab",
      "priceRange": "€€",
      "mapsUrl": "https://maps.google.com/?q=51.8942733,4.4973918",
      "lat": 51.8942733,
      "lng": 4.4973918,
      "halalConfidence": "likely",
      "source": "osm"
    },
    {
      "nom": "Konyali",
      "type": "turkish",
      "priceRange": "€€",
      "mapsUrl": "https://maps.google.com/?q=51.8941243,4.4971186",
      "lat": 51.8941243,
      "lng": 4.4971186,
      "halalConfidence": "likely",
      "source": "osm"
    },
    {
      "nom": "Komagene",
      "type": "kebab",
      "priceRange": "€€",
      "mapsUrl": "https://maps.google.com/?q=51.89403,4.4969511",
      "lat": 51.89403,
      "lng": 4.4969511,
      "halalConfidence": "likely",
      "source": "osm"
    },
    {
      "nom": "INCI",
      "type": "kebab",
      "priceRange": "€€",
      "mapsUrl": "https://maps.google.com/?q=51.8937122,4.4963745",
      "lat": 51.8937122,
      "lng": 4.4963745,
      "halalConfidence": "likely",
      "source": "osm"
    },
    {
      "nom": "Bey Men",
      "type": "turkish",
      "priceRange": "€€",
      "mapsUrl": "https://maps.google.com/?q=51.8892643,4.4880804",
      "lat": 51.8892643,
      "lng": 4.4880804,
      "halalConfidence": "likely",
      "source": "osm"
    },
    {
      "nom": "Sultan",
      "type": "turkish",
      "priceRange": "€€",
      "mapsUrl": "https://maps.google.com/?q=51.8891016,4.4916195",
      "lat": 51.8891016,
      "lng": 4.4916195,
      "halalConfidence": "likely",
      "source": "osm"
    },
    {
      "nom": "Mansion",
      "type": "american, turkish",
      "priceRange": "€€",
      "mapsUrl": "https://maps.google.com/?q=51.9547629,4.4430027",
      "lat": 51.9547629,
      "lng": 4.4430027,
      "halalConfidence": "likely",
      "source": "osm"
    },
    {
      "nom": "HAS Döner",
      "type": "kebab",
      "priceRange": "€€",
      "mapsUrl": "https://maps.google.com/?q=51.8881045,4.4917795",
      "lat": 51.8881045,
      "lng": 4.4917795,
      "halalConfidence": "likely",
      "source": "osm"
    },
    {
      "nom": "Komsu",
      "type": "turkish",
      "priceRange": "€€",
      "mapsUrl": "https://maps.google.com/?q=51.8879033,4.4917324",
      "lat": 51.8879033,
      "lng": 4.4917324,
      "halalConfidence": "likely",
      "source": "osm"
    },
    {
      "nom": "Eetcafe Sfiha",
      "type": "kebab",
      "priceRange": "€€",
      "mapsUrl": "https://maps.google.com/?q=51.8897758,4.5022283",
      "lat": 51.8897758,
      "lng": 4.5022283,
      "halalConfidence": "likely",
      "source": "osm"
    },
    {
      "nom": "Döner Mustache",
      "type": "kebab",
      "priceRange": "€€",
      "mapsUrl": "https://maps.google.com/?q=51.887338,4.4910967",
      "lat": 51.887338,
      "lng": 4.4910967,
      "halalConfidence": "likely",
      "source": "osm"
    },
    {
      "nom": "Polat",
      "type": "kebab",
      "priceRange": "€€",
      "mapsUrl": "https://maps.google.com/?q=51.9174611,4.4169871",
      "lat": 51.9174611,
      "lng": 4.4169871,
      "halalConfidence": "likely",
      "source": "osm"
    },
    {
      "nom": "Helai",
      "type": "afghan",
      "priceRange": "€€",
      "mapsUrl": "https://maps.google.com/?q=51.8969213,4.5277088",
      "lat": 51.8969213,
      "lng": 4.5277088,
      "halalConfidence": "likely",
      "source": "osm"
    },
    {
      "nom": "Pizzeria Etna",
      "type": "kebab, pasta, pizza",
      "priceRange": "€€",
      "mapsUrl": "https://maps.google.com/?q=51.8829841,4.5058929",
      "lat": 51.8829841,
      "lng": 4.5058929,
      "halalConfidence": "likely",
      "source": "osm"
    },
    {
      "nom": "Nirvana",
      "type": "turkish",
      "priceRange": "€€",
      "mapsUrl": "https://maps.google.com/?q=51.8785088,4.4858943",
      "lat": 51.8785088,
      "lng": 4.4858943,
      "halalConfidence": "likely",
      "source": "osm"
    },
    {
      "nom": "Döner Grill Land",
      "type": "kebab",
      "priceRange": "€€",
      "mapsUrl": "https://maps.google.com/?q=51.9399582,4.548637",
      "lat": 51.9399582,
      "lng": 4.548637,
      "halalConfidence": "likely",
      "source": "osm"
    },
    {
      "nom": "Karaköz",
      "type": "kebab",
      "priceRange": "€€",
      "mapsUrl": "https://maps.google.com/?q=51.9149915,4.4033054",
      "lat": 51.9149915,
      "lng": 4.4033054,
      "halalConfidence": "likely",
      "source": "osm"
    },
    {
      "nom": "Aspava",
      "type": "turkish",
      "priceRange": "€€",
      "mapsUrl": "https://maps.google.com/?q=51.9166083,4.4011612",
      "lat": 51.9166083,
      "lng": 4.4011612,
      "halalConfidence": "likely",
      "source": "osm"
    },
    {
      "nom": "Ari",
      "type": "kebab",
      "priceRange": "€€",
      "mapsUrl": "https://maps.google.com/?q=51.8744322,4.4768606",
      "lat": 51.8744322,
      "lng": 4.4768606,
      "halalConfidence": "likely",
      "source": "osm"
    },
    {
      "nom": "Nafoura Restaurant",
      "type": "arab",
      "priceRange": "€€",
      "mapsUrl": "https://maps.google.com/?q=51.8744255,4.4843475",
      "lat": 51.8744255,
      "lng": 4.4843475,
      "halalConfidence": "likely",
      "source": "osm"
    },
    {
      "nom": "Semazen",
      "type": "turkish",
      "priceRange": "€€",
      "mapsUrl": "https://maps.google.com/?q=51.9209543,4.3958696",
      "lat": 51.9209543,
      "lng": 4.3958696,
      "halalConfidence": "likely",
      "source": "osm"
    },
    {
      "nom": "Azra",
      "type": "kebab",
      "priceRange": "€€",
      "mapsUrl": "https://maps.google.com/?q=51.9210589,4.3957638",
      "lat": 51.9210589,
      "lng": 4.3957638,
      "halalConfidence": "likely",
      "source": "osm"
    },
    {
      "nom": "Grillroom Ephesus",
      "type": "barbecue, kebab, pizza, friture",
      "priceRange": "€€",
      "mapsUrl": "https://maps.google.com/?q=51.8790703,4.523613",
      "lat": 51.8790703,
      "lng": 4.523613,
      "halalConfidence": "likely",
      "source": "osm"
    },
    {
      "nom": "Pizzeria Ti Amo",
      "type": "pizza, kebab",
      "priceRange": "€€",
      "mapsUrl": "https://maps.google.com/?q=51.879359,4.5244252",
      "lat": 51.879359,
      "lng": 4.5244252,
      "halalConfidence": "likely",
      "source": "osm"
    },
    {
      "nom": "Parla",
      "type": "turkish",
      "priceRange": "€€",
      "mapsUrl": "https://maps.google.com/?q=51.9093012,4.3870609",
      "lat": 51.9093012,
      "lng": 4.3870609,
      "halalConfidence": "likely",
      "source": "osm"
    },
    {
      "nom": "Bakkerij Hesse Place",
      "type": "turkish, sandwich, pizza",
      "priceRange": "€€",
      "mapsUrl": "https://maps.google.com/?q=51.9628821,4.552316",
      "lat": 51.9628821,
      "lng": 4.552316,
      "halalConfidence": "likely",
      "source": "osm"
    },
    {
      "nom": "Chicken House Shoarma",
      "type": "kebab, chicken, regional, steak house, turkish, international, grill",
      "priceRange": "€€",
      "mapsUrl": "https://maps.google.com/?q=51.9368997,4.5804979",
      "lat": 51.9368997,
      "lng": 4.5804979,
      "halalConfidence": "likely",
      "source": "osm"
    },
    {
      "nom": "Shoarma Pizza 010",
      "type": "shawarma, pizza",
      "priceRange": "€€",
      "mapsUrl": "https://maps.google.com/?q=51.8924531,4.5687636",
      "lat": 51.8924531,
      "lng": 4.5687636,
      "halalConfidence": "likely",
      "source": "osm"
    },
    {
      "nom": "MEQAN",
      "type": "turkish",
      "priceRange": "€€",
      "mapsUrl": "https://maps.google.com/?q=51.9537216,4.5713876",
      "lat": 51.9537216,
      "lng": 4.5713876,
      "halalConfidence": "likely",
      "source": "osm"
    },
    {
      "nom": "Ramses",
      "type": "kebab",
      "priceRange": "€€",
      "mapsUrl": "https://maps.google.com/?q=51.9239332,4.583268",
      "lat": 51.9239332,
      "lng": 4.583268,
      "halalConfidence": "likely",
      "source": "osm"
    },
    {
      "nom": "Zsa Zsa",
      "type": "turkish",
      "priceRange": "€€",
      "mapsUrl": "https://maps.google.com/?q=51.9235434,4.583933",
      "lat": 51.9235434,
      "lng": 4.583933,
      "halalConfidence": "likely",
      "source": "osm"
    },
    {
      "nom": "Asya",
      "type": "kebab",
      "priceRange": "€€",
      "mapsUrl": "https://maps.google.com/?q=51.9887247,4.5003243",
      "lat": 51.9887247,
      "lng": 4.5003243,
      "halalConfidence": "likely",
      "source": "osm"
    },
    {
      "nom": "Döner & Zo",
      "type": "friture, kebab",
      "priceRange": "€€",
      "mapsUrl": "https://maps.google.com/?q=51.9907818,4.4550211",
      "lat": 51.9907818,
      "lng": 4.4550211,
      "halalConfidence": "likely",
      "source": "osm"
    },
    {
      "nom": "The Döner House",
      "type": "kebab",
      "priceRange": "€€",
      "mapsUrl": "https://maps.google.com/?q=51.9937224,4.4756106",
      "lat": 51.9937224,
      "lng": 4.4756106,
      "halalConfidence": "likely",
      "source": "osm"
    },
    {
      "nom": "Meshrep",
      "type": "chinese, uyghur, asian",
      "priceRange": "€€",
      "mapsUrl": "https://maps.google.com/?q=51.994086,4.4772753",
      "lat": 51.994086,
      "lng": 4.4772753,
      "halalConfidence": "likely",
      "source": "osm"
    },
    {
      "nom": "Berkel Nice Kebab",
      "type": "kebab",
      "priceRange": "€€",
      "mapsUrl": "https://maps.google.com/?q=51.9942273,4.4769763",
      "lat": 51.9942273,
      "lng": 4.4769763,
      "halalConfidence": "likely",
      "source": "osm"
    },
    {
      "nom": "Shoarma Troje",
      "type": "pizza, kebab",
      "priceRange": "€€",
      "mapsUrl": "https://maps.google.com/?q=51.9315229,4.3565397",
      "lat": 51.9315229,
      "lng": 4.3565397,
      "halalConfidence": "likely",
      "source": "osm"
    },
    {
      "nom": "Bella Cyprus",
      "type": "greek, italian, grill, italian pizza, turkish",
      "priceRange": "€€",
      "mapsUrl": "https://maps.google.com/?q=51.8550244,4.5319533",
      "lat": 51.8550244,
      "lng": 4.5319533,
      "halalConfidence": "likely",
      "source": "osm"
    },
    {
      "nom": "Naab",
      "type": "persian",
      "priceRange": "€€",
      "mapsUrl": "https://maps.google.com/?q=51.8457725,4.497765",
      "lat": 51.8457725,
      "lng": 4.497765,
      "halalConfidence": "likely",
      "source": "osm"
    },
    {
      "nom": "Botan",
      "type": "shawarma, pizza, burger",
      "priceRange": "€€",
      "mapsUrl": "https://maps.google.com/?q=51.8541044,4.5399485",
      "lat": 51.8541044,
      "lng": 4.5399485,
      "halalConfidence": "likely",
      "source": "osm"
    },
    {
      "nom": "Cennet Pizzeria & Donerhuis",
      "type": "pizza,  shawarma,  kebab",
      "priceRange": "€€",
      "mapsUrl": "https://maps.google.com/?q=51.8514735,4.5491872",
      "lat": 51.8514735,
      "lng": 4.5491872,
      "halalConfidence": "likely",
      "source": "osm"
    },
    {
      "nom": "Bakkerij Oranje Bleiswijk",
      "type": "kebab",
      "priceRange": "€€",
      "mapsUrl": "https://maps.google.com/?q=52.010995,4.5301815",
      "lat": 52.010995,
      "lng": 4.5301815,
      "halalConfidence": "likely",
      "source": "osm"
    },
    {
      "nom": "Bakkerij Ova",
      "type": "kebab",
      "priceRange": "€€",
      "mapsUrl": "https://maps.google.com/?q=51.8713206,4.3529753",
      "lat": 51.8713206,
      "lng": 4.3529753,
      "halalConfidence": "likely",
      "source": "osm"
    },
    {
      "nom": "Armafood",
      "type": "shawarma, roti",
      "priceRange": "€€",
      "mapsUrl": "https://maps.google.com/?q=51.8656858,4.3571944",
      "lat": 51.8656858,
      "lng": 4.3571944,
      "halalConfidence": "likely",
      "source": "osm"
    },
    {
      "nom": "Restaurant Samara",
      "type": "turkish",
      "priceRange": "€€",
      "mapsUrl": "https://maps.google.com/?q=52.0051275,4.3911491",
      "lat": 52.0051275,
      "lng": 4.3911491,
      "halalConfidence": "likely",
      "source": "osm"
    },
    {
      "nom": "Sultan Pizzeria",
      "type": "pizza, kebab",
      "priceRange": "€€",
      "mapsUrl": "https://maps.google.com/?q=51.8943079,4.6298139",
      "lat": 51.8943079,
      "lng": 4.6298139,
      "halalConfidence": "likely",
      "source": "osm"
    },
    {
      "nom": "Mister Kebab",
      "type": "kebab",
      "priceRange": "€€",
      "mapsUrl": "https://maps.google.com/?q=52.0191441,4.4302039",
      "lat": 52.0191441,
      "lng": 4.4302039,
      "halalConfidence": "likely",
      "source": "osm"
    },
    {
      "nom": "Mi Casa",
      "type": "kebab",
      "priceRange": "€€",
      "mapsUrl": "https://maps.google.com/?q=51.909207,4.3175799",
      "lat": 51.909207,
      "lng": 4.3175799,
      "halalConfidence": "likely",
      "source": "osm"
    },
    {
      "nom": "Vatan Döner",
      "type": "kebab, doner",
      "priceRange": "€€",
      "mapsUrl": "https://maps.google.com/?q=51.9990783,4.3551428",
      "lat": 51.9990783,
      "lng": 4.3551428,
      "halalConfidence": "likely",
      "source": "osm"
    },
    {
      "nom": "Urban Tapri",
      "lat": 51.9244349,
      "lng": 4.4792663,
      "type": "indian",
      "halalConfidence": "likely",
      "mapsUrl": "https://maps.google.com/?q=51.9244349,4.4792663",
      "source": "osm"
    },
    {
      "nom": "Panj Tara",
      "lat": 51.9237692,
      "lng": 4.4894113,
      "type": "indian",
      "halalConfidence": "likely",
      "mapsUrl": "https://maps.google.com/?q=51.9237692,4.4894113",
      "source": "osm"
    },
    {
      "nom": "91Spices",
      "lat": 51.9189116,
      "lng": 4.4901606,
      "type": "indian",
      "halalConfidence": "likely",
      "mapsUrl": "https://maps.google.com/?q=51.9189116,4.4901606",
      "source": "osm"
    },
    {
      "nom": "Atithi",
      "lat": 51.9126633,
      "lng": 4.4808084,
      "type": "indian",
      "halalConfidence": "likely",
      "mapsUrl": "https://maps.google.com/?q=51.9126633,4.4808084",
      "source": "osm"
    },
    {
      "nom": "Rainarai",
      "lat": 51.9181723,
      "lng": 4.4595691,
      "type": "algerian",
      "halalConfidence": "likely",
      "mapsUrl": "https://maps.google.com/?q=51.9181723,4.4595691",
      "source": "osm"
    },
    {
      "nom": "Darkum",
      "lat": 51.918284,
      "lng": 4.458339,
      "type": "moroccan",
      "halalConfidence": "likely",
      "mapsUrl": "https://maps.google.com/?q=51.918284,4.458339",
      "source": "osm"
    },
    {
      "nom": "Gate of India",
      "lat": 51.9206596,
      "lng": 4.4531192,
      "type": "indian",
      "halalConfidence": "likely",
      "mapsUrl": "https://maps.google.com/?q=51.9206596,4.4531192",
      "source": "osm"
    },
    {
      "nom": "Namaste",
      "lat": 51.9272132,
      "lng": 4.5096039,
      "type": "nepalese, indian",
      "halalConfidence": "likely",
      "mapsUrl": "https://maps.google.com/?q=51.9272132,4.5096039",
      "source": "osm"
    },
    {
      "nom": "Light of India",
      "lat": 51.924438,
      "lng": 4.5170335,
      "type": "indian",
      "halalConfidence": "likely",
      "mapsUrl": "https://maps.google.com/?q=51.924438,4.5170335",
      "source": "osm"
    },
    {
      "nom": "Naan Sense",
      "lat": 51.9045766,
      "lng": 4.4535234,
      "type": "indian, curry, pizza",
      "halalConfidence": "likely",
      "mapsUrl": "https://maps.google.com/?q=51.9045766,4.4535234",
      "source": "osm"
    },
    {
      "nom": "Şerifoğlu",
      "lat": 51.8868076,
      "lng": 4.4875766,
      "type": "turkish",
      "halalConfidence": "likely",
      "mapsUrl": "https://maps.google.com/?q=51.8868076,4.4875766",
      "source": "osm"
    },
    {
      "nom": "The Indian Chef",
      "lat": 51.9153557,
      "lng": 4.4009074,
      "type": "indian",
      "halalConfidence": "likely",
      "mapsUrl": "https://maps.google.com/?q=51.9153557,4.4009074",
      "source": "osm"
    },
    {
      "nom": "Punjabi",
      "lat": 51.9506714,
      "lng": 4.5559781,
      "type": "indian",
      "halalConfidence": "likely",
      "mapsUrl": "https://maps.google.com/?q=51.9506714,4.5559781",
      "source": "osm"
    }
  ],
  "hotels": [
    {
      "nom": "Hilton Rotterdam",
      "categorie": "Hôtel",
      "priceRange": "€€€€",
      "score": 5,
      "mapsUrl": "https://maps.google.com/?q=51.92346,4.477302",
      "lat": 51.92346,
      "lng": 4.477302,
      "halalFriendly": false,
      "bookingUrl": "https://www.hilton.com/en/hotels/rtmhitw-hilton-rotterdam/",
      "source": "osm"
    },
    {
      "nom": "Holiday Inn Express",
      "categorie": "Hôtel",
      "priceRange": "€€",
      "mapsUrl": "https://maps.google.com/?q=51.9245363,4.4756214",
      "lat": 51.9245363,
      "lng": 4.4756214,
      "halalFriendly": false,
      "bookingUrl": "https://maps.google.com/?q=51.9245363,4.4756214",
      "source": "osm"
    },
    {
      "nom": "Grand Hotel Central",
      "categorie": "Hôtel",
      "priceRange": "€€",
      "mapsUrl": "https://maps.google.com/?q=51.9228675,4.4767887",
      "lat": 51.9228675,
      "lng": 4.4767887,
      "halalFriendly": false,
      "bookingUrl": "https://grandhotelcentral.nl",
      "source": "osm"
    },
    {
      "nom": "The James",
      "categorie": "Hôtel",
      "priceRange": "€€",
      "mapsUrl": "https://maps.google.com/?q=51.9211336,4.4780379",
      "lat": 51.9211336,
      "lng": 4.4780379,
      "halalFriendly": false,
      "bookingUrl": "https://maps.google.com/?q=51.9211336,4.4780379",
      "source": "osm"
    },
    {
      "nom": "NH Atlanta Rotterdam",
      "categorie": "Hôtel",
      "priceRange": "€€",
      "mapsUrl": "https://maps.google.com/?q=51.9209986,4.4789031",
      "lat": 51.9209986,
      "lng": 4.4789031,
      "halalFriendly": false,
      "bookingUrl": "http://www.nh-hotels.com/nh/en/hotels/the-netherlands/rotterdam/nh-atlanta-rotterdam.html",
      "source": "osm"
    },
    {
      "nom": "Postillion",
      "categorie": "Hôtel",
      "priceRange": "€€",
      "mapsUrl": "https://maps.google.com/?q=51.9214896,4.4810263",
      "lat": 51.9214896,
      "lng": 4.4810263,
      "halalFriendly": false,
      "bookingUrl": "https://www.postillionhotels.com/rotterdam/",
      "source": "osm"
    },
    {
      "nom": "Marriott",
      "categorie": "Hôtel",
      "priceRange": "€€",
      "mapsUrl": "https://maps.google.com/?q=51.9225458,4.4715288",
      "lat": 51.9225458,
      "lng": 4.4715288,
      "halalFriendly": false,
      "bookingUrl": "https://www.marriott.com/hotels/travel/rtmmn-rotterdam-marriott-hotel/",
      "source": "osm"
    },
    {
      "nom": "Teleport hotel",
      "categorie": "Hôtel",
      "priceRange": "€€",
      "mapsUrl": "https://maps.google.com/?q=51.9285124,4.4740142",
      "lat": 51.9285124,
      "lng": 4.4740142,
      "halalFriendly": false,
      "bookingUrl": "https://rotterdam.teleporthotel.com",
      "source": "osm"
    },
    {
      "nom": "a&o Rotterdam City",
      "categorie": "Auberge",
      "priceRange": "€€",
      "mapsUrl": "https://maps.google.com/?q=51.9286681,4.4737639",
      "lat": 51.9286681,
      "lng": 4.4737639,
      "halalFriendly": false,
      "bookingUrl": "https://www.aohostels.com/nl/rotterdam/rotterdam-city/",
      "source": "osm"
    },
    {
      "nom": "Motel One Rotterdam",
      "categorie": "Hôtel",
      "priceRange": "€€",
      "mapsUrl": "https://maps.google.com/?q=51.9209146,4.4843844",
      "lat": 51.9209146,
      "lng": 4.4843844,
      "halalFriendly": false,
      "bookingUrl": "https://maps.google.com/?q=51.9209146,4.4843844",
      "source": "osm"
    },
    {
      "nom": "Sparks Hostel",
      "categorie": "Auberge",
      "priceRange": "€€",
      "mapsUrl": "https://maps.google.com/?q=51.920657,4.4712404",
      "lat": 51.920657,
      "lng": 4.4712404,
      "halalFriendly": false,
      "bookingUrl": "https://sparkshostel.com",
      "source": "osm"
    },
    {
      "nom": "Motto by Hilton Rotterdam Blaak",
      "categorie": "Hôtel",
      "priceRange": "€€",
      "mapsUrl": "https://maps.google.com/?q=51.9227186,4.4866261",
      "lat": 51.9227186,
      "lng": 4.4866261,
      "halalFriendly": false,
      "bookingUrl": "https://www.hilton.com/en/hotels/rtmblua-motto-rotterdam-blaak/",
      "source": "osm"
    },
    {
      "nom": "easyHotel Rotterdam City Centre",
      "categorie": "Hôtel",
      "priceRange": "€€",
      "score": 2,
      "mapsUrl": "https://maps.google.com/?q=51.9173227,4.4768778",
      "lat": 51.9173227,
      "lng": 4.4768778,
      "halalFriendly": false,
      "bookingUrl": "https://www.easyhotel.com/nl/hotels/netherlands/rotterdam/rotterdam-city-centre",
      "source": "osm"
    },
    {
      "nom": "Maurits Apartments & Suites",
      "categorie": "Hôtel",
      "priceRange": "€€",
      "mapsUrl": "https://maps.google.com/?q=51.9179414,4.4728728",
      "lat": 51.9179414,
      "lng": 4.4728728,
      "halalFriendly": false,
      "bookingUrl": "http://www.mauritsapartments.nl",
      "source": "osm"
    },
    {
      "nom": "The Usual",
      "categorie": "Hôtel",
      "priceRange": "€€",
      "mapsUrl": "https://maps.google.com/?q=51.9171209,4.479144",
      "lat": 51.9171209,
      "lng": 4.479144,
      "halalFriendly": false,
      "bookingUrl": "https://maps.google.com/?q=51.9171209,4.479144",
      "source": "osm"
    },
    {
      "nom": "Hotel Bienvenue",
      "categorie": "Hôtel",
      "priceRange": "€€",
      "mapsUrl": "https://maps.google.com/?q=51.9286296,4.4676129",
      "lat": 51.9286296,
      "lng": 4.4676129,
      "halalFriendly": false,
      "bookingUrl": "https://maps.google.com/?q=51.9286296,4.4676129",
      "source": "osm"
    },
    {
      "nom": "Thuis bij Schell",
      "categorie": "Auberge",
      "priceRange": "€€",
      "mapsUrl": "https://maps.google.com/?q=51.9171735,4.4740192",
      "lat": 51.9171735,
      "lng": 4.4740192,
      "halalFriendly": false,
      "bookingUrl": "https://maps.google.com/?q=51.9171735,4.4740192",
      "source": "osm"
    },
    {
      "nom": "Hotel Not Hotel",
      "categorie": "Hôtel",
      "priceRange": "€€",
      "mapsUrl": "https://maps.google.com/?q=51.9232071,4.4651224",
      "lat": 51.9232071,
      "lng": 4.4651224,
      "halalFriendly": false,
      "bookingUrl": "https://hotelnothotelrotterdam.com",
      "source": "osm"
    },
    {
      "nom": "Emma Next",
      "categorie": "Hôtel",
      "priceRange": "€€",
      "mapsUrl": "https://maps.google.com/?q=51.9168752,4.4739121",
      "lat": 51.9168752,
      "lng": 4.4739121,
      "halalFriendly": false,
      "bookingUrl": "https://www.hotelemmanext.nl/",
      "source": "osm"
    },
    {
      "nom": "Rooms on Water",
      "categorie": "Hôtel",
      "priceRange": "€€",
      "mapsUrl": "https://maps.google.com/?q=51.9171726,4.4833647",
      "lat": 51.9171726,
      "lng": 4.4833647,
      "halalFriendly": false,
      "bookingUrl": "https://roomsonwater.nl",
      "source": "osm"
    },
    {
      "nom": "Ani & Haakien",
      "categorie": "Auberge",
      "priceRange": "€€",
      "mapsUrl": "https://maps.google.com/?q=51.9215103,4.465542",
      "lat": 51.9215103,
      "lng": 4.465542,
      "halalFriendly": false,
      "bookingUrl": "https://www.anihaakien.nl",
      "source": "osm"
    },
    {
      "nom": "Hotel Emma",
      "categorie": "Hôtel",
      "priceRange": "€€",
      "mapsUrl": "https://maps.google.com/?q=51.9167373,4.4722792",
      "lat": 51.9167373,
      "lng": 4.4722792,
      "halalFriendly": false,
      "bookingUrl": "https://www.hotelemma.nl/",
      "source": "osm"
    },
    {
      "nom": "Hotel Bazar",
      "categorie": "Hôtel",
      "priceRange": "€€",
      "mapsUrl": "https://maps.google.com/?q=51.9159708,4.4790322",
      "lat": 51.9159708,
      "lng": 4.4790322,
      "halalFriendly": false,
      "bookingUrl": "https://www.hotelbazar.nl/hotel",
      "source": "osm"
    },
    {
      "nom": "Recharge Hostel",
      "categorie": "Auberge",
      "priceRange": "€€",
      "mapsUrl": "https://maps.google.com/?q=51.9158201,4.4775527",
      "lat": 51.9158201,
      "lng": 4.4775527,
      "halalFriendly": false,
      "bookingUrl": "https://maps.google.com/?q=51.9158201,4.4775527",
      "source": "osm"
    },
    {
      "nom": "H3 hotel",
      "categorie": "Hôtel",
      "priceRange": "€€",
      "mapsUrl": "https://maps.google.com/?q=51.9157933,4.4783439",
      "lat": 51.9157933,
      "lng": 4.4783439,
      "halalFriendly": false,
      "bookingUrl": "https://maps.google.com/?q=51.9157933,4.4783439",
      "source": "osm"
    },
    {
      "nom": "Hotel âme",
      "categorie": "Hôtel",
      "priceRange": "€€",
      "mapsUrl": "https://maps.google.com/?q=51.9159195,4.4746103",
      "lat": 51.9159195,
      "lng": 4.4746103,
      "halalFriendly": false,
      "bookingUrl": "https://www.hotelame.com/",
      "source": "osm"
    },
    {
      "nom": "Home",
      "categorie": "Hôtel",
      "priceRange": "€€",
      "mapsUrl": "https://maps.google.com/?q=51.9155933,4.4777414",
      "lat": 51.9155933,
      "lng": 4.4777414,
      "halalFriendly": false,
      "bookingUrl": "https://maps.google.com/?q=51.9155933,4.4777414",
      "source": "osm"
    },
    {
      "nom": "Leonardo Hotel Rotterdam Savoy",
      "categorie": "Hôtel",
      "priceRange": "€€",
      "mapsUrl": "https://maps.google.com/?q=51.9223927,4.491743",
      "lat": 51.9223927,
      "lng": 4.491743,
      "halalFriendly": false,
      "bookingUrl": "https://www.leonardo-hotels.nl/rotterdam/leonardo-hotel-rotterdam-savoy",
      "source": "osm"
    },
    {
      "nom": "The Bellhop",
      "categorie": "Hôtel",
      "priceRange": "€€",
      "mapsUrl": "https://maps.google.com/?q=51.915425,4.4759634",
      "lat": 51.915425,
      "lng": 4.4759634,
      "halalFriendly": false,
      "bookingUrl": "https://maps.google.com/?q=51.915425,4.4759634",
      "source": "osm"
    },
    {
      "nom": "Stayokay Rotterdam",
      "categorie": "Auberge",
      "priceRange": "€€",
      "mapsUrl": "https://maps.google.com/?q=51.9200634,4.4905748",
      "lat": 51.9200634,
      "lng": 4.4905748,
      "halalFriendly": false,
      "bookingUrl": "https://maps.google.com/?q=51.9200634,4.4905748",
      "source": "osm"
    },
    {
      "nom": "bilderberg Parkhotel",
      "categorie": "Hôtel",
      "priceRange": "€€",
      "mapsUrl": "https://maps.google.com/?q=51.9156657,4.4735368",
      "lat": 51.9156657,
      "lng": 4.4735368,
      "halalFriendly": false,
      "bookingUrl": "https://www.bilderberg.nl/hotels/parkhotel-rotterdam/",
      "source": "osm"
    },
    {
      "nom": "King Kong Hostel",
      "categorie": "Auberge",
      "priceRange": "€€",
      "mapsUrl": "https://maps.google.com/?q=51.915317,4.4764871",
      "lat": 51.915317,
      "lng": 4.4764871,
      "halalFriendly": false,
      "bookingUrl": "https://www.kingkonghostel.com/",
      "source": "osm"
    },
    {
      "nom": "Floats",
      "categorie": "Hôtel",
      "priceRange": "€€",
      "mapsUrl": "https://maps.google.com/?q=51.9173751,4.4871794",
      "lat": 51.9173751,
      "lng": 4.4871794,
      "halalFriendly": false,
      "bookingUrl": "https://www.floatsrotterdam.com/nl/",
      "source": "osm"
    },
    {
      "nom": "CityHub Rotterdam",
      "categorie": "Hôtel",
      "priceRange": "€€",
      "mapsUrl": "https://maps.google.com/?q=51.9153135,4.4755214",
      "lat": 51.9153135,
      "lng": 4.4755214,
      "halalFriendly": false,
      "bookingUrl": "https://www.cityhub.com/",
      "source": "osm"
    },
    {
      "nom": "citizenM Rotterdam",
      "categorie": "Hôtel",
      "priceRange": "€€",
      "mapsUrl": "https://maps.google.com/?q=51.9192641,4.4904079",
      "lat": 51.9192641,
      "lng": 4.4904079,
      "halalFriendly": false,
      "bookingUrl": "https://www.marriott.com/nl/hotels/rtmcm-citizenm-rotterdam/overview/",
      "source": "osm"
    },
    {
      "nom": "A small hotel",
      "categorie": "Hôtel",
      "priceRange": "€€",
      "mapsUrl": "https://maps.google.com/?q=51.915049,4.4755465",
      "lat": 51.915049,
      "lng": 4.4755465,
      "halalFriendly": false,
      "bookingUrl": "http://www.asmallhotel.nl",
      "source": "osm"
    },
    {
      "nom": "Ibis Rotterdam City Centre",
      "categorie": "Hôtel",
      "priceRange": "€€€",
      "score": 3,
      "mapsUrl": "https://maps.google.com/?q=51.9173059,4.4884852",
      "lat": 51.9173059,
      "lng": 4.4884852,
      "halalFriendly": false,
      "bookingUrl": "https://www.ibis.com/gb/hotel-8188-ibis-rotterdam-city-centre/index.shtml",
      "source": "osm"
    },
    {
      "nom": "Wikkelboat",
      "categorie": "Appartement",
      "priceRange": "€€",
      "mapsUrl": "https://maps.google.com/?q=51.9178463,4.4896131",
      "lat": 51.9178463,
      "lng": 4.4896131,
      "halalFriendly": false,
      "bookingUrl": "https://wikkelboat.nl/rotterdam/",
      "source": "osm"
    },
    {
      "nom": "Breitner Hotel",
      "categorie": "Hôtel",
      "priceRange": "€€€",
      "score": 3,
      "mapsUrl": "https://maps.google.com/?q=51.9157471,4.4693281",
      "lat": 51.9157471,
      "lng": 4.4693281,
      "halalFriendly": false,
      "bookingUrl": "https://www.hotelbreitner.nl",
      "source": "osm"
    },
    {
      "nom": "Milano",
      "categorie": "Hôtel",
      "priceRange": "€€",
      "mapsUrl": "https://maps.google.com/?q=51.9184767,4.462785",
      "lat": 51.9184767,
      "lng": 4.462785,
      "halalFriendly": false,
      "bookingUrl": "https://maps.google.com/?q=51.9184767,4.462785",
      "source": "osm"
    },
    {
      "nom": "Le Marin",
      "categorie": "Hôtel",
      "priceRange": "€€",
      "mapsUrl": "https://maps.google.com/?q=51.9215763,4.4597049",
      "lat": 51.9215763,
      "lng": 4.4597049,
      "halalFriendly": false,
      "bookingUrl": "https://maps.google.com/?q=51.9215763,4.4597049",
      "source": "osm"
    },
    {
      "nom": "Haven Hotel Rotterdam",
      "categorie": "Hôtel",
      "priceRange": "€€",
      "mapsUrl": "https://maps.google.com/?q=51.9132593,4.4824427",
      "lat": 51.9132593,
      "lng": 4.4824427,
      "halalFriendly": false,
      "bookingUrl": "https://havenhotelrotterdam.com/",
      "source": "osm"
    },
    {
      "nom": "DoubleTree",
      "categorie": "Hôtel",
      "priceRange": "€€",
      "mapsUrl": "https://maps.google.com/?q=51.9130027,4.4825977",
      "lat": 51.9130027,
      "lng": 4.4825977,
      "halalFriendly": false,
      "bookingUrl": "https://www.hilton.com/en/hotels/rtmdtdi-doubletree-rotterdam-centre/",
      "source": "osm"
    },
    {
      "nom": "Supernova Hotel",
      "categorie": "Hôtel",
      "priceRange": "€€",
      "mapsUrl": "https://maps.google.com/?q=51.916468,4.4631211",
      "lat": 51.916468,
      "lng": 4.4631211,
      "halalFriendly": false,
      "bookingUrl": "https://maps.google.com/?q=51.916468,4.4631211",
      "source": "osm"
    },
    {
      "nom": "Skyline",
      "categorie": "Hôtel",
      "priceRange": "€€",
      "mapsUrl": "https://maps.google.com/?q=51.9163263,4.463124",
      "lat": 51.9163263,
      "lng": 4.463124,
      "halalFriendly": false,
      "bookingUrl": "https://maps.google.com/?q=51.9163263,4.463124",
      "source": "osm"
    },
    {
      "nom": "Hotel Erasmus",
      "categorie": "Hôtel",
      "priceRange": "€€",
      "mapsUrl": "https://maps.google.com/?q=51.912198,4.4773155",
      "lat": 51.912198,
      "lng": 4.4773155,
      "halalFriendly": false,
      "bookingUrl": "https://maps.google.com/?q=51.912198,4.4773155",
      "source": "osm"
    },
    {
      "nom": "Hotel van Walsum",
      "categorie": "Hôtel",
      "priceRange": "€€",
      "mapsUrl": "https://maps.google.com/?q=51.9151473,4.4643255",
      "lat": 51.9151473,
      "lng": 4.4643255,
      "halalFriendly": false,
      "bookingUrl": "https://hotelvanwalsum.nl",
      "source": "osm"
    },
    {
      "nom": "Hotel Light",
      "categorie": "Hôtel",
      "priceRange": "€€",
      "mapsUrl": "https://maps.google.com/?q=51.9152763,4.4634645",
      "lat": 51.9152763,
      "lng": 4.4634645,
      "halalFriendly": false,
      "bookingUrl": "https://maps.google.com/?q=51.9152763,4.4634645",
      "source": "osm"
    },
    {
      "nom": "Floris",
      "categorie": "Hôtel",
      "priceRange": "€€",
      "mapsUrl": "https://maps.google.com/?q=51.9197552,4.4581576",
      "lat": 51.9197552,
      "lng": 4.4581576,
      "halalFriendly": false,
      "bookingUrl": "https://maps.google.com/?q=51.9197552,4.4581576",
      "source": "osm"
    },
    {
      "nom": "Le Petit Marin",
      "categorie": "Hôtel",
      "priceRange": "€€",
      "mapsUrl": "https://maps.google.com/?q=51.9197149,4.4580158",
      "lat": 51.9197149,
      "lng": 4.4580158,
      "halalFriendly": false,
      "bookingUrl": "https://maps.google.com/?q=51.9197149,4.4580158",
      "source": "osm"
    },
    {
      "nom": "171. Urban Design Hotel",
      "categorie": "Hôtel",
      "priceRange": "€€",
      "mapsUrl": "https://maps.google.com/?q=51.9141054,4.464601",
      "lat": 51.9141054,
      "lng": 4.464601,
      "halalFriendly": false,
      "bookingUrl": "https://www.hotel171rotterdam.nl/",
      "source": "osm"
    },
    {
      "nom": "Fletcher Boutique Hotel Slaak",
      "categorie": "Hôtel",
      "priceRange": "€€",
      "mapsUrl": "https://maps.google.com/?q=51.9243385,4.4991317",
      "lat": 51.9243385,
      "lng": 4.4991317,
      "halalFriendly": false,
      "bookingUrl": "https://www.hotelslaak.nl",
      "source": "osm"
    },
    {
      "nom": "Man Met Bril Koffie Hotel",
      "categorie": "Hôtel",
      "priceRange": "€€",
      "mapsUrl": "https://maps.google.com/?q=51.9351051,4.4904048",
      "lat": 51.9351051,
      "lng": 4.4904048,
      "halalFriendly": false,
      "bookingUrl": "https://manmetbrilkoffie.nl/",
      "source": "osm"
    },
    {
      "nom": "d'Ouwe Moer",
      "categorie": "Hôtel",
      "priceRange": "€€",
      "mapsUrl": "https://maps.google.com/?q=51.9223935,4.4993413",
      "lat": 51.9223935,
      "lng": 4.4993413,
      "halalFriendly": false,
      "bookingUrl": "https://d-ouwe-moer.nl",
      "source": "osm"
    },
    {
      "nom": "Hotel Santa Maria",
      "categorie": "Hôtel",
      "priceRange": "€€",
      "mapsUrl": "https://maps.google.com/?q=51.9108007,4.4774895",
      "lat": 51.9108007,
      "lng": 4.4774895,
      "halalFriendly": false,
      "bookingUrl": "https://www.hotelsantamaria.nl/",
      "source": "osm"
    },
    {
      "nom": "Rose",
      "categorie": "Hôtel",
      "priceRange": "€€",
      "mapsUrl": "https://maps.google.com/?q=51.9096309,4.4785766",
      "lat": 51.9096309,
      "lng": 4.4785766,
      "halalFriendly": false,
      "bookingUrl": "https://www.sonder.com/destinations/rotterdam/rtm-voll48-117/c36333?sleeps=1",
      "source": "osm"
    },
    {
      "nom": "ROOM Hostel Rotterdam",
      "categorie": "Auberge",
      "priceRange": "€€",
      "mapsUrl": "https://maps.google.com/?q=51.9093698,4.4787836",
      "lat": 51.9093698,
      "lng": 4.4787836,
      "halalFriendly": false,
      "bookingUrl": "https://www.roomrotterdam.nl/",
      "source": "osm"
    },
    {
      "nom": "Thon Hotel",
      "categorie": "Hôtel",
      "priceRange": "€€",
      "mapsUrl": "https://maps.google.com/?q=51.9096303,4.4823761",
      "lat": 51.9096303,
      "lng": 4.4823761,
      "halalFriendly": false,
      "bookingUrl": "https://www.thonhotels.com/nl/hotels/landen/nederland/rotterdam/thon-hotel-rotterdam/",
      "source": "osm"
    },
    {
      "nom": "STC Safeport",
      "categorie": "Hôtel",
      "priceRange": "€€",
      "mapsUrl": "https://maps.google.com/?q=51.909399,4.4822245",
      "lat": 51.909399,
      "lng": 4.4822245,
      "halalFriendly": false,
      "bookingUrl": "https://stc-group.nl/informatie/stc-safeport",
      "source": "osm"
    },
    {
      "nom": "Hotel Orion",
      "categorie": "Hôtel",
      "priceRange": "€€",
      "mapsUrl": "https://maps.google.com/?q=51.9126269,4.4616558",
      "lat": 51.9126269,
      "lng": 4.4616558,
      "halalFriendly": false,
      "bookingUrl": "https://maps.google.com/?q=51.9126269,4.4616558",
      "source": "osm"
    },
    {
      "nom": "The Middelland Hotel",
      "categorie": "Hôtel",
      "priceRange": "€€",
      "mapsUrl": "https://maps.google.com/?q=51.9139108,4.4579171",
      "lat": 51.9139108,
      "lng": 4.4579171,
      "halalFriendly": false,
      "bookingUrl": "https://maps.google.com/?q=51.9139108,4.4579171",
      "source": "osm"
    },
    {
      "nom": "GMSS",
      "categorie": "Maison d'hôtes",
      "priceRange": "€€",
      "mapsUrl": "https://maps.google.com/?q=51.9149822,4.4541333",
      "lat": 51.9149822,
      "lng": 4.4541333,
      "halalFriendly": false,
      "bookingUrl": "https://maps.google.com/?q=51.9149822,4.4541333",
      "source": "osm"
    },
    {
      "nom": "The Social Hub",
      "categorie": "Hôtel",
      "priceRange": "€€€",
      "score": 3,
      "mapsUrl": "https://maps.google.com/?q=51.9213294,4.5054031",
      "lat": 51.9213294,
      "lng": 4.5054031,
      "halalFriendly": false,
      "bookingUrl": "https://www.thesocialhub.co/rotterdam/",
      "source": "osm"
    },
    {
      "nom": "Jenny's Bed & Breakfast",
      "categorie": "Maison d'hôtes",
      "priceRange": "€€",
      "mapsUrl": "https://maps.google.com/?q=51.9373257,4.497687",
      "lat": 51.9373257,
      "lng": 4.497687,
      "halalFriendly": false,
      "bookingUrl": "https://maps.google.com/?q=51.9373257,4.497687",
      "source": "osm"
    },
    {
      "nom": "Suitehotel Pincoffs",
      "categorie": "Hôtel",
      "priceRange": "€€",
      "mapsUrl": "https://maps.google.com/?q=51.9108429,4.4970214",
      "lat": 51.9108429,
      "lng": 4.4970214,
      "halalFriendly": false,
      "bookingUrl": "https://maps.google.com/?q=51.9108429,4.4970214",
      "source": "osm"
    },
    {
      "nom": "Nhow",
      "categorie": "Hôtel",
      "priceRange": "€€",
      "mapsUrl": "https://maps.google.com/?q=51.9067,4.4887263",
      "lat": 51.9067,
      "lng": 4.4887263,
      "halalFriendly": false,
      "bookingUrl": "https://www.nh-hotels.nl/hotel/nhow-rotterdam",
      "source": "osm"
    },
    {
      "nom": "Room Mate Bruno",
      "categorie": "Hôtel",
      "priceRange": "€€",
      "mapsUrl": "https://maps.google.com/?q=51.9062592,4.4884159",
      "lat": 51.9062592,
      "lng": 4.4884159,
      "halalFriendly": false,
      "bookingUrl": "https://room-matehotels.com/",
      "source": "osm"
    },
    {
      "nom": "Hotel Port",
      "categorie": "Hôtel",
      "priceRange": "€€",
      "mapsUrl": "https://maps.google.com/?q=51.9072383,4.4589255",
      "lat": 51.9072383,
      "lng": 4.4589255,
      "halalFriendly": false,
      "bookingUrl": "https://maps.google.com/?q=51.9072383,4.4589255",
      "source": "osm"
    },
    {
      "nom": "Hotel New York",
      "categorie": "Hôtel",
      "priceRange": "€€",
      "mapsUrl": "https://maps.google.com/?q=51.9040923,4.4845052",
      "lat": 51.9040923,
      "lng": 4.4845052,
      "halalFriendly": false,
      "bookingUrl": "https://hotelnewyork.nl",
      "source": "osm"
    },
    {
      "nom": "Thuis",
      "categorie": "Maison d'hôtes",
      "priceRange": "€€",
      "mapsUrl": "https://maps.google.com/?q=51.9310443,4.5101428",
      "lat": 51.9310443,
      "lng": 4.5101428,
      "halalFriendly": false,
      "bookingUrl": "https://maps.google.com/?q=51.9310443,4.5101428",
      "source": "osm"
    },
    {
      "nom": "Persian King",
      "categorie": "Appartement",
      "priceRange": "€€",
      "mapsUrl": "https://maps.google.com/?q=51.9109126,4.4510113",
      "lat": 51.9109126,
      "lng": 4.4510113,
      "halalFriendly": false,
      "bookingUrl": "https://maps.google.com/?q=51.9109126,4.4510113",
      "source": "osm"
    },
    {
      "nom": "Hotel Baan",
      "categorie": "Hôtel",
      "priceRange": "€€",
      "mapsUrl": "https://maps.google.com/?q=51.90926,4.453256",
      "lat": 51.90926,
      "lng": 4.453256,
      "halalFriendly": false,
      "bookingUrl": "https://maps.google.com/?q=51.90926,4.453256",
      "source": "osm"
    },
    {
      "nom": "Ocean Paradise",
      "categorie": "Hôtel",
      "priceRange": "€€",
      "mapsUrl": "https://maps.google.com/?q=51.9036138,4.466444",
      "lat": 51.9036138,
      "lng": 4.466444,
      "halalFriendly": false,
      "bookingUrl": "https://www.dechineseboot.nl/",
      "source": "osm"
    },
    {
      "nom": "Pension Barendregt",
      "categorie": "Maison d'hôtes",
      "priceRange": "€€",
      "mapsUrl": "https://maps.google.com/?q=51.922681,4.5132763",
      "lat": 51.922681,
      "lng": 4.5132763,
      "halalFriendly": false,
      "bookingUrl": "https://www.pensionbarendregt.nl/",
      "source": "osm"
    },
    {
      "nom": "Van der Valk Hotel Rotterdam-Blijdorp",
      "categorie": "Hôtel",
      "priceRange": "€€",
      "mapsUrl": "https://maps.google.com/?q=51.927016,4.4417238",
      "lat": 51.927016,
      "lng": 4.4417238,
      "halalFriendly": false,
      "bookingUrl": "https://maps.google.com/?q=51.927016,4.4417238",
      "source": "osm"
    },
    {
      "nom": "Bed, Bites & Business hotel Rotterdam",
      "categorie": "Hôtel",
      "priceRange": "€€",
      "mapsUrl": "https://maps.google.com/?q=51.9019681,4.4882909",
      "lat": 51.9019681,
      "lng": 4.4882909,
      "halalFriendly": false,
      "bookingUrl": "https://bed-bites-business.com/nl/home/",
      "source": "osm"
    },
    {
      "nom": "Cruise Hotel",
      "categorie": "Hôtel",
      "priceRange": "€€",
      "mapsUrl": "https://maps.google.com/?q=51.8975666,4.4740568",
      "lat": 51.8975666,
      "lng": 4.4740568,
      "halalFriendly": false,
      "bookingUrl": "https://ssrotterdam.nl",
      "source": "osm"
    },
    {
      "nom": "Art Hotel Rotterdam",
      "categorie": "Hôtel",
      "priceRange": "€€",
      "mapsUrl": "https://maps.google.com/?q=51.8964675,4.4936128",
      "lat": 51.8964675,
      "lng": 4.4936128,
      "halalFriendly": false,
      "bookingUrl": "https://arthotelrotterdam.com/",
      "source": "osm"
    },
    {
      "nom": "F Building",
      "categorie": "Auberge",
      "priceRange": "€€",
      "mapsUrl": "https://maps.google.com/?q=51.9185381,4.5285722",
      "lat": 51.9185381,
      "lng": 4.5285722,
      "halalFriendly": false,
      "bookingUrl": "https://maps.google.com/?q=51.9185381,4.5285722",
      "source": "osm"
    },
    {
      "nom": "Hotel Benelux",
      "categorie": "Hôtel",
      "priceRange": "€€",
      "mapsUrl": "https://maps.google.com/?q=51.897959,4.5105035",
      "lat": 51.897959,
      "lng": 4.5105035,
      "halalFriendly": false,
      "bookingUrl": "https://maps.google.com/?q=51.897959,4.5105035",
      "source": "osm"
    },
    {
      "nom": "Novotel Rotterdam Brainpark",
      "categorie": "Hôtel",
      "priceRange": "€€€€",
      "score": 4,
      "mapsUrl": "https://maps.google.com/?q=51.9150827,4.5296094",
      "lat": 51.9150827,
      "lng": 4.5296094,
      "halalFriendly": false,
      "bookingUrl": "https://www.novotel.com/gb/hotel-1134-novotel-rotterdam-brainpark/index.shtml",
      "source": "osm"
    },
    {
      "nom": "Ibis Budget",
      "categorie": "Hôtel",
      "priceRange": "€€",
      "mapsUrl": "https://maps.google.com/?q=51.9469815,4.4348982",
      "lat": 51.9469815,
      "lng": 4.4348982,
      "halalFriendly": false,
      "bookingUrl": "https://maps.google.com/?q=51.9469815,4.4348982",
      "source": "osm"
    },
    {
      "nom": "Wings",
      "categorie": "Hôtel",
      "priceRange": "€€",
      "mapsUrl": "https://maps.google.com/?q=51.947907,4.4348509",
      "lat": 51.947907,
      "lng": 4.4348509,
      "halalFriendly": false,
      "bookingUrl": "https://worldhotelwings-rotterdam.h-rzn.com",
      "source": "osm"
    },
    {
      "nom": "Pension Charlois",
      "categorie": "Maison d'hôtes",
      "priceRange": "€€",
      "mapsUrl": "https://maps.google.com/?q=51.8867894,4.4611868",
      "lat": 51.8867894,
      "lng": 4.4611868,
      "halalFriendly": false,
      "bookingUrl": "https://maps.google.com/?q=51.8867894,4.4611868",
      "source": "osm"
    },
    {
      "nom": "Best Western Plus Rotterdam Airport",
      "categorie": "Hôtel",
      "priceRange": "€€",
      "mapsUrl": "https://maps.google.com/?q=51.9467164,4.4253763",
      "lat": 51.9467164,
      "lng": 4.4253763,
      "halalFriendly": false,
      "bookingUrl": "https://www.bestwestern.nl/hotels/best-western-plus-rotterdam-airport-hotel-rotterdam-92732",
      "source": "osm"
    },
    {
      "nom": "Ibis Styles Rotterdam Ahoy",
      "categorie": "Hôtel",
      "priceRange": "€€",
      "mapsUrl": "https://maps.google.com/?q=51.8838279,4.4916098",
      "lat": 51.8838279,
      "lng": 4.4916098,
      "halalFriendly": false,
      "bookingUrl": "https://all.accor.com/hotel/B9R9/index.nl.shtml",
      "source": "osm"
    },
    {
      "nom": "Bastion Hotel Rotterdam Alexander",
      "categorie": "Hôtel",
      "priceRange": "€€€€",
      "score": 4,
      "mapsUrl": "https://maps.google.com/?q=51.945899,4.5352443",
      "lat": 51.945899,
      "lng": 4.5352443,
      "halalFriendly": false,
      "bookingUrl": "https://www.bastionhotels.com/nl-nl/hotels/hotel-rotterdam-alexander",
      "source": "osm"
    },
    {
      "nom": "Campanile Rotterdam Oost",
      "categorie": "Hôtel",
      "priceRange": "€€",
      "mapsUrl": "https://maps.google.com/?q=51.9474333,4.5442113",
      "lat": 51.9474333,
      "lng": 4.5442113,
      "halalFriendly": false,
      "bookingUrl": "https://maps.google.com/?q=51.9474333,4.5442113",
      "source": "osm"
    },
    {
      "nom": "Kat Inn Katten Hotel",
      "categorie": "Hôtel",
      "priceRange": "€€",
      "mapsUrl": "https://maps.google.com/?q=51.9485764,4.5455516",
      "lat": 51.9485764,
      "lng": 4.5455516,
      "halalFriendly": false,
      "bookingUrl": "https://www.katinn.nl/",
      "source": "osm"
    },
    {
      "nom": "Tourist Travel Inn",
      "categorie": "Hôtel",
      "priceRange": "€€",
      "mapsUrl": "https://maps.google.com/?q=51.9187555,4.3989885",
      "lat": 51.9187555,
      "lng": 4.3989885,
      "halalFriendly": false,
      "bookingUrl": "https://maps.google.com/?q=51.9187555,4.3989885",
      "source": "osm"
    },
    {
      "nom": "B&B Museumkwartier",
      "categorie": "Maison d'hôtes",
      "priceRange": "€€",
      "mapsUrl": "https://maps.google.com/?q=51.9155685,4.3979568",
      "lat": 51.9155685,
      "lng": 4.3979568,
      "halalFriendly": false,
      "bookingUrl": "https://maps.google.com/?q=51.9155685,4.3979568",
      "source": "osm"
    },
    {
      "nom": "Jeneverlogies",
      "categorie": "Maison d'hôtes",
      "priceRange": "€€",
      "mapsUrl": "https://maps.google.com/?q=51.9153883,4.3972433",
      "lat": 51.9153883,
      "lng": 4.3972433,
      "halalFriendly": false,
      "bookingUrl": "http://www.jeneverlogies.nl/",
      "source": "osm"
    },
    {
      "nom": "Stadvilla Hotel Mout",
      "categorie": "Hôtel",
      "priceRange": "€€",
      "mapsUrl": "https://maps.google.com/?q=51.9147255,4.3971016",
      "lat": 51.9147255,
      "lng": 4.3971016,
      "halalFriendly": false,
      "bookingUrl": "https://www.stadsvillamout.nl",
      "source": "osm"
    },
    {
      "nom": "Havendijk Hotel",
      "categorie": "Hôtel",
      "priceRange": "€€",
      "mapsUrl": "https://maps.google.com/?q=51.9035203,4.3987483",
      "lat": 51.9035203,
      "lng": 4.3987483,
      "halalFriendly": false,
      "bookingUrl": "https://www.havendijkhotel.nl/",
      "source": "osm"
    },
    {
      "nom": "Bastion Hotel Rotterdam Zuid",
      "categorie": "Hôtel",
      "priceRange": "€€€",
      "score": 3,
      "mapsUrl": "https://maps.google.com/?q=51.8688599,4.4523743",
      "lat": 51.8688599,
      "lng": 4.4523743,
      "halalFriendly": false,
      "bookingUrl": "https://www.bastionhotels.com/nl-nl/hotels/hotel-rotterdam-zuid",
      "source": "osm"
    },
    {
      "nom": "NH Capelle",
      "categorie": "Hôtel",
      "priceRange": "€€",
      "mapsUrl": "https://maps.google.com/?q=51.9577342,4.5634588",
      "lat": 51.9577342,
      "lng": 4.5634588,
      "halalFriendly": false,
      "bookingUrl": "https://maps.google.com/?q=51.9577342,4.5634588",
      "source": "osm"
    },
    {
      "nom": "Novotel",
      "categorie": "Hôtel",
      "priceRange": "€€",
      "mapsUrl": "https://maps.google.com/?q=51.9243293,4.3754085",
      "lat": 51.9243293,
      "lng": 4.3754085,
      "halalFriendly": false,
      "bookingUrl": "https://maps.google.com/?q=51.9243293,4.3754085",
      "source": "osm"
    },
    {
      "nom": "Hotel Café De Herbergh",
      "categorie": "Hôtel",
      "priceRange": "€€",
      "mapsUrl": "https://maps.google.com/?q=51.8877785,4.3944206",
      "lat": 51.8877785,
      "lng": 4.3944206,
      "halalFriendly": false,
      "bookingUrl": "http://www.deherbergh.nl",
      "source": "osm"
    },
    {
      "nom": "Crazy Corner",
      "categorie": "Hôtel",
      "priceRange": "€€",
      "mapsUrl": "https://maps.google.com/?q=51.8918504,4.3890791",
      "lat": 51.8918504,
      "lng": 4.3890791,
      "halalFriendly": false,
      "bookingUrl": "https://maps.google.com/?q=51.8918504,4.3890791",
      "source": "osm"
    },
    {
      "nom": "de Sluiskop",
      "categorie": "Hôtel",
      "priceRange": "€€",
      "mapsUrl": "https://maps.google.com/?q=51.8920866,4.388146",
      "lat": 51.8920866,
      "lng": 4.388146,
      "halalFriendly": false,
      "bookingUrl": "https://maps.google.com/?q=51.8920866,4.388146",
      "source": "osm"
    },
    {
      "nom": "Polderhuis Bed & Breakfast",
      "categorie": "Hôtel",
      "priceRange": "€€",
      "mapsUrl": "https://maps.google.com/?q=51.9872034,4.5000877",
      "lat": 51.9872034,
      "lng": 4.5000877,
      "halalFriendly": false,
      "bookingUrl": "https://www.polderhuisbb.nl/",
      "source": "osm"
    },
    {
      "nom": "Van der Valk Hotel Schiedam",
      "categorie": "Hôtel",
      "priceRange": "€€",
      "mapsUrl": "https://maps.google.com/?q=51.9241492,4.3723294",
      "lat": 51.9241492,
      "lng": 4.3723294,
      "halalFriendly": false,
      "bookingUrl": "https://www.hotelschiedam.nl/",
      "source": "osm"
    },
    {
      "nom": "Bastion Hotel Vlaardingen",
      "categorie": "Hôtel",
      "priceRange": "€€€",
      "score": 3,
      "mapsUrl": "https://maps.google.com/?q=51.9095823,4.3672854",
      "lat": 51.9095823,
      "lng": 4.3672854,
      "halalFriendly": false,
      "bookingUrl": "https://www.bastionhotels.com/nl-nl/hotels/hotel-vlaardingen",
      "source": "osm"
    },
    {
      "nom": "Bastion Hotel Barendrecht",
      "categorie": "Hôtel",
      "priceRange": "€€€",
      "score": 3,
      "mapsUrl": "https://maps.google.com/?q=51.8699747,4.5490013",
      "lat": 51.8699747,
      "lng": 4.5490013,
      "halalFriendly": false,
      "bookingUrl": "https://www.bastionhotels.com/nl-nl/hotels/hotel-barendrecht",
      "source": "osm"
    },
    {
      "nom": "Campanile",
      "categorie": "Hôtel",
      "priceRange": "€€",
      "mapsUrl": "https://maps.google.com/?q=51.9231966,4.362112",
      "lat": 51.9231966,
      "lng": 4.362112,
      "halalFriendly": false,
      "bookingUrl": "https://maps.google.com/?q=51.9231966,4.362112",
      "source": "osm"
    },
    {
      "nom": "B&B Zevenkamp",
      "categorie": "Maison d'hôtes",
      "priceRange": "€€",
      "mapsUrl": "https://maps.google.com/?q=51.9639157,4.5787883",
      "lat": 51.9639157,
      "lng": 4.5787883,
      "halalFriendly": false,
      "bookingUrl": "https://maps.google.com/?q=51.9639157,4.5787883",
      "source": "osm"
    },
    {
      "nom": "Huize Waalesteyn",
      "categorie": "Maison d'hôtes",
      "priceRange": "€€",
      "mapsUrl": "https://maps.google.com/?q=51.8576655,4.5340759",
      "lat": 51.8576655,
      "lng": 4.5340759,
      "halalFriendly": false,
      "bookingUrl": "https://maps.google.com/?q=51.8576655,4.5340759",
      "source": "osm"
    },
    {
      "nom": "Van der Valk Hotel Ridderkerk",
      "categorie": "Hôtel",
      "priceRange": "€€€€",
      "score": 4,
      "mapsUrl": "https://maps.google.com/?q=51.8672843,4.5572046",
      "lat": 51.8672843,
      "lng": 4.5572046,
      "halalFriendly": false,
      "bookingUrl": "https://maps.google.com/?q=51.8672843,4.5572046",
      "source": "osm"
    },
    {
      "nom": "B&B Horizon",
      "categorie": "Maison d'hôtes",
      "priceRange": "€€",
      "mapsUrl": "https://maps.google.com/?q=51.8513079,4.5259037",
      "lat": 51.8513079,
      "lng": 4.5259037,
      "halalFriendly": false,
      "bookingUrl": "https://maps.google.com/?q=51.8513079,4.5259037",
      "source": "osm"
    }
  ],
  "mosqueesPrincipales": [
    {
      "id": "m276835003",
      "nom": "Gültepe Moskee",
      "type": "Mosquée",
      "adresse": "",
      "description": "Lieu de prière (OpenStreetMap).",
      "mapsUrl": "https://maps.google.com/?q=51.9311545,4.4825612",
      "lat": 51.9311545,
      "lng": 4.4825612,
      "source": "osm"
    },
    {
      "id": "m277088041",
      "nom": "Iskender Paşa",
      "type": "Mosquée",
      "adresse": "",
      "description": "Lieu de prière (OpenStreetMap).",
      "mapsUrl": "https://maps.google.com/?q=51.932621,4.4695786",
      "lat": 51.932621,
      "lng": 4.4695786,
      "source": "osm"
    },
    {
      "id": "m274486093",
      "nom": "Centrum de Middenweg",
      "type": "Mosquée",
      "adresse": "",
      "description": "Lieu de prière (OpenStreetMap).",
      "mapsUrl": "https://maps.google.com/?q=51.9332797,4.4629632",
      "lat": 51.9332797,
      "lng": 4.4629632,
      "source": "osm"
    },
    {
      "id": "m275821527",
      "nom": "Moskee Othman",
      "type": "Mosquée",
      "adresse": "Boezemdwarsstraat, Rotterdam",
      "description": "Lieu de prière (OpenStreetMap).",
      "mapsUrl": "https://maps.google.com/?q=51.9304136,4.4981617",
      "lat": 51.9304136,
      "lng": 4.4981617,
      "source": "osm"
    },
    {
      "id": "m275821379",
      "nom": "ULU Moskee Rotterdam",
      "type": "Mosquée",
      "adresse": "",
      "description": "Lieu de prière (OpenStreetMap).",
      "mapsUrl": "https://maps.google.com/?q=51.9297175,4.5050061",
      "lat": 51.9297175,
      "lng": 4.5050061,
      "source": "osm"
    },
    {
      "id": "m593364132",
      "nom": "Anasr",
      "type": "Mosquée",
      "adresse": "",
      "description": "Lieu de prière (OpenStreetMap).",
      "mapsUrl": "https://maps.google.com/?q=51.918121,4.4454218",
      "lat": 51.918121,
      "lng": 4.4454218,
      "source": "osm"
    },
    {
      "id": "m54076501",
      "nom": "Mevlana moskee",
      "type": "Mosquée",
      "adresse": "",
      "description": "Lieu de prière (OpenStreetMap).",
      "mapsUrl": "https://maps.google.com/?q=51.9212455,4.4416641",
      "lat": 51.9212455,
      "lng": 4.4416641,
      "source": "osm"
    },
    {
      "id": "m1322442904",
      "nom": "Aya Sofia",
      "type": "Mosquée",
      "adresse": "",
      "description": "Lieu de prière (OpenStreetMap).",
      "mapsUrl": "https://maps.google.com/?q=51.91373,4.4447632",
      "lat": 51.91373,
      "lng": 4.4447632,
      "source": "osm"
    },
    {
      "id": "m274033685",
      "nom": "Anadolu",
      "type": "Mosquée",
      "adresse": "",
      "description": "Lieu de prière (OpenStreetMap).",
      "mapsUrl": "https://maps.google.com/?q=51.906493,4.5087813",
      "lat": 51.906493,
      "lng": 4.5087813,
      "source": "osm"
    },
    {
      "id": "m4809106289",
      "nom": "Kocatepe Cami",
      "type": "Mosquée",
      "adresse": "Afrikaanderplein, Rotterdam",
      "description": "Lieu de prière (OpenStreetMap).",
      "mapsUrl": "https://maps.google.com/?q=51.8989974,4.5022698",
      "lat": 51.8989974,
      "lng": 4.5022698,
      "source": "osm"
    },
    {
      "id": "m273863411",
      "nom": "Essalam",
      "type": "Mosquée",
      "adresse": "",
      "description": "Lieu de prière (OpenStreetMap).",
      "mapsUrl": "https://maps.google.com/?q=51.89869,4.5136631",
      "lat": 51.89869,
      "lng": 4.5136631,
      "source": "osm"
    },
    {
      "id": "m54096522",
      "nom": "Stichting Islamitisch Centrum Rotterdam-IJsselmonde",
      "type": "Mosquée",
      "adresse": "Aristotelesstraat, Rotterdam",
      "description": "Lieu de prière (OpenStreetMap).",
      "mapsUrl": "https://maps.google.com/?q=51.8826194,4.5220627",
      "lat": 51.8826194,
      "lng": 4.5220627,
      "source": "osm"
    },
    {
      "id": "m5510169656",
      "nom": "Muradiye",
      "type": "Mosquée",
      "adresse": "Raamsteeg, Schiedam",
      "description": "Lieu de prière (OpenStreetMap).",
      "mapsUrl": "https://maps.google.com/?q=51.9188619,4.3965447",
      "lat": 51.9188619,
      "lng": 4.3965447,
      "source": "osm"
    },
    {
      "id": "m1896405845",
      "nom": "Islamitisch Centrum Schiedam",
      "type": "Mosquée",
      "adresse": "Dr Schaepmansingel, Schiedam",
      "description": "Lieu de prière (OpenStreetMap).",
      "mapsUrl": "https://maps.google.com/?q=51.9157954,4.3812456",
      "lat": 51.9157954,
      "lng": 4.3812456,
      "source": "osm"
    },
    {
      "id": "m371942557",
      "nom": "Moskee el-Fath",
      "type": "Mosquée",
      "adresse": "",
      "description": "Lieu de prière (OpenStreetMap).",
      "mapsUrl": "https://maps.google.com/?q=51.9851039,4.4788922",
      "lat": 51.9851039,
      "lng": 4.4788922,
      "source": "osm"
    },
    {
      "id": "m2744762631",
      "nom": "Islamitisch Centrum Barendrecht",
      "type": "Mosquée",
      "adresse": "Bijdorpplein, Barendrecht",
      "description": "Lieu de prière (OpenStreetMap).",
      "mapsUrl": "https://maps.google.com/?q=51.8624012,4.521979",
      "lat": 51.8624012,
      "lng": 4.521979,
      "source": "osm"
    },
    {
      "id": "m2768385663",
      "nom": "Moskee & Multicultureel centrum Zevenkamp",
      "type": "Mosquée",
      "adresse": "Imkerstraat, Rotterdam",
      "description": "Lieu de prière (OpenStreetMap).",
      "mapsUrl": "https://maps.google.com/?q=51.9639268,4.5705274",
      "lat": 51.9639268,
      "lng": 4.5705274,
      "source": "osm"
    },
    {
      "id": "m273140927",
      "nom": "Eyüp Sultan Moskee",
      "type": "Mosquée",
      "adresse": "",
      "description": "Lieu de prière (OpenStreetMap).",
      "mapsUrl": "https://maps.google.com/?q=51.9067837,4.3468925",
      "lat": 51.9067837,
      "lng": 4.3468925,
      "source": "osm"
    },
    {
      "id": "m273124829",
      "nom": "Moskee Vereniging \"Alhijhra\"",
      "type": "Mosquée",
      "adresse": "dr. Abraham Kuyperstraat, Vlaardingen",
      "description": "Lieu de prière (OpenStreetMap).",
      "mapsUrl": "https://maps.google.com/?q=51.9136947,4.3403108",
      "lat": 51.9136947,
      "lng": 4.3403108,
      "source": "osm"
    },
    {
      "id": "m267439925",
      "nom": "Bait Al-Rahmaan",
      "type": "Mosquée",
      "adresse": "",
      "description": "Lieu de prière (OpenStreetMap).",
      "mapsUrl": "https://maps.google.com/?q=51.8856658,4.6042672",
      "lat": 51.8856658,
      "lng": 4.6042672,
      "source": "osm"
    }
  ],
  "activites": [
    {
      "id": "a137468441",
      "nom": "Hofpleinfontein",
      "categorie": "attraction",
      "description": "",
      "prix": "",
      "duree": "",
      "mapsUrl": "https://maps.google.com/?q=51.9244169,4.4777417",
      "lat": 51.9244169,
      "lng": 4.4777417,
      "source": "osm"
    },
    {
      "id": "a4856319617",
      "nom": "Standing Figure",
      "categorie": "artwork",
      "description": "",
      "prix": "",
      "duree": "",
      "mapsUrl": "https://maps.google.com/?q=51.9246725,4.4766476",
      "lat": 51.9246725,
      "lng": 4.4766476,
      "source": "osm"
    },
    {
      "id": "a4856318466",
      "nom": "Verzetskruis",
      "categorie": "memorial",
      "description": "",
      "prix": "",
      "duree": "",
      "mapsUrl": "https://maps.google.com/?q=51.9250401,4.4782812",
      "lat": 51.9250401,
      "lng": 4.4782812,
      "source": "osm"
    },
    {
      "id": "a4856320019",
      "nom": "Seated Woman",
      "categorie": "artwork",
      "description": "",
      "prix": "",
      "duree": "",
      "mapsUrl": "https://maps.google.com/?q=51.924559,4.4764663",
      "lat": 51.924559,
      "lng": 4.4764663,
      "source": "osm"
    },
    {
      "id": "a4856319714",
      "nom": "Reclining Figure",
      "categorie": "artwork",
      "description": "",
      "prix": "",
      "duree": "",
      "mapsUrl": "https://maps.google.com/?q=51.92456,4.4761691",
      "lat": 51.92456,
      "lng": 4.4761691,
      "source": "osm"
    },
    {
      "id": "a662598203",
      "nom": "Tor und Stele",
      "categorie": "artwork",
      "description": "",
      "prix": "",
      "duree": "",
      "mapsUrl": "https://maps.google.com/?q=51.9239291,4.479717",
      "lat": 51.9239291,
      "lng": 4.479717,
      "source": "osm"
    },
    {
      "id": "a9557571059",
      "nom": "Escultura en Doelstraat",
      "categorie": "artwork",
      "description": "",
      "prix": "",
      "duree": "",
      "mapsUrl": "https://maps.google.com/?q=51.923489,4.4793698",
      "lat": 51.923489,
      "lng": 4.4793698,
      "source": "osm"
    },
    {
      "id": "a4826003241",
      "nom": "Hugo Grotius",
      "categorie": "artwork",
      "description": "",
      "prix": "",
      "duree": "",
      "mapsUrl": "https://maps.google.com/?q=51.9230458,4.4788792",
      "lat": 51.9230458,
      "lng": 4.4788792,
      "source": "osm"
    },
    {
      "id": "a662567922",
      "nom": "Nieuwe Delftse Poort",
      "categorie": "artwork",
      "description": "",
      "prix": "",
      "duree": "",
      "mapsUrl": "https://maps.google.com/?q=51.9246195,4.4803431",
      "lat": 51.9246195,
      "lng": 4.4803431,
      "source": "osm"
    },
    {
      "id": "a6203155468",
      "nom": "Rode BMW",
      "categorie": "artwork",
      "description": "",
      "prix": "",
      "duree": "",
      "mapsUrl": "https://maps.google.com/?q=51.9244765,4.4746285",
      "lat": 51.9244765,
      "lng": 4.4746285,
      "source": "osm"
    },
    {
      "id": "a402537180",
      "nom": "Corporate Entity",
      "categorie": "artwork",
      "description": "",
      "prix": "",
      "duree": "",
      "mapsUrl": "https://maps.google.com/?q=51.9241337,4.4741506",
      "lat": 51.9241337,
      "lng": 4.4741506,
      "source": "osm"
    },
    {
      "id": "a6203050536",
      "nom": "Johan van Oldenbarnevelt",
      "categorie": "artwork",
      "description": "",
      "prix": "",
      "duree": "",
      "mapsUrl": "https://maps.google.com/?q=51.922379,4.4792639",
      "lat": 51.922379,
      "lng": 4.4792639,
      "source": "osm"
    },
    {
      "id": "a6204275063",
      "nom": "OZON",
      "categorie": "artwork",
      "description": "",
      "prix": "",
      "duree": "",
      "mapsUrl": "https://maps.google.com/?q=51.9267716,4.4774746",
      "lat": 51.9267716,
      "lng": 4.4774746,
      "source": "osm"
    },
    {
      "id": "a6856214697",
      "nom": "Phoenix",
      "categorie": "artwork",
      "description": "",
      "prix": "",
      "duree": "",
      "mapsUrl": "https://maps.google.com/?q=51.9223115,4.475514",
      "lat": 51.9223115,
      "lng": 4.475514,
      "source": "osm"
    },
    {
      "id": "a4825964495",
      "nom": "Louis Davids Monument",
      "categorie": "artwork",
      "description": "",
      "prix": "",
      "duree": "",
      "mapsUrl": "https://maps.google.com/?q=51.9231495,4.4811872",
      "lat": 51.9231495,
      "lng": 4.4811872,
      "source": "osm"
    },
    {
      "id": "a6205236289",
      "nom": "Spelende beertjes",
      "categorie": "artwork",
      "description": "",
      "prix": "",
      "duree": "",
      "mapsUrl": "https://maps.google.com/?q=51.9220869,4.4761906",
      "lat": 51.9220869,
      "lng": 4.4761906,
      "source": "osm"
    },
    {
      "id": "a5611146518",
      "nom": "It's Never Too Late to Say Sorry",
      "categorie": "artwork",
      "description": "",
      "prix": "",
      "duree": "",
      "mapsUrl": "https://maps.google.com/?q=51.9220652,4.4794363",
      "lat": 51.9220652,
      "lng": 4.4794363,
      "source": "osm"
    },
    {
      "id": "a6204275031",
      "nom": "Untitled",
      "categorie": "artwork",
      "description": "",
      "prix": "",
      "duree": "",
      "mapsUrl": "https://maps.google.com/?q=51.9271473,4.4766375",
      "lat": 51.9271473,
      "lng": 4.4766375,
      "source": "osm"
    },
    {
      "id": "a6205236293",
      "nom": "Outsuder/street art wall #2",
      "categorie": "artwork",
      "description": "",
      "prix": "",
      "duree": "",
      "mapsUrl": "https://maps.google.com/?q=51.9217009,4.4761633",
      "lat": 51.9217009,
      "lng": 4.4761633,
      "source": "osm"
    },
    {
      "id": "a7995041320",
      "nom": "Vredespaal",
      "categorie": "memorial",
      "description": "",
      "prix": "",
      "duree": "",
      "mapsUrl": "https://maps.google.com/?q=51.9232261,4.4824094",
      "lat": 51.9232261,
      "lng": 4.4824094,
      "source": "osm"
    },
    {
      "id": "a6205236288",
      "nom": "Lezend meisje",
      "categorie": "artwork",
      "description": "",
      "prix": "",
      "duree": "",
      "mapsUrl": "https://maps.google.com/?q=51.9217161,4.4744562",
      "lat": 51.9217161,
      "lng": 4.4744562,
      "source": "osm"
    },
    {
      "id": "a6205035672",
      "nom": "Johan de Witt",
      "categorie": "artwork",
      "description": "",
      "prix": "",
      "duree": "",
      "mapsUrl": "https://maps.google.com/?q=51.9276687,4.4752841",
      "lat": 51.9276687,
      "lng": 4.4752841,
      "source": "osm"
    },
    {
      "id": "a6204563183",
      "nom": "ZOHO",
      "categorie": "artwork",
      "description": "",
      "prix": "",
      "duree": "",
      "mapsUrl": "https://maps.google.com/?q=51.9279763,4.4789804",
      "lat": 51.9279763,
      "lng": 4.4789804,
      "source": "osm"
    },
    {
      "id": "a4606224739",
      "nom": "WTC Art Gallery",
      "categorie": "gallery",
      "description": "",
      "prix": "",
      "duree": "",
      "mapsUrl": "https://maps.google.com/?q=51.9210328,4.4803436",
      "lat": 51.9210328,
      "lng": 4.4803436,
      "source": "osm"
    },
    {
      "id": "a4780016932",
      "nom": "Schout bij Nacht",
      "categorie": "artwork",
      "description": "",
      "prix": "",
      "duree": "",
      "mapsUrl": "https://maps.google.com/?q=51.9211852,4.4745895",
      "lat": 51.9211852,
      "lng": 4.4745895,
      "source": "osm"
    },
    {
      "id": "a6205035669",
      "nom": "Christiaan Huygens",
      "categorie": "artwork",
      "description": "",
      "prix": "",
      "duree": "",
      "mapsUrl": "https://maps.google.com/?q=51.928036,4.4747188",
      "lat": 51.928036,
      "lng": 4.4747188,
      "source": "osm"
    },
    {
      "id": "a9631525096",
      "nom": "Vogels",
      "categorie": "artwork",
      "description": "",
      "prix": "",
      "duree": "",
      "mapsUrl": "https://maps.google.com/?q=51.9257312,4.484114",
      "lat": 51.9257312,
      "lng": 4.484114,
      "source": "osm"
    },
    {
      "id": "a12595144014",
      "nom": "Studio 2 | de Doelen Art",
      "categorie": "gallery",
      "description": "",
      "prix": "",
      "duree": "",
      "mapsUrl": "https://maps.google.com/?q=51.9215881,4.4726288",
      "lat": 51.9215881,
      "lng": 4.4726288,
      "source": "osm"
    },
    {
      "id": "a5991393853",
      "nom": "De gestileerde bloem",
      "categorie": "artwork",
      "description": "",
      "prix": "",
      "duree": "",
      "mapsUrl": "https://maps.google.com/?q=51.9203131,4.47946",
      "lat": 51.9203131,
      "lng": 4.47946,
      "source": "osm"
    },
    {
      "id": "a4780014342",
      "nom": "Dansers",
      "categorie": "artwork",
      "description": "",
      "prix": "",
      "duree": "",
      "mapsUrl": "https://maps.google.com/?q=51.920061,4.4761048",
      "lat": 51.920061,
      "lng": 4.4761048,
      "source": "osm"
    },
    {
      "id": "a6205263706",
      "nom": "Gijsbert Karel van Hogendorp",
      "categorie": "memorial",
      "description": "",
      "prix": "",
      "duree": "",
      "mapsUrl": "https://maps.google.com/?q=51.9202669,4.4804297",
      "lat": 51.9202669,
      "lng": 4.4804297,
      "source": "osm"
    },
    {
      "id": "a9631525097",
      "nom": "Zonder titel",
      "categorie": "artwork",
      "description": "",
      "prix": "",
      "duree": "",
      "mapsUrl": "https://maps.google.com/?q=51.9256135,4.4847598",
      "lat": 51.9256135,
      "lng": 4.4847598,
      "source": "osm"
    },
    {
      "id": "a10958961718",
      "nom": "Moments Contained",
      "categorie": "artwork",
      "description": "",
      "prix": "",
      "duree": "",
      "mapsUrl": "https://maps.google.com/?q=51.9232436,4.4705792",
      "lat": 51.9232436,
      "lng": 4.4705792,
      "source": "osm"
    },
    {
      "id": "a10581526519",
      "nom": "Henri Rippe",
      "categorie": "memorial",
      "description": "",
      "prix": "",
      "duree": "",
      "mapsUrl": "https://maps.google.com/?q=51.9266361,4.4711871",
      "lat": 51.9266361,
      "lng": 4.4711871,
      "source": "osm"
    },
    {
      "id": "a10581526521",
      "nom": "Lion Rippe",
      "categorie": "memorial",
      "description": "",
      "prix": "",
      "duree": "",
      "mapsUrl": "https://maps.google.com/?q=51.9266427,4.4711851",
      "lat": 51.9266427,
      "lng": 4.4711851,
      "source": "osm"
    },
    {
      "id": "a10581526520",
      "nom": "Jeanette Rippe",
      "categorie": "memorial",
      "description": "",
      "prix": "",
      "duree": "",
      "mapsUrl": "https://maps.google.com/?q=51.9266336,4.4711764",
      "lat": 51.9266336,
      "lng": 4.4711764,
      "source": "osm"
    },
    {
      "id": "a10581526522",
      "nom": "Hans Nico Rippe",
      "categorie": "memorial",
      "description": "",
      "prix": "",
      "duree": "",
      "mapsUrl": "https://maps.google.com/?q=51.9266427,4.4711733",
      "lat": 51.9266427,
      "lng": 4.4711733,
      "source": "osm"
    },
    {
      "id": "a9939676443",
      "nom": "Brandgrenssteen",
      "categorie": "memorial",
      "description": "",
      "prix": "",
      "duree": "",
      "mapsUrl": "https://maps.google.com/?q=51.9211778,4.4720506",
      "lat": 51.9211778,
      "lng": 4.4720506,
      "source": "osm"
    },
    {
      "id": "a5820794554",
      "nom": "The Husband of The Doll",
      "categorie": "artwork",
      "description": "",
      "prix": "",
      "duree": "",
      "mapsUrl": "https://maps.google.com/?q=51.9197597,4.4796115",
      "lat": 51.9197597,
      "lng": 4.4796115,
      "source": "osm"
    },
    {
      "id": "a9631046739",
      "nom": "De Knoop",
      "categorie": "artwork",
      "description": "",
      "prix": "",
      "duree": "",
      "mapsUrl": "https://maps.google.com/?q=51.919695,4.4795919",
      "lat": 51.919695,
      "lng": 4.4795919,
      "source": "osm"
    },
    {
      "id": "a10581526516",
      "nom": "Sara van Daelen Doodewaard",
      "categorie": "memorial",
      "description": "",
      "prix": "",
      "duree": "",
      "mapsUrl": "https://maps.google.com/?q=51.9265405,4.470421",
      "lat": 51.9265405,
      "lng": 4.470421,
      "source": "osm"
    },
    {
      "id": "a10581526517",
      "nom": "Adriana van Daelen",
      "categorie": "memorial",
      "description": "",
      "prix": "",
      "duree": "",
      "mapsUrl": "https://maps.google.com/?q=51.9265389,4.4704133",
      "lat": 51.9265389,
      "lng": 4.4704133,
      "source": "osm"
    },
    {
      "id": "a10581526518",
      "nom": "Hendrik van Daelen",
      "categorie": "memorial",
      "description": "",
      "prix": "",
      "duree": "",
      "mapsUrl": "https://maps.google.com/?q=51.9265386,4.4704035",
      "lat": 51.9265386,
      "lng": 4.4704035,
      "source": "osm"
    },
    {
      "id": "a3456200469",
      "nom": "Desiderius Erasmus",
      "categorie": "artwork",
      "description": "",
      "prix": "",
      "duree": "",
      "mapsUrl": "https://maps.google.com/?q=51.9215122,4.4843267",
      "lat": 51.9215122,
      "lng": 4.4843267,
      "source": "osm"
    },
    {
      "id": "a11187554096",
      "nom": "RTD_08",
      "categorie": "artwork",
      "description": "",
      "prix": "",
      "duree": "",
      "mapsUrl": "https://maps.google.com/?q=51.9195101,4.4756625",
      "lat": 51.9195101,
      "lng": 4.4756625,
      "source": "osm"
    },
    {
      "id": "a11734521387",
      "nom": "Coolsingelpoort",
      "categorie": "attraction",
      "description": "",
      "prix": "",
      "duree": "",
      "mapsUrl": "https://maps.google.com/?q=51.9191902,4.47767",
      "lat": 51.9191902,
      "lng": 4.47767,
      "source": "osm"
    },
    {
      "id": "a4474613597",
      "nom": "Ongebroken Verzet",
      "categorie": "artwork",
      "description": "",
      "prix": "",
      "duree": "",
      "mapsUrl": "https://maps.google.com/?q=51.9208105,4.4715678",
      "lat": 51.9208105,
      "lng": 4.4715678,
      "source": "osm"
    },
    {
      "id": "a12778357623",
      "nom": "Monsieur Jacques",
      "categorie": "artwork",
      "description": "",
      "prix": "",
      "duree": "",
      "mapsUrl": "https://maps.google.com/?q=51.9193004,4.4797602",
      "lat": 51.9193004,
      "lng": 4.4797602,
      "source": "osm"
    },
    {
      "id": "a9226924034",
      "nom": "Kraatpaal",
      "categorie": "artwork",
      "description": "",
      "prix": "",
      "duree": "",
      "mapsUrl": "https://maps.google.com/?q=51.9192694,4.4752859",
      "lat": 51.9192694,
      "lng": 4.4752859,
      "source": "osm"
    },
    {
      "id": "a13099854770",
      "nom": "Evenwichtje",
      "categorie": "artwork",
      "description": "",
      "prix": "",
      "duree": "",
      "mapsUrl": "https://maps.google.com/?q=51.9197905,4.4821862",
      "lat": 51.9197905,
      "lng": 4.4821862,
      "source": "osm"
    },
    {
      "id": "a12153206709",
      "nom": "NO MATTER TRY AGAIN FAIL AGAIN FAIL BETTER",
      "categorie": "artwork",
      "description": "",
      "prix": "",
      "duree": "",
      "mapsUrl": "https://maps.google.com/?q=51.9203506,4.4717374",
      "lat": 51.9203506,
      "lng": 4.4717374,
      "source": "osm"
    },
    {
      "id": "a4754179436",
      "nom": "A Minute of Shelter",
      "categorie": "artwork",
      "description": "",
      "prix": "",
      "duree": "",
      "mapsUrl": "https://maps.google.com/?q=51.9190419,4.4797862",
      "lat": 51.9190419,
      "lng": 4.4797862,
      "source": "osm"
    },
    {
      "id": "a6201852282",
      "nom": "Erasmus Monument",
      "categorie": "memorial",
      "description": "",
      "prix": "",
      "duree": "",
      "mapsUrl": "https://maps.google.com/?q=51.9211006,4.4853129",
      "lat": 51.9211006,
      "lng": 4.4853129,
      "source": "osm"
    },
    {
      "id": "a12192886072",
      "nom": "Gevelsteen oude Bijenkorf",
      "categorie": "artwork",
      "description": "",
      "prix": "",
      "duree": "",
      "mapsUrl": "https://maps.google.com/?q=51.9187138,4.4802309",
      "lat": 51.9187138,
      "lng": 4.4802309,
      "source": "osm"
    },
    {
      "id": "a1280685457",
      "nom": "RiF010",
      "categorie": "attraction",
      "description": "",
      "prix": "",
      "duree": "",
      "mapsUrl": "https://maps.google.com/?q=51.9201763,4.4846678",
      "lat": 51.9201763,
      "lng": 4.4846678,
      "source": "osm"
    },
    {
      "id": "a9557646463",
      "nom": "Two Turning Vertical Rectangles",
      "categorie": "artwork",
      "description": "",
      "prix": "",
      "duree": "",
      "mapsUrl": "https://maps.google.com/?q=51.9182383,4.4780612",
      "lat": 51.9182383,
      "lng": 4.4780612,
      "source": "osm"
    },
    {
      "id": "a4469676116",
      "nom": "Wall Relief No 1",
      "categorie": "artwork",
      "description": "",
      "prix": "",
      "duree": "",
      "mapsUrl": "https://maps.google.com/?q=51.9222854,4.4682921",
      "lat": 51.9222854,
      "lng": 4.4682921,
      "source": "osm"
    },
    {
      "id": "a4767513521",
      "nom": "Willem IV",
      "categorie": "artwork",
      "description": "",
      "prix": "",
      "duree": "",
      "mapsUrl": "https://maps.google.com/?q=51.9188542,4.4821176",
      "lat": 51.9188542,
      "lng": 4.4821176,
      "source": "osm"
    },
    {
      "id": "a4780009567",
      "nom": "De reus van Rotterdam",
      "categorie": "artwork",
      "description": "",
      "prix": "",
      "duree": "",
      "mapsUrl": "https://maps.google.com/?q=51.9204275,4.4700097",
      "lat": 51.9204275,
      "lng": 4.4700097,
      "source": "osm"
    },
    {
      "id": "a1743630020",
      "nom": "Pim Fortuyn",
      "categorie": "artwork",
      "description": "",
      "prix": "",
      "duree": "",
      "mapsUrl": "https://maps.google.com/?q=51.9188777,4.4823744",
      "lat": 51.9188777,
      "lng": 4.4823744,
      "source": "osm"
    },
    {
      "id": "a11873840810",
      "nom": "Herdenkingsboom voor Osman Dogan",
      "categorie": "memorial",
      "description": "",
      "prix": "",
      "duree": "",
      "mapsUrl": "https://maps.google.com/?q=51.9203145,4.4700097",
      "lat": 51.9203145,
      "lng": 4.4700097,
      "source": "osm"
    },
    {
      "id": "a6205201344",
      "nom": "In de stad / De jonge mens op het eiland",
      "categorie": "artwork",
      "description": "",
      "prix": "",
      "duree": "",
      "mapsUrl": "https://maps.google.com/?q=51.9268135,4.4682193",
      "lat": 51.9268135,
      "lng": 4.4682193,
      "source": "osm"
    },
    {
      "id": "a11187369041",
      "nom": "RTD_21",
      "categorie": "artwork",
      "description": "",
      "prix": "",
      "duree": "",
      "mapsUrl": "https://maps.google.com/?q=51.9190928,4.4718902",
      "lat": 51.9190928,
      "lng": 4.4718902,
      "source": "osm"
    },
    {
      "id": "a4869579414",
      "nom": "De Boom",
      "categorie": "artwork",
      "description": "",
      "prix": "",
      "duree": "",
      "mapsUrl": "https://maps.google.com/?q=51.9241004,4.4883233",
      "lat": 51.9241004,
      "lng": 4.4883233,
      "source": "osm"
    },
    {
      "id": "a4872750903",
      "nom": "De Maagd van Holland",
      "categorie": "artwork",
      "description": "",
      "prix": "",
      "duree": "",
      "mapsUrl": "https://maps.google.com/?q=51.922616,4.4879728",
      "lat": 51.922616,
      "lng": 4.4879728,
      "source": "osm"
    },