{
 "slug": "rotterdam",
 "nom": "Rotterdam",
 "pays": "Pays-Bas",
 "pays_slug": "pays-bas",
 "continent": "Europe",
 "region": "Pays-Bas",
 "coordonnees": {
  "lat": 51.9244,
  "lng": 4.4777
 },
 "codeISO": "NL",
 "score_halal": 3.9,
 "halalScore": 7.8,
 "villeNonMusulmane": true,
 "description": "Port majeur à l'architecture moderne. Importante communauté musulmane et nombreux restaurants halal.",
 "metaDescription": "Port majeur à l'architecture moderne. Importante communauté musulmane et nombreux restaurants halal.",
 "image": "https://upload.wikimedia.org/wikipedia/commons/a/a2/Trams_de_Rotterdam_%28Pays_Bas%29_%286542426015%29.jpg",
 "image_hero": "https://upload.wikimedia.org/wikipedia/commons/a/a2/Trams_de_Rotterdam_%28Pays_Bas%29_%286542426015%29.jpg",
 "imageCredit": "Wikimedia Commons",
 "statistiques": {
  "restaurants_halal": 40,
  "mosquees": 15,
  "hotels": 0
 },
 "infoPratique": {
  "transport": "Accessible par avion et transports en commun locaux.",
  "meilleureEpoque": "Printemps et automne (climat tempéré).",
  "conseilHalal": "Ville non-musulmane : repérez les restaurants halal certifiés et les mosquées via l'application avant votre visite."
 },
 "tags": [
  "halal",
  "ville non-musulmane",
  "europe"
 ],
 "restaurants": [
  {
   "nom": "Chicken spot",
   "type": "chicken, sandwich, friture",
   "priceRange": "€€",
   "mapsUrl": "https://maps.google.com/?q=51.9214766,4.4809629",
   "lat": 51.9214766,
   "lng": 4.4809629,
   "halalConfidence": "yes",
   "source": "osm"
  },
  {
   "nom": "Bazar",
   "type": "middle eastern, north african, mediterranean",
   "priceRange": "€€",
   "mapsUrl": "https://maps.google.com/?q=51.9159347,4.4788527",
   "lat": 51.9159347,
   "lng": 4.4788527,
   "halalConfidence": "yes",
   "source": "osm"
  },
  {
   "nom": "Chiking",
   "type": "chicken",
   "priceRange": "€€",
   "mapsUrl": "https://maps.google.com/?q=51.9330667,4.4785132",
   "lat": 51.9330667,
   "lng": 4.4785132,
   "halalConfidence": "only",
   "source": "osm"
  },
  {
   "nom": "Pizzeria Forni",
   "type": "pizza",
   "priceRange": "€€",
   "mapsUrl": "https://maps.google.com/?q=51.9118878,4.4987164",
   "lat": 51.9118878,
   "lng": 4.4987164,
   "halalConfidence": "yes",
   "source": "osm"
  },
  {
   "nom": "Kan Zaman",
   "type": "kebab",
   "priceRange": "€€",
   "mapsUrl": "https://maps.google.com/?q=51.9100075,4.4473114",
   "lat": 51.9100075,
   "lng": 4.4473114,
   "halalConfidence": "yes",
   "source": "osm"
  },
  {
   "nom": "Meat & Zo",
   "type": "middle eastern",
   "priceRange": "€€",
   "mapsUrl": "https://maps.google.com/?q=51.902146,4.4945259",
   "lat": 51.902146,
   "lng": 4.4945259,
   "halalConfidence": "yes",
   "source": "osm"
  },
  {
   "nom": "Simitçi Dünyası",
   "type": "turkish",
   "priceRange": "€€",
   "mapsUrl": "https://maps.google.com/?q=51.8980534,4.5110595",
   "lat": 51.8980534,
   "lng": 4.5110595,
   "halalConfidence": "yes",
   "source": "osm"
  },
  {
   "nom": "Mehmet Usta",
   "type": "turkish, kebab, mediterranean",
   "priceRange": "€€",
   "mapsUrl": "https://maps.google.com/?q=51.8700695,4.4547426",
   "lat": 51.8700695,
   "lng": 4.4547426,
   "halalConfidence": "yes",
   "source": "osm"
  },
  {
   "nom": "Maydonoz Döner",
   "type": "kebab",
   "priceRange": "€€",
   "mapsUrl": "https://maps.google.com/?q=51.9221739,4.4775282",
   "lat": 51.9221739,
   "lng": 4.4775282,
   "halalConfidence": "likely",
   "source": "osm"
  },
  {
   "nom": "Munzur",
   "type": "turkish",
   "priceRange": "€€",
   "mapsUrl": "https://maps.google.com/?q=51.9271175,4.4750639",
   "lat": 51.9271175,
   "lng": 4.4750639,
   "halalConfidence": "likely",
   "source": "osm"
  },
  {
   "nom": "The Döner Company",
   "type": "kebab",
   "priceRange": "€€",
   "mapsUrl": "https://maps.google.com/?q=51.9252697,4.4693518",
   "lat": 51.9252697,
   "lng": 4.4693518,
   "halalConfidence": "likely",
   "source": "osm"
  },
  {
   "nom": "Ekmekci",
   "type": "turkish, salad",
   "priceRange": "€€",
   "mapsUrl": "https://maps.google.com/?q=51.9258116,4.4691377",
   "lat": 51.9258116,
   "lng": 4.4691377,
   "halalConfidence": "likely",
   "source": "osm"
  },
  {
   "nom": "Konak",
   "type": "kebab",
   "priceRange": "€€",
   "mapsUrl": "https://maps.google.com/?q=51.9263037,4.4684043",
   "lat": 51.9263037,
   "lng": 4.4684043,
   "halalConfidence": "likely",
   "source": "osm"
  },
  {
   "nom": "El Aviv",
   "type": "doner",
   "priceRange": "€€",
   "mapsUrl": "https://maps.google.com/?q=51.9190478,4.4846018",
   "lat": 51.9190478,
   "lng": 4.4846018,
   "halalConfidence": "likely",
   "source": "osm"
  },
  {
   "nom": "El Aviv",
   "type": "kebab",
   "priceRange": "€€",
   "mapsUrl": "https://maps.google.com/?q=51.919096,4.484727",
   "lat": 51.919096,
   "lng": 4.484727,
   "halalConfidence": "likely",
   "source": "osm"
  },
  {
   "nom": "Zayt & Za'atar",
   "type": "lebanese",
   "priceRange": "€€",
   "mapsUrl": "https://maps.google.com/?q=51.9176465,4.4757535",
   "lat": 51.9176465,
   "lng": 4.4757535,
   "halalConfidence": "likely",
   "source": "osm"
  },
  {
   "nom": "Center",
   "type": "kebab",
   "priceRange": "€€",
   "mapsUrl": "https://maps.google.com/?q=51.9175875,4.4749764",
   "lat": 51.9175875,
   "lng": 4.4749764,
   "halalConfidence": "likely",
   "source": "osm"
  },
  {
   "nom": "Sofra",
   "type": "kebab",
   "priceRange": "€€",
   "mapsUrl": "https://maps.google.com/?q=51.930595,4.483799",
   "lat": 51.930595,
   "lng": 4.483799,
   "halalConfidence": "likely",
   "source": "osm"
  },
  {
   "nom": "Çiğköftem",
   "type": "turkish",
   "priceRange": "€€",
   "mapsUrl": "https://maps.google.com/?q=51.9200733,4.4872643",
   "lat": 51.9200733,
   "lng": 4.4872643,
   "halalConfidence": "likely",
   "source": "osm"
  },
  {
   "nom": "De Palmboom",
   "type": "kebab",
   "priceRange": "€€",
   "mapsUrl": "https://maps.google.com/?q=51.9200767,4.4875014",
   "lat": 51.9200767,
   "lng": 4.4875014,
   "halalConfidence": "likely",
   "source": "osm"
  },
  {
   "nom": "'t Fonteintje",
   "type": "kebab",
   "priceRange": "€€",
   "mapsUrl": "https://maps.google.com/?q=51.9308665,4.484153",
   "lat": 51.9308665,
   "lng": 4.484153,
   "halalConfidence": "likely",
   "source": "osm"
  },
  {
   "nom": "Istanbul Döner Kebab",
   "type": "friture, turkish, kebab, sandwich, pizza",
   "priceRange": "€€",
   "mapsUrl": "https://maps.google.com/?q=51.9206081,4.4891942",
   "lat": 51.9206081,
   "lng": 4.4891942,
   "halalConfidence": "likely",
   "source": "osm"
  },
  {
   "nom": "Alhambra",
   "type": "moroccan",
   "priceRange": "€€",
   "mapsUrl": "https://maps.google.com/?q=51.9322153,4.4813935",
   "lat": 51.9322153,
   "lng": 4.4813935,
   "halalConfidence": "likely",
   "source": "osm"
  },
  {
   "nom": "Anadolu Sofra",
   "type": "turkish",
   "priceRange": "€€",
   "mapsUrl": "https://maps.google.com/?q=51.9322352,4.4813123",
   "lat": 51.9322352,
   "lng": 4.4813123,
   "halalConfidence": "likely",
   "source": "osm"
  },
  {
   "nom": "Cappadocia Restaurant",
   "type": "turkish",
   "priceRange": "€€",
   "mapsUrl": "https://maps.google.com/?q=51.9329885,4.4787337",
   "lat": 51.9329885,
   "lng": 4.4787337,
   "halalConfidence": "likely",
   "source": "osm"
  },
  {
   "nom": "Çiğköftem",
   "type": "turkish",
   "priceRange": "€€",
   "mapsUrl": "https://maps.google.com/?q=51.9330061,4.4793526",
   "lat": 51.9330061,
   "lng": 4.4793526,
   "halalConfidence": "likely",
   "source": "osm"
  },
  {
   "nom": "Jaffa",
   "type": "kebab",
   "priceRange": "€€",
   "mapsUrl": "https://maps.google.com/?q=51.9155922,4.4775063",
   "lat": 51.9155922,
   "lng": 4.4775063,
   "halalConfidence": "likely",
   "source": "osm"
  },
  {
   "nom": "Le Ksar",
   "type": "moroccan",
   "priceRange": "€€",
   "mapsUrl": "https://maps.google.com/?q=51.9335228,4.4773022",
   "lat": 51.9335228,
   "lng": 4.4773022,
   "halalConfidence": "likely",
   "source": "osm"
  },
  {
   "nom": "Grillroom Tel Aviv",
   "type": "kebab",
   "priceRange": "€€",
   "mapsUrl": "https://maps.google.com/?q=51.9152119,4.4760139",
   "lat": 51.9152119,
   "lng": 4.4760139,
   "halalConfidence": "likely",
   "source": "osm"
  },
  {
   "nom": "Kapadokya",
   "type": "kebab",
   "priceRange": "€€",
   "mapsUrl": "https://maps.google.com/?q=51.9152602,4.4753143",
   "lat": 51.9152602,
   "lng": 4.4753143,
   "halalConfidence": "likely",
   "source": "osm"
  },
  {
   "nom": "Fafi",
   "type": "kebab",
   "priceRange": "€€",
   "mapsUrl": "https://maps.google.com/?q=51.9152302,4.4751642",
   "lat": 51.9152302,
   "lng": 4.4751642,
   "halalConfidence": "likely",
   "source": "osm"
  },
  {
   "nom": "Jasmine",
   "type": "moroccan",
   "priceRange": "€€",
   "mapsUrl": "https://maps.google.com/?q=51.9327268,4.485861",
   "lat": 51.9327268,
   "lng": 4.485861,
   "halalConfidence": "likely",
   "source": "osm"
  },
  {
   "nom": "Bakkerij Avrasya",
   "type": "kebab",
   "priceRange": "€€",
   "mapsUrl": "https://maps.google.com/?q=51.9341213,4.4750916",
   "lat": 51.9341213,
   "lng": 4.4750916,
   "halalConfidence": "likely",
   "source": "osm"
  },
  {
   "nom": "HAS",
   "type": "kebab",
   "priceRange": "€€",
   "mapsUrl": "https://maps.google.com/?q=51.918888,4.463501",
   "lat": 51.918888,
   "lng": 4.463501,
   "halalConfidence": "likely",
   "source": "osm"
  },
  {
   "nom": "Tagine",
   "type": "moroccan",
   "priceRange": "€€",
   "mapsUrl": "https://maps.google.com/?q=51.9191094,4.4627317",
   "lat": 51.9191094,
   "lng": 4.4627317,
   "halalConfidence": "likely",
   "source": "osm"
  },
  {
   "nom": "Sahlan",
   "type": "turkish",
   "priceRange": "€€",
   "mapsUrl": "https://maps.google.com/?q=51.9348682,4.4737446",
   "lat": 51.9348682,
   "lng": 4.4737446,
   "halalConfidence": "likely",
   "source": "osm"
  },
  {
   "nom": "Masada",
   "type": "kebab",
   "priceRange": "€€",
   "mapsUrl": "https://maps.google.com/?q=51.935432,4.479023",
   "lat": 51.935432,
   "lng": 4.479023,
   "halalConfidence": "likely",
   "source": "osm"
  },
  {
   "nom": "Tasty Döner",
   "type": "kebab",
   "priceRange": "€€",
   "mapsUrl": "https://maps.google.com/?q=51.9340783,4.486581",
   "lat": 51.9340783,
   "lng": 4.486581,
   "halalConfidence": "likely",
   "source": "osm"
  },
  {
   "nom": "Maxima Döner",
   "type": "kebab",
   "priceRange": "€€",
   "mapsUrl": "https://maps.google.com/?q=51.9316463,4.4617272",
   "lat": 51.9316463,
   "lng": 4.4617272,
   "halalConfidence": "likely",
   "source": "osm"
  },
  {
   "nom": "HAS",
   "type": "kebab",
   "priceRange": "€€",
   "mapsUrl": "https://maps.google.com/?q=51.9229101,4.4980556",
   "lat": 51.9229101,
   "lng": 4.4980556,
   "halalConfidence": "likely",
   "source": "osm"
  }
 ],
 "hotels": [],
 "mosqueesPrincipales": [
  {
   "id": "m276835003",
   "nom": "Gültepe Moskee",
   "type": "Mosquée",
   "adresse": "",
   "description": "Lieu de prière (OpenStreetMap).",
   "mapsUrl": "https://maps.google.com/?q=51.9311545,4.4825612",
   "lat": 51.9311545,
   "lng": 4.4825612,
   "source": "osm"
  },
  {
   "id": "m277088041",
   "nom": "Iskender Paşa",
   "type": "Mosquée",
   "adresse": "",
   "description": "Lieu de prière (OpenStreetMap).",
   "mapsUrl": "https://maps.google.com/?q=51.932621,4.4695786",
   "lat": 51.932621,
   "lng": 4.4695786,
   "source": "osm"
  },
  {
   "id": "m274486093",
   "nom": "Centrum de Middenweg",
   "type": "Mosquée",
   "adresse": "",
   "description": "Lieu de prière (OpenStreetMap).",
   "mapsUrl": "https://maps.google.com/?q=51.9332797,4.4629632",
   "lat": 51.9332797,
   "lng": 4.4629632,
   "source": "osm"
  },
  {
   "id": "m275821527",
   "nom": "Moskee Othman",
   "type": "Mosquée",
   "adresse": "Boezemdwarsstraat, Rotterdam",
   "description": "Lieu de prière (OpenStreetMap).",
   "mapsUrl": "https://maps.google.com/?q=51.9304136,4.4981617",
   "lat": 51.9304136,
   "lng": 4.4981617,
   "source": "osm"
  },
  {
   "id": "m275821379",
   "nom": "ULU Moskee Rotterdam",
   "type": "Mosquée",
   "adresse": "",
   "description": "Lieu de prière (OpenStreetMap).",
   "mapsUrl": "https://maps.google.com/?q=51.9297175,4.5050061",
   "lat": 51.9297175,
   "lng": 4.5050061,
   "source": "osm"
  },
  {
   "id": "m593364132",
   "nom": "Anasr",
   "type": "Mosquée",
   "adresse": "",
   "description": "Lieu de prière (OpenStreetMap).",
   "mapsUrl": "https://maps.google.com/?q=51.918121,4.4454218",
   "lat": 51.918121,
   "lng": 4.4454218,
   "source": "osm"
  },
  {
   "id": "m54076501",
   "nom": "Mevlana moskee",
   "type": "Mosquée",
   "adresse": "",
   "description": "Lieu de prière (OpenStreetMap).",
   "mapsUrl": "https://maps.google.com/?q=51.9212455,4.4416641",
   "lat": 51.9212455,
   "lng": 4.4416641,
   "source": "osm"
  },
  {
   "id": "m1322442904",
   "nom": "Aya Sofia",
   "type": "Mosquée",
   "adresse": "",
   "description": "Lieu de prière (OpenStreetMap).",
   "mapsUrl": "https://maps.google.com/?q=51.91373,4.4447632",
   "lat": 51.91373,
   "lng": 4.4447632,
   "source": "osm"
  },
  {
   "id": "m274033685",
   "nom": "Anadolu",
   "type": "Mosquée",
   "adresse": "",
   "description": "Lieu de prière (OpenStreetMap).",
   "mapsUrl": "https://maps.google.com/?q=51.906493,4.5087813",
   "lat": 51.906493,
   "lng": 4.5087813,
   "source": "osm"
  },
  {
   "id": "m4809106289",
   "nom": "Kocatepe Cami",
   "type": "Mosquée",
   "adresse": "Afrikaanderplein, Rotterdam",
   "description": "Lieu de prière (OpenStreetMap).",
   "mapsUrl": "https://maps.google.com/?q=51.8989974,4.5022698",
   "lat": 51.8989974,
   "lng": 4.5022698,
   "source": "osm"
  },
  {
   "id": "m273863411",
   "nom": "Essalam",
   "type": "Mosquée",
   "adresse": "",
   "description": "Lieu de prière (OpenStreetMap).",
   "mapsUrl": "https://maps.google.com/?q=51.89869,4.5136631",
   "lat": 51.89869,
   "lng": 4.5136631,
   "source": "osm"
  },
  {
   "id": "m54096522",
   "nom": "Stichting Islamitisch Centrum Rotterdam-IJsselmonde",
   "type": "Mosquée",
   "adresse": "Aristotelesstraat, Rotterdam",
   "description": "Lieu de prière (OpenStreetMap).",
   "mapsUrl": "https://maps.google.com/?q=51.8826194,4.5220627",
   "lat": 51.8826194,
   "lng": 4.5220627,
   "source": "osm"
  },
  {
   "id": "m5510169656",
   "nom": "Muradiye",
   "type": "Mosquée",
   "adresse": "Raamsteeg, Schiedam",
   "description": "Lieu de prière (OpenStreetMap).",
   "mapsUrl": "https://maps.google.com/?q=51.9188619,4.3965447",
   "lat": 51.9188619,
   "lng": 4.3965447,
   "source": "osm"
  },
  {
   "id": "m1896405845",
   "nom": "Islamitisch Centrum Schiedam",
   "type": "Mosquée",
   "adresse": "Dr Schaepmansingel, Schiedam",
   "description": "Lieu de prière (OpenStreetMap).",
   "mapsUrl": "https://maps.google.com/?q=51.9157954,4.3812456",
   "lat": 51.9157954,
   "lng": 4.3812456,
   "source": "osm"
  },
  {
   "id": "m371942557",
   "nom": "Moskee el-Fath",
   "type": "Mosquée",
   "adresse": "",
   "description": "Lieu de prière (OpenStreetMap).",
   "mapsUrl": "https://maps.google.com/?q=51.9851039,4.4788922",
   "lat": 51.9851039,
   "lng": 4.4788922,
   "source": "osm"
  }
 ],
 "activites": [
  {
   "id": "a137468441",
   "nom": "Hofpleinfontein",
   "categorie": "attraction",
   "description": "",
   "prix": "",
   "duree": "",
   "mapsUrl": "https://maps.google.com/?q=51.9244169,4.4777417",
   "lat": 51.9244169,
   "lng": 4.4777417,
   "source": "osm"
  },
  {
   "id": "a4856318466",
   "nom": "Verzetskruis",
   "categorie": "memorial",
   "description": "",
   "prix": "",
   "duree": "",
   "mapsUrl": "https://maps.google.com/?q=51.9250401,4.4782812",
   "lat": 51.9250401,
   "lng": 4.4782812,
   "source": "osm"
  },
  {
   "id": "a4825964495",
   "nom": "Louis Davids Monument",
   "categorie": "artwork",
   "description": "",
   "prix": "",
   "duree": "",
   "mapsUrl": "https://maps.google.com/?q=51.9231495,4.4811872",
   "lat": 51.9231495,
   "lng": 4.4811872,
   "source": "osm"
  },
  {
   "id": "a7995041320",
   "nom": "Vredespaal",
   "categorie": "memorial",
   "description": "",
   "prix": "",
   "duree": "",
   "mapsUrl": "https://maps.google.com/?q=51.9232261,4.4824094",
   "lat": 51.9232261,
   "lng": 4.4824094,
   "source": "osm"
  },
  {
   "id": "a4606224739",
   "nom": "WTC Art Gallery",
   "categorie": "gallery",
   "description": "",
   "prix": "",
   "duree": "",
   "mapsUrl": "https://maps.google.com/?q=51.9210328,4.4803436",
   "lat": 51.9210328,
   "lng": 4.4803436,
   "source": "osm"
  },
  {
   "id": "a12595144014",
   "nom": "Studio 2 | de Doelen Art",
   "categorie": "gallery",
   "description": "",
   "prix": "",
   "duree": "",
   "mapsUrl": "https://maps.google.com/?q=51.9215881,4.4726288",
   "lat": 51.9215881,
   "lng": 4.4726288,
   "source": "osm"
  },
  {
   "id": "a6205263706",
   "nom": "Gijsbert Karel van Hogendorp",
   "categorie": "memorial",
   "description": "",
   "prix": "",
   "duree": "",
   "mapsUrl": "https://maps.google.com/?q=51.9202669,4.4804297",
   "lat": 51.9202669,
   "lng": 4.4804297,
   "source": "osm"
  },
  {
   "id": "a10581526519",
   "nom": "Henri Rippe",
   "categorie": "memorial",
   "description": "",
   "prix": "",
   "duree": "",
   "mapsUrl": "https://maps.google.com/?q=51.9266361,4.4711871",
   "lat": 51.9266361,
   "lng": 4.4711871,
   "source": "osm"
  },
  {
   "id": "a10581526521",
   "nom": "Lion Rippe",
   "categorie": "memorial",
   "description": "",
   "prix": "",
   "duree": "",
   "mapsUrl": "https://maps.google.com/?q=51.9266427,4.4711851",
   "lat": 51.9266427,
   "lng": 4.4711851,
   "source": "osm"
  },
  {
   "id": "a10581526520",
   "nom": "Jeanette Rippe",
   "categorie": "memorial",
   "description": "",
   "prix": "",
   "duree": "",
   "mapsUrl": "https://maps.google.com/?q=51.9266336,4.4711764",
   "lat": 51.9266336,
   "lng": 4.4711764,
   "source": "osm"
  },
  {
   "id": "a10581526522",
   "nom": "Hans Nico Rippe",
   "categorie": "memorial",
   "description": "",
   "prix": "",
   "duree": "",
   "mapsUrl": "https://maps.google.com/?q=51.9266427,4.4711733",
   "lat": 51.9266427,
   "lng": 4.4711733,
   "source": "osm"
  },
  {
   "id": "a9939676443",
   "nom": "Brandgrenssteen",
   "categorie": "memorial",
   "description": "",
   "prix": "",
   "duree": "",
   "mapsUrl": "https://maps.google.com/?q=51.9211778,4.4720506",
   "lat": 51.9211778,
   "lng": 4.4720506,
   "source": "osm"
  },
  {
   "id": "a9939676446",
   "nom": "Brandgrenssteen",
   "categorie": "memorial",
   "description": "",
   "prix": "",
   "duree": "",
   "mapsUrl": "https://maps.google.com/?q=51.9268548,4.48452",
   "lat": 51.9268548,
   "lng": 4.48452,
   "source": "osm"
  },
  {
   "id": "a10581526516",
   "nom": "Sara van Daelen Doodewaard",
   "categorie": "memorial",
   "description": "",
   "prix": "",
   "duree": "",
   "mapsUrl": "https://maps.google.com/?q=51.9265405,4.470421",
   "lat": 51.9265405,
   "lng": 4.470421,
   "source": "osm"
  },
  {
   "id": "a10581526517",
   "nom": "Adriana van Daelen",
   "categorie": "memorial",
   "description": "",
   "prix": "",
   "duree": "",
   "mapsUrl": "https://maps.google.com/?q=51.9265389,4.4704133",
   "lat": 51.9265389,
   "lng": 4.4704133,
   "source": "osm"
  },
  {
   "id": "a10581526518",
   "nom": "Hendrik van Daelen",
   "categorie": "memorial",
   "description": "",
   "prix": "",
   "duree": "",
   "mapsUrl": "https://maps.google.com/?q=51.9265386,4.4704035",
   "lat": 51.9265386,
   "lng": 4.4704035,
   "source": "osm"
  },
  {
   "id": "a11734521387",
   "nom": "Coolsingelpoort",
   "categorie": "attraction",
   "description": "",
   "prix": "",
   "duree": "",
   "mapsUrl": "https://maps.google.com/?q=51.9191902,4.47767",
   "lat": 51.9191902,
   "lng": 4.47767,
   "source": "osm"
  },
  {
   "id": "a6201852282",
   "nom": "Erasmus Monument",
   "categorie": "memorial",
   "description": "",
   "prix": "",
   "duree": "",
   "mapsUrl": "https://maps.google.com/?q=51.9211006,4.4853129",
   "lat": 51.9211006,
   "lng": 4.4853129,
   "source": "osm"
  }
 ],
 "scoreIndicatif": true,
 "osmEnriched": true,
 "osmEnrichedAt": "2026-06-30"
}
