{
  "nom": "Salalah",
  "pays": "Oman",
  "slug": "salalah",
  "image": "https://images.unsplash.com/photo-1699855803432-17f4ab468b2d?w=1600&q=80",
  "image_hero": "https://images.unsplash.com/photo-1699855803432-17f4ab468b2d?w=1600&q=80",
  "description": "Salalah, capitale du Dhofar, se couvre de vert pendant le Khareef, la mousson d'été. Plages immaculées, encens et sites bibliques en font une perle de l'Arabie.",
  "descriptionLongue": "Unique en Arabie, Salalah verdit chaque été sous le Khareef, la mousson qui transforme le Dhofar en oasis brumeuse. Terre de l'encens depuis l'Antiquité, elle abrite des sites inscrits à l'UNESCO et le tombeau présumé du prophète Job. Ses plages de la mer d'Arabie, ses sources et ses bananeraies offrent une nature préservée. Ville paisible et entièrement halal, à l'hospitalité omanie légendaire.",
  "halalScore": 8.7,
  "score_halal": 4.3,
  "mosquees": 400,
  "population": "350 000",
  "langue": "Arabe",
  "monnaie": "Rial omanais (OMR)",
  "fuseau": "UTC+4",
  "meilleureEpoque": "Juillet à Septembre (Khareef)",
  "prixMoyenNuit": "90€",
  "continent": "Asie",
  "codeISO": "OM",
  "pays_slug": "oman",
  "region": "Dhofar",
  "meta_title": "Voyage Halal à Salalah — Guide Complet 2026",
  "meta_description": "Restaurants halal signalés, mosquées et guide pratique pour Salalah — Halal Trust Score 8.7/10.",
  "metaDescription": "Restaurants halal signalés, mosquées et guide pratique pour Salalah — Halal Trust Score 8.7/10.",
  "coordonnees": {
    "lat": 17.0151,
    "lng": 54.0924
  },
  "image_alt": "Vue de Salalah, Oman",
  "statistiques": {
    "mosquees": 400,
    "restaurants_halal": 800,
    "habitants_musulmans_pct": 99,
    "hotels": 58
  },
  "infos_pratiques": {
    "langue": "Arabe",
    "monnaie": "Rial omanais (OMR)",
    "meilleure_periode": "Juillet à Septembre (Khareef)",
    "appel_priere": "5 fois par jour",
    "nourriture_halal": "Largement disponible",
    "alcool": "Réglementé",
    "securite": "Précautions habituelles"
  },
  "infoPratique": {
    "visa": "e-Visa omanais disponible en ligne",
    "vaccins": "Aucun obligatoire",
    "transport": "Location de voiture recommandée, taxis",
    "priseElectrique": "Type G — 240V",
    "decalageHoraire": "+3h par rapport à Paris (hiver)"
  },
  "restaurants": [
    {
      "nom": "Al Fareed Restaurant",
      "type": "Traditionnel local",
      "certificationHalal": true,
      "score": 4.4,
      "adresse": "Centre-ville, Salalah",
      "description": "Cuisine omanie et dhofarie authentique, grillades parfumées.",
      "mapsUrl": "https://maps.google.com/?q=Al+Fareed+Restaurant+Salalah",
      "priceRange": "€€",
      "specialite": "Mishkak et riz omanais",
      "id": "r1",
      "nombreAvis": 1165,
      "ouvertureRamadan": true,
      "livraison": false,
      "reservationRequise": false,
      "tags": [
        "familial",
        "local-authentique"
      ]
    },
    {
      "nom": "Baalbek Restaurant",
      "type": "Libanais & Levant",
      "certificationHalal": true,
      "score": 4.4,
      "adresse": "Al Salam Street, Salalah",
      "description": "Adresse libanaise populaire, mezze frais et grillades.",
      "mapsUrl": "https://maps.google.com/?q=Baalbek+Restaurant+Salalah",
      "priceRange": "€€",
      "specialite": "Mezze et chawarma",
      "id": "r2",
      "nombreAvis": 1023,
      "ouvertureRamadan": true,
      "livraison": false,
      "reservationRequise": false,
      "tags": [
        "animé",
        "familial"
      ],
      "lat": 17.0125909,
      "lng": 54.0917131,
      "geocoded": true
    },
    {
      "nom": "Oasis Club Restaurant",
      "type": "Fruits de mer",
      "certificationHalal": true,
      "score": 4.5,
      "adresse": "Corniche, Salalah",
      "description": "Spécialiste des fruits de mer de la mer d'Arabie.",
      "mapsUrl": "https://maps.google.com/?q=Oasis+Club+Restaurant+Salalah",
      "priceRange": "€€€",
      "specialite": "Homard du Dhofar",
      "id": "r3",
      "nombreAvis": 2179,
      "ouvertureRamadan": true,
      "livraison": false,
      "reservationRequise": false,
      "tags": [
        "familial",
        "vue-mer"
      ]
    },
    {
      "nom": "Hassan Bin Thabit",
      "type": "Indien & Pakistani",
      "certificationHalal": true,
      "score": 4.3,
      "adresse": "Al Wadi, Salalah",
      "description": "Cuisine sud-asiatique généreuse et abordable.",
      "mapsUrl": "https://maps.google.com/?q=Hassan+Bin+Thabit+Salalah",
      "priceRange": "€",
      "specialite": "Biryani et curry",
      "id": "r4",
      "nombreAvis": 997,
      "ouvertureRamadan": true,
      "livraison": true,
      "reservationRequise": false,
      "tags": [
        "familial",
        "livraison",
        "local-authentique",
        "rapide"
      ],
      "lat": 17.0167309,
      "lng": 54.0664156,
      "geocoded": true
    },
    {
      "nom": "Bab Al Salam",
      "type": "Traditionnel local",
      "certificationHalal": true,
      "score": 4.4,
      "adresse": "Salalah",
      "description": "Riz mandi parfumé et plats omanais conviviaux.",
      "mapsUrl": "https://maps.google.com/?q=Bab+Al+Salam+Salalah",
      "priceRange": "€€",
      "specialite": "Mandi à l'agneau",
      "id": "r5",
      "nombreAvis": 1789,
      "ouvertureRamadan": true,
      "livraison": false,
      "reservationRequise": false,
      "tags": [
        "familial",
        "local-authentique"
      ],
      "lat": 17.0147756,
      "lng": 54.0173234,
      "geocoded": true
    },
    {
      "nom": "Lebanese Village",
      "type": "Libanais & Levant",
      "certificationHalal": true,
      "score": 4.3,
      "adresse": "Salalah",
      "description": "Jardin libanais agréable, mezze et viandes grillées.",
      "mapsUrl": "https://maps.google.com/?q=Lebanese+Village+Salalah",
      "priceRange": "€€",
      "specialite": "Grillades au charbon",
      "id": "r6",
      "nombreAvis": 1571,
      "ouvertureRamadan": true,
      "livraison": false,
      "reservationRequise": false,
      "tags": [
        "animé",
        "familial"
      ],
      "lat": 17.0147756,
      "lng": 54.0173234,
      "geocoded": true
    },
    {
      "nom": "Pizza Hut Salalah",
      "type": "Pizza & Italien",
      "certificationHalal": true,
      "score": 4.1,
      "adresse": "Salalah Gardens Mall, Salalah",
      "description": "Chaîne familiale fiable, halal et appréciée des enfants.",
      "mapsUrl": "https://maps.google.com/?q=Pizza+Hut+Salalah+Salalah",
      "priceRange": "€€",
      "specialite": "Pizza halal",
      "id": "r7",
      "nombreAvis": 171,
      "ouvertureRamadan": true,
      "livraison": true,
      "reservationRequise": false,
      "tags": [
        "familial",
        "livraison",
        "rapide"
      ],
      "lat": 17.0228906,
      "lng": 54.0658782,
      "geocoded": true
    },
    {
      "nom": "Al Anqood",
      "type": "Pâtisserie & Café",
      "certificationHalal": true,
      "score": 4.5,
      "adresse": "Centre-ville, Salalah",
      "description": "Salon de douceurs omanies, halwa et café à la cardamome.",
      "mapsUrl": "https://maps.google.com/?q=Al+Anqood+Salalah",
      "priceRange": "€",
      "specialite": "Halwa omanais et café",
      "id": "r8",
      "nombreAvis": 2583,
      "ouvertureRamadan": true,
      "livraison": false,
      "reservationRequise": false,
      "tags": [
        "a-emporter",
        "calme",
        "familial",
        "rapide"
      ]
    },
    {
      "nom": "Al Madina Salalah",
      "type": "Traditionnel local",
      "certificationHalal": true,
      "score": 4.2,
      "adresse": "Salalah",
      "description": "Adresse halal appréciée des habitants de Salalah.",
      "mapsUrl": "https://maps.google.com/?q=Al+Madina+Salalah+Salalah",
      "priceRange": "€€",
      "specialite": "Plat du jour maison",
      "id": "r9",
      "nombreAvis": 1258,
      "ouvertureRamadan": true,
      "livraison": true,
      "reservationRequise": false,
      "tags": [
        "familial",
        "livraison",
        "local-authentique"
      ],
      "lat": 17.0147756,
      "lng": 54.0173234,
      "geocoded": true
    },
    {
      "nom": "Shawarma House Salalah",
      "type": "Grillades & Kebab",
      "certificationHalal": true,
      "score": 4.3,
      "adresse": "Salalah",
      "description": "Adresse halal appréciée des habitants de Salalah.",
      "mapsUrl": "https://maps.google.com/?q=Shawarma+House+Salalah+Salalah",
      "priceRange": "€",
      "specialite": "Shawarma poulet",
      "id": "r10",
      "nombreAvis": 63,
      "ouvertureRamadan": true,
      "livraison": true,
      "reservationRequise": false,
      "tags": [
        "familial",
        "livraison",
        "local-authentique",
        "rapide"
      ],
      "lat": 17.0147756,
      "lng": 54.0173234,
      "geocoded": true
    },
    {
      "nom": "Beit Beirut Salalah",
      "type": "Libanais & Levant",
      "certificationHalal": true,
      "score": 4.4,
      "adresse": "Salalah",
      "description": "Adresse halal appréciée des habitants de Salalah.",
      "mapsUrl": "https://maps.google.com/?q=Beit+Beirut+Salalah+Salalah",
      "priceRange": "€€",
      "specialite": "Mezze libanais",
      "id": "r11",
      "nombreAvis": 1365,
      "ouvertureRamadan": true,
      "livraison": false,
      "reservationRequise": false,
      "tags": [
        "animé",
        "familial"
      ],
      "lat": 17.0147756,
      "lng": 54.0173234,
      "geocoded": true
    },
    {
      "nom": "Spice Route Salalah",
      "type": "Indien & Pakistani",
      "certificationHalal": true,
      "score": 4.5,
      "adresse": "Salalah",
      "description": "Adresse halal appréciée des habitants de Salalah.",
      "mapsUrl": "https://maps.google.com/?q=Spice+Route+Salalah+Salalah",
      "priceRange": "€€",
      "specialite": "Biryani",
      "id": "r12",
      "nombreAvis": 786,
      "ouvertureRamadan": true,
      "livraison": true,
      "reservationRequise": false,
      "tags": [
        "familial",
        "livraison",
        "local-authentique"
      ],
      "lat": 17.0147756,
      "lng": 54.0173234,
      "geocoded": true
    },
    {
      "nom": "Saffron Garden Salalah",
      "type": "Gastronomique",
      "certificationHalal": true,
      "score": 4.6000000000000005,
      "adresse": "Salalah",
      "description": "Adresse halal appréciée des habitants de Salalah.",
      "mapsUrl": "https://maps.google.com/?q=Saffron+Garden+Salalah+Salalah",
      "priceRange": "€€€",
      "specialite": "Menu dégustation halal",
      "id": "r13",
      "nombreAvis": 331,
      "ouvertureRamadan": true,
      "livraison": false,
      "reservationRequise": true,
      "tags": [
        "calme",
        "reservation-requise",
        "romantique"
      ],
      "lat": 17.0147756,
      "lng": 54.0173234,
      "geocoded": true
    },
    {
      "nom": "Green Bowl Salalah",
      "type": "Végétarien & Healthy",
      "certificationHalal": true,
      "score": 4.2,
      "adresse": "Salalah",
      "description": "Adresse halal appréciée des habitants de Salalah.",
      "mapsUrl": "https://maps.google.com/?q=Green+Bowl+Salalah+Salalah",
      "priceRange": "€",
      "specialite": "Bowl méditerranéen",
      "id": "r14",
      "nombreAvis": 256,
      "ouvertureRamadan": true,
      "livraison": false,
      "reservationRequise": false,
      "tags": [
        "calme",
        "rapide",
        "veggie"
      ],
      "lat": 17.0147756,
      "lng": 54.0173234,
      "geocoded": true
    },
    {
      "nom": "Sultan Café Salalah",
      "type": "Pâtisserie & Café",
      "certificationHalal": true,
      "score": 4.3,
      "adresse": "Salalah",
      "description": "Adresse halal appréciée des habitants de Salalah.",
      "mapsUrl": "https://maps.google.com/?q=Sultan+Caf%C3%A9+Salalah+Salalah",
      "priceRange": "€",
      "specialite": "Café arabe et baklava",
      "id": "r15",
      "nombreAvis": 304,
      "ouvertureRamadan": true,
      "livraison": false,
      "reservationRequise": false,
      "tags": [
        "a-emporter",
        "calme",
        "familial",
        "rapide"
      ],
      "lat": 17.0147756,
      "lng": 54.0173234,
      "geocoded": true
    },
    {
      "nom": "Udupi Vegetarian Restaurant",
      "lat": 17.015445,
      "lng": 54.0936642,
      "type": "indian",
      "halalConfidence": "likely",
      "mapsUrl": "https://maps.google.com/?q=17.015445,54.0936642",
      "source": "osm"
    },
    {
      "nom": "مطعم توپاز",
      "lat": 17.0142911,
      "lng": 54.0905439,
      "type": "asian, indian, arab",
      "halalConfidence": "likely",
      "mapsUrl": "https://maps.google.com/?q=17.0142911,54.0905439",
      "source": "osm"
    },
    {
      "nom": "NajdLand",
      "lat": 17.0189662,
      "lng": 54.0931168,
      "type": "local, italian pizza, pizza, tea, steak house, pasta, italian, indian, coffee shop, chicken, cake, arab",
      "halalConfidence": "likely",
      "mapsUrl": "https://maps.google.com/?q=17.0189662,54.0931168",
      "source": "osm"
    },
    {
      "nom": "Al Tanour Restaurant",
      "lat": 17.0162306,
      "lng": 54.0967806,
      "type": "lebanese",
      "halalConfidence": "likely",
      "mapsUrl": "https://maps.google.com/?q=17.0162306,54.0967806",
      "source": "osm"
    },
    {
      "nom": "Lasorda Restaurant",
      "lat": 17.0203691,
      "lng": 54.0886421,
      "type": "shawarma",
      "halalConfidence": "likely",
      "mapsUrl": "https://maps.google.com/?q=17.0203691,54.0886421",
      "source": "osm"
    },
    {
      "nom": "Al Kutaimi Restaurant",
      "lat": 17.0141002,
      "lng": 54.1017568,
      "type": "indian, pakistani",
      "halalConfidence": "likely",
      "mapsUrl": "https://maps.google.com/?q=17.0141002,54.1017568",
      "source": "osm"
    },
    {
      "nom": "مطعم بعلبك مأكولات لبنانية",
      "lat": 17.0181308,
      "lng": 54.1021052,
      "type": "lebanese",
      "halalConfidence": "likely",
      "mapsUrl": "https://maps.google.com/?q=17.0181308,54.1021052",
      "source": "osm"
    },
    {
      "nom": "Marmara Al-Turkey",
      "lat": 17.0192452,
      "lng": 54.1084175,
      "type": "turkish",
      "halalConfidence": "likely",
      "mapsUrl": "https://maps.google.com/?q=17.0192452,54.1084175",
      "source": "osm"
    },
    {
      "nom": "Bin Ateeq",
      "lat": 17.0089851,
      "lng": 54.0729213,
      "type": "arab",
      "halalConfidence": "likely",
      "mapsUrl": "https://maps.google.com/?q=17.0089851,54.0729213",
      "source": "osm"
    },
    {
      "nom": "Al Reef Lebanese Restaurant",
      "lat": 17.0218719,
      "lng": 54.0583834,
      "type": "arabic",
      "halalConfidence": "likely",
      "mapsUrl": "https://maps.google.com/?q=17.0218719,54.0583834",
      "source": "osm"
    },
    {
      "nom": "OM Restaurant",
      "lat": 17.0211247,
      "lng": 54.0461227,
      "type": "indian",
      "halalConfidence": "likely",
      "mapsUrl": "https://maps.google.com/?q=17.0211247,54.0461227",
      "source": "osm"
    }
  ],
  "hotels": [
    {
      "nom": "Hamdan Plaza Hotel",
      "categorie": "Standard",
      "score": 4.3,
      "adresse": "23 July Street, Salalah",
      "description": "Hôtel central confortable avec piscine.",
      "halalFriendly": true,
      "sansAlcool": false,
      "mapsUrl": "https://maps.google.com/?q=Hamdan+Plaza+Hotel+Salalah",
      "bookingUrl": "https://www.booking.com/searchresults.fr.html?ss=Salalah&label=voyageshalal",
      "halalBookingUrl": "https://www.halalbooking.com/search?city=salalah",
      "priceRange": "€€€",
      "id": "h3",
      "nombreAvis": 2231,
      "piscineNonMixte": false,
      "salleDePreiere": true,
      "qiblaIndicateur": true,
      "petitDejeunerHalal": true,
      "services": [
        "centre-ville",
        "conciergerie",
        "parking",
        "restaurant-halal",
        "wifi"
      ],
      "lat": 17.0194307,
      "lng": 54.0608685
    },
    {
      "nom": "Juweira Boutique Hotel",
      "categorie": "Riad & Boutique",
      "score": 4.4,
      "adresse": "Salalah Beach, Salalah",
      "description": "Boutique-hôtel sur la marina d'Al Mouj, calme et soigné.",
      "halalFriendly": true,
      "sansAlcool": true,
      "mapsUrl": "https://maps.google.com/?q=Juweira+Boutique+Hotel+Salalah",
      "bookingUrl": "https://www.booking.com/searchresults.fr.html?ss=Salalah&label=voyageshalal",
      "halalBookingUrl": "https://www.halalbooking.com/search?city=salalah",
      "priceRange": "€€€",
      "id": "h5",
      "nombreAvis": 1732,
      "piscineNonMixte": false,
      "salleDePreiere": true,
      "qiblaIndicateur": true,
      "petitDejeunerHalal": true,
      "services": [
        "centre-ville",
        "conciergerie",
        "parking",
        "restaurant-halal",
        "wifi"
      ],
      "lat": 17.0317143,
      "lng": 54.2994704
    },
    {
      "nom": "Muscat International Hotel",
      "categorie": "Hôtel",
      "priceRange": "€€",
      "mapsUrl": "https://maps.google.com/?q=17.0148189,54.091529",
      "lat": 17.0148189,
      "lng": 54.091529,
      "halalFriendly": false,
      "bookingUrl": "https://maps.google.com/?q=17.0148189,54.091529",
      "source": "osm"
    },
    {
      "nom": "Al Andalus Hotel Apartments",
      "categorie": "Hôtel",
      "priceRange": "€€",
      "mapsUrl": "https://maps.google.com/?q=17.0143624,54.0910822",
      "lat": 17.0143624,
      "lng": 54.0910822,
      "halalFriendly": false,
      "bookingUrl": "https://maps.google.com/?q=17.0143624,54.0910822",
      "source": "osm"
    },
    {
      "nom": "Salalah Royal Hotel Suites",
      "categorie": "Hôtel",
      "priceRange": "€€",
      "mapsUrl": "https://maps.google.com/?q=17.0185978,54.0939651",
      "lat": 17.0185978,
      "lng": 54.0939651,
      "halalFriendly": false,
      "bookingUrl": "https://maps.google.com/?q=17.0185978,54.0939651",
      "source": "osm"
    },
    {
      "nom": "optimal apartment hotelo",
      "categorie": "Hôtel",
      "priceRange": "€€",
      "mapsUrl": "https://maps.google.com/?q=17.0183623,54.0957045",
      "lat": 17.0183623,
      "lng": 54.0957045,
      "halalFriendly": false,
      "bookingUrl": "https://maps.google.com/?q=17.0183623,54.0957045",
      "source": "osm"
    },
    {
      "nom": "ال غبيش",
      "categorie": "Hôtel",
      "priceRange": "€€",
      "mapsUrl": "https://maps.google.com/?q=17.0203619,54.0930451",
      "lat": 17.0203619,
      "lng": 54.0930451,
      "halalFriendly": false,
      "bookingUrl": "https://maps.google.com/?q=17.0203619,54.0930451",
      "source": "osm"
    },
    {
      "nom": "Star House Grand",
      "categorie": "Appartement",
      "priceRange": "€€",
      "mapsUrl": "https://maps.google.com/?q=17.0140318,54.0867608",
      "lat": 17.0140318,
      "lng": 54.0867608,
      "halalFriendly": false,
      "bookingUrl": "https://maps.google.com/?q=17.0140318,54.0867608",
      "source": "osm"
    },
    {
      "nom": "Intercity Hotel Salalah - Real Position!",
      "categorie": "Hôtel",
      "priceRange": "€€",
      "mapsUrl": "https://maps.google.com/?q=17.020489,54.0937759",
      "lat": 17.020489,
      "lng": 54.0937759,
      "halalFriendly": false,
      "bookingUrl": "https://maps.google.com/?q=17.020489,54.0937759",
      "source": "osm"
    },
    {
      "nom": "Happy Apartment House",
      "categorie": "Maison d'hôtes",
      "priceRange": "€€",
      "mapsUrl": "https://maps.google.com/?q=17.0181775,54.0875211",
      "lat": 17.0181775,
      "lng": 54.0875211,
      "halalFriendly": false,
      "bookingUrl": "https://maps.google.com/?q=17.0181775,54.0875211",
      "source": "osm"
    },
    {
      "nom": "Salalah Hotel",
      "categorie": "Hôtel",
      "priceRange": "€€",
      "mapsUrl": "https://maps.google.com/?q=17.0194818,54.0961613",
      "lat": 17.0194818,
      "lng": 54.0961613,
      "halalFriendly": false,
      "bookingUrl": "https://maps.google.com/?q=17.0194818,54.0961613",
      "source": "osm"
    },
    {
      "nom": "United Dreams 13 Furnished Apartments",
      "categorie": "Hôtel",
      "priceRange": "€€",
      "mapsUrl": "https://maps.google.com/?q=17.0197801,54.0883214",
      "lat": 17.0197801,
      "lng": 54.0883214,
      "halalFriendly": false,
      "bookingUrl": "https://maps.google.com/?q=17.0197801,54.0883214",
      "source": "osm"
    },
    {
      "nom": "Al Tawazan Modern Lodge",
      "categorie": "Hôtel",
      "priceRange": "€€",
      "mapsUrl": "https://maps.google.com/?q=17.0199747,54.0885468",
      "lat": 17.0199747,
      "lng": 54.0885468,
      "halalFriendly": false,
      "bookingUrl": "https://maps.google.com/?q=17.0199747,54.0885468",
      "source": "osm"
    },
    {
      "nom": "فندق رواس",
      "categorie": "Hôtel",
      "priceRange": "€€",
      "mapsUrl": "https://maps.google.com/?q=17.0095213,54.0893471",
      "lat": 17.0095213,
      "lng": 54.0893471,
      "halalFriendly": false,
      "bookingUrl": "https://maps.google.com/?q=17.0095213,54.0893471",
      "source": "osm"
    },
    {
      "nom": "شقق وغرف للايجار - صلالة",
      "categorie": "Hôtel",
      "priceRange": "€€",
      "mapsUrl": "https://maps.google.com/?q=17.0189373,54.0979632",
      "lat": 17.0189373,
      "lng": 54.0979632,
      "halalFriendly": false,
      "bookingUrl": "https://maps.google.com/?q=17.0189373,54.0979632",
      "source": "osm"
    },
    {
      "nom": "United Dreams 9 Furnished Apartments",
      "categorie": "Auberge",
      "priceRange": "€€",
      "mapsUrl": "https://maps.google.com/?q=17.0200124,54.0878128",
      "lat": 17.0200124,
      "lng": 54.0878128,
      "halalFriendly": false,
      "bookingUrl": "https://maps.google.com/?q=17.0200124,54.0878128",
      "source": "osm"
    },
    {
      "nom": "Star Emirates",
      "categorie": "Hôtel",
      "priceRange": "€€",
      "mapsUrl": "https://maps.google.com/?q=17.0140661,54.0855307",
      "lat": 17.0140661,
      "lng": 54.0855307,
      "halalFriendly": false,
      "bookingUrl": "https://maps.google.com/?q=17.0140661,54.0855307",
      "source": "osm"
    },
    {
      "nom": "شقق فندقية",
      "categorie": "Hôtel",
      "priceRange": "€€",
      "mapsUrl": "https://maps.google.com/?q=17.013412,54.085109",
      "lat": 17.013412,
      "lng": 54.085109,
      "halalFriendly": false,
      "bookingUrl": "https://maps.google.com/?q=17.013412,54.085109",
      "source": "osm"
    },
    {
      "nom": "Hotel apartments",
      "categorie": "Hôtel",
      "priceRange": "€€",
      "mapsUrl": "https://maps.google.com/?q=17.0214118,54.0885702",
      "lat": 17.0214118,
      "lng": 54.0885702,
      "halalFriendly": false,
      "bookingUrl": "https://maps.google.com/?q=17.0214118,54.0885702",
      "source": "osm"
    },
    {
      "nom": "Star Emirates Downtown",
      "categorie": "Hôtel",
      "priceRange": "€€",
      "mapsUrl": "https://maps.google.com/?q=17.0181449,54.1013899",
      "lat": 17.0181449,
      "lng": 54.1013899,
      "halalFriendly": false,
      "bookingUrl": "https://maps.google.com/?q=17.0181449,54.1013899",
      "source": "osm"
    },
    {
      "nom": "TAYBA HOMES",
      "categorie": "Hôtel",
      "priceRange": "€€",
      "mapsUrl": "https://maps.google.com/?q=17.0152252,54.0813931",
      "lat": 17.0152252,
      "lng": 54.0813931,
      "halalFriendly": false,
      "bookingUrl": "https://maps.google.com/?q=17.0152252,54.0813931",
      "source": "osm"
    },
    {
      "nom": "DARSHANA’S home",
      "categorie": "Appartement",
      "priceRange": "€€",
      "mapsUrl": "https://maps.google.com/?q=17.0188732,54.0794534",
      "lat": 17.0188732,
      "lng": 54.0794534,
      "halalFriendly": false,
      "bookingUrl": "https://maps.google.com/?q=17.0188732,54.0794534",
      "source": "osm"
    },
    {
      "nom": "نزل شمس",
      "categorie": "Auberge",
      "priceRange": "€€",
      "mapsUrl": "https://maps.google.com/?q=17.0177831,54.1063174",
      "lat": 17.0177831,
      "lng": 54.1063174,
      "halalFriendly": false,
      "bookingUrl": "https://maps.google.com/?q=17.0177831,54.1063174",
      "source": "osm"
    },
    {
      "nom": "المعشني",
      "categorie": "Maison d'hôtes",
      "priceRange": "€€",
      "mapsUrl": "https://maps.google.com/?q=17.0183197,54.1062467",
      "lat": 17.0183197,
      "lng": 54.1062467,
      "halalFriendly": false,
      "bookingUrl": "https://maps.google.com/?q=17.0183197,54.1062467",
      "source": "osm"
    },
    {
      "nom": "My Home",
      "categorie": "Appartement",
      "priceRange": "€€",
      "mapsUrl": "https://maps.google.com/?q=17.0073284,54.0796937",
      "lat": 17.0073284,
      "lng": 54.0796937,
      "halalFriendly": false,
      "bookingUrl": "https://maps.google.com/?q=17.0073284,54.0796937",
      "source": "osm"
    },
    {
      "nom": "Darbat Hotel",
      "categorie": "Hôtel",
      "priceRange": "€€",
      "mapsUrl": "https://maps.google.com/?q=17.0104315,54.0780972",
      "lat": 17.0104315,
      "lng": 54.0780972,
      "halalFriendly": false,
      "bookingUrl": "https://maps.google.com/?q=17.0104315,54.0780972",
      "source": "osm"
    },
    {
      "nom": "شقق 2",
      "categorie": "Appartement",
      "priceRange": "€€",
      "mapsUrl": "https://maps.google.com/?q=17.0171747,54.1075303",
      "lat": 17.0171747,
      "lng": 54.1075303,
      "halalFriendly": false,
      "bookingUrl": "https://maps.google.com/?q=17.0171747,54.1075303",
      "source": "osm"
    },
    {
      "nom": "الأفق للشقق المفروشة",
      "categorie": "Appartement",
      "priceRange": "€€",
      "mapsUrl": "https://maps.google.com/?q=17.0194351,54.1073054",
      "lat": 17.0194351,
      "lng": 54.1073054,
      "halalFriendly": false,
      "bookingUrl": "https://maps.google.com/?q=17.0194351,54.1073054",
      "source": "osm"
    },
    {
      "nom": "الأفق للشقق المفروشة",
      "categorie": "Appartement",
      "priceRange": "€€",
      "mapsUrl": "https://maps.google.com/?q=17.0194633,54.1074265",
      "lat": 17.0194633,
      "lng": 54.1074265,
      "halalFriendly": false,
      "bookingUrl": "https://maps.google.com/?q=17.0194633,54.1074265",
      "source": "osm"
    },
    {
      "nom": "الفصول الذهبية للشقق 1",
      "categorie": "Appartement",
      "priceRange": "€€",
      "mapsUrl": "https://maps.google.com/?q=17.0205628,54.1075147",
      "lat": 17.0205628,
      "lng": 54.1075147,
      "halalFriendly": false,
      "bookingUrl": "https://maps.google.com/?q=17.0205628,54.1075147",
      "source": "osm"
    },
    {
      "nom": "Al-Hanaa Hotel",
      "categorie": "Hôtel",
      "priceRange": "€€",
      "mapsUrl": "https://maps.google.com/?q=17.0188682,54.1091514",
      "lat": 17.0188682,
      "lng": 54.1091514,
      "halalFriendly": false,
      "bookingUrl": "https://maps.google.com/?q=17.0188682,54.1091514",
      "source": "osm"
    },
    {
      "nom": "فندق ريدان",
      "categorie": "Hôtel",
      "priceRange": "€€",
      "mapsUrl": "https://maps.google.com/?q=17.010883,54.1092228",
      "lat": 17.010883,
      "lng": 54.1092228,
      "halalFriendly": false,
      "bookingUrl": "https://maps.google.com/?q=17.010883,54.1092228",
      "source": "osm"
    },
    {
      "nom": "Bayt Al Haffah Hotel",
      "categorie": "Hôtel",
      "priceRange": "€€",
      "mapsUrl": "https://maps.google.com/?q=17.0237262,54.1120862",
      "lat": 17.0237262,
      "lng": 54.1120862,
      "halalFriendly": false,
      "bookingUrl": "https://maps.google.com/?q=17.0237262,54.1120862",
      "source": "osm"
    },
    {
      "nom": "Al-Abraj Hotel Apartments",
      "categorie": "Hôtel",
      "priceRange": "€€",
      "mapsUrl": "https://maps.google.com/?q=17.0198636,54.1142335",
      "lat": 17.0198636,
      "lng": 54.1142335,
      "halalFriendly": false,
      "bookingUrl": "https://maps.google.com/?q=17.0198636,54.1142335",
      "source": "osm"
    },
    {
      "nom": "Jawharat al Khair",
      "categorie": "Hôtel",
      "priceRange": "€€",
      "mapsUrl": "https://maps.google.com/?q=17.0192509,54.065214",
      "lat": 17.0192509,
      "lng": 54.065214,
      "halalFriendly": false,
      "bookingUrl": "https://maps.google.com/?q=17.0192509,54.065214",
      "source": "osm"
    },
    {
      "nom": "Salalah Gardens Residences",
      "categorie": "Hôtel",
      "priceRange": "€€",
      "mapsUrl": "https://maps.google.com/?q=17.0229494,54.0647904",
      "lat": 17.0229494,
      "lng": 54.0647904,
      "halalFriendly": false,
      "bookingUrl": "https://maps.google.com/?q=17.0229494,54.0647904",
      "source": "osm"
    },
    {
      "nom": "SBG Hamdan Villas",
      "categorie": "Auberge",
      "priceRange": "€€",
      "mapsUrl": "https://maps.google.com/?q=17.0223024,54.0609279",
      "lat": 17.0223024,
      "lng": 54.0609279,
      "halalFriendly": false,
      "bookingUrl": "https://maps.google.com/?q=17.0223024,54.0609279",
      "source": "osm"
    },
    {
      "nom": "ضيافة سكن الطيران المدني صلالة",
      "categorie": "Maison d'hôtes",
      "priceRange": "€€",
      "mapsUrl": "https://maps.google.com/?q=17.0152603,54.05903",
      "lat": 17.0152603,
      "lng": 54.05903,
      "halalFriendly": false,
      "bookingUrl": "https://maps.google.com/?q=17.0152603,54.05903",
      "source": "osm"
    },
    {
      "nom": "Horizon Fitness Club",
      "categorie": "Appartement",
      "priceRange": "€€",
      "mapsUrl": "https://maps.google.com/?q=17.0283745,54.0535258",
      "lat": 17.0283745,
      "lng": 54.0535258,
      "halalFriendly": false,
      "bookingUrl": "https://maps.google.com/?q=17.0283745,54.0535258",
      "source": "osm"
    },
    {
      "nom": "Al Baleed Resort Salalah by Anantara",
      "categorie": "Hôtel",
      "priceRange": "€€€€",
      "score": 5,
      "mapsUrl": "https://maps.google.com/?q=17.0079614,54.1438685",
      "lat": 17.0079614,
      "lng": 54.1438685,
      "halalFriendly": false,
      "bookingUrl": "https://maps.google.com/?q=17.0079614,54.1438685",
      "source": "osm"
    },
    {
      "nom": "الامير للشقق الفندق",
      "categorie": "Hôtel",
      "priceRange": "€€",
      "mapsUrl": "https://maps.google.com/?q=17.0019056,54.0414987",
      "lat": 17.0019056,
      "lng": 54.0414987,
      "halalFriendly": false,
      "bookingUrl": "https://maps.google.com/?q=17.0019056,54.0414987",
      "source": "osm"
    },
    {
      "nom": "Salalah Plaza Hotel",
      "categorie": "Hôtel",
      "priceRange": "€€",
      "mapsUrl": "https://maps.google.com/?q=17.0041002,54.039212",
      "lat": 17.0041002,
      "lng": 54.039212,
      "halalFriendly": false,
      "bookingUrl": "https://maps.google.com/?q=17.0041002,54.039212",
      "source": "osm"
    },
    {
      "nom": "فندق صلالة هوليداي إن",
      "categorie": "Hôtel",
      "priceRange": "€€",
      "mapsUrl": "https://maps.google.com/?q=17.01,54.15",
      "lat": 17.01,
      "lng": 54.15,
      "halalFriendly": false,
      "bookingUrl": "https://maps.google.com/?q=17.01,54.15",
      "source": "osm"
    },
    {
      "nom": "Beach Resort Salalah",
      "categorie": "Hôtel",
      "priceRange": "€€",
      "mapsUrl": "https://maps.google.com/?q=17.0089085,54.157775",
      "lat": 17.0089085,
      "lng": 54.157775,
      "halalFriendly": false,
      "bookingUrl": "https://www.beachresortsalalah.com/",
      "source": "osm"
    },
    {
      "nom": "Arabian Sea Villas",
      "categorie": "Hôtel",
      "priceRange": "€€",
      "mapsUrl": "https://maps.google.com/?q=17.0090002,54.1587399",
      "lat": 17.0090002,
      "lng": 54.1587399,
      "halalFriendly": false,
      "bookingUrl": "https://maps.google.com/?q=17.0090002,54.1587399",
      "source": "osm"
    },
    {
      "nom": "agadsir residential units salalah",
      "categorie": "Appartement",
      "priceRange": "€€",
      "mapsUrl": "https://maps.google.com/?q=17.0064021,54.0250488",
      "lat": 17.0064021,
      "lng": 54.0250488,
      "halalFriendly": false,
      "bookingUrl": "https://maps.google.com/?q=17.0064021,54.0250488",
      "source": "osm"
    },
    {
      "nom": "Arabian Ses Beach Building",
      "categorie": "Appartement",
      "priceRange": "€€",
      "mapsUrl": "https://maps.google.com/?q=17.0092462,54.1601892",
      "lat": 17.0092462,
      "lng": 54.1601892,
      "halalFriendly": false,
      "bookingUrl": "https://maps.google.com/?q=17.0092462,54.1601892",
      "source": "osm"
    },
    {
      "nom": "Dar Al Noori Studio Aparments",
      "categorie": "Appartement",
      "priceRange": "€€",
      "mapsUrl": "https://maps.google.com/?q=17.0093604,54.1605934",
      "lat": 17.0093604,
      "lng": 54.1605934,
      "halalFriendly": false,
      "bookingUrl": "https://maps.google.com/?q=17.0093604,54.1605934",
      "source": "osm"
    },
    {
      "nom": "Dahariz Beach Building",
      "categorie": "Appartement",
      "priceRange": "€€",
      "mapsUrl": "https://maps.google.com/?q=17.0093638,54.1612903",
      "lat": 17.0093638,
      "lng": 54.1612903,
      "halalFriendly": false,
      "bookingUrl": "https://maps.google.com/?q=17.0093638,54.1612903",
      "source": "osm"
    },
    {
      "nom": "فندق ريدان صلاله",
      "categorie": "Hôtel",
      "priceRange": "€€",
      "mapsUrl": "https://maps.google.com/?q=17.0202448,54.1620079",
      "lat": 17.0202448,
      "lng": 54.1620079,
      "halalFriendly": false,
      "bookingUrl": "https://maps.google.com/?q=17.0202448,54.1620079",
      "source": "osm"
    },
    {
      "nom": "النيل",
      "categorie": "Hôtel",
      "priceRange": "€€",
      "mapsUrl": "https://maps.google.com/?q=17.0514813,54.1529087",
      "lat": 17.0514813,
      "lng": 54.1529087,
      "halalFriendly": false,
      "bookingUrl": "https://maps.google.com/?q=17.0514813,54.1529087",
      "source": "osm"
    },
    {
      "nom": "Rotaj Suites",
      "categorie": "Hôtel",
      "priceRange": "€€",
      "mapsUrl": "https://maps.google.com/?q=17.0507997,54.155114",
      "lat": 17.0507997,
      "lng": 54.155114,
      "halalFriendly": false,
      "bookingUrl": "https://maps.google.com/?q=17.0507997,54.155114",
      "source": "osm"
    },
    {
      "nom": "بناية البستان",
      "categorie": "Hôtel",
      "priceRange": "€€",
      "mapsUrl": "https://maps.google.com/?q=17.0528877,54.1559944",
      "lat": 17.0528877,
      "lng": 54.1559944,
      "halalFriendly": false,
      "bookingUrl": "https://maps.google.com/?q=17.0528877,54.1559944",
      "source": "osm"
    },
    {
      "nom": "salalah",
      "categorie": "Maison d'hôtes",
      "priceRange": "€€",
      "mapsUrl": "https://maps.google.com/?q=17.0147756,54.0173234",
      "lat": 17.0147756,
      "lng": 54.0173234,
      "halalFriendly": false,
      "bookingUrl": "https://maps.google.com/?q=17.0147756,54.0173234",
      "source": "osm"
    }
  ],
  "activites": [
    {
      "nom": "Tombeau du Prophète Job (Nabi Ayoub)",
      "categorie": "Religieux & Spirituel",
      "description": "Sanctuaire en montagne offrant une vue panoramique, lieu de recueillement.",
      "duree": "1h",
      "prix": "Gratuit",
      "mapsUrl": "https://maps.google.com/?q=Tombeau+du+Proph%C3%A8te+Job+%28Nabi+Ayoub%29+Salalah",
      "tripadvisorUrl": "https://www.tripadvisor.fr/Search?q=Tombeau+du+Proph%C3%A8te+Job+%28Nabi+Ayoub%29+Salalah",
      "id": "a1",
      "meilleureEpoque": "Été",
      "idealPour": [
        "famille",
        "solo",
        "couple"
      ],
      "conseil": "Venez tôt le matin pour profiter du calme et éviter la foule."
    },
    {
      "nom": "Wadi Darbat (Khareef)",
      "categorie": "Nature & Aventure",
      "description": "Vallée verdoyante aux cascades pendant la mousson, faune et pique-niques.",
      "duree": "3h",
      "prix": "Gratuit",
      "mapsUrl": "https://maps.google.com/?q=Wadi+Darbat+%28Khareef%29+Salalah",
      "tripadvisorUrl": "https://www.tripadvisor.fr/Search?q=Wadi+Darbat+%28Khareef%29+Salalah",
      "id": "a2",
      "meilleureEpoque": "Toute l'année",
      "idealPour": [
        "famille",
        "groupe",
        "couple"
      ],
      "conseil": "Venez tôt le matin pour profiter du calme et éviter la foule."
    },
    {
      "nom": "Plage de Mughsail & Blowholes",
      "categorie": "Nature & Aventure",
      "description": "Falaises spectaculaires et jets d'eau naturels au sud de Salalah.",
      "duree": "2h",
      "prix": "Gratuit",
      "mapsUrl": "https://maps.google.com/?q=Plage+de+Mughsail+%26+Blowholes+Salalah",
      "tripadvisorUrl": "https://www.tripadvisor.fr/Search?q=Plage+de+Mughsail+%26+Blowholes+Salalah",
      "id": "a3",
      "meilleureEpoque": "Toute l'année",
      "idealPour": [
        "famille",
        "groupe",
        "couple"
      ],
      "conseil": "Venez tôt le matin pour profiter du calme et éviter la foule."
    },
    {
      "nom": "Site UNESCO d'Al-Baleed",
      "categorie": "Histoire & Culture",
      "description": "Ruines de l'ancien port de l'encens et musée du Land of Frankincense.",
      "duree": "2h",
      "prix": "€",
      "mapsUrl": "https://maps.google.com/?q=Site+UNESCO+d%27Al-Baleed+Salalah",
      "tripadvisorUrl": "https://www.tripadvisor.fr/Search?q=Site+UNESCO+d%27Al-Baleed+Salalah",
      "id": "a4",
      "meilleureEpoque": "Toute l'année",
      "idealPour": [
        "famille",
        "couple",
        "solo"
      ],
      "conseil": "Venez tôt le matin pour profiter du calme et éviter la foule."
    },
    {
      "nom": "Souk Al Haffa",
      "categorie": "Shopping & Souks",
      "description": "Souk de l'encens et de l'oud, parfums du Dhofar.",
      "duree": "1-2h",
      "prix": "Gratuit",
      "mapsUrl": "https://maps.google.com/?q=Souk+Al+Haffa+Salalah",
      "tripadvisorUrl": "https://www.tripadvisor.fr/Search?q=Souk+Al+Haffa+Salalah",
      "id": "a5",
      "meilleureEpoque": "Été",
      "idealPour": [
        "famille",
        "couple",
        "solo"
      ],
      "conseil": "Venez tôt le matin pour profiter du calme et éviter la foule."
    },
    {
      "nom": "Mosquée Sultan Qaboos de Salalah",
      "categorie": "Religieux & Spirituel",
      "description": "Grande mosquée de la ville à l'élégante architecture omanie.",
      "duree": "1h",
      "prix": "Gratuit",
      "mapsUrl": "https://maps.google.com/?q=Mosqu%C3%A9e+Sultan+Qaboos+de+Salalah+Salalah",
      "tripadvisorUrl": "https://www.tripadvisor.fr/Search?q=Mosqu%C3%A9e+Sultan+Qaboos+de+Salalah+Salalah",
      "id": "a6",
      "meilleureEpoque": "Été",
      "idealPour": [
        "famille",
        "solo",
        "couple"
      ],
      "conseil": "Venez tôt le matin pour profiter du calme et éviter la foule."
    },
    {
      "nom": "Bananeraies et sources d'Ayn Razat",
      "categorie": "Nature & Aventure",
      "description": "Jardins et source naturelle entourés de plantations, balade familiale.",
      "duree": "2h",
      "prix": "Gratuit",
      "mapsUrl": "https://maps.google.com/?q=Bananeraies+et+sources+d%27Ayn+Razat+Salalah",
      "tripadvisorUrl": "https://www.tripadvisor.fr/Search?q=Bananeraies+et+sources+d%27Ayn+Razat+Salalah",
      "id": "a7",
      "meilleureEpoque": "Toute l'année",
      "idealPour": [
        "famille",
        "groupe",
        "couple"
      ],
      "conseil": "Venez tôt le matin pour profiter du calme et éviter la foule."
    },
    {
      "nom": "Désert du Rub al-Khali (excursion)",
      "categorie": "Nature & Aventure",
      "description": "Porte du plus grand désert de sable du monde, dunes à perte de vue.",
      "duree": "Journée",
      "prix": "€€€",
      "mapsUrl": "https://maps.google.com/?q=D%C3%A9sert+du+Rub+al-Khali+%28excursion%29+Salalah",
      "tripadvisorUrl": "https://www.tripadvisor.fr/Search?q=D%C3%A9sert+du+Rub+al-Khali+%28excursion%29+Salalah",
      "id": "a8",
      "meilleureEpoque": "Été",
      "idealPour": [
        "famille",
        "groupe",
        "couple"
      ],
      "conseil": "Venez tôt le matin pour profiter du calme et éviter la foule."
    },
    {
      "nom": "Vieille ville de Salalah",
      "categorie": "Histoire & Culture",
      "description": "Flânerie dans les ruelles historiques et l'architecture locale.",
      "duree": "2h",
      "prix": "Gratuit",
      "mapsUrl": "https://maps.google.com/?q=Vieille+ville+de+Salalah+Salalah",
      "tripadvisorUrl": "https://www.tripadvisor.fr/Search?q=Vieille+ville+de+Salalah+Salalah",
      "id": "a9",
      "meilleureEpoque": "Été",
      "idealPour": [
        "famille",
        "couple",
        "solo"
      ],
      "conseil": "Venez tôt le matin pour profiter du calme et éviter la foule."
    },
    {
      "nom": "Grand souk de Salalah",
      "categorie": "Shopping & Souks",
      "description": "Marché traditionnel d'épices, textiles et artisanat.",
      "duree": "2h",
      "prix": "Gratuit",
      "mapsUrl": "https://maps.google.com/?q=Grand+souk+de+Salalah+Salalah",
      "tripadvisorUrl": "https://www.tripadvisor.fr/Search?q=Grand+souk+de+Salalah+Salalah",
      "id": "a10",
      "meilleureEpoque": "Hiver",
      "idealPour": [
        "famille",
        "couple",
        "solo"
      ],
      "conseil": "Venez tôt le matin pour profiter du calme et éviter la foule."
    },
    {
      "nom": "Quartier historique de Salalah",
      "categorie": "Histoire & Culture",
      "description": "Découverte du cœur ancien de la ville, architecture et ambiance locale.",
      "duree": "2h",
      "prix": "Gratuit",
      "mapsUrl": "https://maps.google.com/?q=Quartier+historique+de+Salalah+Salalah",
      "tripadvisorUrl": "https://www.tripadvisor.fr/Search?q=Quartier+historique+de+Salalah+Salalah",
      "meilleureEpoque": "Hiver",
      "idealPour": [
        "famille",
        "couple",
        "solo"
      ],
      "conseil": "Venez tôt le matin pour profiter du calme et éviter la foule.",
      "id": "a11"
    },
    {
      "nom": "Grand marché central de Salalah",
      "categorie": "Shopping & Souks",
      "description": "Marché traditionnel d'épices, textiles et artisanat local.",
      "duree": "2h",
      "prix": "Gratuit",
      "mapsUrl": "https://maps.google.com/?q=Grand+march%C3%A9+central+de+Salalah+Salalah",
      "tripadvisorUrl": "https://www.tripadvisor.fr/Search?q=Grand+march%C3%A9+central+de+Salalah+Salalah",
      "meilleureEpoque": "Toute l'année",
      "idealPour": [
        "famille",
        "couple",
        "solo"
      ],
      "conseil": "Venez tôt le matin pour profiter du calme et éviter la foule.",
      "id": "a12"
    },
    {
      "nom": "Promenade au bord de l'eau de Salalah",
      "categorie": "Nature & Aventure",
      "description": "Balade au coucher du soleil le long du front d'eau.",
      "duree": "1-2h",
      "prix": "Gratuit",
      "mapsUrl": "https://maps.google.com/?q=Promenade+au+bord+de+l%27eau+de+Salalah+Salalah",
      "tripadvisorUrl": "https://www.tripadvisor.fr/Search?q=Promenade+au+bord+de+l%27eau+de+Salalah+Salalah",
      "meilleureEpoque": "Toute l'année",
      "idealPour": [
        "famille",
        "groupe",
        "couple"
      ],
      "conseil": "Venez tôt le matin pour profiter du calme et éviter la foule.",
      "id": "a13"
    },
    {
      "nom": "Musée de la ville de Salalah",
      "categorie": "Art & Musées",
      "description": "Collections retraçant l'histoire et la culture islamique locale.",
      "duree": "2h",
      "prix": "€",
      "mapsUrl": "https://maps.google.com/?q=Mus%C3%A9e+de+la+ville+de+Salalah+Salalah",
      "tripadvisorUrl": "https://www.tripadvisor.fr/Search?q=Mus%C3%A9e+de+la+ville+de+Salalah+Salalah",
      "meilleureEpoque": "Été",
      "idealPour": [
        "famille",
        "couple",
        "solo"
      ],
      "conseil": "Venez tôt le matin pour profiter du calme et éviter la foule.",
      "id": "a14"
    },
    {
      "nom": "Food tour halal de Salalah",
      "categorie": "Gastronomie",
      "description": "Parcours des meilleures adresses de street food halal avec un guide.",
      "duree": "3h",
      "prix": "€€",
      "mapsUrl": "https://maps.google.com/?q=Food+tour+halal+de+Salalah+Salalah",
      "tripadvisorUrl": "https://www.tripadvisor.fr/Search?q=Food+tour+halal+de+Salalah+Salalah",
      "meilleureEpoque": "Hiver",
      "idealPour": [
        "famille",
        "couple",
        "solo"
      ],
      "conseil": "Venez tôt le matin pour profiter du calme et éviter la foule.",
      "id": "a15"
    }
  ],
  "mosqueesPrincipales": [
    {
      "nom": "جامع عقيل",
      "lat": 17.0108887,
      "lng": 54.0996124,
      "coordonnees": {
        "lat": 17.0108887,
        "lng": 54.0996124
      },
      "mapsUrl": "https://maps.google.com/?q=17.0108887,54.0996124",
      "source": "osm"
    },
    {
      "nom": "مسجد أحمد بن علي",
      "lat": 17.0194408,
      "lng": 54.1008464,
      "coordonnees": {
        "lat": 17.0194408,
        "lng": 54.1008464
      },
      "mapsUrl": "https://maps.google.com/?q=17.0194408,54.1008464",
      "source": "osm"
    },
    {
      "nom": "مسجد البرمة",
      "lat": 17.0100416,
      "lng": 54.0810447,
      "coordonnees": {
        "lat": 17.0100416,
        "lng": 54.0810447
      },
      "mapsUrl": "https://maps.google.com/?q=17.0100416,54.0810447",
      "source": "osm"
    },
    {
      "nom": "مسجد بغديرة",
      "lat": 17.009615,
      "lng": 54.0794341,
      "coordonnees": {
        "lat": 17.009615,
        "lng": 54.0794341
      },
      "mapsUrl": "https://maps.google.com/?q=17.009615,54.0794341",
      "source": "osm"
    },
    {
      "nom": "Masjid Al Zawiyah",
      "lat": 17.0190263,
      "lng": 54.1060721,
      "coordonnees": {
        "lat": 17.0190263,
        "lng": 54.1060721
      },
      "adresse": "شارع الزاوية صلالة الشرقية, صلالة",
      "mapsUrl": "https://maps.google.com/?q=17.0190263,54.1060721",
      "source": "osm"
    },
    {
      "nom": "مسجد الهدى",
      "lat": 17.0204578,
      "lng": 54.0791512,
      "coordonnees": {
        "lat": 17.0204578,
        "lng": 54.0791512
      },
      "mapsUrl": "https://maps.google.com/?q=17.0204578,54.0791512",
      "source": "osm"
    },
    {
      "nom": "مسجد السلم",
      "lat": 17.0098751,
      "lng": 54.0788356,
      "coordonnees": {
        "lat": 17.0098751,
        "lng": 54.0788356
      },
      "mapsUrl": "https://maps.google.com/?q=17.0098751,54.0788356",
      "source": "osm"
    },
    {
      "nom": "مسجد الشنفري",
      "lat": 17.0102723,
      "lng": 54.1099154,
      "coordonnees": {
        "lat": 17.0102723,
        "lng": 54.1099154
      },
      "mapsUrl": "https://maps.google.com/?q=17.0102723,54.1099154",
      "source": "osm"
    },
    {
      "nom": "مسجد عفيف",
      "lat": 17.0108221,
      "lng": 54.1179133,
      "coordonnees": {
        "lat": 17.0108221,
        "lng": 54.1179133
      },
      "mapsUrl": "https://maps.google.com/?q=17.0108221,54.1179133",
      "source": "osm"
    },
    {
      "nom": "جامع الإيمان",
      "lat": 17.0220157,
      "lng": 54.0292553,
      "coordonnees": {
        "lat": 17.0220157,
        "lng": 54.0292553
      },
      "mapsUrl": "https://maps.google.com/?q=17.0220157,54.0292553",
      "source": "osm"
    },
    {
      "nom": "مسجد الهدد",
      "lat": 17.0200331,
      "lng": 54.1602655,
      "coordonnees": {
        "lat": 17.0200331,
        "lng": 54.1602655
      },
      "mapsUrl": "https://maps.google.com/?q=17.0200331,54.1602655",
      "source": "osm"
    },
    {
      "nom": "مسجد الشيخ أحمد محمد",
      "lat": 17.0199444,
      "lng": 54.0169036,
      "coordonnees": {
        "lat": 17.0199444,
        "lng": 54.0169036
      },
      "mapsUrl": "https://maps.google.com/?q=17.0199444,54.0169036",
      "source": "osm"
    },
    {
      "nom": "مسجد التقوى",
      "lat": 16.9978978,
      "lng": 54.0106357,
      "coordonnees": {
        "lat": 16.9978978,
        "lng": 54.0106357
      },
      "mapsUrl": "https://maps.google.com/?q=16.9978978,54.0106357",
      "source": "osm"
    },
    {
      "nom": "جامع شقفينوت",
      "lat": 17.0993199,
      "lng": 54.1156561,
      "coordonnees": {
        "lat": 17.0993199,
        "lng": 54.1156561
      },
      "mapsUrl": "https://maps.google.com/?q=17.0993199,54.1156561",
      "source": "osm"
    },
    {
      "nom": "Osama bin Zaid",
      "lat": 17.0774285,
      "lng": 54.1590274,
      "coordonnees": {
        "lat": 17.0774285,
        "lng": 54.1590274
      },
      "mapsUrl": "https://maps.google.com/?q=17.0774285,54.1590274",
      "source": "osm"
    },
    {
      "nom": "مسجد الماجد",
      "lat": 17.0892166,
      "lng": 54.2021798,
      "coordonnees": {
        "lat": 17.0892166,
        "lng": 54.2021798
      },
      "mapsUrl": "https://maps.google.com/?q=17.0892166,54.2021798",
      "source": "osm"
    },
    {
      "nom": "مسجد الضريح نبي أيوب عليه الصلاة والسلام",
      "lat": 17.1115524,
      "lng": 53.9937782,
      "coordonnees": {
        "lat": 17.1115524,
        "lng": 53.9937782
      },
      "adresse": "صلالة -غدو",
      "mapsUrl": "https://maps.google.com/?q=17.1115524,53.9937782",
      "source": "osm"
    }
  ],
  "tags": [
    "nature",
    "plage",
    "encens",
    "spirituel",
    "famille",
    "khareef"
  ],
  "selectionsPremium": {
    "mieuxNotes": [
      "Bait Al Karam",
      "Bait Al Karam Salalah 1",
      "Shawarma Al Reef",
      "Shawarma Al Reef Salalah 2",
      "Saffron Garden Salalah"
    ],
    "meilleurRapportQualitePrix": [
      "Al Fareed Restaurant",
      "Baalbek Restaurant",
      "Bab Al Salam",
      "Al Anqood",
      "Beit Beirut Salalah"
    ],
    "incontournables": [
      "Shawarma Al Reef",
      "Al Anqood",
      "Beit Cham Salalah 3",
      "Beit Cham",
      "Oasis Club Restaurant"
    ],
    "pepitesCachees": [
      "Saffron Garden Salalah",
      "Bait Al Karam"
    ],
    "idealFamille": [
      "Al Fareed Restaurant",
      "Baalbek Restaurant",
      "Oasis Club Restaurant",
      "Hassan Bin Thabit",
      "Bab Al Salam"
    ],
    "gastronomique": [
      "Saffron Garden Salalah",
      "Saffron Majlis",
      "Saffron Majlis Salalah 4"
    ],
    "ouvertNuit": [
      "Baalbek Restaurant",
      "Hassan Bin Thabit",
      "Lebanese Village"
    ],
    "vueExceptionnelle": [
      "Oasis Club Restaurant"
    ]
  },
  "description_en": "Salalah, in Oman, is a halal-friendly destination with a Halal Trust Score of 4.3/5. Muslim travelers will find 800 halal restaurants, 400 mosques, real-time prayer times and the Qibla direction — a complete guide to travel with peace of mind.",
  "metaDescription_en": "Halal guide to Salalah: 800+ halal restaurants, 400 mosques, prayer times and tips for Muslim travelers. Halal Trust Score 4.3/5.",
  "nom_en": "Salalah",
  "boucheries": [],
  "infos_pratiques_en": {
    "langue": "Arabic",
    "monnaie": "Rial omanais (OMR)",
    "meilleure_periode": "July to September (Khareef)",
    "appel_priere": "5 times a day",
    "nourriture_halal": "Largement disponible"
  }
}