{
 "nom": "Salalah",
 "pays": "Oman",
 "slug": "salalah",
 "image": "https://images.unsplash.com/photo-1699855803432-17f4ab468b2d?w=1600&q=80",
 "image_hero": "https://images.unsplash.com/photo-1699855803432-17f4ab468b2d?w=1600&q=80",
 "description": "Salalah, capitale du Dhofar, se couvre de vert pendant le Khareef, la mousson d'été. Plages immaculées, encens et sites bibliques en font une perle de l'Arabie.",
 "descriptionLongue": "Unique en Arabie, Salalah verdit chaque été sous le Khareef, la mousson qui transforme le Dhofar en oasis brumeuse. Terre de l'encens depuis l'Antiquité, elle abrite des sites inscrits à l'UNESCO et le tombeau présumé du prophète Job. Ses plages de la mer d'Arabie, ses sources et ses bananeraies offrent une nature préservée. Ville paisible et entièrement halal, à l'hospitalité omanie légendaire.",
 "halalScore": 8.7,
 "score_halal": 4.3,
 "mosquees": 400,
 "population": "350 000",
 "langue": "Arabe",
 "monnaie": "Rial omanais (OMR)",
 "fuseau": "UTC+4",
 "meilleureEpoque": "Juillet à Septembre (Khareef)",
 "prixMoyenNuit": "90€",
 "continent": "Asie",
 "codeISO": "OM",
 "pays_slug": "oman",
 "region": "Dhofar",
 "meta_title": "Voyage Halal à Salalah — Guide Complet 2026",
 "meta_description": "Restaurants halal signalés, mosquées et guide pratique pour Salalah — Halal Trust Score 8.7/10.",
 "metaDescription": "Restaurants halal signalés, mosquées et guide pratique pour Salalah — Halal Trust Score 8.7/10.",
 "coordonnees": {
  "lat": 17.0151,
  "lng": 54.0924
 },
 "image_alt": "Vue de Salalah, Oman",
 "statistiques": {
  "mosquees": 17,
  "restaurants_halal": 11,
  "habitants_musulmans_pct": 99,
  "hotels": 52
 },
 "infos_pratiques": {
  "langue": "Arabe",
  "monnaie": "Rial omanais (OMR)",
  "meilleure_periode": "Juillet à Septembre (Khareef)",
  "appel_priere": "5 fois par jour",
  "nourriture_halal": "Largement disponible",
  "alcool": "Réglementé",
  "securite": "Précautions habituelles"
 },
 "infoPratique": {
  "visa": "e-Visa omanais disponible en ligne",
  "vaccins": "Aucun obligatoire",
  "transport": "Location de voiture recommandée, taxis",
  "priseElectrique": "Type G — 240V",
  "decalageHoraire": "+3h par rapport à Paris (hiver)"
 },
 "restaurants": [
  {
   "nom": "Udupi Vegetarian Restaurant",
   "lat": 17.015445,
   "lng": 54.0936642,
   "type": "indian",
   "halalConfidence": "likely",
   "mapsUrl": "https://maps.google.com/?q=17.015445,54.0936642",
   "source": "osm"
  },
  {
   "nom": "مطعم توپاز",
   "lat": 17.0142911,
   "lng": 54.0905439,
   "type": "asian, indian, arab",
   "halalConfidence": "likely",
   "mapsUrl": "https://maps.google.com/?q=17.0142911,54.0905439",
   "source": "osm"
  },
  {
   "nom": "NajdLand",
   "lat": 17.0189662,
   "lng": 54.0931168,
   "type": "local, italian pizza, pizza, tea, steak house, pasta, italian, indian, coffee shop, chicken, cake, arab",
   "halalConfidence": "likely",
   "mapsUrl": "https://maps.google.com/?q=17.0189662,54.0931168",
   "source": "osm"
  },
  {
   "nom": "Al Tanour Restaurant",
   "lat": 17.0162306,
   "lng": 54.0967806,
   "type": "lebanese",
   "halalConfidence": "likely",
   "mapsUrl": "https://maps.google.com/?q=17.0162306,54.0967806",
   "source": "osm"
  },
  {
   "nom": "Lasorda Restaurant",
   "lat": 17.0203691,
   "lng": 54.0886421,
   "type": "shawarma",
   "halalConfidence": "likely",
   "mapsUrl": "https://maps.google.com/?q=17.0203691,54.0886421",
   "source": "osm"
  },
  {
   "nom": "Al Kutaimi Restaurant",
   "lat": 17.0141002,
   "lng": 54.1017568,
   "type": "indian, pakistani",
   "halalConfidence": "likely",
   "mapsUrl": "https://maps.google.com/?q=17.0141002,54.1017568",
   "source": "osm"
  },
  {
   "nom": "مطعم بعلبك مأكولات لبنانية",
   "lat": 17.0181308,
   "lng": 54.1021052,
   "type": "lebanese",
   "halalConfidence": "likely",
   "mapsUrl": "https://maps.google.com/?q=17.0181308,54.1021052",
   "source": "osm"
  },
  {
   "nom": "Marmara Al-Turkey",
   "lat": 17.0192452,
   "lng": 54.1084175,
   "type": "turkish",
   "halalConfidence": "likely",
   "mapsUrl": "https://maps.google.com/?q=17.0192452,54.1084175",
   "source": "osm"
  },
  {
   "nom": "Bin Ateeq",
   "lat": 17.0089851,
   "lng": 54.0729213,
   "type": "arab",
   "halalConfidence": "likely",
   "mapsUrl": "https://maps.google.com/?q=17.0089851,54.0729213",
   "source": "osm"
  },
  {
   "nom": "Al Reef Lebanese Restaurant",
   "lat": 17.0218719,
   "lng": 54.0583834,
   "type": "arabic",
   "halalConfidence": "likely",
   "mapsUrl": "https://maps.google.com/?q=17.0218719,54.0583834",
   "source": "osm"
  },
  {
   "nom": "OM Restaurant",
   "lat": 17.0211247,
   "lng": 54.0461227,
   "type": "indian",
   "halalConfidence": "likely",
   "mapsUrl": "https://maps.google.com/?q=17.0211247,54.0461227",
   "source": "osm"
  }
 ],
 "hotels": [
  {
   "nom": "Muscat International Hotel",
   "categorie": "Hôtel",
   "priceRange": "€€",
   "mapsUrl": "https://maps.google.com/?q=17.0148189,54.091529",
   "lat": 17.0148189,
   "lng": 54.091529,
   "halalFriendly": false,
   "bookingUrl": "https://maps.google.com/?q=17.0148189,54.091529",
   "source": "osm"
  },
  {
   "nom": "Al Andalus Hotel Apartments",
   "categorie": "Hôtel",
   "priceRange": "€€",
   "mapsUrl": "https://maps.google.com/?q=17.0143624,54.0910822",
   "lat": 17.0143624,
   "lng": 54.0910822,
   "halalFriendly": false,
   "bookingUrl": "https://maps.google.com/?q=17.0143624,54.0910822",
   "source": "osm"
  },
  {
   "nom": "Salalah Royal Hotel Suites",
   "categorie": "Hôtel",
   "priceRange": "€€",
   "mapsUrl": "https://maps.google.com/?q=17.0185978,54.0939651",
   "lat": 17.0185978,
   "lng": 54.0939651,
   "halalFriendly": false,
   "bookingUrl": "https://maps.google.com/?q=17.0185978,54.0939651",
   "source": "osm"
  },
  {
   "nom": "optimal apartment hotelo",
   "categorie": "Hôtel",
   "priceRange": "€€",
   "mapsUrl": "https://maps.google.com/?q=17.0183623,54.0957045",
   "lat": 17.0183623,
   "lng": 54.0957045,
   "halalFriendly": false,
   "bookingUrl": "https://maps.google.com/?q=17.0183623,54.0957045",
   "source": "osm"
  },
  {
   "nom": "ال غبيش",
   "categorie": "Hôtel",
   "priceRange": "€€",
   "mapsUrl": "https://maps.google.com/?q=17.0203619,54.0930451",
   "lat": 17.0203619,
   "lng": 54.0930451,
   "halalFriendly": false,
   "bookingUrl": "https://maps.google.com/?q=17.0203619,54.0930451",
   "source": "osm"
  },
  {
   "nom": "Star House Grand",
   "categorie": "Appartement",
   "priceRange": "€€",
   "mapsUrl": "https://maps.google.com/?q=17.0140318,54.0867608",
   "lat": 17.0140318,
   "lng": 54.0867608,
   "halalFriendly": false,
   "bookingUrl": "https://maps.google.com/?q=17.0140318,54.0867608",
   "source": "osm"
  },
  {
   "nom": "Intercity Hotel Salalah - Real Position!",
   "categorie": "Hôtel",
   "priceRange": "€€",
   "mapsUrl": "https://maps.google.com/?q=17.020489,54.0937759",
   "lat": 17.020489,
   "lng": 54.0937759,
   "halalFriendly": false,
   "bookingUrl": "https://maps.google.com/?q=17.020489,54.0937759",
   "source": "osm"
  },
  {
   "nom": "Happy Apartment House",
   "categorie": "Maison d'hôtes",
   "priceRange": "€€",
   "mapsUrl": "https://maps.google.com/?q=17.0181775,54.0875211",
   "lat": 17.0181775,
   "lng": 54.0875211,
   "halalFriendly": false,
   "bookingUrl": "https://maps.google.com/?q=17.0181775,54.0875211",
   "source": "osm"
  },
  {
   "nom": "Salalah Hotel",
   "categorie": "Hôtel",
   "priceRange": "€€",
   "mapsUrl": "https://maps.google.com/?q=17.0194818,54.0961613",
   "lat": 17.0194818,
   "lng": 54.0961613,
   "halalFriendly": false,
   "bookingUrl": "https://maps.google.com/?q=17.0194818,54.0961613",
   "source": "osm"
  },
  {
   "nom": "United Dreams 13 Furnished Apartments",
   "categorie": "Hôtel",
   "priceRange": "€€",
   "mapsUrl": "https://maps.google.com/?q=17.0197801,54.0883214",
   "lat": 17.0197801,
   "lng": 54.0883214,
   "halalFriendly": false,
   "bookingUrl": "https://maps.google.com/?q=17.0197801,54.0883214",
   "source": "osm"
  },
  {
   "nom": "Al Tawazan Modern Lodge",
   "categorie": "Hôtel",
   "priceRange": "€€",
   "mapsUrl": "https://maps.google.com/?q=17.0199747,54.0885468",
   "lat": 17.0199747,
   "lng": 54.0885468,
   "halalFriendly": false,
   "bookingUrl": "https://maps.google.com/?q=17.0199747,54.0885468",
   "source": "osm"
  },
  {
   "nom": "فندق رواس",
   "categorie": "Hôtel",
   "priceRange": "€€",
   "mapsUrl": "https://maps.google.com/?q=17.0095213,54.0893471",
   "lat": 17.0095213,
   "lng": 54.0893471,
   "halalFriendly": false,
   "bookingUrl": "https://maps.google.com/?q=17.0095213,54.0893471",
   "source": "osm"
  },
  {
   "nom": "شقق وغرف للايجار - صلالة",
   "categorie": "Hôtel",
   "priceRange": "€€",
   "mapsUrl": "https://maps.google.com/?q=17.0189373,54.0979632",
   "lat": 17.0189373,
   "lng": 54.0979632,
   "halalFriendly": false,
   "bookingUrl": "https://maps.google.com/?q=17.0189373,54.0979632",
   "source": "osm"
  },
  {
   "nom": "United Dreams 9 Furnished Apartments",
   "categorie": "Auberge",
   "priceRange": "€€",
   "mapsUrl": "https://maps.google.com/?q=17.0200124,54.0878128",
   "lat": 17.0200124,
   "lng": 54.0878128,
   "halalFriendly": false,
   "bookingUrl": "https://maps.google.com/?q=17.0200124,54.0878128",
   "source": "osm"
  },
  {
   "nom": "Star Emirates",
   "categorie": "Hôtel",
   "priceRange": "€€",
   "mapsUrl": "https://maps.google.com/?q=17.0140661,54.0855307",
   "lat": 17.0140661,
   "lng": 54.0855307,
   "halalFriendly": false,
   "bookingUrl": "https://maps.google.com/?q=17.0140661,54.0855307",
   "source": "osm"
  },
  {
   "nom": "شقق فندقية",
   "categorie": "Hôtel",
   "priceRange": "€€",
   "mapsUrl": "https://maps.google.com/?q=17.013412,54.085109",
   "lat": 17.013412,
   "lng": 54.085109,
   "halalFriendly": false,
   "bookingUrl": "https://maps.google.com/?q=17.013412,54.085109",
   "source": "osm"
  },
  {
   "nom": "Hotel apartments",
   "categorie": "Hôtel",
   "priceRange": "€€",
   "mapsUrl": "https://maps.google.com/?q=17.0214118,54.0885702",
   "lat": 17.0214118,
   "lng": 54.0885702,
   "halalFriendly": false,
   "bookingUrl": "https://maps.google.com/?q=17.0214118,54.0885702",
   "source": "osm"
  },
  {
   "nom": "Star Emirates Downtown",
   "categorie": "Hôtel",
   "priceRange": "€€",
   "mapsUrl": "https://maps.google.com/?q=17.0181449,54.1013899",
   "lat": 17.0181449,
   "lng": 54.1013899,
   "halalFriendly": false,
   "bookingUrl": "https://maps.google.com/?q=17.0181449,54.1013899",
   "source": "osm"
  },
  {
   "nom": "TAYBA HOMES",
   "categorie": "Hôtel",
   "priceRange": "€€",
   "mapsUrl": "https://maps.google.com/?q=17.0152252,54.0813931",
   "lat": 17.0152252,
   "lng": 54.0813931,
   "halalFriendly": false,
   "bookingUrl": "https://maps.google.com/?q=17.0152252,54.0813931",
   "source": "osm"
  },
  {
   "nom": "DARSHANA’S home",
   "categorie": "Appartement",
   "priceRange": "€€",
   "mapsUrl": "https://maps.google.com/?q=17.0188732,54.0794534",
   "lat": 17.0188732,
   "lng": 54.0794534,
   "halalFriendly": false,
   "bookingUrl": "https://maps.google.com/?q=17.0188732,54.0794534",
   "source": "osm"
  },
  {
   "nom": "نزل شمس",
   "categorie": "Auberge",
   "priceRange": "€€",
   "mapsUrl": "https://maps.google.com/?q=17.0177831,54.1063174",
   "lat": 17.0177831,
   "lng": 54.1063174,
   "halalFriendly": false,
   "bookingUrl": "https://maps.google.com/?q=17.0177831,54.1063174",
   "source": "osm"
  },
  {
   "nom": "المعشني",
   "categorie": "Maison d'hôtes",
   "priceRange": "€€",
   "mapsUrl": "https://maps.google.com/?q=17.0183197,54.1062467",
   "lat": 17.0183197,
   "lng": 54.1062467,
   "halalFriendly": false,
   "bookingUrl": "https://maps.google.com/?q=17.0183197,54.1062467",
   "source": "osm"
  },
  {
   "nom": "My Home",
   "categorie": "Appartement",
   "priceRange": "€€",
   "mapsUrl": "https://maps.google.com/?q=17.0073284,54.0796937",
   "lat": 17.0073284,
   "lng": 54.0796937,
   "halalFriendly": false,
   "bookingUrl": "https://maps.google.com/?q=17.0073284,54.0796937",
   "source": "osm"
  },
  {
   "nom": "Darbat Hotel",
   "categorie": "Hôtel",
   "priceRange": "€€",
   "mapsUrl": "https://maps.google.com/?q=17.0104315,54.0780972",
   "lat": 17.0104315,
   "lng": 54.0780972,
   "halalFriendly": false,
   "bookingUrl": "https://maps.google.com/?q=17.0104315,54.0780972",
   "source": "osm"
  },
  {
   "nom": "شقق 2",
   "categorie": "Appartement",
   "priceRange": "€€",
   "mapsUrl": "https://maps.google.com/?q=17.0171747,54.1075303",
   "lat": 17.0171747,
   "lng": 54.1075303,
   "halalFriendly": false,
   "bookingUrl": "https://maps.google.com/?q=17.0171747,54.1075303",
   "source": "osm"
  },
  {
   "nom": "الأفق للشقق المفروشة",
   "categorie": "Appartement",
   "priceRange": "€€",
   "mapsUrl": "https://maps.google.com/?q=17.0194351,54.1073054",
   "lat": 17.0194351,
   "lng": 54.1073054,
   "halalFriendly": false,
   "bookingUrl": "https://maps.google.com/?q=17.0194351,54.1073054",
   "source": "osm"
  },
  {
   "nom": "الأفق للشقق المفروشة",
   "categorie": "Appartement",
   "priceRange": "€€",
   "mapsUrl": "https://maps.google.com/?q=17.0194633,54.1074265",
   "lat": 17.0194633,
   "lng": 54.1074265,
   "halalFriendly": false,
   "bookingUrl": "https://maps.google.com/?q=17.0194633,54.1074265",
   "source": "osm"
  },
  {
   "nom": "الفصول الذهبية للشقق 1",
   "categorie": "Appartement",
   "priceRange": "€€",
   "mapsUrl": "https://maps.google.com/?q=17.0205628,54.1075147",
   "lat": 17.0205628,
   "lng": 54.1075147,
   "halalFriendly": false,
   "bookingUrl": "https://maps.google.com/?q=17.0205628,54.1075147",
   "source": "osm"
  },
  {
   "nom": "Al-Hanaa Hotel",
   "categorie": "Hôtel",
   "priceRange": "€€",
   "mapsUrl": "https://maps.google.com/?q=17.0188682,54.1091514",
   "lat": 17.0188682,
   "lng": 54.1091514,
   "halalFriendly": false,
   "bookingUrl": "https://maps.google.com/?q=17.0188682,54.1091514",
   "source": "osm"
  },
  {
   "nom": "فندق ريدان",
   "categorie": "Hôtel",
   "priceRange": "€€",
   "mapsUrl": "https://maps.google.com/?q=17.010883,54.1092228",
   "lat": 17.010883,
   "lng": 54.1092228,
   "halalFriendly": false,
   "bookingUrl": "https://maps.google.com/?q=17.010883,54.1092228",
   "source": "osm"
  },
  {
   "nom": "Bayt Al Haffah Hotel",
   "categorie": "Hôtel",
   "priceRange": "€€",
   "mapsUrl": "https://maps.google.com/?q=17.0237262,54.1120862",
   "lat": 17.0237262,
   "lng": 54.1120862,
   "halalFriendly": false,
   "bookingUrl": "https://maps.google.com/?q=17.0237262,54.1120862",
   "source": "osm"
  },
  {
   "nom": "Al-Abraj Hotel Apartments",
   "categorie": "Hôtel",
   "priceRange": "€€",
   "mapsUrl": "https://maps.google.com/?q=17.0198636,54.1142335",
   "lat": 17.0198636,
   "lng": 54.1142335,
   "halalFriendly": false,
   "bookingUrl": "https://maps.google.com/?q=17.0198636,54.1142335",
   "source": "osm"
  },
  {
   "nom": "Jawharat al Khair",
   "categorie": "Hôtel",
   "priceRange": "€€",
   "mapsUrl": "https://maps.google.com/?q=17.0192509,54.065214",
   "lat": 17.0192509,
   "lng": 54.065214,
   "halalFriendly": false,
   "bookingUrl": "https://maps.google.com/?q=17.0192509,54.065214",
   "source": "osm"
  },
  {
   "nom": "Salalah Gardens Residences",
   "categorie": "Hôtel",
   "priceRange": "€€",
   "mapsUrl": "https://maps.google.com/?q=17.0229494,54.0647904",
   "lat": 17.0229494,
   "lng": 54.0647904,
   "halalFriendly": false,
   "bookingUrl": "https://maps.google.com/?q=17.0229494,54.0647904",
   "source": "osm"
  },
  {
   "nom": "SBG Hamdan Villas",
   "categorie": "Auberge",
   "priceRange": "€€",
   "mapsUrl": "https://maps.google.com/?q=17.0223024,54.0609279",
   "lat": 17.0223024,
   "lng": 54.0609279,
   "halalFriendly": false,
   "bookingUrl": "https://maps.google.com/?q=17.0223024,54.0609279",
   "source": "osm"
  },
  {
   "nom": "ضيافة سكن الطيران المدني صلالة",
   "categorie": "Maison d'hôtes",
   "priceRange": "€€",
   "mapsUrl": "https://maps.google.com/?q=17.0152603,54.05903",
   "lat": 17.0152603,
   "lng": 54.05903,
   "halalFriendly": false,
   "bookingUrl": "https://maps.google.com/?q=17.0152603,54.05903",
   "source": "osm"
  },
  {
   "nom": "Horizon Fitness Club",
   "categorie": "Appartement",
   "priceRange": "€€",
   "mapsUrl": "https://maps.google.com/?q=17.0283745,54.0535258",
   "lat": 17.0283745,
   "lng": 54.0535258,
   "halalFriendly": false,
   "bookingUrl": "https://maps.google.com/?q=17.0283745,54.0535258",
   "source": "osm"
  },
  {
   "nom": "Al Baleed Resort Salalah by Anantara",
   "categorie": "Hôtel",
   "priceRange": "€€€€",
   "score": 5,
   "mapsUrl": "https://maps.google.com/?q=17.0079614,54.1438685",
   "lat": 17.0079614,
   "lng": 54.1438685,
   "halalFriendly": false,
   "bookingUrl": "https://maps.google.com/?q=17.0079614,54.1438685",
   "source": "osm"
  },
  {
   "nom": "الامير للشقق الفندق",
   "categorie": "Hôtel",
   "priceRange": "€€",
   "mapsUrl": "https://maps.google.com/?q=17.0019056,54.0414987",
   "lat": 17.0019056,
   "lng": 54.0414987,
   "halalFriendly": false,
   "bookingUrl": "https://maps.google.com/?q=17.0019056,54.0414987",
   "source": "osm"
  },
  {
   "nom": "Salalah Plaza Hotel",
   "categorie": "Hôtel",
   "priceRange": "€€",
   "mapsUrl": "https://maps.google.com/?q=17.0041002,54.039212",
   "lat": 17.0041002,
   "lng": 54.039212,
   "halalFriendly": false,
   "bookingUrl": "https://maps.google.com/?q=17.0041002,54.039212",
   "source": "osm"
  },
  {
   "nom": "فندق صلالة هوليداي إن",
   "categorie": "Hôtel",
   "priceRange": "€€",
   "mapsUrl": "https://maps.google.com/?q=17.01,54.15",
   "lat": 17.01,
   "lng": 54.15,
   "halalFriendly": false,
   "bookingUrl": "https://maps.google.com/?q=17.01,54.15",
   "source": "osm"
  },
  {
   "nom": "Beach Resort Salalah",
   "categorie": "Hôtel",
   "priceRange": "€€",
   "mapsUrl": "https://maps.google.com/?q=17.0089085,54.157775",
   "lat": 17.0089085,
   "lng": 54.157775,
   "halalFriendly": false,
   "bookingUrl": "https://www.beachresortsalalah.com/",
   "source": "osm"
  },
  {
   "nom": "Arabian Sea Villas",
   "categorie": "Hôtel",
   "priceRange": "€€",
   "mapsUrl": "https://maps.google.com/?q=17.0090002,54.1587399",
   "lat": 17.0090002,
   "lng": 54.1587399,
   "halalFriendly": false,
   "bookingUrl": "https://maps.google.com/?q=17.0090002,54.1587399",
   "source": "osm"
  },
  {
   "nom": "agadsir residential units salalah",
   "categorie": "Appartement",
   "priceRange": "€€",
   "mapsUrl": "https://maps.google.com/?q=17.0064021,54.0250488",
   "lat": 17.0064021,
   "lng": 54.0250488,
   "halalFriendly": false,
   "bookingUrl": "https://maps.google.com/?q=17.0064021,54.0250488",
   "source": "osm"
  },
  {
   "nom": "Arabian Ses Beach Building",
   "categorie": "Appartement",
   "priceRange": "€€",
   "mapsUrl": "https://maps.google.com/?q=17.0092462,54.1601892",
   "lat": 17.0092462,
   "lng": 54.1601892,
   "halalFriendly": false,
   "bookingUrl": "https://maps.google.com/?q=17.0092462,54.1601892",
   "source": "osm"
  },
  {
   "nom": "Dar Al Noori Studio Aparments",
   "categorie": "Appartement",
   "priceRange": "€€",
   "mapsUrl": "https://maps.google.com/?q=17.0093604,54.1605934",
   "lat": 17.0093604,
   "lng": 54.1605934,
   "halalFriendly": false,
   "bookingUrl": "https://maps.google.com/?q=17.0093604,54.1605934",
   "source": "osm"
  },
  {
   "nom": "Dahariz Beach Building",
   "categorie": "Appartement",
   "priceRange": "€€",
   "mapsUrl": "https://maps.google.com/?q=17.0093638,54.1612903",
   "lat": 17.0093638,
   "lng": 54.1612903,
   "halalFriendly": false,
   "bookingUrl": "https://maps.google.com/?q=17.0093638,54.1612903",
   "source": "osm"
  },
  {
   "nom": "فندق ريدان صلاله",
   "categorie": "Hôtel",
   "priceRange": "€€",
   "mapsUrl": "https://maps.google.com/?q=17.0202448,54.1620079",
   "lat": 17.0202448,
   "lng": 54.1620079,
   "halalFriendly": false,
   "bookingUrl": "https://maps.google.com/?q=17.0202448,54.1620079",
   "source": "osm"
  },
  {
   "nom": "النيل",
   "categorie": "Hôtel",
   "priceRange": "€€",
   "mapsUrl": "https://maps.google.com/?q=17.0514813,54.1529087",
   "lat": 17.0514813,
   "lng": 54.1529087,
   "halalFriendly": false,
   "bookingUrl": "https://maps.google.com/?q=17.0514813,54.1529087",
   "source": "osm"
  },
  {
   "nom": "Rotaj Suites",
   "categorie": "Hôtel",
   "priceRange": "€€",
   "mapsUrl": "https://maps.google.com/?q=17.0507997,54.155114",
   "lat": 17.0507997,
   "lng": 54.155114,
   "halalFriendly": false,
   "bookingUrl": "https://maps.google.com/?q=17.0507997,54.155114",
   "source": "osm"
  },
  {
   "nom": "بناية البستان",
   "categorie": "Hôtel",
   "priceRange": "€€",
   "mapsUrl": "https://maps.google.com/?q=17.0528877,54.1559944",
   "lat": 17.0528877,
   "lng": 54.1559944,
   "halalFriendly": false,
   "bookingUrl": "https://maps.google.com/?q=17.0528877,54.1559944",
   "source": "osm"
  },
  {
   "nom": "salalah",
   "categorie": "Maison d'hôtes",
   "priceRange": "€€",
   "mapsUrl": "https://maps.google.com/?q=17.0147756,54.0173234",
   "lat": 17.0147756,
   "lng": 54.0173234,
   "halalFriendly": false,
   "bookingUrl": "https://maps.google.com/?q=17.0147756,54.0173234",
   "source": "osm"
  }
 ],
 "activites": [
  {
   "nom": "إشارات تقاطع شارع السلام",
   "lat": 17.0127606,
   "lng": 54.0937379,
   "coordonnees": {
    "lat": 17.0127606,
    "lng": 54.0937379
   },
   "categorie": "Histoire",
   "mapsUrl": "https://maps.google.com/?q=17.0127606,54.0937379",
   "source": "osm"
  },
  {
   "nom": "شصر",
   "lat": 17.014106,
   "lng": 54.0974421,
   "coordonnees": {
    "lat": 17.014106,
    "lng": 54.0974421
   },
   "categorie": "À voir",
   "mapsUrl": "https://maps.google.com/?q=17.014106,54.0974421",
   "source": "osm"
  },
  {
   "nom": "Salalah Museum",
   "lat": 17.0226753,
   "lng": 54.0863555,
   "coordonnees": {
    "lat": 17.0226753,
    "lng": 54.0863555
   },
   "categorie": "Culture",
   "mapsUrl": "https://maps.google.com/?q=17.0226753,54.0863555",
   "source": "osm"
  },
  {
   "nom": "BMI",
   "lat": 17.0144072,
   "lng": 54.1043166,
   "coordonnees": {
    "lat": 17.0144072,
    "lng": 54.1043166
   },
   "categorie": "À voir",
   "mapsUrl": "https://maps.google.com/?q=17.0144072,54.1043166",
   "source": "osm"
  },
  {
   "nom": "بيع المشلي النارجيل الفواكة",
   "lat": 17.0104996,
   "lng": 54.1052797,
   "coordonnees": {
    "lat": 17.0104996,
    "lng": 54.1052797
   },
   "categorie": "À voir",
   "mapsUrl": "https://maps.google.com/?q=17.0104996,54.1052797",
   "source": "osm"
  },
  {
   "nom": "Souq Al Haffa",
   "lat": 17.0115565,
   "lng": 54.1059254,
   "coordonnees": {
    "lat": 17.0115565,
    "lng": 54.1059254
   },
   "categorie": "À voir",
   "mapsUrl": "https://maps.google.com/?q=17.0115565,54.1059254",
   "source": "osm"
  },
  {
   "nom": "سوق الحافة القديم",
   "lat": 17.002912,
   "lng": 54.1024552,
   "coordonnees": {
    "lat": 17.002912,
    "lng": 54.1024552
   },
   "categorie": "À voir",
   "mapsUrl": "https://maps.google.com/?q=17.002912,54.1024552",
   "source": "osm"
  },
  {
   "nom": "Sultan Palace",
   "lat": 16.999295,
   "lng": 54.0968248,
   "coordonnees": {
    "lat": 16.999295,
    "lng": 54.0968248
   },
   "categorie": "À voir",
   "mapsUrl": "https://maps.google.com/?q=16.999295,54.0968248",
   "source": "osm"
  },
  {
   "nom": "قبر النبي عمران",
   "lat": 17.0214282,
   "lng": 54.1113333,
   "coordonnees": {
    "lat": 17.0214282,
    "lng": 54.1113333
   },
   "categorie": "À voir",
   "mapsUrl": "https://maps.google.com/?q=17.0214282,54.1113333",
   "source": "osm"
  },
  {
   "nom": "Clock Tower",
   "lat": 17.0250259,
   "lng": 54.1117594,
   "coordonnees": {
    "lat": 17.0250259,
    "lng": 54.1117594
   },
   "categorie": "À voir",
   "mapsUrl": "https://maps.google.com/?q=17.0250259,54.1117594",
   "source": "osm"
  },
  {
   "nom": "Taurus Salalah",
   "lat": 17.0246923,
   "lng": 54.1144011,
   "coordonnees": {
    "lat": 17.0246923,
    "lng": 54.1144011
   },
   "categorie": "À voir",
   "mapsUrl": "https://maps.google.com/?q=17.0246923,54.1144011",
   "source": "osm"
  },
  {
   "nom": "Salalah Gardens Mall Park",
   "lat": 17.0228132,
   "lng": 54.065896,
   "coordonnees": {
    "lat": 17.0228132,
    "lng": 54.065896
   },
   "categorie": "Nature",
   "mapsUrl": "https://maps.google.com/?q=17.0228132,54.065896",
   "source": "osm"
  },
  {
   "nom": "salalah lulu",
   "lat": 17.0172661,
   "lng": 54.0618153,
   "coordonnees": {
    "lat": 17.0172661,
    "lng": 54.0618153
   },
   "categorie": "À voir",
   "mapsUrl": "https://maps.google.com/?q=17.0172661,54.0618153",
   "source": "osm"
  },
  {
   "nom": "البليد",
   "lat": 17.0055155,
   "lng": 54.1333082,
   "coordonnees": {
    "lat": 17.0055155,
    "lng": 54.1333082
   },
   "categorie": "Histoire",
   "mapsUrl": "https://maps.google.com/?q=17.0055155,54.1333082",
   "source": "osm"
  },
  {
   "nom": "القرية التراثية",
   "lat": 17.0388589,
   "lng": 54.057699,
   "coordonnees": {
    "lat": 17.0388589,
    "lng": 54.057699
   },
   "categorie": "Famille",
   "mapsUrl": "https://maps.google.com/?q=17.0388589,54.057699",
   "source": "osm"
  },
  {
   "nom": "البليــــــــــد",
   "lat": 17.0066688,
   "lng": 54.134544,
   "coordonnees": {
    "lat": 17.0066688,
    "lng": 54.134544
   },
   "categorie": "Histoire",
   "mapsUrl": "https://maps.google.com/?q=17.0066688,54.134544",
   "source": "osm"
  },
  {
   "nom": "مهرجان صلالة",
   "lat": 17.0391483,
   "lng": 54.0568921,
   "coordonnees": {
    "lat": 17.0391483,
    "lng": 54.0568921
   },
   "categorie": "À voir",
   "mapsUrl": "https://maps.google.com/?q=17.0391483,54.0568921",
   "source": "osm"
  },
  {
   "nom": "الواجهة العصرية صلالة",
   "lat": 17.0568159,
   "lng": 54.0650198,
   "coordonnees": {
    "lat": 17.0568159,
    "lng": 54.0650198
   },
   "categorie": "Panorama",
   "mapsUrl": "https://maps.google.com/?q=17.0568159,54.0650198",
   "source": "osm"
  },
  {
   "nom": "شقة في صلالة عبد العزيز",
   "lat": 17.020922,
   "lng": 54.1569985,
   "coordonnees": {
    "lat": 17.020922,
    "lng": 54.1569985
   },
   "categorie": "À voir",
   "mapsUrl": "https://maps.google.com/?q=17.020922,54.1569985",
   "source": "osm"
  },
  {
   "nom": "حديقة سمهرم السياحيه",
   "lat": 16.9879,
   "lng": 54.02706,
   "coordonnees": {
    "lat": 16.9879,
    "lng": 54.02706
   },
   "categorie": "Panorama",
   "mapsUrl": "https://maps.google.com/?q=16.9879,54.02706",
   "source": "osm"
  },
  {
   "nom": "السكن",
   "lat": 17.0144164,
   "lng": 54.1727548,
   "coordonnees": {
    "lat": 17.0144164,
    "lng": 54.1727548
   },
   "categorie": "À voir",
   "mapsUrl": "https://maps.google.com/?q=17.0144164,54.1727548",
   "source": "osm"
  },
  {
   "nom": "Atinaland",
   "lat": 17.0887778,
   "lng": 54.0693181,
   "coordonnees": {
    "lat": 17.0887778,
    "lng": 54.0693181
   },
   "categorie": "À voir",
   "mapsUrl": "https://maps.google.com/?q=17.0887778,54.0693181",
   "source": "osm"
  },
  {
   "nom": "Mosque",
   "lat": 17.0991305,
   "lng": 54.1149553,
   "coordonnees": {
    "lat": 17.0991305,
    "lng": 54.1149553
   },
   "categorie": "À voir",
   "mapsUrl": "https://maps.google.com/?q=17.0991305,54.1149553",
   "source": "osm"
  },
  {
   "nom": "Ain Garziz",
   "lat": 17.1098283,
   "lng": 54.0702282,
   "coordonnees": {
    "lat": 17.1098283,
    "lng": 54.0702282
   },
   "categorie": "Nature",
   "mapsUrl": "https://maps.google.com/?q=17.1098283,54.0702282",
   "source": "osm"
  },
  {
   "nom": "مدينة اتلانتس",
   "lat": 16.9684538,
   "lng": 53.9993464,
   "coordonnees": {
    "lat": 16.9684538,
    "lng": 53.9993464
   },
   "categorie": "À voir",
   "mapsUrl": "https://maps.google.com/?q=16.9684538,53.9993464",
   "source": "osm"
  },
  {
   "nom": "Gypsum Stock Pile",
   "lat": 16.937822,
   "lng": 54.0149438,
   "coordonnees": {
    "lat": 16.937822,
    "lng": 54.0149438
   },
   "categorie": "Panorama",
   "mapsUrl": "https://maps.google.com/?q=16.937822,54.0149438",
   "source": "osm"
  },
  {
   "nom": "عين كور",
   "lat": 17.0400271,
   "lng": 53.9696203,
   "coordonnees": {
    "lat": 17.0400271,
    "lng": 53.9696203
   },
   "categorie": "À voir",
   "mapsUrl": "https://maps.google.com/?q=17.0400271,53.9696203",
   "source": "osm"
  },
  {
   "nom": "عين كور",
   "lat": 17.0488987,
   "lng": 53.9637607,
   "coordonnees": {
    "lat": 17.0488987,
    "lng": 53.9637607
   },
   "categorie": "À voir",
   "mapsUrl": "https://maps.google.com/?q=17.0488987,53.9637607",
   "source": "osm"
  },
  {
   "nom": "Job's Tomb (Nabi Ayoub / Hiob mausoleum)",
   "lat": 17.1119213,
   "lng": 53.9938283,
   "coordonnees": {
    "lat": 17.1119213,
    "lng": 53.9938283
   },
   "categorie": "Histoire",
   "mapsUrl": "https://maps.google.com/?q=17.1119213,53.9938283",
   "source": "osm"
  },
  {
   "nom": "طريق صحلونات",
   "lat": 17.1440253,
   "lng": 54.1749788,
   "coordonnees": {
    "lat": 17.1440253,
    "lng": 54.1749788
   },
   "categorie": "À voir",
   "mapsUrl": "https://maps.google.com/?q=17.1440253,54.1749788",
   "source": "osm"
  },
  {
   "nom": "Ayn Sahalnoot",
   "lat": 17.1483313,
   "lng": 54.1785416,
   "coordonnees": {
    "lat": 17.1483313,
    "lng": 54.1785416
   },
   "categorie": "À voir",
   "mapsUrl": "https://maps.google.com/?q=17.1483313,54.1785416",
   "source": "osm"
  },
  {
   "nom": "كور",
   "lat": 17.0209589,
   "lng": 53.9249409,
   "coordonnees": {
    "lat": 17.0209589,
    "lng": 53.9249409
   },
   "categorie": "À voir",
   "mapsUrl": "https://maps.google.com/?q=17.0209589,53.9249409",
   "source": "osm"
  }
 ],
 "mosqueesPrincipales": [
  {
   "nom": "جامع عقيل",
   "lat": 17.0108887,
   "lng": 54.0996124,
   "coordonnees": {
    "lat": 17.0108887,
    "lng": 54.0996124
   },
   "mapsUrl": "https://maps.google.com/?q=17.0108887,54.0996124",
   "source": "osm"
  },
  {
   "nom": "مسجد أحمد بن علي",
   "lat": 17.0194408,
   "lng": 54.1008464,
   "coordonnees": {
    "lat": 17.0194408,
    "lng": 54.1008464
   },
   "mapsUrl": "https://maps.google.com/?q=17.0194408,54.1008464",
   "source": "osm"
  },
  {
   "nom": "مسجد البرمة",
   "lat": 17.0100416,
   "lng": 54.0810447,
   "coordonnees": {
    "lat": 17.0100416,
    "lng": 54.0810447
   },
   "mapsUrl": "https://maps.google.com/?q=17.0100416,54.0810447",
   "source": "osm"
  },
  {
   "nom": "مسجد بغديرة",
   "lat": 17.009615,
   "lng": 54.0794341,
   "coordonnees": {
    "lat": 17.009615,
    "lng": 54.0794341
   },
   "mapsUrl": "https://maps.google.com/?q=17.009615,54.0794341",
   "source": "osm"
  },
  {
   "nom": "Masjid Al Zawiyah",
   "lat": 17.0190263,
   "lng": 54.1060721,
   "coordonnees": {
    "lat": 17.0190263,
    "lng": 54.1060721
   },
   "adresse": "شارع الزاوية صلالة الشرقية, صلالة",
   "mapsUrl": "https://maps.google.com/?q=17.0190263,54.1060721",
   "source": "osm"
  },
  {
   "nom": "مسجد الهدى",
   "lat": 17.0204578,
   "lng": 54.0791512,
   "coordonnees": {
    "lat": 17.0204578,
    "lng": 54.0791512
   },
   "mapsUrl": "https://maps.google.com/?q=17.0204578,54.0791512",
   "source": "osm"
  },
  {
   "nom": "مسجد السلم",
   "lat": 17.0098751,
   "lng": 54.0788356,
   "coordonnees": {
    "lat": 17.0098751,
    "lng": 54.0788356
   },
   "mapsUrl": "https://maps.google.com/?q=17.0098751,54.0788356",
   "source": "osm"
  },
  {
   "nom": "مسجد الشنفري",
   "lat": 17.0102723,
   "lng": 54.1099154,
   "coordonnees": {
    "lat": 17.0102723,
    "lng": 54.1099154
   },
   "mapsUrl": "https://maps.google.com/?q=17.0102723,54.1099154",
   "source": "osm"
  },
  {
   "nom": "مسجد عفيف",
   "lat": 17.0108221,
   "lng": 54.1179133,
   "coordonnees": {
    "lat": 17.0108221,
    "lng": 54.1179133
   },
   "mapsUrl": "https://maps.google.com/?q=17.0108221,54.1179133",
   "source": "osm"
  },
  {
   "nom": "جامع الإيمان",
   "lat": 17.0220157,
   "lng": 54.0292553,
   "coordonnees": {
    "lat": 17.0220157,
    "lng": 54.0292553
   },
   "mapsUrl": "https://maps.google.com/?q=17.0220157,54.0292553",
   "source": "osm"
  },
  {
   "nom": "مسجد الهدد",
   "lat": 17.0200331,
   "lng": 54.1602655,
   "coordonnees": {
    "lat": 17.0200331,
    "lng": 54.1602655
   },
   "mapsUrl": "https://maps.google.com/?q=17.0200331,54.1602655",
   "source": "osm"
  },
  {
   "nom": "مسجد الشيخ أحمد محمد",
   "lat": 17.0199444,
   "lng": 54.0169036,
   "coordonnees": {
    "lat": 17.0199444,
    "lng": 54.0169036
   },
   "mapsUrl": "https://maps.google.com/?q=17.0199444,54.0169036",
   "source": "osm"
  },
  {
   "nom": "مسجد التقوى",
   "lat": 16.9978978,
   "lng": 54.0106357,
   "coordonnees": {
    "lat": 16.9978978,
    "lng": 54.0106357
   },
   "mapsUrl": "https://maps.google.com/?q=16.9978978,54.0106357",
   "source": "osm"
  },
  {
   "nom": "جامع شقفينوت",
   "lat": 17.0993199,
   "lng": 54.1156561,
   "coordonnees": {
    "lat": 17.0993199,
    "lng": 54.1156561
   },
   "mapsUrl": "https://maps.google.com/?q=17.0993199,54.1156561",
   "source": "osm"
  },
  {
   "nom": "Osama bin Zaid",
   "lat": 17.0774285,
   "lng": 54.1590274,
   "coordonnees": {
    "lat": 17.0774285,
    "lng": 54.1590274
   },
   "mapsUrl": "https://maps.google.com/?q=17.0774285,54.1590274",
   "source": "osm"
  },
  {
   "nom": "مسجد الماجد",
   "lat": 17.0892166,
   "lng": 54.2021798,
   "coordonnees": {
    "lat": 17.0892166,
    "lng": 54.2021798
   },
   "mapsUrl": "https://maps.google.com/?q=17.0892166,54.2021798",
   "source": "osm"
  },
  {
   "nom": "مسجد الضريح نبي أيوب عليه الصلاة والسلام",
   "lat": 17.1115524,
   "lng": 53.9937782,
   "coordonnees": {
    "lat": 17.1115524,
    "lng": 53.9937782
   },
   "adresse": "صلالة -غدو",
   "mapsUrl": "https://maps.google.com/?q=17.1115524,53.9937782",
   "source": "osm"
  }
 ],
 "tags": [
  "nature",
  "plage",
  "encens",
  "spirituel",
  "famille",
  "khareef"
 ],
 "description_en": "Salalah, in Oman, is a halal-friendly destination with a Halal Trust Score of 4.3/5. Muslim travelers will find 26 halal restaurants listed, 400 mosques, real-time prayer times and the Qibla direction — a complete guide to travel with peace of mind.",
 "metaDescription_en": "Halal guide to Salalah: 26 halal restaurants listed, 400 mosques, prayer times and tips for Muslim travelers. Halal Trust Score 4.3/5.",
 "nom_en": "Salalah",
 "boucheries": [],
 "infos_pratiques_en": {
  "langue": "Arabic",
  "monnaie": "Rial omanais (OMR)",
  "meilleure_periode": "July to September (Khareef)",
  "appel_priere": "5 times a day",
  "nourriture_halal": "Largement disponible"
 },
 "dataPurgedAt": "2026-07-15",
 "googleBakedAt": "2026-07-15"
}