{
  "slug": "sao-paulo",
  "nom": "São Paulo",
  "pays": "Brésil",
  "pays_slug": "bresil",
  "continent": "Amérique du Sud",
  "region": "Brésil",
  "coordonnees": {
    "lat": -23.5505,
    "lng": -46.6333
  },
  "codeISO": "BR",
  "score_halal": 3.4,
  "halalScore": 6.8,
  "villeNonMusulmane": true,
  "description": "Mégapole cosmopolite. Communauté arabe et musulmane importante, mosquées et adresses halal variées.",
  "metaDescription": "Mégapole cosmopolite. Communauté arabe et musulmane importante, mosquées et adresses halal variées.",
  "image": "https://upload.wikimedia.org/wikipedia/commons/7/73/Marginal_Pinheiros_e_Jockey_Club.jpg",
  "image_hero": "https://upload.wikimedia.org/wikipedia/commons/7/73/Marginal_Pinheiros_e_Jockey_Club.jpg",
  "imageCredit": "Wikimedia Commons",
  "statistiques": {
    "restaurants_halal": 94,
    "mosquees": 7,
    "hotels": 120
  },
  "infoPratique": {
    "transport": "Accessible par avion et transports en commun locaux.",
    "meilleureEpoque": "Printemps et automne (climat tempéré).",
    "conseilHalal": "Ville non-musulmane : repérez les restaurants halal signalés et les mosquées via l'application avant votre visite."
  },
  "tags": [
    "halal",
    "ville non-musulmane",
    "amérique du sud"
  ],
  "restaurants": [
    {
      "nom": "Curry's Culinária Indiana",
      "type": "indian, dessert",
      "priceRange": "€€",
      "mapsUrl": "https://maps.google.com/?q=-23.5576756,-46.6361841",
      "lat": -23.5576756,
      "lng": -46.6361841,
      "halalConfidence": "yes",
      "source": "osm"
    },
    {
      "nom": "Sultão Culinária Árabe",
      "type": "arab",
      "priceRange": "€€",
      "mapsUrl": "https://maps.google.com/?q=-23.5410782,-46.6384068",
      "lat": -23.5410782,
      "lng": -46.6384068,
      "halalConfidence": "yes",
      "source": "osm"
    },
    {
      "nom": "Halabi",
      "type": "kebab",
      "priceRange": "€€",
      "mapsUrl": "https://maps.google.com/?q=-23.5689076,-46.6490783",
      "lat": -23.5689076,
      "lng": -46.6490783,
      "halalConfidence": "yes",
      "source": "osm"
    },
    {
      "nom": "Alyah Sweets Doceria e Cozinha Libanesa",
      "type": "lebanese",
      "priceRange": "€€",
      "mapsUrl": "https://maps.google.com/?q=-23.6105455,-46.6513237",
      "lat": -23.6105455,
      "lng": -46.6513237,
      "halalConfidence": "yes",
      "source": "osm"
    },
    {
      "nom": "Al-Gharb's Fast Food",
      "type": "arab",
      "priceRange": "€€",
      "mapsUrl": "https://maps.google.com/?q=-23.552879,-46.6353994",
      "lat": -23.552879,
      "lng": -46.6353994,
      "halalConfidence": "likely",
      "source": "osm"
    },
    {
      "nom": "Restaurante Gloria",
      "type": "arab",
      "priceRange": "€€",
      "mapsUrl": "https://maps.google.com/?q=-23.5540511,-46.6342468",
      "lat": -23.5540511,
      "lng": -46.6342468,
      "halalConfidence": "likely",
      "source": "osm"
    },
    {
      "nom": "Raful",
      "type": "arab",
      "priceRange": "€€",
      "mapsUrl": "https://maps.google.com/?q=-23.5432242,-46.631936",
      "lat": -23.5432242,
      "lng": -46.631936,
      "halalConfidence": "likely",
      "source": "osm"
    },
    {
      "nom": "Fenícia Culinária Libanesa",
      "type": "lebanese",
      "priceRange": "€€",
      "mapsUrl": "https://maps.google.com/?q=-23.542863,-46.6318704",
      "lat": -23.542863,
      "lng": -46.6318704,
      "halalConfidence": "likely",
      "source": "osm"
    },
    {
      "nom": "Ponto Árabe",
      "type": "arab",
      "priceRange": "€€",
      "mapsUrl": "https://maps.google.com/?q=-23.5420079,-46.6302888",
      "lat": -23.5420079,
      "lng": -46.6302888,
      "halalConfidence": "likely",
      "source": "osm"
    },
    {
      "nom": "Aboud Síria",
      "type": "arab, syrian",
      "priceRange": "€€",
      "mapsUrl": "https://maps.google.com/?q=-23.5427429,-46.6385625",
      "lat": -23.5427429,
      "lng": -46.6385625,
      "halalConfidence": "likely",
      "source": "osm"
    },
    {
      "nom": "Shawarma - Delícias Árabes",
      "type": "shawarma",
      "priceRange": "€€",
      "mapsUrl": "https://maps.google.com/?q=-23.559473,-46.6310576",
      "lat": -23.559473,
      "lng": -46.6310576,
      "halalConfidence": "likely",
      "source": "osm"
    },
    {
      "nom": "Esfiha do Gordo",
      "type": "arab, sfiha",
      "priceRange": "€€",
      "mapsUrl": "https://maps.google.com/?q=-23.5379672,-46.6347805",
      "lat": -23.5379672,
      "lng": -46.6347805,
      "halalConfidence": "likely",
      "source": "osm"
    },
    {
      "nom": "Vovô Ali",
      "type": "arab",
      "priceRange": "€€",
      "mapsUrl": "https://maps.google.com/?q=-23.5413149,-46.6444452",
      "lat": -23.5413149,
      "lng": -46.6444452,
      "halalConfidence": "likely",
      "source": "osm"
    },
    {
      "nom": "Restaurante Syria",
      "type": "syrian",
      "priceRange": "€€",
      "mapsUrl": "https://maps.google.com/?q=-23.5394593,-46.6451604",
      "lat": -23.5394593,
      "lng": -46.6451604,
      "halalConfidence": "likely",
      "source": "osm"
    },
    {
      "nom": "Delícias da Miller",
      "type": "pastel, kebab, sfiha, arab",
      "priceRange": "€€",
      "mapsUrl": "https://maps.google.com/?q=-23.5402254,-46.6173942",
      "lat": -23.5402254,
      "lng": -46.6173942,
      "halalConfidence": "likely",
      "source": "osm"
    },
    {
      "nom": "Latife",
      "type": "arab",
      "priceRange": "€€",
      "mapsUrl": "https://maps.google.com/?q=-23.5543504,-46.6524535",
      "lat": -23.5543504,
      "lng": -46.6524535,
      "halalConfidence": "likely",
      "source": "osm"
    },
    {
      "nom": "Esfiha Chic (Delivery)",
      "type": "pizza, arab, sfiha",
      "priceRange": "€€",
      "mapsUrl": "https://maps.google.com/?q=-23.5376629,-46.650621",
      "lat": -23.5376629,
      "lng": -46.650621,
      "halalConfidence": "likely",
      "source": "osm"
    },
    {
      "nom": "Abu-Zuz",
      "type": "arab",
      "priceRange": "€€",
      "mapsUrl": "https://maps.google.com/?q=-23.535959,-46.6176438",
      "lat": -23.535959,
      "lng": -46.6176438,
      "halalConfidence": "likely",
      "source": "osm"
    },
    {
      "nom": "All Sanduba",
      "type": "lebanese",
      "priceRange": "€€",
      "mapsUrl": "https://maps.google.com/?q=-23.5304679,-46.6382768",
      "lat": -23.5304679,
      "lng": -46.6382768,
      "halalConfidence": "likely",
      "source": "osm"
    },
    {
      "nom": "Esfiha Chic",
      "type": "arab",
      "priceRange": "€€",
      "mapsUrl": "https://maps.google.com/?q=-23.5387438,-46.6517132",
      "lat": -23.5387438,
      "lng": -46.6517132,
      "halalConfidence": "likely",
      "source": "osm"
    },
    {
      "nom": "New Shawarma",
      "type": "arab",
      "priceRange": "€€",
      "mapsUrl": "https://maps.google.com/?q=-23.5340684,-46.6189858",
      "lat": -23.5340684,
      "lng": -46.6189858,
      "halalConfidence": "likely",
      "source": "osm"
    },
    {
      "nom": "Adoun",
      "type": "arab",
      "priceRange": "€€",
      "mapsUrl": "https://maps.google.com/?q=-23.5665243,-46.6485024",
      "lat": -23.5665243,
      "lng": -46.6485024,
      "halalConfidence": "likely",
      "source": "osm"
    },
    {
      "nom": "Rossto Halal",
      "type": "arab",
      "priceRange": "€€",
      "mapsUrl": "https://maps.google.com/?q=-23.5331903,-46.6189448",
      "lat": -23.5331903,
      "lng": -46.6189448,
      "halalConfidence": "likely",
      "source": "osm"
    },
    {
      "nom": "Naboulsi",
      "type": "arab",
      "priceRange": "€€",
      "mapsUrl": "https://maps.google.com/?q=-23.5337317,-46.6174349",
      "lat": -23.5337317,
      "lng": -46.6174349,
      "halalConfidence": "likely",
      "source": "osm"
    },
    {
      "nom": "Al Amir Restaurante e Doceria Árabe",
      "type": "arab",
      "priceRange": "€€",
      "mapsUrl": "https://maps.google.com/?q=-23.5330268,-46.6171108",
      "lat": -23.5330268,
      "lng": -46.6171108,
      "halalConfidence": "likely",
      "source": "osm"
    },
    {
      "nom": "Al Soltan",
      "type": "arab",
      "priceRange": "€€",
      "mapsUrl": "https://maps.google.com/?q=-23.5319545,-46.6181089",
      "lat": -23.5319545,
      "lng": -46.6181089,
      "halalConfidence": "likely",
      "source": "osm"
    },
    {
      "nom": "Rei das Esfhiras",
      "type": "arab",
      "priceRange": "€€",
      "mapsUrl": "https://maps.google.com/?q=-23.532085,-46.6178949",
      "lat": -23.532085,
      "lng": -46.6178949,
      "halalConfidence": "likely",
      "source": "osm"
    },
    {
      "nom": "Arabek",
      "type": "arab",
      "priceRange": "€€",
      "mapsUrl": "https://maps.google.com/?q=-23.5640989,-46.6542888",
      "lat": -23.5640989,
      "lng": -46.6542888,
      "halalConfidence": "likely",
      "source": "osm"
    },
    {
      "nom": "Doce do Oriente",
      "type": "arab",
      "priceRange": "€€",
      "mapsUrl": "https://maps.google.com/?q=-23.5316967,-46.6173949",
      "lat": -23.5316967,
      "lng": -46.6173949,
      "halalConfidence": "likely",
      "source": "osm"
    },
    {
      "nom": "Halim",
      "type": "lebanese",
      "priceRange": "€€",
      "mapsUrl": "https://maps.google.com/?q=-23.5719471,-46.6449821",
      "lat": -23.5719471,
      "lng": -46.6449821,
      "halalConfidence": "likely",
      "source": "osm"
    },
    {
      "nom": "York grill",
      "type": "grill, shawarma",
      "priceRange": "€€",
      "mapsUrl": "https://maps.google.com/?q=-23.5568564,-46.6587637",
      "lat": -23.5568564,
      "lng": -46.6587637,
      "halalConfidence": "likely",
      "source": "osm"
    },
    {
      "nom": "Al Soltan Ibrahim",
      "type": "arab",
      "priceRange": "€€",
      "mapsUrl": "https://maps.google.com/?q=-23.5325997,-46.6153088",
      "lat": -23.5325997,
      "lng": -46.6153088,
      "halalConfidence": "likely",
      "source": "osm"
    },
    {
      "nom": "Barakiah",
      "type": "arab",
      "priceRange": "€€",
      "mapsUrl": "https://maps.google.com/?q=-23.5303163,-46.616839",
      "lat": -23.5303163,
      "lng": -46.616839,
      "halalConfidence": "likely",
      "source": "osm"
    },
    {
      "nom": "Esfiha Juventus",
      "type": "arab, sfiha",
      "priceRange": "€€",
      "mapsUrl": "https://maps.google.com/?q=-23.5544347,-46.6028036",
      "lat": -23.5544347,
      "lng": -46.6028036,
      "halalConfidence": "likely",
      "source": "osm"
    },
    {
      "nom": "Nur El Chams",
      "type": "arab",
      "priceRange": "€€",
      "mapsUrl": "https://maps.google.com/?q=-23.5780296,-46.6426384",
      "lat": -23.5780296,
      "lng": -46.6426384,
      "halalConfidence": "likely",
      "source": "osm"
    },
    {
      "nom": "Rosina",
      "type": "arab",
      "priceRange": "€€",
      "mapsUrl": "https://maps.google.com/?q=-23.5742256,-46.6561126",
      "lat": -23.5742256,
      "lng": -46.6561126,
      "halalConfidence": "likely",
      "source": "osm"
    },
    {
      "nom": "Miski",
      "type": "arab",
      "priceRange": "€€",
      "mapsUrl": "https://maps.google.com/?q=-23.5739406,-46.6588015",
      "lat": -23.5739406,
      "lng": -46.6588015,
      "halalConfidence": "likely",
      "source": "osm"
    },
    {
      "nom": "Arabia",
      "type": "arab, lebanese, moroccan, persian",
      "priceRange": "€€",
      "mapsUrl": "https://maps.google.com/?q=-23.5632157,-46.6671174",
      "lat": -23.5632157,
      "lng": -46.6671174,
      "halalConfidence": "likely",
      "source": "osm"
    },
    {
      "nom": "Frevo",
      "type": "arab, brazilian",
      "priceRange": "€€",
      "mapsUrl": "https://maps.google.com/?q=-23.5649283,-46.666774",
      "lat": -23.5649283,
      "lng": -46.666774,
      "halalConfidence": "likely",
      "source": "osm"
    },
    {
      "nom": "Art Esfiha",
      "type": "arab, sfiha, dessert, lebanese",
      "priceRange": "€€",
      "mapsUrl": "https://maps.google.com/?q=-23.5803825,-46.651581",
      "lat": -23.5803825,
      "lng": -46.651581,
      "halalConfidence": "likely",
      "source": "osm"
    },
    {
      "nom": "Big Bites",
      "type": "arabic",
      "priceRange": "€€",
      "mapsUrl": "https://maps.google.com/?q=-23.5503028,-46.5951956",
      "lat": -23.5503028,
      "lng": -46.5951956,
      "halalConfidence": "likely",
      "source": "osm"
    },
    {
      "nom": "Ponto da Esfhira",
      "type": "arab",
      "priceRange": "€€",
      "mapsUrl": "https://maps.google.com/?q=-23.5399829,-46.595822",
      "lat": -23.5399829,
      "lng": -46.595822,
      "halalConfidence": "likely",
      "source": "osm"
    },
    {
      "nom": "Al Midan",
      "type": "lebanese, arab",
      "priceRange": "€€",
      "mapsUrl": "https://maps.google.com/?q=-23.5855062,-46.6439509",
      "lat": -23.5855062,
      "lng": -46.6439509,
      "halalConfidence": "likely",
      "source": "osm"
    },
    {
      "nom": "Esfiharia Hayek",
      "type": "arab, sfiha",
      "priceRange": "€€",
      "mapsUrl": "https://maps.google.com/?q=-23.5524627,-46.6777042",
      "lat": -23.5524627,
      "lng": -46.6777042,
      "halalConfidence": "likely",
      "source": "osm"
    },
    {
      "nom": "Lig Esfiha",
      "type": "arab,pizza",
      "priceRange": "€€",
      "mapsUrl": "https://maps.google.com/?q=-23.5287258,-46.6718683",
      "lat": -23.5287258,
      "lng": -46.6718683,
      "halalConfidence": "likely",
      "source": "osm"
    },
    {
      "nom": "Firin Salonu",
      "type": "turkish",
      "priceRange": "€€",
      "mapsUrl": "https://maps.google.com/?q=-23.5499124,-46.6808313",
      "lat": -23.5499124,
      "lng": -46.6808313,
      "halalConfidence": "likely",
      "source": "osm"
    },
    {
      "nom": "Bubbeleh Traditional Israeli Food",
      "type": "israeli, arab, kebab, shawarma, gyro, homo, kafta, aral, falafel, brunch, dessert",
      "priceRange": "€€",
      "mapsUrl": "https://maps.google.com/?q=-23.5637609,-46.6795512",
      "lat": -23.5637609,
      "lng": -46.6795512,
      "halalConfidence": "likely",
      "source": "osm"
    },
    {
      "nom": "Mik Esfihas",
      "type": "arab",
      "priceRange": "€€",
      "mapsUrl": "https://maps.google.com/?q=-23.5611464,-46.5842464",
      "lat": -23.5611464,
      "lng": -46.5842464,
      "halalConfidence": "likely",
      "source": "osm"
    },
    {
      "nom": "La Brecia",
      "type": "kebab, italian pizza",
      "priceRange": "€€",
      "mapsUrl": "https://maps.google.com/?q=-23.5553221,-46.5819434",
      "lat": -23.5553221,
      "lng": -46.5819434,
      "halalConfidence": "likely",
      "source": "osm"
    },
    {
      "nom": "SoukBurger",
      "type": "arab",
      "priceRange": "€€",
      "mapsUrl": "https://maps.google.com/?q=-23.5642615,-46.6842561",
      "lat": -23.5642615,
      "lng": -46.6842561,
      "halalConfidence": "likely",
      "source": "osm"
    },
    {
      "nom": "Dib Especialidades Árabes",
      "type": "arab",
      "priceRange": "€€",
      "mapsUrl": "https://maps.google.com/?q=-23.5369498,-46.6855155",
      "lat": -23.5369498,
      "lng": -46.6855155,
      "halalConfidence": "likely",
      "source": "osm"
    },
    {
      "nom": "Kafegala (FECHADO)",
      "type": "arabe,regional",
      "priceRange": "€€",
      "mapsUrl": "https://maps.google.com/?q=-23.5368304,-46.685749",
      "lat": -23.5368304,
      "lng": -46.685749,
      "halalConfidence": "likely",
      "source": "osm"
    },
    {
      "nom": "Barakiah Esfhiras",
      "type": "arab, sfiha",
      "priceRange": "€€",
      "mapsUrl": "https://maps.google.com/?q=-23.5043591,-46.6118187",
      "lat": -23.5043591,
      "lng": -46.6118187,
      "halalConfidence": "likely",
      "source": "osm"
    },
    {
      "nom": "Rodizio Arabe",
      "type": "arab",
      "priceRange": "€€",
      "mapsUrl": "https://maps.google.com/?q=-23.582935,-46.6760464",
      "lat": -23.582935,
      "lng": -46.6760464,
      "halalConfidence": "likely",
      "source": "osm"
    },
    {
      "nom": "Bar Zingo & Ringo",
      "type": "oriental, arab, coffee shop",
      "priceRange": "€€",
      "mapsUrl": "https://maps.google.com/?q=-23.5611007,-46.6878458",
      "lat": -23.5611007,
      "lng": -46.6878458,
      "halalConfidence": "likely",
      "source": "osm"
    },
    {
      "nom": "Casa da Esfhira",
      "type": "arab",
      "priceRange": "€€",
      "mapsUrl": "https://maps.google.com/?q=-23.5529521,-46.6897304",
      "lat": -23.5529521,
      "lng": -46.6897304,
      "halalConfidence": "likely",
      "source": "osm"
    },
    {
      "nom": "Esfiha Yamadijan",
      "type": "arab",
      "priceRange": "€€",
      "mapsUrl": "https://maps.google.com/?q=-23.4984006,-46.6378423",
      "lat": -23.4984006,
      "lng": -46.6378423,
      "halalConfidence": "likely",
      "source": "osm"
    },
    {
      "nom": "Al Árabe",
      "type": "arab",
      "priceRange": "€€",
      "mapsUrl": "https://maps.google.com/?q=-23.5669726,-46.6887942",
      "lat": -23.5669726,
      "lng": -46.6887942,
      "halalConfidence": "likely",
      "source": "osm"
    },
    {
      "nom": "Esfiha Imigrantes",
      "type": "pizza, arab, sfiha, dessert",
      "priceRange": "€€",
      "mapsUrl": "https://maps.google.com/?q=-23.6037542,-46.6261435",
      "lat": -23.6037542,
      "lng": -46.6261435,
      "halalConfidence": "likely",
      "source": "osm"
    },
    {
      "nom": "Pinguim Esfhiras",
      "type": "arab",
      "priceRange": "€€",
      "mapsUrl": "https://maps.google.com/?q=-23.5145399,-46.5875904",
      "lat": -23.5145399,
      "lng": -46.5875904,
      "halalConfidence": "likely",
      "source": "osm"
    },
    {
      "nom": "Gêmeos Esfihas",
      "type": "arab, sfiha",
      "priceRange": "€€",
      "mapsUrl": "https://maps.google.com/?q=-23.5794179,-46.5808708",
      "lat": -23.5794179,
      "lng": -46.5808708,
      "halalConfidence": "likely",
      "source": "osm"
    },
    {
      "nom": "Zaatar Azeite",
      "type": "syrian",
      "priceRange": "€€",
      "mapsUrl": "https://maps.google.com/?q=-23.5942526,-46.6748376",
      "lat": -23.5942526,
      "lng": -46.6748376,
      "halalConfidence": "likely",
      "source": "osm"
    },
    {
      "nom": "Nova Lehmejum Casa da Esfhira",
      "type": "arab",
      "priceRange": "€€",
      "mapsUrl": "https://maps.google.com/?q=-23.4914115,-46.6364357",
      "lat": -23.4914115,
      "lng": -46.6364357,
      "halalConfidence": "likely",
      "source": "osm"
    },
    {
      "nom": "Manish Culinária Árabe",
      "type": "arab",
      "priceRange": "€€",
      "mapsUrl": "https://maps.google.com/?q=-23.5880274,-46.6840231",
      "lat": -23.5880274,
      "lng": -46.6840231,
      "halalConfidence": "likely",
      "source": "osm"
    },
    {
      "nom": "Shuk",
      "type": "arab, kebab, lebanese",
      "priceRange": "€€",
      "mapsUrl": "https://maps.google.com/?q=-23.5610885,-46.6978263",
      "lat": -23.5610885,
      "lng": -46.6978263,
      "halalConfidence": "likely",
      "source": "osm"
    },
    {
      "nom": "Shahiya",
      "type": "lebanese",
      "priceRange": "€€",
      "mapsUrl": "https://maps.google.com/?q=-23.6015565,-46.6688678",
      "lat": -23.6015565,
      "lng": -46.6688678,
      "halalConfidence": "likely",
      "source": "osm"
    },
    {
      "nom": "Samir Amis",
      "type": "arab",
      "priceRange": "€€",
      "mapsUrl": "https://maps.google.com/?q=-23.607826,-46.6602761",
      "lat": -23.607826,
      "lng": -46.6602761,
      "halalConfidence": "likely",
      "source": "osm"
    },
    {
      "nom": "Casa da Esfhiras",
      "type": "arab",
      "priceRange": "€€",
      "mapsUrl": "https://maps.google.com/?q=-23.498131,-46.5949906",
      "lat": -23.498131,
      "lng": -46.5949906,
      "halalConfidence": "likely",
      "source": "osm"
    },
    {
      "nom": "khadije comida arabe",
      "type": "arab",
      "priceRange": "€€",
      "mapsUrl": "https://maps.google.com/?q=-23.6048884,-46.6701172",
      "lat": -23.6048884,
      "lng": -46.6701172,
      "halalConfidence": "likely",
      "source": "osm"
    },
    {
      "nom": "Tharwa Shawarma",
      "type": "shawarma",
      "priceRange": "€€",
      "mapsUrl": "https://maps.google.com/?q=-23.6169037,-46.6327373",
      "lat": -23.6169037,
      "lng": -46.6327373,
      "halalConfidence": "likely",
      "source": "osm"
    },
    {
      "nom": "Véu de Seda",
      "type": "arab",
      "priceRange": "€€",
      "mapsUrl": "https://maps.google.com/?q=-23.6083544,-46.6692566",
      "lat": -23.6083544,
      "lng": -46.6692566,
      "halalConfidence": "likely",
      "source": "osm"
    },
    {
      "nom": "Siriya",
      "type": "arab",
      "priceRange": "€€",
      "mapsUrl": "https://maps.google.com/?q=-23.4869073,-46.608941",
      "lat": -23.4869073,
      "lng": -46.608941,
      "halalConfidence": "likely",
      "source": "osm"
    },
    {
      "nom": "Restaurante Libanes",
      "type": "lebanese",
      "priceRange": "€€",
      "mapsUrl": "https://maps.google.com/?q=-23.620592,-46.6363552",
      "lat": -23.620592,
      "lng": -46.6363552,
      "halalConfidence": "likely",
      "source": "osm"
    },
    {
      "nom": "Esfiha Vergueiro",
      "type": "arab, sfiha",
      "priceRange": "€€",
      "mapsUrl": "https://maps.google.com/?q=-23.6179676,-46.6054857",
      "lat": -23.6179676,
      "lng": -46.6054857,
      "halalConfidence": "likely",
      "source": "osm"
    },
    {
      "nom": "Restaurante Al Amirat",
      "type": "arab",
      "priceRange": "€€",
      "mapsUrl": "https://maps.google.com/?q=-23.6169298,-46.602047",
      "lat": -23.6169298,
      "lng": -46.602047,
      "halalConfidence": "likely",
      "source": "osm"
    },
    {
      "nom": "Casa Da Esfira",
      "type": "arab",
      "priceRange": "€€",
      "mapsUrl": "https://maps.google.com/?q=-23.488716,-46.5840508",
      "lat": -23.488716,
      "lng": -46.5840508,
      "halalConfidence": "likely",
      "source": "osm"
    },
    {
      "nom": "Faruk Esfihas",
      "type": "arab, Esfihas",
      "priceRange": "€€",
      "mapsUrl": "https://maps.google.com/?q=-23.4876453,-46.5829159",
      "lat": -23.4876453,
      "lng": -46.5829159,
      "halalConfidence": "likely",
      "source": "osm"
    },
    {
      "nom": "Casa da Esfiha - Vila Gustavo",
      "type": "arab",
      "priceRange": "€€",
      "mapsUrl": "https://maps.google.com/?q=-23.4821651,-46.589332",
      "lat": -23.4821651,
      "lng": -46.589332,
      "halalConfidence": "likely",
      "source": "osm"
    },
    {
      "nom": "Restaurante La Serra",
      "type": "regional, sandwich, pizza, arab",
      "priceRange": "€€",
      "mapsUrl": "https://maps.google.com/?q=-23.4816801,-46.5879011",
      "lat": -23.4816801,
      "lng": -46.5879011,
      "halalConfidence": "likely",
      "source": "osm"
    },
    {
      "nom": "Barakah Cozinha Árabe",
      "type": "middle eastern, arab",
      "priceRange": "€€",
      "mapsUrl": "https://maps.google.com/?q=-23.6093664,-46.6946546",
      "lat": -23.6093664,
      "lng": -46.6946546,
      "halalConfidence": "likely",
      "source": "osm"
    },
    {
      "nom": "Lusaim",
      "type": "arab",
      "priceRange": "€€",
      "mapsUrl": "https://maps.google.com/?q=-23.6332347,-46.6442467",
      "lat": -23.6332347,
      "lng": -46.6442467,
      "halalConfidence": "likely",
      "source": "osm"
    },
    {
      "nom": "Casa da Esfiha",
      "type": "arab, sfiha",
      "priceRange": "€€",
      "mapsUrl": "https://maps.google.com/?q=-23.5008847,-46.55121",
      "lat": -23.5008847,
      "lng": -46.55121,
      "halalConfidence": "likely",
      "source": "osm"
    },
    {
      "nom": "Chef Benon",
      "type": "arab",
      "priceRange": "€€",
      "mapsUrl": "https://maps.google.com/?q=-23.6156629,-46.7040457",
      "lat": -23.6156629,
      "lng": -46.7040457,
      "halalConfidence": "likely",
      "source": "osm"
    },
    {
      "nom": "Ponto da Esfiha",
      "type": "arab, sfiha",
      "priceRange": "€€",
      "mapsUrl": "https://maps.google.com/?q=-23.641955,-46.6661795",
      "lat": -23.641955,
      "lng": -46.6661795,
      "halalConfidence": "likely",
      "source": "osm"
    },
    {
      "nom": "Kalifa Esfiharia",
      "type": "arab, sfiha",
      "priceRange": "€€",
      "mapsUrl": "https://maps.google.com/?q=-23.6294331,-46.7006682",
      "lat": -23.6294331,
      "lng": -46.7006682,
      "halalConfidence": "likely",
      "source": "osm"
    },
    {
      "nom": "Reino do Churrasco",
      "type": "kebab, steak house, brazilian",
      "priceRange": "€€",
      "mapsUrl": "https://maps.google.com/?q=-23.5872065,-46.7365525",
      "lat": -23.5872065,
      "lng": -46.7365525,
      "halalConfidence": "likely",
      "source": "osm"
    },
    {
      "nom": "Vittelis | Restaurante Contemporâneo",
      "type": "regional, italian, french, arab",
      "priceRange": "€€",
      "mapsUrl": "https://maps.google.com/?q=-23.6486795,-46.6690404",
      "lat": -23.6486795,
      "lng": -46.6690404,
      "halalConfidence": "likely",
      "source": "osm"
    },
    {
      "nom": "Sonho Árabe",
      "type": "kebab, middle eastern, arab",
      "priceRange": "€€",
      "mapsUrl": "https://maps.google.com/?q=-23.6313559,-46.7057252",
      "lat": -23.6313559,
      "lng": -46.7057252,
      "halalConfidence": "likely",
      "source": "osm"
    },
    {
      "nom": "Big Esfiha",
      "type": "arab, sfiha",
      "priceRange": "€€",
      "mapsUrl": "https://maps.google.com/?q=-23.5231266,-46.5222396",
      "lat": -23.5231266,
      "lng": -46.5222396,
      "halalConfidence": "likely",
      "source": "osm"
    },
    {
      "nom": "Arabia Express",
      "lat": -23.5572261,
      "lng": -46.6541245,
      "type": "arab, tea, coffee shop",
      "halalConfidence": "likely",
      "mapsUrl": "https://maps.google.com/?q=-23.5572261,-46.6541245",
      "source": "osm"
    },
    {
      "nom": "Madhu",
      "lat": -23.5561062,
      "lng": -46.6581768,
      "type": "indian",
      "halalConfidence": "likely",
      "mapsUrl": "https://maps.google.com/?q=-23.5561062,-46.6581768",
      "source": "osm"
    },
    {
      "nom": "Atithi Devo Bhava",
      "lat": -23.56913,
      "lng": -46.6501813,
      "type": "indian",
      "halalConfidence": "likely",
      "mapsUrl": "https://maps.google.com/?q=-23.56913,-46.6501813",
      "source": "osm"
    },
    {
      "nom": "Samosa & Company",
      "lat": -23.559336,
      "lng": -46.6627978,
      "type": "indian",
      "halalConfidence": "likely",
      "mapsUrl": "https://maps.google.com/?q=-23.559336,-46.6627978",
      "source": "osm"
    },
    {
      "nom": "reet namastê",
      "lat": -23.5707903,
      "lng": -46.6583925,
      "type": "indian",
      "halalConfidence": "likely",
      "mapsUrl": "https://maps.google.com/?q=-23.5707903,-46.6583925",
      "source": "osm"
    },
    {
      "nom": "Gopala - Cozinha Lactovegetariana",
      "lat": -23.5586056,
      "lng": -46.6681465,
      "type": "indian",
      "halalConfidence": "likely",
      "mapsUrl": "https://maps.google.com/?q=-23.5586056,-46.6681465",
      "source": "osm"
    },
    {
      "nom": "Currys",
      "lat": -23.5595321,
      "lng": -46.6815449,
      "type": "indian",
      "halalConfidence": "likely",
      "mapsUrl": "https://maps.google.com/?q=-23.5595321,-46.6815449",
      "source": "osm"
    },
    {
      "nom": "Café e restaurante",
      "lat": -23.5898628,
      "lng": -46.6732474,
      "type": "burger, regional, international, ice cream, cake, noodles, pasta, pancake, brazilian, arab, chicken, diner, fish and chips, oriental, fish, breakfast, sushi, savory pancakes, moroccan, friture, fine dining",
      "halalConfidence": "likely",
      "mapsUrl": "https://maps.google.com/?q=-23.5898628,-46.6732474",
      "source": "osm"
    },
    {
      "nom": "Café Arabe",
      "lat": -23.5744975,
      "lng": -46.6882787,
      "type": "arab",
      "halalConfidence": "likely",
      "mapsUrl": "https://maps.google.com/?q=-23.5744975,-46.6882787",
      "source": "osm"
    }
  ],
  "hotels": [
    {
      "nom": "OYO Hotel",
      "categorie": "Hôtel",
      "priceRange": "€€",
      "mapsUrl": "https://maps.google.com/?q=-23.549913,-46.6331274",
      "lat": -23.549913,
      "lng": -46.6331274,
      "halalFriendly": false,
      "bookingUrl": "https://maps.google.com/?q=-23.549913,-46.6331274",
      "source": "osm"
    },
    {
      "nom": "Pallion Center Hotel",
      "categorie": "Hôtel",
      "priceRange": "€€",
      "mapsUrl": "https://maps.google.com/?q=-23.5495695,-46.6309672",
      "lat": -23.5495695,
      "lng": -46.6309672,
      "halalFriendly": false,
      "bookingUrl": "https://maps.google.com/?q=-23.5495695,-46.6309672",
      "source": "osm"
    },
    {
      "nom": "Hotel Amarelinho",
      "categorie": "Hôtel",
      "priceRange": "€€",
      "mapsUrl": "https://maps.google.com/?q=-23.5490425,-46.6302373",
      "lat": -23.5490425,
      "lng": -46.6302373,
      "halalFriendly": false,
      "bookingUrl": "https://maps.google.com/?q=-23.5490425,-46.6302373",
      "source": "osm"
    },
    {
      "nom": "Hotel Atlantis",
      "categorie": "Hôtel",
      "priceRange": "€€",
      "mapsUrl": "https://maps.google.com/?q=-23.553314,-46.635113",
      "lat": -23.553314,
      "lng": -46.635113,
      "halalFriendly": false,
      "bookingUrl": "https://maps.google.com/?q=-23.553314,-46.635113",
      "source": "osm"
    },
    {
      "nom": "Hostel Liberdade",
      "categorie": "Auberge",
      "priceRange": "€€",
      "mapsUrl": "https://maps.google.com/?q=-23.5536713,-46.635504",
      "lat": -23.5536713,
      "lng": -46.635504,
      "halalFriendly": false,
      "bookingUrl": "https://maps.google.com/?q=-23.5536713,-46.635504",
      "source": "osm"
    },
    {
      "nom": "Fujima Hostel",
      "categorie": "Auberge",
      "priceRange": "€€",
      "mapsUrl": "https://maps.google.com/?q=-23.5539201,-46.6354175",
      "lat": -23.5539201,
      "lng": -46.6354175,
      "halalFriendly": false,
      "bookingUrl": "https://maps.google.com/?q=-23.5539201,-46.6354175",
      "source": "osm"
    },
    {
      "nom": "Hotel Cruz de Malta",
      "categorie": "Hôtel",
      "priceRange": "€€",
      "mapsUrl": "https://maps.google.com/?q=-23.5492367,-46.6379187",
      "lat": -23.5492367,
      "lng": -46.6379187,
      "halalFriendly": false,
      "bookingUrl": "https://maps.google.com/?q=-23.5492367,-46.6379187",
      "source": "osm"
    },
    {
      "nom": "airbnb Herval",
      "categorie": "Maison d'hôtes",
      "priceRange": "€€",
      "mapsUrl": "https://maps.google.com/?q=-23.5552747,-46.6317526",
      "lat": -23.5552747,
      "lng": -46.6317526,
      "halalFriendly": false,
      "bookingUrl": "https://maps.google.com/?q=-23.5552747,-46.6317526",
      "source": "osm"
    },
    {
      "nom": "Kyoto",
      "categorie": "Hôtel",
      "priceRange": "€€",
      "mapsUrl": "https://maps.google.com/?q=-23.5552747,-46.6352124",
      "lat": -23.5552747,
      "lng": -46.6352124,
      "halalFriendly": false,
      "bookingUrl": "https://maps.google.com/?q=-23.5552747,-46.6352124",
      "source": "osm"
    },
    {
      "nom": "Tendas",
      "categorie": "Hôtel",
      "priceRange": "€€",
      "mapsUrl": "https://maps.google.com/?q=-23.5532752,-46.6379898",
      "lat": -23.5532752,
      "lng": -46.6379898,
      "halalFriendly": false,
      "bookingUrl": "https://maps.google.com/?q=-23.5532752,-46.6379898",
      "source": "osm"
    },
    {
      "nom": "Hotel Isei",
      "categorie": "Hôtel",
      "priceRange": "€€",
      "mapsUrl": "https://maps.google.com/?q=-23.5557709,-46.6343428",
      "lat": -23.5557709,
      "lng": -46.6343428,
      "halalFriendly": false,
      "bookingUrl": "https://maps.google.com/?q=-23.5557709,-46.6343428",
      "source": "osm"
    },
    {
      "nom": "BRASILAR",
      "categorie": "Maison d'hôtes",
      "priceRange": "€€",
      "mapsUrl": "https://maps.google.com/?q=-23.5485961,-46.6394956",
      "lat": -23.5485961,
      "lng": -46.6394956,
      "halalFriendly": false,
      "bookingUrl": "https://maps.google.com/?q=-23.5485961,-46.6394956",
      "source": "osm"
    },
    {
      "nom": "Edifício Planalto",
      "categorie": "Appartement",
      "priceRange": "€€",
      "mapsUrl": "https://maps.google.com/?q=-23.5516845,-46.6402369",
      "lat": -23.5516845,
      "lng": -46.6402369,
      "halalFriendly": false,
      "bookingUrl": "https://maps.google.com/?q=-23.5516845,-46.6402369",
      "source": "osm"
    },
    {
      "nom": "Hotel Paris",
      "categorie": "Hôtel",
      "priceRange": "€€",
      "mapsUrl": "https://maps.google.com/?q=-23.5479358,-46.640142",
      "lat": -23.5479358,
      "lng": -46.640142,
      "halalFriendly": false,
      "bookingUrl": "https://maps.google.com/?q=-23.5479358,-46.640142",
      "source": "osm"
    },
    {
      "nom": "Gloria Plaza Hotel",
      "categorie": "Hôtel",
      "priceRange": "€€",
      "mapsUrl": "https://maps.google.com/?q=-23.5572732,-46.6342452",
      "lat": -23.5572732,
      "lng": -46.6342452,
      "halalFriendly": false,
      "bookingUrl": "https://maps.google.com/?q=-23.5572732,-46.6342452",
      "source": "osm"
    },
    {
      "nom": "Hotel Banri",
      "categorie": "Hôtel",
      "priceRange": "€€",
      "mapsUrl": "https://maps.google.com/?q=-23.5574532,-46.634922",
      "lat": -23.5574532,
      "lng": -46.634922,
      "halalFriendly": false,
      "bookingUrl": "https://maps.google.com/?q=-23.5574532,-46.634922",
      "source": "osm"
    },
    {
      "nom": "Hotel Amália",
      "categorie": "Hôtel",
      "priceRange": "€€",
      "mapsUrl": "https://maps.google.com/?q=-23.5474749,-46.6406133",
      "lat": -23.5474749,
      "lng": -46.6406133,
      "halalFriendly": false,
      "bookingUrl": "https://maps.google.com/?q=-23.5474749,-46.6406133",
      "source": "osm"
    },
    {
      "nom": "Edifício Studio Urban Bela Vista",
      "categorie": "Hôtel",
      "priceRange": "€€",
      "mapsUrl": "https://maps.google.com/?q=-23.554922,-46.6399497",
      "lat": -23.554922,
      "lng": -46.6399497,
      "halalFriendly": false,
      "bookingUrl": "https://maps.google.com/?q=-23.554922,-46.6399497",
      "source": "osm"
    },
    {
      "nom": "Depto rua alvaro de carvalho",
      "categorie": "Appartement",
      "priceRange": "€€",
      "mapsUrl": "https://maps.google.com/?q=-23.5489988,-46.6419561",
      "lat": -23.5489988,
      "lng": -46.6419561,
      "halalFriendly": false,
      "bookingUrl": "https://maps.google.com/?q=-23.5489988,-46.6419561",
      "source": "osm"
    },
    {
      "nom": "Plaza",
      "categorie": "Hôtel",
      "priceRange": "€€",
      "mapsUrl": "https://maps.google.com/?q=-23.543643,-46.6382887",
      "lat": -23.543643,
      "lng": -46.6382887,
      "halalFriendly": false,
      "bookingUrl": "https://maps.google.com/?q=-23.543643,-46.6382887",
      "source": "osm"
    },
    {
      "nom": "Hotel Urbis",
      "categorie": "Hôtel",
      "priceRange": "€€",
      "mapsUrl": "https://maps.google.com/?q=-23.5428029,-46.6367451",
      "lat": -23.5428029,
      "lng": -46.6367451,
      "halalFriendly": false,
      "bookingUrl": "https://maps.google.com/?q=-23.5428029,-46.6367451",
      "source": "osm"
    },
    {
      "nom": "Hotel Paissandu",
      "categorie": "Hôtel",
      "priceRange": "€€",
      "mapsUrl": "https://maps.google.com/?q=-23.5426871,-46.6366329",
      "lat": -23.5426871,
      "lng": -46.6366329,
      "halalFriendly": false,
      "bookingUrl": "https://maps.google.com/?q=-23.5426871,-46.6366329",
      "source": "osm"
    },
    {
      "nom": "Hotel Salomão",
      "categorie": "Hôtel",
      "priceRange": "€€",
      "mapsUrl": "https://maps.google.com/?q=-23.5428293,-46.637225",
      "lat": -23.5428293,
      "lng": -46.637225,
      "halalFriendly": false,
      "bookingUrl": "https://maps.google.com/?q=-23.5428293,-46.637225",
      "source": "osm"
    },
    {
      "nom": "Hotel Neon",
      "categorie": "Hôtel",
      "priceRange": "€€",
      "mapsUrl": "https://maps.google.com/?q=-23.5428609,-46.6373211",
      "lat": -23.5428609,
      "lng": -46.6373211,
      "halalFriendly": false,
      "bookingUrl": "https://maps.google.com/?q=-23.5428609,-46.6373211",
      "source": "osm"
    },
    {
      "nom": "Hotel Moraes",
      "categorie": "Hôtel",
      "priceRange": "€€",
      "mapsUrl": "https://maps.google.com/?q=-23.5426379,-46.6377332",
      "lat": -23.5426379,
      "lng": -46.6377332,
      "halalFriendly": false,
      "bookingUrl": "https://maps.google.com/?q=-23.5426379,-46.6377332",
      "source": "osm"
    },
    {
      "nom": "Hotel Baguari",
      "categorie": "Hôtel",
      "priceRange": "€€",
      "mapsUrl": "https://maps.google.com/?q=-23.5420959,-46.6367403",
      "lat": -23.5420959,
      "lng": -46.6367403,
      "halalFriendly": false,
      "bookingUrl": "https://maps.google.com/?q=-23.5420959,-46.6367403",
      "source": "osm"
    },
    {
      "nom": "Residencial Bella Vista Suites",
      "categorie": "Hôtel",
      "priceRange": "€€",
      "mapsUrl": "https://maps.google.com/?q=-23.5579252,-46.6388053",
      "lat": -23.5579252,
      "lng": -46.6388053,
      "halalFriendly": false,
      "bookingUrl": "http://www.bellavistasuites.com.br/",
      "source": "osm"
    },
    {
      "nom": "São Paulo Suite Service",
      "categorie": "Hôtel",
      "priceRange": "€€",
      "mapsUrl": "https://maps.google.com/?q=-23.5513687,-46.6431007",
      "lat": -23.5513687,
      "lng": -46.6431007,
      "halalFriendly": false,
      "bookingUrl": "https://maps.google.com/?q=-23.5513687,-46.6431007",
      "source": "osm"
    },
    {
      "nom": "Nacional Inn Jaraguá Conventions",
      "categorie": "Hôtel",
      "priceRange": "€€",
      "mapsUrl": "https://maps.google.com/?q=-23.548389,-46.6429249",
      "lat": -23.548389,
      "lng": -46.6429249,
      "halalFriendly": false,
      "bookingUrl": "https://www.nacionalinn.com.br/hoteis/hotel-nacionalinn-jaragua-sao-paulo",
      "source": "osm"
    },
    {
      "nom": "Nikkey Palace Hotel",
      "categorie": "Hôtel",
      "priceRange": "€€",
      "mapsUrl": "https://maps.google.com/?q=-23.5594793,-46.6347353",
      "lat": -23.5594793,
      "lng": -46.6347353,
      "halalFriendly": false,
      "bookingUrl": "https://www.nikkeyhotel.com.br",
      "source": "osm"
    },
    {
      "nom": "Hotel Rivoli",
      "categorie": "Hôtel",
      "priceRange": "€€",
      "mapsUrl": "https://maps.google.com/?q=-23.5451068,-46.6414773",
      "lat": -23.5451068,
      "lng": -46.6414773,
      "halalFriendly": false,
      "bookingUrl": "https://maps.google.com/?q=-23.5451068,-46.6414773",
      "source": "osm"
    },
    {
      "nom": "São Paulo Inn",
      "categorie": "Hôtel",
      "priceRange": "€€",
      "mapsUrl": "https://maps.google.com/?q=-23.5416435,-46.636422",
      "lat": -23.5416435,
      "lng": -46.636422,
      "halalFriendly": false,
      "bookingUrl": "https://maps.google.com/?q=-23.5416435,-46.636422",
      "source": "osm"
    },
    {
      "nom": "Cinelândia Hotel",
      "categorie": "Hôtel",
      "priceRange": "€€",
      "mapsUrl": "https://maps.google.com/?q=-23.5427845,-46.6392015",
      "lat": -23.5427845,
      "lng": -46.6392015,
      "halalFriendly": false,
      "bookingUrl": "https://maps.google.com/?q=-23.5427845,-46.6392015",
      "source": "osm"
    },
    {
      "nom": "Hotel São Sebastião",
      "categorie": "Hôtel",
      "priceRange": "€€",
      "mapsUrl": "https://maps.google.com/?q=-23.5448018,-46.6420266",
      "lat": -23.5448018,
      "lng": -46.6420266,
      "halalFriendly": false,
      "bookingUrl": "https://maps.google.com/?q=-23.5448018,-46.6420266",
      "source": "osm"
    },
    {
      "nom": "Hotel Gira Sol",
      "categorie": "Hôtel",
      "priceRange": "€€",
      "mapsUrl": "https://maps.google.com/?q=-23.5411128,-46.629892",
      "lat": -23.5411128,
      "lng": -46.629892,
      "halalFriendly": false,
      "bookingUrl": "https://maps.google.com/?q=-23.5411128,-46.629892",
      "source": "osm"
    },
    {
      "nom": "Hotel Center",
      "categorie": "Hôtel",
      "priceRange": "€€",
      "mapsUrl": "https://maps.google.com/?q=-23.5409319,-46.6361316",
      "lat": -23.5409319,
      "lng": -46.6361316,
      "halalFriendly": false,
      "bookingUrl": "https://maps.google.com/?q=-23.5409319,-46.6361316",
      "source": "osm"
    },
    {
      "nom": "Hotel Gran Corona",
      "categorie": "Hôtel",
      "priceRange": "€€€€",
      "score": 4,
      "mapsUrl": "https://maps.google.com/?q=-23.5453085,-46.6425969",
      "lat": -23.5453085,
      "lng": -46.6425969,
      "halalFriendly": false,
      "bookingUrl": "https://www.grancorona.com.br/",
      "source": "osm"
    },
    {
      "nom": "Hotel Delplaza Excelsior São Paulo",
      "categorie": "Hôtel",
      "priceRange": "€€",
      "mapsUrl": "https://maps.google.com/?q=-23.5428708,-46.6405048",
      "lat": -23.5428708,
      "lng": -46.6405048,
      "halalFriendly": false,
      "bookingUrl": "https://maps.google.com/?q=-23.5428708,-46.6405048",
      "source": "osm"
    },
    {
      "nom": "Hotel Nobilis",
      "categorie": "Hôtel",
      "priceRange": "€€",
      "mapsUrl": "https://maps.google.com/?q=-23.5409813,-46.6372114",
      "lat": -23.5409813,
      "lng": -46.6372114,
      "halalFriendly": false,
      "bookingUrl": "https://maps.google.com/?q=-23.5409813,-46.6372114",
      "source": "osm"
    },
    {
      "nom": "Hotel Palermo",
      "categorie": "Hôtel",
      "priceRange": "€€",
      "mapsUrl": "https://maps.google.com/?q=-23.5400942,-46.6329252",
      "lat": -23.5400942,
      "lng": -46.6329252,
      "halalFriendly": false,
      "bookingUrl": "https://maps.google.com/?q=-23.5400942,-46.6329252",
      "source": "osm"
    },
    {
      "nom": "Hotel Dan In Planato",
      "categorie": "Hôtel",
      "priceRange": "€€",
      "mapsUrl": "https://maps.google.com/?q=-23.5404838,-46.6367678",
      "lat": -23.5404838,
      "lng": -46.6367678,
      "halalFriendly": false,
      "bookingUrl": "https://maps.google.com/?q=-23.5404838,-46.6367678",
      "source": "osm"
    },
    {
      "nom": "Hotel Delplaza Marabá São Paulo",
      "categorie": "Hôtel",
      "priceRange": "€€",
      "mapsUrl": "https://maps.google.com/?q=-23.5427035,-46.641004",
      "lat": -23.5427035,
      "lng": -46.641004,
      "halalFriendly": false,
      "bookingUrl": "https://maps.google.com/?q=-23.5427035,-46.641004",
      "source": "osm"
    },
    {
      "nom": "Lory Studio/Hotel",
      "categorie": "Hôtel",
      "priceRange": "€€",
      "mapsUrl": "https://maps.google.com/?q=-23.5407079,-46.6377221",
      "lat": -23.5407079,
      "lng": -46.6377221,
      "halalFriendly": false,
      "bookingUrl": "https://maps.google.com/?q=-23.5407079,-46.6377221",
      "source": "osm"
    },
    {
      "nom": "Hotel Nacional Inn",
      "categorie": "Hôtel",
      "priceRange": "€€",
      "mapsUrl": "https://maps.google.com/?q=-23.5403056,-46.6366834",
      "lat": -23.5403056,
      "lng": -46.6366834,
      "halalFriendly": false,
      "bookingUrl": "https://maps.google.com/?q=-23.5403056,-46.6366834",
      "source": "osm"
    },
    {
      "nom": "Hotel Cristal",
      "categorie": "Hôtel",
      "priceRange": "€€",
      "mapsUrl": "https://maps.google.com/?q=-23.5398338,-46.6345681",
      "lat": -23.5398338,
      "lng": -46.6345681,
      "halalFriendly": false,
      "bookingUrl": "https://maps.google.com/?q=-23.5398338,-46.6345681",
      "source": "osm"
    },
    {
      "nom": "Ibis Styles São Paulo Centro",
      "categorie": "Hôtel",
      "priceRange": "€€",
      "mapsUrl": "https://maps.google.com/?q=-23.5395977,-46.6343358",
      "lat": -23.5395977,
      "lng": -46.6343358,
      "halalFriendly": false,
      "bookingUrl": "https://maps.google.com/?q=-23.5395977,-46.6343358",
      "source": "osm"
    },
    {
      "nom": "Normandie Design Hotel",
      "categorie": "Hôtel",
      "priceRange": "€€",
      "mapsUrl": "https://maps.google.com/?q=-23.540253,-46.6377438",
      "lat": -23.540253,
      "lng": -46.6377438,
      "halalFriendly": false,
      "bookingUrl": "https://maps.google.com/?q=-23.540253,-46.6377438",
      "source": "osm"
    },
    {
      "nom": "Gran Villagio",
      "categorie": "Hôtel",
      "priceRange": "€€",
      "mapsUrl": "https://maps.google.com/?q=-23.5496129,-46.6454047",
      "lat": -23.5496129,
      "lng": -46.6454047,
      "halalFriendly": false,
      "bookingUrl": "https://maps.google.com/?q=-23.5496129,-46.6454047",
      "source": "osm"
    },
    {
      "nom": "Hotel London",
      "categorie": "Hôtel",
      "priceRange": "€€",
      "mapsUrl": "https://maps.google.com/?q=-23.5415431,-46.640598",
      "lat": -23.5415431,
      "lng": -46.640598,
      "halalFriendly": false,
      "bookingUrl": "https://maps.google.com/?q=-23.5415431,-46.640598",
      "source": "osm"
    },
    {
      "nom": "Hotel Plaza Apolo",
      "categorie": "Hôtel",
      "priceRange": "€€",
      "mapsUrl": "https://maps.google.com/?q=-23.5413874,-46.6403994",
      "lat": -23.5413874,
      "lng": -46.6403994,
      "halalFriendly": false,
      "bookingUrl": "https://maps.google.com/?q=-23.5413874,-46.6403994",
      "source": "osm"
    },
    {
      "nom": "Hotel Rio Branco",
      "categorie": "Hôtel",
      "priceRange": "€€",
      "mapsUrl": "https://maps.google.com/?q=-23.5405693,-46.6390111",
      "lat": -23.5405693,
      "lng": -46.6390111,
      "halalFriendly": false,
      "bookingUrl": "https://maps.google.com/?q=-23.5405693,-46.6390111",
      "source": "osm"
    },
    {
      "nom": "Hotel 25 de Março",
      "categorie": "Hôtel",
      "priceRange": "€€",
      "mapsUrl": "https://maps.google.com/?q=-23.5392305,-46.6322986",
      "lat": -23.5392305,
      "lng": -46.6322986,
      "halalFriendly": false,
      "bookingUrl": "https://maps.google.com/?q=-23.5392305,-46.6322986",
      "source": "osm"
    },
    {
      "nom": "Hotel Soneca Plaza;Disensa Centro",
      "categorie": "Hôtel",
      "priceRange": "€€",
      "mapsUrl": "https://maps.google.com/?q=-23.5414111,-46.6406399",
      "lat": -23.5414111,
      "lng": -46.6406399,
      "halalFriendly": false,
      "bookingUrl": "https://www.sonecaplaza.com.br/",
      "source": "osm"
    },
    {
      "nom": "Hotel Columbia",
      "categorie": "Hôtel",
      "priceRange": "€€",
      "mapsUrl": "https://maps.google.com/?q=-23.5413225,-46.6405623",
      "lat": -23.5413225,
      "lng": -46.6405623,
      "halalFriendly": false,
      "bookingUrl": "https://www.hotelcolumbia.com.br/",
      "source": "osm"
    },
    {
      "nom": "Real Castilha Hotel",
      "categorie": "Hôtel",
      "priceRange": "€€",
      "mapsUrl": "https://maps.google.com/?q=-23.5412418,-46.6404515",
      "lat": -23.5412418,
      "lng": -46.6404515,
      "halalFriendly": false,
      "bookingUrl": "https://maps.google.com/?q=-23.5412418,-46.6404515",
      "source": "osm"
    },
    {
      "nom": "Condominio Edificio",
      "categorie": "Appartement",
      "priceRange": "€€",
      "mapsUrl": "https://maps.google.com/?q=-23.5415498,-46.6414143",
      "lat": -23.5415498,
      "lng": -46.6414143,
      "halalFriendly": false,
      "bookingUrl": "https://maps.google.com/?q=-23.5415498,-46.6414143",
      "source": "osm"
    },
    {
      "nom": "Paramount Hotel",
      "categorie": "Hôtel",
      "priceRange": "€€",
      "mapsUrl": "https://maps.google.com/?q=-23.5394883,-46.6375989",
      "lat": -23.5394883,
      "lng": -46.6375989,
      "halalFriendly": false,
      "bookingUrl": "https://maps.google.com/?q=-23.5394883,-46.6375989",
      "source": "osm"
    },
    {
      "nom": "Hotel Caravellas",
      "categorie": "Hôtel",
      "priceRange": "€€",
      "mapsUrl": "https://maps.google.com/?q=-23.5417317,-46.641881",
      "lat": -23.5417317,
      "lng": -46.641881,
      "halalFriendly": false,
      "bookingUrl": "https://maps.google.com/?q=-23.5417317,-46.641881",
      "source": "osm"
    },
    {
      "nom": "Condomínio Central Place",
      "categorie": "Appartement",
      "priceRange": "€€",
      "mapsUrl": "https://maps.google.com/?q=-23.5622238,-46.6302519",
      "lat": -23.5622238,
      "lng": -46.6302519,
      "halalFriendly": false,
      "bookingUrl": "https://maps.google.com/?q=-23.5622238,-46.6302519",
      "source": "osm"
    },
    {
      "nom": "Lugus Hotel",
      "categorie": "Hôtel",
      "priceRange": "€€",
      "mapsUrl": "https://maps.google.com/?q=-23.5402034,-46.6402762",
      "lat": -23.5402034,
      "lng": -46.6402762,
      "halalFriendly": false,
      "bookingUrl": "https://maps.google.com/?q=-23.5402034,-46.6402762",
      "source": "osm"
    },
    {
      "nom": "Domus Hotel",
      "categorie": "Hôtel",
      "priceRange": "€€",
      "mapsUrl": "https://maps.google.com/?q=-23.5401459,-46.640201",
      "lat": -23.5401459,
      "lng": -46.640201,
      "halalFriendly": false,
      "bookingUrl": "https://maps.google.com/?q=-23.5401459,-46.640201",
      "source": "osm"
    },
    {
      "nom": "Hotel Aurora",
      "categorie": "Hôtel",
      "priceRange": "€€",
      "mapsUrl": "https://maps.google.com/?q=-23.5403704,-46.6405948",
      "lat": -23.5403704,
      "lng": -46.6405948,
      "halalFriendly": false,
      "bookingUrl": "https://maps.google.com/?q=-23.5403704,-46.6405948",
      "source": "osm"
    },
    {
      "nom": "Republica Park Hotel",
      "categorie": "Hôtel",
      "priceRange": "€€",
      "mapsUrl": "https://maps.google.com/?q=-23.5422869,-46.6431374",
      "lat": -23.5422869,
      "lng": -46.6431374,
      "halalFriendly": false,
      "bookingUrl": "https://maps.google.com/?q=-23.5422869,-46.6431374",
      "source": "osm"
    },
    {
      "nom": "Calstar Hotel",
      "categorie": "Hôtel",
      "priceRange": "€€",
      "score": null,
      "mapsUrl": "https://maps.google.com/?q=-23.5461474,-46.645925",
      "lat": -23.5461474,
      "lng": -46.645925,
      "halalFriendly": false,
      "bookingUrl": "https://www.hotelcalstar.com.br/",
      "source": "osm"
    },
    {
      "nom": "Lux Hotel",
      "categorie": "Hôtel",
      "priceRange": "€€",
      "mapsUrl": "https://maps.google.com/?q=-23.5408015,-46.6422361",
      "lat": -23.5408015,
      "lng": -46.6422361,
      "halalFriendly": false,
      "bookingUrl": "https://maps.google.com/?q=-23.5408015,-46.6422361",
      "source": "osm"
    },
    {
      "nom": "San Juan Business",
      "categorie": "Hôtel",
      "priceRange": "€€",
      "mapsUrl": "https://maps.google.com/?q=-23.5426512,-46.6442164",
      "lat": -23.5426512,
      "lng": -46.6442164,
      "halalFriendly": false,
      "bookingUrl": "https://maps.google.com/?q=-23.5426512,-46.6442164",
      "source": "osm"
    },
    {
      "nom": "Hotel Ca'd'oro",
      "categorie": "Hôtel",
      "priceRange": "€€",
      "mapsUrl": "https://maps.google.com/?q=-23.550564,-46.6472392",
      "lat": -23.550564,
      "lng": -46.6472392,
      "halalFriendly": false,
      "bookingUrl": "https://www.cadoro.com.br/",
      "source": "osm"
    },
    {
      "nom": "Hotel Michel",
      "categorie": "Hôtel",
      "priceRange": "€€",
      "mapsUrl": "https://maps.google.com/?q=-23.5380384,-46.6364296",
      "lat": -23.5380384,
      "lng": -46.6364296,
      "halalFriendly": false,
      "bookingUrl": "https://maps.google.com/?q=-23.5380384,-46.6364296",
      "source": "osm"
    },
    {
      "nom": "Bourbon São Paulo",
      "categorie": "Hôtel",
      "priceRange": "€€",
      "mapsUrl": "https://maps.google.com/?q=-23.5420912,-46.6438151",
      "lat": -23.5420912,
      "lng": -46.6438151,
      "halalFriendly": false,
      "bookingUrl": "https://maps.google.com/?q=-23.5420912,-46.6438151",
      "source": "osm"
    },
    {
      "nom": "Edifício Saint Ellie",
      "categorie": "Appartement",
      "priceRange": "€€",
      "mapsUrl": "https://maps.google.com/?q=-23.5448649,-46.6459495",
      "lat": -23.5448649,
      "lng": -46.6459495,
      "halalFriendly": false,
      "bookingUrl": "https://maps.google.com/?q=-23.5448649,-46.6459495",
      "source": "osm"
    },
    {
      "nom": "Hotel Marajá",
      "categorie": "Hôtel",
      "priceRange": "€€",
      "mapsUrl": "https://maps.google.com/?q=-23.5517598,-46.6473593",
      "lat": -23.5517598,
      "lng": -46.6473593,
      "halalFriendly": false,
      "bookingUrl": "https://maps.google.com/?q=-23.5517598,-46.6473593",
      "source": "osm"
    },
    {
      "nom": "Hotel Tropicália",
      "categorie": "Hôtel",
      "priceRange": "€€",
      "mapsUrl": "https://maps.google.com/?q=-23.5377624,-46.6361431",
      "lat": -23.5377624,
      "lng": -46.6361431,
      "halalFriendly": false,
      "bookingUrl": "https://maps.google.com/?q=-23.5377624,-46.6361431",
      "source": "osm"
    },
    {
      "nom": "Hotel Ca’d’Oro",
      "categorie": "Hôtel",
      "priceRange": "€€",
      "mapsUrl": "https://maps.google.com/?q=-23.5506811,-46.6474833",
      "lat": -23.5506811,
      "lng": -46.6474833,
      "halalFriendly": false,
      "bookingUrl": "https://maps.google.com/?q=-23.5506811,-46.6474833",
      "source": "osm"
    },
    {
      "nom": "B&B Hotels São Paulo Luz - Centro",
      "categorie": "Hôtel",
      "priceRange": "€€",
      "mapsUrl": "https://maps.google.com/?q=-23.5373839,-46.6329334",
      "lat": -23.5373839,
      "lng": -46.6329334,
      "halalFriendly": false,
      "bookingUrl": "https://maps.google.com/?q=-23.5373839,-46.6329334",
      "source": "osm"
    },
    {
      "nom": "Kalipha Hotel",
      "categorie": "Hôtel",
      "priceRange": "€€",
      "mapsUrl": "https://maps.google.com/?q=-23.5451903,-46.6464205",
      "lat": -23.5451903,
      "lng": -46.6464205,
      "halalFriendly": false,
      "bookingUrl": "http://www.kaliphahotel.com.br/",
      "source": "osm"
    },
    {
      "nom": "Hotel America do Sul",
      "categorie": "Hôtel",
      "priceRange": "€€",
      "mapsUrl": "https://maps.google.com/?q=-23.5403923,-46.6425822",
      "lat": -23.5403923,
      "lng": -46.6425822,
      "halalFriendly": false,
      "bookingUrl": "https://maps.google.com/?q=-23.5403923,-46.6425822",
      "source": "osm"
    },
    {
      "nom": "Hotel Itamarati",
      "categorie": "Hôtel",
      "priceRange": "€€",
      "mapsUrl": "https://maps.google.com/?q=-23.5414654,-46.6438482",
      "lat": -23.5414654,
      "lng": -46.6438482,
      "halalFriendly": false,
      "bookingUrl": "https://www.hotelitamarati.com.br/",
      "source": "osm"
    },
    {
      "nom": "Hotel Continental",
      "categorie": "Hôtel",
      "priceRange": "€€",
      "mapsUrl": "https://maps.google.com/?q=-23.5380392,-46.6387143",
      "lat": -23.5380392,
      "lng": -46.6387143,
      "halalFriendly": false,
      "bookingUrl": "https://maps.google.com/?q=-23.5380392,-46.6387143",
      "source": "osm"
    },
    {
      "nom": "Hotel Jardim",
      "categorie": "Hôtel",
      "priceRange": "€€",
      "mapsUrl": "https://maps.google.com/?q=-23.5449221,-46.6469041",
      "lat": -23.5449221,
      "lng": -46.6469041,
      "halalFriendly": false,
      "bookingUrl": "https://maps.google.com/?q=-23.5449221,-46.6469041",
      "source": "osm"
    },
    {
      "nom": "Hotel Cruz de Aviz",
      "categorie": "Hôtel",
      "priceRange": "€€",
      "mapsUrl": "https://maps.google.com/?q=-23.5368725,-46.6354513",
      "lat": -23.5368725,
      "lng": -46.6354513,
      "halalFriendly": false,
      "bookingUrl": "https://maps.google.com/?q=-23.5368725,-46.6354513",
      "source": "osm"
    },
    {
      "nom": "Hostelaria SP Boutique",
      "categorie": "Auberge",
      "priceRange": "€€",
      "mapsUrl": "https://maps.google.com/?q=-23.564321,-46.6347128",
      "lat": -23.564321,
      "lng": -46.6347128,
      "halalFriendly": false,
      "bookingUrl": "https://maps.google.com/?q=-23.564321,-46.6347128",
      "source": "osm"
    },
    {
      "nom": "Hotel Artemis",
      "categorie": "Hôtel",
      "priceRange": "€€",
      "mapsUrl": "https://maps.google.com/?q=-23.5398398,-46.6430303",
      "lat": -23.5398398,
      "lng": -46.6430303,
      "halalFriendly": false,
      "bookingUrl": "https://maps.google.com/?q=-23.5398398,-46.6430303",
      "source": "osm"
    },
    {
      "nom": "Mediterrâneo Hotel",
      "categorie": "Hôtel",
      "priceRange": "€€",
      "mapsUrl": "https://maps.google.com/?q=-23.5368141,-46.6359996",
      "lat": -23.5368141,
      "lng": -46.6359996,
      "halalFriendly": false,
      "bookingUrl": "https://maps.google.com/?q=-23.5368141,-46.6359996",
      "source": "osm"
    },
    {
      "nom": "Hotel Savena",
      "categorie": "Hôtel",
      "priceRange": "€€",
      "mapsUrl": "https://maps.google.com/?q=-23.5436305,-46.6464972",
      "lat": -23.5436305,
      "lng": -46.6464972,
      "halalFriendly": false,
      "bookingUrl": "https://maps.google.com/?q=-23.5436305,-46.6464972",
      "source": "osm"
    },
    {
      "nom": "Hotel Pergamon São Paulo Frei Caneca",
      "categorie": "Hôtel",
      "priceRange": "€€",
      "mapsUrl": "https://maps.google.com/?q=-23.5513278,-46.6485153",
      "lat": -23.5513278,
      "lng": -46.6485153,
      "halalFriendly": false,
      "bookingUrl": "http://www.bhghoteis.com.br/hotel-pergamon-sao-paulo-frei-caneca/",
      "source": "osm"
    },
    {
      "nom": "Hotel Fox",
      "categorie": "Hôtel",
      "priceRange": "€€",
      "mapsUrl": "https://maps.google.com/?q=-23.5452146,-46.6474383",
      "lat": -23.5452146,
      "lng": -46.6474383,
      "halalFriendly": false,
      "bookingUrl": "https://maps.google.com/?q=-23.5452146,-46.6474383",
      "source": "osm"
    },
    {
      "nom": "San Francisco Plaza",
      "categorie": "Hôtel",
      "priceRange": "€€",
      "mapsUrl": "https://maps.google.com/?q=-23.5440304,-46.646944",
      "lat": -23.5440304,
      "lng": -46.646944,
      "halalFriendly": false,
      "bookingUrl": "https://maps.google.com/?q=-23.5440304,-46.646944",
      "source": "osm"
    },
    {
      "nom": "Hotel Império",
      "categorie": "Hôtel",
      "priceRange": "€€",
      "mapsUrl": "https://maps.google.com/?q=-23.5403926,-46.6440605",
      "lat": -23.5403926,
      "lng": -46.6440605,
      "halalFriendly": false,
      "bookingUrl": "https://maps.google.com/?q=-23.5403926,-46.6440605",
      "source": "osm"
    },
    {
      "nom": "Hotel Florêncio",
      "categorie": "Hôtel",
      "priceRange": "€€",
      "mapsUrl": "https://maps.google.com/?q=-23.5362586,-46.6331442",
      "lat": -23.5362586,
      "lng": -46.6331442,
      "halalFriendly": false,
      "bookingUrl": "https://maps.google.com/?q=-23.5362586,-46.6331442",
      "source": "osm"
    },
    {
      "nom": "The Place Hotel",
      "categorie": "Hôtel",
      "priceRange": "€€",
      "mapsUrl": "https://maps.google.com/?q=-23.5479741,-46.6486426",
      "lat": -23.5479741,
      "lng": -46.6486426,
      "halalFriendly": false,
      "bookingUrl": "https://maps.google.com/?q=-23.5479741,-46.6486426",
      "source": "osm"
    },
    {
      "nom": "Hotel Okada",
      "categorie": "Hôtel",
      "priceRange": "€€",
      "mapsUrl": "https://maps.google.com/?q=-23.5425941,-46.6464409",
      "lat": -23.5425941,
      "lng": -46.6464409,
      "halalFriendly": false,
      "bookingUrl": "https://maps.google.com/?q=-23.5425941,-46.6464409",
      "source": "osm"
    },
    {
      "nom": "Hotel Manchete",
      "categorie": "Hôtel",
      "priceRange": "€€",
      "mapsUrl": "https://maps.google.com/?q=-23.5399903,-46.6440893",
      "lat": -23.5399903,
      "lng": -46.6440893,
      "halalFriendly": false,
      "bookingUrl": "https://maps.google.com/?q=-23.5399903,-46.6440893",
      "source": "osm"
    },
    {
      "nom": "Hotel Manaus",
      "categorie": "Hôtel",
      "priceRange": "€€",
      "mapsUrl": "https://maps.google.com/?q=-23.5362682,-46.635936",
      "lat": -23.5362682,
      "lng": -46.635936,
      "halalFriendly": false,
      "bookingUrl": "https://maps.google.com/?q=-23.5362682,-46.635936",
      "source": "osm"
    },
    {
      "nom": "Casper Hotel",
      "categorie": "Hôtel",
      "priceRange": "€€",
      "mapsUrl": "https://maps.google.com/?q=-23.5362215,-46.6359207",
      "lat": -23.5362215,
      "lng": -46.6359207,
      "halalFriendly": false,
      "bookingUrl": "https://maps.google.com/?q=-23.5362215,-46.6359207",
      "source": "osm"
    },
    {
      "nom": "Hotel Grand Barão",
      "categorie": "Hôtel",
      "priceRange": "€€",
      "mapsUrl": "https://maps.google.com/?q=-23.5395166,-46.6437358",
      "lat": -23.5395166,
      "lng": -46.6437358,
      "halalFriendly": false,
      "bookingUrl": "https://maps.google.com/?q=-23.5395166,-46.6437358",
      "source": "osm"
    },
    {
      "nom": "Ibis Budget",
      "categorie": "Hôtel",
      "priceRange": "€€",
      "mapsUrl": "https://maps.google.com/?q=-23.5398234,-46.6441983",
      "lat": -23.5398234,
      "lng": -46.6441983,
      "halalFriendly": false,
      "bookingUrl": "https://maps.google.com/?q=-23.5398234,-46.6441983",
      "source": "osm"
    },
    {
      "nom": "Estação Hostel",
      "categorie": "Auberge",
      "priceRange": "€€",
      "mapsUrl": "https://maps.google.com/?q=-23.5359859,-46.6357122",
      "lat": -23.5359859,
      "lng": -46.6357122,
      "halalFriendly": false,
      "bookingUrl": "https://estacaohostel.com.br",
      "source": "osm"
    },
    {
      "nom": "Hotel Dan Inn Express",
      "categorie": "Hôtel",
      "priceRange": "€€",
      "mapsUrl": "https://maps.google.com/?q=-23.5476131,-46.6491558",
      "lat": -23.5476131,
      "lng": -46.6491558,
      "halalFriendly": false,
      "bookingUrl": "https://maps.google.com/?q=-23.5476131,-46.6491558",
      "source": "osm"
    },
    {
      "nom": "Reinales Plaza Hotel",
      "categorie": "Hôtel",
      "priceRange": "€€",
      "mapsUrl": "https://maps.google.com/?q=-23.5393355,-46.6439442",
      "lat": -23.5393355,
      "lng": -46.6439442,
      "halalFriendly": false,
      "bookingUrl": "https://maps.google.com/?q=-23.5393355,-46.6439442",
      "source": "osm"
    },
    {
      "nom": "Hotel Amanhecer",
      "categorie": "Hôtel",
      "priceRange": "€€",
      "mapsUrl": "https://maps.google.com/?q=-23.536447,-46.6279407",
      "lat": -23.536447,
      "lng": -46.6279407,
      "halalFriendly": false,
      "bookingUrl": "https://maps.google.com/?q=-23.536447,-46.6279407",
      "source": "osm"
    },
    {
      "nom": "San Raphael Hotel",
      "categorie": "Hôtel",
      "priceRange": "€€",
      "mapsUrl": "https://maps.google.com/?q=-23.5400338,-46.6448779",
      "lat": -23.5400338,
      "lng": -46.6448779,
      "halalFriendly": false,
      "bookingUrl": "https://www.sanraphael.com.br",
      "source": "osm"
    },
    {
      "nom": "Hobi Hostel",
      "categorie": "Auberge",
      "priceRange": "€€",
      "mapsUrl": "https://maps.google.com/?q=-23.5607752,-46.6450997",
      "lat": -23.5607752,
      "lng": -46.6450997,
      "halalFriendly": false,
      "bookingUrl": "https://hobihostel.com/",
      "source": "osm"
    },
    {
      "nom": "Hotel Monteneve",
      "categorie": "Hôtel",
      "priceRange": "€€",
      "mapsUrl": "https://maps.google.com/?q=-23.535779,-46.6367008",
      "lat": -23.535779,
      "lng": -46.6367008,
      "halalFriendly": false,
      "bookingUrl": "https://maps.google.com/?q=-23.535779,-46.6367008",
      "source": "osm"
    },
    {
      "nom": "Makuxis Hotel",
      "categorie": "Hôtel",
      "priceRange": "€€",
      "mapsUrl": "https://maps.google.com/?q=-23.562131,-46.6437251",
      "lat": -23.562131,
      "lng": -46.6437251,
      "halalFriendly": false,
      "bookingUrl": "https://maps.google.com/?q=-23.562131,-46.6437251",
      "source": "osm"
    },
    {
      "nom": "San Michel Hotel",
      "categorie": "Hôtel",
      "priceRange": "€€",
      "mapsUrl": "https://maps.google.com/?q=-23.5398295,-46.6451356",
      "lat": -23.5398295,
      "lng": -46.6451356,
      "halalFriendly": false,
      "bookingUrl": "https://maps.google.com/?q=-23.5398295,-46.6451356",
      "source": "osm"
    },
    {
      "nom": "São Paulo Hostel Downtown",
      "categorie": "Auberge",
      "priceRange": "€€",
      "mapsUrl": "https://maps.google.com/?q=-23.5393984,-46.6446712",
      "lat": -23.5393984,
      "lng": -46.6446712,
      "halalFriendly": false,
      "bookingUrl": "https://www.hostelsp.com.br/",
      "source": "osm"
    },
    {
      "nom": "San Michel",
      "categorie": "Hôtel",
      "priceRange": "€€",
      "mapsUrl": "https://maps.google.com/?q=-23.5398625,-46.645261",
      "lat": -23.5398625,
      "lng": -46.645261,
      "halalFriendly": false,
      "bookingUrl": "https://maps.google.com/?q=-23.5398625,-46.645261",
      "source": "osm"
    },
    {
      "nom": "Hotel Arouche",
      "categorie": "Hôtel",
      "priceRange": "€€",
      "mapsUrl": "https://maps.google.com/?q=-23.5419733,-46.6472942",
      "lat": -23.5419733,
      "lng": -46.6472942,
      "halalFriendly": false,
      "bookingUrl": "https://maps.google.com/?q=-23.5419733,-46.6472942",
      "source": "osm"
    },
    {
      "nom": "Balcony Hostel & Hotel",
      "categorie": "Auberge",
      "priceRange": "€€",
      "mapsUrl": "https://maps.google.com/?q=-23.5353594,-46.6368462",
      "lat": -23.5353594,
      "lng": -46.6368462,
      "halalFriendly": false,
      "bookingUrl": "https://maps.google.com/?q=-23.5353594,-46.6368462",
      "source": "osm"
    },
    {
      "nom": "Hotel Piratininga",
      "categorie": "Hôtel",
      "priceRange": "€€",
      "mapsUrl": "https://maps.google.com/?q=-23.5356082,-46.6385732",
      "lat": -23.5356082,
      "lng": -46.6385732,
      "halalFriendly": false,
      "bookingUrl": "https://maps.google.com/?q=-23.5356082,-46.6385732",
      "source": "osm"
    },
    {
      "nom": "Pousada dos Franceses",
      "categorie": "Hôtel",
      "priceRange": "€€",
      "mapsUrl": "https://maps.google.com/?q=-23.5589373,-46.6478001",
      "lat": -23.5589373,
      "lng": -46.6478001,
      "halalFriendly": false,
      "bookingUrl": "https://maps.google.com/?q=-23.5589373,-46.6478001",
      "source": "osm"
    },
    {
      "nom": "Hotel Ipanema",
      "categorie": "Hôtel",
      "priceRange": "€€",
      "mapsUrl": "https://maps.google.com/?q=-23.5467894,-46.6502607",
      "lat": -23.5467894,
      "lng": -46.6502607,
      "halalFriendly": false,
      "bookingUrl": "https://maps.google.com/?q=-23.5467894,-46.6502607",
      "source": "osm"
    },
    {
      "nom": "New Point",
      "categorie": "Hôtel",
      "priceRange": "€€",
      "mapsUrl": "https://maps.google.com/?q=-23.5564709,-46.6496982",
      "lat": -23.5564709,
      "lng": -46.6496982,
      "halalFriendly": false,
      "bookingUrl": "https://maps.google.com/?q=-23.5564709,-46.6496982",
      "source": "osm"
    },
    {
      "nom": "Hotel Chilli",
      "categorie": "Hôtel",
      "priceRange": "€€",
      "mapsUrl": "https://maps.google.com/?q=-23.5415391,-46.6480272",
      "lat": -23.5415391,
      "lng": -46.6480272,
      "halalFriendly": false,
      "bookingUrl": "https://hotelchilli.com.br/",
      "source": "osm"
    },
    {
      "nom": "Hotel Castelinho",
      "categorie": "Hôtel",
      "priceRange": "€€",
      "mapsUrl": "https://maps.google.com/?q=-23.5347517,-46.6287307",
      "lat": -23.5347517,
      "lng": -46.6287307,
      "halalFriendly": false,
      "bookingUrl": "https://maps.google.com/?q=-23.5347517,-46.6287307",
      "source": "osm"
    },
    {
      "nom": "Hotel Family",
      "categorie": "Hôtel",
      "priceRange": "€€",
      "mapsUrl": "https://maps.google.com/?q=-23.5398824,-46.6197262",
      "lat": -23.5398824,
      "lng": -46.6197262,
      "halalFriendly": false,
      "bookingUrl": "https://maps.google.com/?q=-23.5398824,-46.6197262",
      "source": "osm"
    },
    {
      "nom": "JM Hospedaria",
      "categorie": "Hôtel",
      "priceRange": "€€",
      "mapsUrl": "https://maps.google.com/?q=-23.5416485,-46.6485159",
      "lat": -23.5416485,
      "lng": -46.6485159,
      "halalFriendly": false,
      "bookingUrl": "https://maps.google.com/?q=-23.5416485,-46.6485159",
      "source": "osm"
    },
    {
      "nom": "Homy ALF Bela Vista",
      "categorie": "Appartement",
      "priceRange": "€€",
      "mapsUrl": "https://maps.google.com/?q=-23.5636647,-46.6443038",
      "lat": -23.5636647,
      "lng": -46.6443038,
      "halalFriendly": false,
      "bookingUrl": "https://maps.google.com/?q=-23.5636647,-46.6443038",
      "source": "osm"
    },
    {
      "nom": "Hotel Rojas",
      "categorie": "Hôtel",
      "priceRange": "€€",
      "mapsUrl": "https://maps.google.com/?q=-23.5390001,-46.6465512",
      "lat": -23.5390001,
      "lng": -46.6465512,
      "halalFriendly": false,
      "bookingUrl": "https://maps.google.com/?q=-23.5390001,-46.6465512",
      "source": "osm"
    }
  ],
  "mosqueesPrincipales": [
    {
      "id": "m8093737",
      "nom": "Catedral da Sé",
      "type": "Mosquée",
      "adresse": "Praça da Sé, São Paulo",
      "description": "Lieu de prière (OpenStreetMap).",
      "mapsUrl": "https://maps.google.com/?q=-23.5512574,-46.6343496",
      "lat": -23.5512574,
      "lng": -46.6343496,
      "source": "osm"
    },
    {
      "id": "m424632321",
      "nom": "Capela dos Aflitos",
      "type": "Mosquée",
      "adresse": "Rua dos Aflitos, São Paulo",
      "description": "Lieu de prière (OpenStreetMap).",
      "mapsUrl": "https://maps.google.com/?q=-23.5561314,-46.6346559",
      "lat": -23.5561314,
      "lng": -46.6346559,
      "source": "osm"
    },
    {
      "id": "m371378692",
      "nom": "Mesquita Brasil",
      "type": "Mosquée",
      "adresse": "Rua Barão de Jaguara, São Paulo",
      "description": "Lieu de prière (OpenStreetMap).",
      "mapsUrl": "https://maps.google.com/?q=-23.5582333,-46.6182952",
      "lat": -23.5582333,
      "lng": -46.6182952,
      "source": "osm"
    },
    {
      "id": "m438639819",
      "nom": "Mesquita do Brás",
      "type": "Mosquée",
      "adresse": "Rua Monsenhor Andrade, São Paulo",
      "description": "Lieu de prière (OpenStreetMap).",
      "mapsUrl": "https://maps.google.com/?q=-23.5356496,-46.6220463",
      "lat": -23.5356496,
      "lng": -46.6220463,
      "source": "osm"
    },
    {
      "id": "m423244773",
      "nom": "Capela Beneficiencia Portuguesa",
      "type": "Mosquée",
      "adresse": "Rua Maestro Cardim, São Paulo",
      "description": "Lieu de prière (OpenStreetMap).",
      "mapsUrl": "https://maps.google.com/?q=-23.5683164,-46.6419811",
      "lat": -23.5683164,
      "lng": -46.6419811,
      "source": "osm"
    },
    {
      "id": "m1031353264",
      "nom": "Igreja Santo Antonio de Sant'Anna Galvão",
      "type": "Mosquée",
      "adresse": "Avenida Tiradentes, São Paulo",
      "description": "Lieu de prière (OpenStreetMap).",
      "mapsUrl": "https://maps.google.com/?q=-23.5304047,-46.6314168",
      "lat": -23.5304047,
      "lng": -46.6314168,
      "source": "osm"
    },
    {
      "id": "m3429388406",
      "nom": "Mesquita Omar ibn Khattab",
      "type": "Mosquée",
      "adresse": "Avenida Carlos de Campos, São Paulo",
      "description": "Lieu de prière (OpenStreetMap).",
      "mapsUrl": "https://maps.google.com/?q=-23.5306158,-46.6156383",
      "lat": -23.5306158,
      "lng": -46.6156383,
      "source": "osm"
    }
  ],
  "activites": [
    {
      "id": "a75488634",
      "nom": "Praça da Sé",
      "categorie": "attraction",
      "description": "",
      "prix": "",
      "duree": "",
      "mapsUrl": "https://maps.google.com/?q=-23.5504435,-46.6331172",
      "lat": -23.5504435,
      "lng": -46.6331172,
      "source": "osm"
    },
    {
      "id": "a6579501095",
      "nom": "Abertura",
      "categorie": "artwork",
      "description": "",
      "prix": "",
      "duree": "",
      "mapsUrl": "https://maps.google.com/?q=-23.550307,-46.6332494",
      "lat": -23.550307,
      "lng": -46.6332494,
      "source": "osm"
    },
    {
      "id": "a3375718988",
      "nom": "Condor",
      "categorie": "artwork",
      "description": "",
      "prix": "",
      "duree": "",
      "mapsUrl": "https://maps.google.com/?q=-23.5508437,-46.6329208",
      "lat": -23.5508437,
      "lng": -46.6329208,
      "source": "osm"
    },
    {
      "id": "a6579435978",
      "nom": "Emblema de São Paulo",
      "categorie": "artwork",
      "description": "",
      "prix": "",
      "duree": "",
      "mapsUrl": "https://maps.google.com/?q=-23.5503166,-46.6327537",
      "lat": -23.5503166,
      "lng": -46.6327537,
      "source": "osm"
    },
    {
      "id": "a6579434757",
      "nom": "Totem da Sé",
      "categorie": "artwork",
      "description": "",
      "prix": "",
      "duree": "",
      "mapsUrl": "https://maps.google.com/?q=-23.5508384,-46.6337875",
      "lat": -23.5508384,
      "lng": -46.6337875,
      "source": "osm"
    },
    {
      "id": "a4897257221",
      "nom": "Apóstolo Paulo",
      "categorie": "artwork",
      "description": "",
      "prix": "",
      "duree": "",
      "mapsUrl": "https://maps.google.com/?q=-23.5501346,-46.6338039",
      "lat": -23.5501346,
      "lng": -46.6338039,
      "source": "osm"
    },
    {
      "id": "a6579410093",
      "nom": "Diálogo",
      "categorie": "artwork",
      "description": "",
      "prix": "",
      "duree": "",
      "mapsUrl": "https://maps.google.com/?q=-23.5510877,-46.6333513",
      "lat": -23.5510877,
      "lng": -46.6333513,
      "source": "osm"
    },
    {
      "id": "a2135983920",
      "nom": "Marco zero da cidade de São Paulo",
      "categorie": "artwork",
      "description": "",
      "prix": "",
      "duree": "",
      "mapsUrl": "https://maps.google.com/?q=-23.5503953,-46.6339471",
      "lat": -23.5503953,
      "lng": -46.6339471,
      "source": "osm"
    },
    {
      "id": "a6579436729",
      "nom": "Voo",
      "categorie": "artwork",
      "description": "",
      "prix": "",
      "duree": "",
      "mapsUrl": "https://maps.google.com/?q=-23.5505505,-46.632605",
      "lat": -23.5505505,
      "lng": -46.632605,
      "source": "osm"
    },
    {
      "id": "a6579491944",
      "nom": "Espaço Cósmico",
      "categorie": "artwork",
      "description": "",
      "prix": "",
      "duree": "",
      "mapsUrl": "https://maps.google.com/?q=-23.5511455,-46.6330925",
      "lat": -23.5511455,
      "lng": -46.6330925,
      "source": "osm"
    },
    {
      "id": "a6579472791",
      "nom": "Impacto",
      "categorie": "artwork",
      "description": "",
      "prix": "",
      "duree": "",
      "mapsUrl": "https://maps.google.com/?q=-23.5510777,-46.6337146",
      "lat": -23.5510777,
      "lng": -46.6337146,
      "source": "osm"
    },
    {
      "id": "a6585818830",
      "nom": "José de Anchieta",
      "categorie": "artwork",
      "description": "",
      "prix": "",
      "duree": "",
      "mapsUrl": "https://maps.google.com/?q=-23.5496063,-46.6335663",
      "lat": -23.5496063,
      "lng": -46.6335663,
      "source": "osm"
    },
    {
      "id": "a6579476726",
      "nom": "Satélite",
      "categorie": "artwork",
      "description": "",
      "prix": "",
      "duree": "",
      "mapsUrl": "https://maps.google.com/?q=-23.5516624,-46.6326559",
      "lat": -23.5516624,
      "lng": -46.6326559,
      "source": "osm"
    },
    {
      "id": "a425456141",
      "nom": "Edifício Guinle",
      "categorie": "attraction",
      "description": "",
      "prix": "",
      "duree": "",
      "mapsUrl": "https://maps.google.com/?q=-23.5490754,-46.6341352",
      "lat": -23.5490754,
      "lng": -46.6341352,
      "source": "osm"
    },
    {
      "id": "a75531453",
      "nom": "Secretaria da Justiça e da Defesa da Cidadania",
      "categorie": "museum",
      "description": "",
      "prix": "",
      "duree": "",
      "mapsUrl": "https://maps.google.com/?q=-23.5486219,-46.6328604",
      "lat": -23.5486219,
      "lng": -46.6328604,
      "source": "osm"
    },
    {
      "id": "a11038572500",
      "nom": "Homens trabalhando",
      "categorie": "artwork",
      "description": "",
      "prix": "",
      "duree": "",
      "mapsUrl": "https://maps.google.com/?q=-23.5489547,-46.634619",
      "lat": -23.5489547,
      "lng": -46.634619,
      "source": "osm"
    },
    {
      "id": "a425455864",
      "nom": "Edifício Triângulo",
      "categorie": "attraction",
      "description": "",
      "prix": "",
      "duree": "",
      "mapsUrl": "https://maps.google.com/?q=-23.5488574,-46.6346163",
      "lat": -23.5488574,
      "lng": -46.6346163,
      "source": "osm"
    },
    {
      "id": "a13726677999",
      "nom": "João Mendes de Almeida Júnior",
      "categorie": "artwork",
      "description": "",
      "prix": "",
      "duree": "",
      "mapsUrl": "https://maps.google.com/?q=-23.5525743,-46.6336911",
      "lat": -23.5525743,
      "lng": -46.6336911,
      "source": "osm"
    },
    {
      "id": "a736841023",
      "nom": "Beco do Pinto",
      "categorie": "attraction",
      "description": "",
      "prix": "",
      "duree": "",
      "mapsUrl": "https://maps.google.com/?q=-23.5484664,-46.6322816",
      "lat": -23.5484664,
      "lng": -46.6322816,
      "source": "osm"
    },
    {
      "id": "a425456078",
      "nom": "Edifício Palacete Tereza Toledo Lara",
      "categorie": "attraction",
      "description": "",
      "prix": "",
      "duree": "",
      "mapsUrl": "https://maps.google.com/?q=-23.5487911,-46.6348924",
      "lat": -23.5487911,
      "lng": -46.6348924,
      "source": "osm"
    },
    {
      "id": "a2157624155",
      "nom": "Glória Imortal aos Fundadores de São Paulo",
      "categorie": "monument",
      "description": "",
      "prix": "",
      "duree": "",
      "mapsUrl": "https://maps.google.com/?q=-23.5481348,-46.6330584",
      "lat": -23.5481348,
      "lng": -46.6330584,
      "source": "osm"
    },
    {
      "id": "a205784137",
      "nom": "Casa da Imagem",
      "categorie": "museum",
      "description": "",
      "prix": "",
      "duree": "",
      "mapsUrl": "https://maps.google.com/?q=-23.5483508,-46.6321846",
      "lat": -23.5483508,
      "lng": -46.6321846,
      "source": "osm"
    },
    {
      "id": "a205784140",
      "nom": "Colégio José de Anchieta",
      "categorie": "museum",
      "description": "",
      "prix": "",
      "duree": "",
      "mapsUrl": "https://maps.google.com/?q=-23.5480155,-46.6326088",
      "lat": -23.5480155,
      "lng": -46.6326088,
      "source": "osm"
    },
    {
      "id": "a10580168308",
      "nom": "Pelorinho",
      "categorie": "memorial",
      "description": "",
      "prix": "",
      "duree": "",
      "mapsUrl": "https://maps.google.com/?q=-23.5528384,-46.634542",
      "lat": -23.5528384,
      "lng": -46.634542,
      "source": "osm"
    },
    {
      "id": "a5034585047",
      "nom": "Marco da Paz",
      "categorie": "artwork",
      "description": "",
      "prix": "",
      "duree": "",
      "mapsUrl": "https://maps.google.com/?q=-23.5477512,-46.6330413",
      "lat": -23.5477512,
      "lng": -46.6330413,
      "source": "osm"
    },
    {
      "id": "a5013011023",
      "nom": "O Beijo",
      "categorie": "monument",
      "description": "",
      "prix": "",
      "duree": "",
      "mapsUrl": "https://maps.google.com/?q=-23.5498098,-46.6366685",
      "lat": -23.5498098,
      "lng": -46.6366685,
      "source": "osm"
    },
    {
      "id": "a5013011024",
      "nom": "Busto de Álvares de Azevedo",
      "categorie": "monument",
      "description": "",
      "prix": "",
      "duree": "",
      "mapsUrl": "https://maps.google.com/?q=-23.5498657,-46.6366916",
      "lat": -23.5498657,
      "lng": -46.6366916,
      "source": "osm"
    },
    {
      "id": "a4973028945",
      "nom": "Centro Cultural Banco do Brasil São Paulo",
      "categorie": "museum",
      "description": "",
      "prix": "",
      "duree": "",
      "mapsUrl": "https://maps.google.com/?q=-23.5475552,-46.6346871",
      "lat": -23.5475552,
      "lng": -46.6346871,
      "source": "osm"
    },
    {
      "id": "a5013011022",
      "nom": "XI de Agosto",
      "categorie": "monument",
      "description": "",
      "prix": "",
      "duree": "",
      "mapsUrl": "https://maps.google.com/?q=-23.5497797,-46.6367212",
      "lat": -23.5497797,
      "lng": -46.6367212,
      "source": "osm"
    },
    {
      "id": "a5013029321",
      "nom": "Menino e o Catavento",
      "categorie": "monument",
      "description": "",
      "prix": "",
      "duree": "",
      "mapsUrl": "https://maps.google.com/?q=-23.5497625,-46.6367931",
      "lat": -23.5497625,
      "lng": -46.6367931,
      "source": "osm"
    },
    {
      "id": "a6389134263",
      "nom": "Museu do Tribunal de Justiça SP",
      "categorie": "museum",
      "description": "",
      "prix": "",
      "duree": "",
      "mapsUrl": "https://maps.google.com/?q=-23.5537763,-46.6321281",
      "lat": -23.5537763,
      "lng": -46.6321281,
      "source": "osm"
    },
    {
      "id": "a339950877",
      "nom": "Convento São Francisco",
      "categorie": "monastery",
      "description": "",
      "prix": "",
      "duree": "",
      "mapsUrl": "https://maps.google.com/?q=-23.5498009,-46.6373659",
      "lat": -23.5498009,
      "lng": -46.6373659,
      "source": "osm"
    },
    {
      "id": "a5624664227",
      "nom": "José Bonifácio",
      "categorie": "monument",
      "description": "",
      "prix": "",
      "duree": "",
      "mapsUrl": "https://maps.google.com/?q=-23.5477945,-46.6362427",
      "lat": -23.5477945,
      "lng": -46.6362427,
      "source": "osm"
    },
    {
      "id": "a12382334765",
      "nom": "MUB3 - Museu da Bolsa do Brasil",
      "categorie": "museum",
      "description": "",
      "prix": "",
      "duree": "",
      "mapsUrl": "https://maps.google.com/?q=-23.5465389,-46.6343986",
      "lat": -23.5465389,
      "lng": -46.6343986,
      "source": "osm"
    },
    {
      "id": "a329385698",
      "nom": "Edifício Sampaio Moreira",
      "categorie": "attraction",
      "description": "",
      "prix": "",
      "duree": "",
      "mapsUrl": "https://maps.google.com/?q=-23.5467187,-46.636146",
      "lat": -23.5467187,
      "lng": -46.636146,
      "source": "osm"
    },
    {
      "id": "a425691583",
      "nom": "Edifício Banco de São Paulo",
      "categorie": "attraction",
      "description": "",
      "prix": "",
      "duree": "",
      "mapsUrl": "https://maps.google.com/?q=-23.5459386,-46.6345233",
      "lat": -23.5459386,
      "lng": -46.6345233,
      "source": "osm"
    },
    {
      "id": "a7360462686",
      "nom": "Farol Santander São Paulo",
      "categorie": "museum",
      "description": "",
      "prix": "",
      "duree": "",
      "mapsUrl": "https://maps.google.com/?q=-23.5458386,-46.6341588",
      "lat": -23.5458386,
      "lng": -46.6341588,
      "source": "osm"
    },
    {
      "id": "a333174918",
      "nom": "Edifício Matarazzo",
      "categorie": "attraction",
      "description": "",
      "prix": "",
      "duree": "",
      "mapsUrl": "https://maps.google.com/?q=-23.5476231,-46.6374494",
      "lat": -23.5476231,
      "lng": -46.6374494,
      "source": "osm"
    },
    {
      "id": "a191607149",
      "nom": "Edifício Altino Arantes",
      "categorie": "attraction",
      "description": "",
      "prix": "",
      "duree": "",
      "mapsUrl": "https://maps.google.com/?q=-23.5457708,-46.6341278",
      "lat": -23.5457708,
      "lng": -46.6341278,
      "source": "osm"
    },
    {
      "id": "a4983954221",
      "nom": "Giuseppe Verdi",
      "categorie": "memorial",
      "description": "",
      "prix": "",
      "duree": "",
      "mapsUrl": "https://maps.google.com/?q=-23.5464741,-46.6367359",
      "lat": -23.5464741,
      "lng": -46.6367359,
      "source": "osm"
    },
    {
      "id": "a191607150",
      "nom": "Edifício Martinelli",
      "categorie": "attraction",
      "description": "",
      "prix": "",
      "duree": "",
      "mapsUrl": "https://maps.google.com/?q=-23.5455261,-46.635222",
      "lat": -23.5455261,
      "lng": -46.635222,
      "source": "osm"
    },
    {
      "id": "a3404838226",
      "nom": "Monumento Amizade Sírio Libanesa",
      "categorie": "artwork",
      "description": "",
      "prix": "",
      "duree": "",
      "mapsUrl": "https://maps.google.com/?q=-23.5453181,-46.6317793",
      "lat": -23.5453181,
      "lng": -46.6317793,
      "source": "osm"
    },
    {
      "id": "a7042949988",
      "nom": "Bairro Oriental",
      "categorie": "attraction",
      "description": "",
      "prix": "",
      "duree": "",
      "mapsUrl": "https://maps.google.com/?q=-23.5556815,-46.6352533",
      "lat": -23.5556815,
      "lng": -46.6352533,
      "source": "osm"
    },
    {
      "id": "a4467659990",
      "nom": "Estúdio Lâmina",
      "categorie": "museum",
      "description": "",
      "prix": "",
      "duree": "",
      "mapsUrl": "https://maps.google.com/?q=-23.5451244,-46.6349531",
      "lat": -23.5451244,
      "lng": -46.6349531,
      "source": "osm"
    },
    {
      "id": "a2634256028",
      "nom": "Viaduto do Chá",
      "categorie": "attraction",
      "description": "",
      "prix": "",
      "duree": "",
      "mapsUrl": "https://maps.google.com/?q=-23.5465818,-46.6379543",
      "lat": -23.5465818,
      "lng": -46.6379543,
      "source": "osm"
    },
    {
      "id": "a4983916824",
      "nom": "Drusas",
      "categorie": "artwork",
      "description": "",
      "prix": "",
      "duree": "",
      "mapsUrl": "https://maps.google.com/?q=-23.5453719,-46.6364334",
      "lat": -23.5453719,
      "lng": -46.6364334,
      "source": "osm"
    },
    {
      "id": "a13686087706",
      "nom": "Antiga Fonte de Água, acredito",
      "categorie": "memorial",
      "description": "",
      "prix": "",
      "duree": "",
      "mapsUrl": "https://maps.google.com/?q=-23.548025,-46.6393783",
      "lat": -23.548025,
      "lng": -46.6393783,
      "source": "osm"
    },
    {
      "id": "a421318705",
      "nom": "Shopping Light",
      "categorie": "attraction",
      "description": "",
      "prix": "",
      "duree": "",
      "mapsUrl": "https://maps.google.com/?q=-23.5466845,-46.6386693",
      "lat": -23.5466845,
      "lng": -46.6386693,
      "source": "osm"
    },
    {
      "id": "a6638654001",
      "nom": "Fundação Fernando Henrique Cardoso",
      "categorie": "museum",
      "description": "",
      "prix": "",
      "duree": "",
      "mapsUrl": "https://maps.google.com/?q=-23.5453813,-46.6372948",
      "lat": -23.5453813,
      "lng": -46.6372948,
      "source": "osm"
    },
    {
      "id": "a4983909633",
      "nom": "Monumento a Rui Barbosa",
      "categorie": "memorial",
      "description": "",
      "prix": "",
      "duree": "",
      "mapsUrl": "https://maps.google.com/?q=-23.5458993,-46.6380825",
      "lat": -23.5458993,
      "lng": -46.6380825,
      "source": "osm"
    },
    {
      "id": "a4983971923",
      "nom": "Salvador Rosa",
      "categorie": "memorial",
      "description": "",
      "prix": "",
      "duree": "",
      "mapsUrl": "https://maps.google.com/?q=-23.5458146,-46.6382229",
      "lat": -23.5458146,
      "lng": -46.6382229,
      "source": "osm"
    },
    {
      "id": "a4983971922",
      "nom": "Monumento à República brasileira",
      "categorie": "memorial",
      "description": "",
      "prix": "",
      "duree": "",
      "mapsUrl": "https://maps.google.com/?q=-23.5459548,-46.6383815",
      "lat": -23.5459548,
      "lng": -46.6383815,
      "source": "osm"
    },
    {
      "id": "a4983909634",
      "nom": "Estátua Guarani",
      "categorie": "memorial",
      "description": "",
      "prix": "",
      "duree": "",
      "mapsUrl": "https://maps.google.com/?q=-23.5457542,-46.6381727",
      "lat": -23.5457542,
      "lng": -46.6381727,
      "source": "osm"
    },
    {
      "id": "a4983972021",
      "nom": "Monumento à Casa de Savoia",
      "categorie": "memorial",
      "description": "",
      "prix": "",
      "duree": "",
      "mapsUrl": "https://maps.google.com/?q=-23.545687,-46.6381009",
      "lat": -23.545687,
      "lng": -46.6381009,
      "source": "osm"
    },
    {
      "id": "a4690414591",
      "nom": "Obelisco do Piques",
      "categorie": "monument",
      "description": "",
      "prix": "",
      "duree": "",
      "mapsUrl": "https://maps.google.com/?q=-23.547683,-46.6397807",
      "lat": -23.547683,
      "lng": -46.6397807,
      "source": "osm"
    },
    {
      "id": "a4983971921",
      "nom": "Lo Schiavo",
      "categorie": "memorial",
      "description": "",
      "prix": "",
      "duree": "",
      "mapsUrl": "https://maps.google.com/?q=-23.5457654,-46.6384234",
      "lat": -23.5457654,
      "lng": -46.6384234,
      "source": "osm"
    },
    {
      "id": "a6638654003",
      "nom": "Praça das Artes",
      "categorie": "attraction",
      "description": "",
      "prix": "",
      "duree": "",
      "mapsUrl": "https://maps.google.com/?q=-23.5448051,-46.6371093",
      "lat": -23.5448051,
      "lng": -46.6371093,
      "source": "osm"
    },
    {
      "id": "a13684111180",
      "nom": "Pórtico do Largo da Memória",
      "categorie": "monument",
      "description": "",
      "prix": "",
      "duree": "",
      "mapsUrl": "https://maps.google.com/?q=-23.5475384,-46.6398327",
      "lat": -23.5475384,
      "lng": -46.6398327,
      "source": "osm"
    },
    {
      "id": "a4983972022",
      "nom": "Fosca",
      "categorie": "memorial",
      "description": "",
      "prix": "",
      "duree": "",
      "mapsUrl": "https://maps.google.com/?q=-23.545788,-46.6384693",
      "lat": -23.545788,
      "lng": -46.6384693,
      "source": "osm"
    },
    {
      "id": "a512188051",
      "nom": "Monumento a Carlos Gomes",
      "categorie": "monument",
      "description": "",
      "prix": "",
      "duree": "",
      "mapsUrl": "https://maps.google.com/?q=-23.5456642,-46.6383387",
      "lat": -23.5456642,
      "lng": -46.6383387,
      "source": "osm"
    },
    {
      "id": "a4983909931",
      "nom": "Estátua Condor",
      "categorie": "memorial",
      "description": "",
      "prix": "",
      "duree": "",
      "mapsUrl": "https://maps.google.com/?q=-23.5456662,-46.6383455",
      "lat": -23.5456662,
      "lng": -46.6383455,
      "source": "osm"
    },
    {
      "id": "a4983985822",
      "nom": "Maria Tudor",
      "categorie": "memorial",
      "description": "",
      "prix": "",
      "duree": "",
      "mapsUrl": "https://maps.google.com/?q=-23.5456111,-46.6383036",
      "lat": -23.5456111,
      "lng": -46.6383036,
      "source": "osm"
    },
    {
      "id": "a4686956920",
      "nom": "Aquário do Centro",
      "categorie": "aquarium",
      "description": "",
      "prix": "",
      "duree": "",
      "mapsUrl": "https://maps.google.com/?q=-23.5487701,-46.6404442",
      "lat": -23.5487701,
      "lng": -46.6404442,
      "source": "osm"
    },
    {
      "id": "a6638654000",
      "nom": "Escola De Dança do Theatro Municipal de São Paulo",
      "categorie": "attraction",
      "description": "",
      "prix": "",
      "duree": "",
      "mapsUrl": "https://maps.google.com/?q=-23.5444326,-46.6371001",
      "lat": -23.5444326,
      "lng": -46.6371001,
      "source": "osm"
    },
    {
      "id": "a1517785524",
      "nom": "Memorial do Skate do Vale do Anhangabaú",
      "categorie": "monument",
      "description": "",
      "prix": "",
      "duree": "",
      "mapsUrl": "https://maps.google.com/?q=-23.5438725,-46.6357872",
      "lat": -23.5438725,
      "lng": -46.6357872,
      "source": "osm"
    },
    {
      "id": "a6638653999",
      "nom": "Conservatório Dramatico e Musical de São Paulo",
      "categorie": "attraction",
      "description": "",
      "prix": "",
      "duree": "",
      "mapsUrl": "https://maps.google.com/?q=-23.5443931,-46.6371802",
      "lat": -23.5443931,
      "lng": -46.6371802,
      "source": "osm"
    },
    {
      "id": "a46927931",
      "nom": "Teatro Municipal de São Paulo",
      "categorie": "attraction",
      "description": "",
      "prix": "",
      "duree": "",
      "mapsUrl": "https://maps.google.com/?q=-23.5452695,-46.6386437",
      "lat": -23.5452695,
      "lng": -46.6386437,
      "source": "osm"
    },
    {
      "id": "a6285153649",
      "nom": "Locomotiva Elétrica MK 1 C + C - 1",
      "categorie": "attraction",
      "description": "",
      "prix": "",
      "duree": "",
      "mapsUrl": "https://maps.google.com/?q=-23.5442968,-46.6286118",
      "lat": -23.5442968,
      "lng": -46.6286118,
      "source": "osm"
    },
    {
      "id": "a4998758250",
      "nom": "Diana Caçadora",
      "categorie": "memorial",
      "description": "",
      "prix": "",
      "duree": "",
      "mapsUrl": "https://maps.google.com/?q=-23.5433387,-46.6361401",
      "lat": -23.5433387,
      "lng": -46.6361401,
      "source": "osm"
    },
    {
      "id": "a6285153611",
      "nom": "Locomotiva Jiboia",
      "categorie": "attraction",
      "description": "",
      "prix": "",
      "duree": "",
      "mapsUrl": "https://maps.google.com/?q=-23.5449019,-46.627586",
      "lat": -23.5449019,
      "lng": -46.627586,
      "source": "osm"
    },
    {
      "id": "a46892575",
      "nom": "Viaduto Santa Ifigênia",
      "categorie": "attraction",
      "description": "",
      "prix": "",
      "duree": "",
      "mapsUrl": "https://maps.google.com/?q=-23.5428483,-46.6353707",
      "lat": -23.5428483,
      "lng": -46.6353707,
      "source": "osm"
    },
    {
      "id": "a7405697838",
      "nom": "Locomotiva a vapor DÜBS",
      "categorie": "attraction",
      "description": "",
      "prix": "",
      "duree": "",
      "mapsUrl": "https://maps.google.com/?q=-23.5447611,-46.6270266",
      "lat": -23.5447611,
      "lng": -46.6270266,
      "source": "osm"
    },
    {
      "id": "a75604816",
      "nom": "Catavento Cultural e Educacional",
      "categorie": "museum",
      "description": "",
      "prix": "",
      "duree": "",
      "mapsUrl": "https://maps.google.com/?q=-23.544119,-46.6277812",
      "lat": -23.544119,
      "lng": -46.6277812,
      "source": "osm"
    },
    {
      "id": "a4983984122",
      "nom": "Cervantes",
      "categorie": "memorial",
      "description": "",
      "prix": "",
      "duree": "",
      "mapsUrl": "https://maps.google.com/?q=-23.5473787,-46.6416836",
      "lat": -23.5473787,
      "lng": -46.6416836,
      "source": "osm"
    },
    {
      "id": "a4983985824",
      "nom": "Mário de Andrade",
      "categorie": "artwork",
      "description": "",
      "prix": "",
      "duree": "",
      "mapsUrl": "https://maps.google.com/?q=-23.5475417,-46.6417903",
      "lat": -23.5475417,
      "lng": -46.6417903,
      "source": "osm"
    },
    {
      "id": "a4998244123",
      "nom": "Festival O.bra",
      "categorie": "artwork",
      "description": "",
      "prix": "",
      "duree": "",
      "mapsUrl": "https://maps.google.com/?q=-23.5421901,-46.6340267",
      "lat": -23.5421901,
      "lng": -46.6340267,
      "source": "osm"
    },
    {
      "id": "a5008653228",
      "nom": "Busto Goethe",
      "categorie": "memorial",
      "description": "",
      "prix": "",
      "duree": "",
      "mapsUrl": "https://maps.google.com/?q=-23.5472104,-46.6416844",
      "lat": -23.5472104,
      "lng": -46.6416844,
      "source": "osm"
    },
    {
      "id": "a5225668236",
      "nom": "A Leitura",
      "categorie": "artwork",
      "description": "",
      "prix": "",
      "duree": "",
      "mapsUrl": "https://maps.google.com/?q=-23.5473495,-46.6418722",
      "lat": -23.5473495,
      "lng": -46.6418722,
      "source": "osm"
    },
    {
      "id": "a4983986421",
      "nom": "Dante",
      "categorie": "memorial",
      "description": "",
      "prix": "",
      "duree": "",
      "mapsUrl": "https://maps.google.com/?q=-23.5469657,-46.6417435",
      "lat": -23.5469657,
      "lng": -46.6417435,
      "source": "osm"
    },
    {
      "id": "a4983986422",
      "nom": "Busto de Chopin",
      "categorie": "memorial",
      "description": "",
      "prix": "",
      "duree": "",
      "mapsUrl": "https://maps.google.com/?q=-23.5471224,-46.6418325",
      "lat": -23.5471224,
      "lng": -46.6418325,
      "source": "osm"
    },
    {
      "id": "a182007184",
      "nom": "Mirante do Vale",
      "categorie": "attraction",
      "description": "",
      "prix": "",
      "duree": "",
      "mapsUrl": "https://maps.google.com/?q=-23.5421665,-46.6354178",
      "lat": -23.5421665,
      "lng": -46.6354178,
      "source": "osm"
    },
    {
      "id": "a4983985823",
      "nom": "Camões",
      "categorie": "memorial",
      "description": "",
      "prix": "",
      "duree": "",
      "mapsUrl": "https://maps.google.com/?q=-23.5476389,-46.6421566",
      "lat": -23.5476389,
      "lng": -46.6421566,
      "source": "osm"
    },
    {
      "id": "a9017110917",
      "nom": "Sampa Sky",
      "categorie": "viewpoint",
      "description": "",
      "prix": "",
      "duree": "",
      "mapsUrl": "https://maps.google.com/?q=-23.5421507,-46.63578",
      "lat": -23.5421507,
      "lng": -46.63578,
      "source": "osm"
    },
    {
      "id": "a2087120718",
      "nom": "Monumento à Mãe Preta",
      "categorie": "memorial",
      "description": "",
      "prix": "",
      "duree": "",
      "mapsUrl": "https://maps.google.com/?q=-23.5429182,-46.6383075",
      "lat": -23.5429182,
      "lng": -46.6383075,
      "source": "osm"
    },
    {
      "id": "a4983980023",
      "nom": "Cruzeiro",
      "categorie": "memorial",
      "description": "",
      "prix": "",
      "duree": "",
      "mapsUrl": "https://maps.google.com/?q=-23.547186,-46.6424152",
      "lat": -23.547186,
      "lng": -46.6424152,
      "source": "osm"
    },
    {
      "id": "a11035175464",
      "nom": "Para o jornal Estado de São Paulo",
      "categorie": "artwork",
      "description": "",
      "prix": "",
      "duree": "",
      "mapsUrl": "https://maps.google.com/?q=-23.5483136,-46.6428755",
      "lat": -23.5483136,
      "lng": -46.6428755,
      "source": "osm"
    },
    {
      "id": "a414529379",
      "nom": "Centro de Preservação Cultural",
      "categorie": "museum",
      "description": "",
      "prix": "",
      "duree": "",
      "mapsUrl": "https://maps.google.com/?q=-23.5543557,-46.6428194",
      "lat": -23.5543557,
      "lng": -46.6428194,
      "source": "osm"
    },
    {
      "id": "a414529206",
      "nom": "Casa de Dona Yayá",
      "categorie": "attraction",
      "description": "",
      "prix": "",
      "duree": "",
      "mapsUrl": "https://maps.google.com/?q=-23.55444,-46.6428217",
      "lat": -23.55444,
      "lng": -46.6428217,
      "source": "osm"
    },