{
  "slug": "seville",
  "nom": "Séville",
  "pays": "Espagne",
  "pays_slug": "espagne",
  "continent": "Europe",
  "region": "Andalousie",
  "coordonnees": {
    "lat": 37.3891,
    "lng": -5.9845
  },
  "codeISO": "",
  "score_halal": 4.5,
  "halalScore": 8.9,
  "description": "Capitale andalouse à l'héritage musulman éclatant, Séville abrite la Giralda (ancien minaret almohade) et l'Alcázar aux jardins mauresques.",
  "image": "https://upload.wikimedia.org/wikipedia/commons/thumb/f/f1/Espagne_S%C3%A9ville_Place_d%27Espagne.JPG/1920px-Espagne_S%C3%A9ville_Place_d%27Espagne.JPG",
  "image_hero": "https://upload.wikimedia.org/wikipedia/commons/thumb/f/f1/Espagne_S%C3%A9ville_Place_d%27Espagne.JPG/1920px-Espagne_S%C3%A9ville_Place_d%27Espagne.JPG",
  "metaDescription": "Capitale andalouse à l'héritage musulman éclatant, Séville abrite la Giralda (ancien minaret almohade) et l'Alcázar aux jardins mauresques.",
  "statistiques": {
    "restaurants_halal": 41,
    "mosquees": 1,
    "hotels": 120
  },
  "infoPratique": {
    "transport": "Accessible par avion / transports locaux.",
    "meilleureEpoque": "Printemps et automne."
  },
  "tags": [
    "halal"
  ],
  "restaurants": [
    {
      "nom": "El Rincón de Beirut",
      "type": "lebanese",
      "priceRange": "€€",
      "mapsUrl": "https://maps.google.com/?q=37.382018,-5.9910428",
      "lat": 37.382018,
      "lng": -5.9910428,
      "halalConfidence": "yes",
      "source": "osm"
    },
    {
      "nom": "Arabesca",
      "type": "arab",
      "priceRange": "€€",
      "mapsUrl": "https://maps.google.com/?q=37.3819504,-5.9909458",
      "lat": 37.3819504,
      "lng": -5.9909458,
      "halalConfidence": "yes",
      "source": "osm"
    },
    {
      "nom": "La Alcoba",
      "type": "moroccan",
      "priceRange": "€€",
      "mapsUrl": "https://maps.google.com/?q=37.401061,-5.9963559",
      "lat": 37.401061,
      "lng": -5.9963559,
      "halalConfidence": "yes",
      "source": "osm"
    },
    {
      "nom": "Ozturk Kebab Fast Food",
      "type": "turkish",
      "priceRange": "€€",
      "mapsUrl": "https://maps.google.com/?q=37.4064836,-5.9343823",
      "lat": 37.4064836,
      "lng": -5.9343823,
      "halalConfidence": "yes",
      "source": "osm"
    },
    {
      "nom": "Fez",
      "type": "moroccan",
      "priceRange": "€€",
      "mapsUrl": "https://maps.google.com/?q=37.3895531,-5.9852314",
      "lat": 37.3895531,
      "lng": -5.9852314,
      "halalConfidence": "likely",
      "source": "osm"
    },
    {
      "nom": "Chez Zizou",
      "type": "arab",
      "priceRange": "€€",
      "mapsUrl": "https://maps.google.com/?q=37.3899925,-5.9902654",
      "lat": 37.3899925,
      "lng": -5.9902654,
      "halalConfidence": "likely",
      "source": "osm"
    },
    {
      "nom": "Abbasy Doner Kebab",
      "type": "turkish",
      "priceRange": "€€",
      "mapsUrl": "https://maps.google.com/?q=37.3932468,-5.9913222",
      "lat": 37.3932468,
      "lng": -5.9913222,
      "halalConfidence": "likely",
      "source": "osm"
    },
    {
      "nom": "Alqamar Döner Kebab",
      "type": "kebab, pizza",
      "priceRange": "€€",
      "mapsUrl": "https://maps.google.com/?q=37.3872836,-5.9760431",
      "lat": 37.3872836,
      "lng": -5.9760431,
      "halalConfidence": "likely",
      "source": "osm"
    },
    {
      "nom": "Al Baraka",
      "type": "kebab",
      "priceRange": "€€",
      "mapsUrl": "https://maps.google.com/?q=37.3941292,-5.9917849",
      "lat": 37.3941292,
      "lng": -5.9917849,
      "halalConfidence": "likely",
      "source": "osm"
    },
    {
      "nom": "Al Wadi",
      "type": "arab",
      "priceRange": "€€",
      "mapsUrl": "https://maps.google.com/?q=37.3867752,-5.994808",
      "lat": 37.3867752,
      "lng": -5.994808,
      "halalConfidence": "likely",
      "source": "osm"
    },
    {
      "nom": "M4 Street Food",
      "type": "arab",
      "priceRange": "€€",
      "mapsUrl": "https://maps.google.com/?q=37.3977442,-5.9922503",
      "lat": 37.3977442,
      "lng": -5.9922503,
      "halalConfidence": "likely",
      "source": "osm"
    },
    {
      "nom": "Al Medina",
      "type": "moroccan",
      "priceRange": "€€",
      "mapsUrl": "https://maps.google.com/?q=37.3916133,-5.9992762",
      "lat": 37.3916133,
      "lng": -5.9992762,
      "halalConfidence": "likely",
      "source": "osm"
    },
    {
      "nom": "El Zapatazo",
      "type": "kebab, pizza",
      "priceRange": "€€",
      "mapsUrl": "https://maps.google.com/?q=37.399392,-5.9924364",
      "lat": 37.399392,
      "lng": -5.9924364,
      "halalConfidence": "likely",
      "source": "osm"
    },
    {
      "nom": "Casa del Dolma",
      "type": "turkish",
      "priceRange": "€€",
      "mapsUrl": "https://maps.google.com/?q=37.3817474,-5.9987759",
      "lat": 37.3817474,
      "lng": -5.9987759,
      "halalConfidence": "likely",
      "source": "osm"
    },
    {
      "nom": "Don Kebab",
      "type": "kebab",
      "priceRange": "€€",
      "mapsUrl": "https://maps.google.com/?q=37.3933395,-6.0010686",
      "lat": 37.3933395,
      "lng": -6.0010686,
      "halalConfidence": "likely",
      "source": "osm"
    },
    {
      "nom": "Fast Food La Pita",
      "type": "arab, kebab, moroccan, turkish",
      "priceRange": "€€",
      "mapsUrl": "https://maps.google.com/?q=37.4012651,-5.9938107",
      "lat": 37.4012651,
      "lng": -5.9938107,
      "halalConfidence": "likely",
      "source": "osm"
    },
    {
      "nom": "Auténtico Döner Kebap Nervión",
      "type": "kebab",
      "priceRange": "€€",
      "mapsUrl": "https://maps.google.com/?q=37.3771625,-5.9741145",
      "lat": 37.3771625,
      "lng": -5.9741145,
      "halalConfidence": "likely",
      "source": "osm"
    },
    {
      "nom": "Shoarma Bar Jerusalén",
      "type": "kebab",
      "priceRange": "€€",
      "mapsUrl": "https://maps.google.com/?q=37.3793463,-6.0005626",
      "lat": 37.3793463,
      "lng": -6.0005626,
      "halalConfidence": "likely",
      "source": "osm"
    },
    {
      "nom": "Take Away Aliha",
      "type": "kebab",
      "priceRange": "€€",
      "mapsUrl": "https://maps.google.com/?q=37.3777417,-6.0007194",
      "lat": 37.3777417,
      "lng": -6.0007194,
      "halalConfidence": "likely",
      "source": "osm"
    },
    {
      "nom": "Doner Kebap Auténtico",
      "type": "kebab",
      "priceRange": "€€",
      "mapsUrl": "https://maps.google.com/?q=37.3787469,-6.0029625",
      "lat": 37.3787469,
      "lng": -6.0029625,
      "halalConfidence": "likely",
      "source": "osm"
    },
    {
      "nom": "Döner Kebab Bab Mansour",
      "type": "kebab",
      "priceRange": "€€",
      "mapsUrl": "https://maps.google.com/?q=37.3768385,-6.0018648",
      "lat": 37.3768385,
      "lng": -6.0018648,
      "halalConfidence": "likely",
      "source": "osm"
    },
    {
      "nom": "Doner Kebab Autentico",
      "type": "kebab",
      "priceRange": "€€",
      "mapsUrl": "https://maps.google.com/?q=37.383331,-6.0098709",
      "lat": 37.383331,
      "lng": -6.0098709,
      "halalConfidence": "likely",
      "source": "osm"
    },
    {
      "nom": "Fast Food Doner Kebab",
      "type": "turkish",
      "priceRange": "€€",
      "mapsUrl": "https://maps.google.com/?q=37.3794608,-6.0080837",
      "lat": 37.3794608,
      "lng": -6.0080837,
      "halalConfidence": "likely",
      "source": "osm"
    },
    {
      "nom": "Restaurante La Paz",
      "type": "moroccan",
      "priceRange": "€€",
      "mapsUrl": "https://maps.google.com/?q=37.3934905,-5.9534294",
      "lat": 37.3934905,
      "lng": -5.9534294,
      "halalConfidence": "likely",
      "source": "osm"
    },
    {
      "nom": "Ishbiliya Doner Kebab",
      "type": "kebab",
      "priceRange": "€€",
      "mapsUrl": "https://maps.google.com/?q=37.3612248,-5.985921",
      "lat": 37.3612248,
      "lng": -5.985921,
      "halalConfidence": "likely",
      "source": "osm"
    },
    {
      "nom": "Döner Kebab El Turco",
      "type": "kebab",
      "priceRange": "€€",
      "mapsUrl": "https://maps.google.com/?q=37.3579844,-5.9861208",
      "lat": 37.3579844,
      "lng": -5.9861208,
      "halalConfidence": "likely",
      "source": "osm"
    },
    {
      "nom": "Mundo",
      "type": "kebab, pizza",
      "priceRange": "€€",
      "mapsUrl": "https://maps.google.com/?q=37.368183,-5.9532466",
      "lat": 37.368183,
      "lng": -5.9532466,
      "halalConfidence": "likely",
      "source": "osm"
    },
    {
      "nom": "ClickKebab Negrilla",
      "type": "kebab",
      "priceRange": "€€",
      "mapsUrl": "https://maps.google.com/?q=37.3759193,-5.9414472",
      "lat": 37.3759193,
      "lng": -5.9414472,
      "halalConfidence": "likely",
      "source": "osm"
    },
    {
      "nom": "Auténtico Döner Kebap",
      "type": "kebab",
      "priceRange": "€€",
      "mapsUrl": "https://maps.google.com/?q=37.4279833,-5.9679798",
      "lat": 37.4279833,
      "lng": -5.9679798,
      "halalConfidence": "likely",
      "source": "osm"
    },
    {
      "nom": "Donner Kebap",
      "type": "kebab",
      "priceRange": "€€",
      "mapsUrl": "https://maps.google.com/?q=37.3691388,-6.0399515",
      "lat": 37.3691388,
      "lng": -6.0399515,
      "halalConfidence": "likely",
      "source": "osm"
    },
    {
      "nom": "Restaurante Turkey Kebab",
      "type": "kebab",
      "priceRange": "€€",
      "mapsUrl": "https://maps.google.com/?q=37.4111393,-5.9212989",
      "lat": 37.4111393,
      "lng": -5.9212989,
      "halalConfidence": "likely",
      "source": "osm"
    },
    {
      "nom": "Döner Kebap",
      "type": "kebab",
      "priceRange": "€€",
      "mapsUrl": "https://maps.google.com/?q=37.3483881,-6.0390028",
      "lat": 37.3483881,
      "lng": -6.0390028,
      "halalConfidence": "likely",
      "source": "osm"
    },
    {
      "nom": "Kebab Cavaleri",
      "type": "kebab",
      "priceRange": "€€",
      "mapsUrl": "https://maps.google.com/?q=37.3525404,-6.0470429",
      "lat": 37.3525404,
      "lng": -6.0470429,
      "halalConfidence": "likely",
      "source": "osm"
    },
    {
      "nom": "Durum Kebab",
      "type": "kebab",
      "priceRange": "€€",
      "mapsUrl": "https://maps.google.com/?q=37.3523247,-6.0469316",
      "lat": 37.3523247,
      "lng": -6.0469316,
      "halalConfidence": "likely",
      "source": "osm"
    },
    {
      "nom": "Karim Kebab",
      "type": "kebab",
      "priceRange": "€€",
      "mapsUrl": "https://maps.google.com/?q=37.3248935,-5.9678704",
      "lat": 37.3248935,
      "lng": -5.9678704,
      "halalConfidence": "likely",
      "source": "osm"
    },
    {
      "nom": "El Caballo Blanco",
      "type": "coffee shop, diner, african, spanish, international, local, moroccan, arab, friture, burger, seafood, fish, tapas, tea",
      "priceRange": "€€",
      "mapsUrl": "https://maps.google.com/?q=37.3246891,-5.96856",
      "lat": 37.3246891,
      "lng": -5.96856,
      "halalConfidence": "likely",
      "source": "osm"
    },
    {
      "nom": "Pepe Kebab",
      "type": "kebab",
      "priceRange": "€€",
      "mapsUrl": "https://maps.google.com/?q=37.3799848,-6.0723177",
      "lat": 37.3799848,
      "lng": -6.0723177,
      "halalConfidence": "likely",
      "source": "osm"
    },
    {
      "nom": "Doner Kebab Samir",
      "type": "kebab",
      "priceRange": "€€",
      "mapsUrl": "https://maps.google.com/?q=37.3865567,-6.0761553",
      "lat": 37.3865567,
      "lng": -6.0761553,
      "halalConfidence": "likely",
      "source": "osm"
    },
    {
      "nom": "Kashmir Kebab",
      "type": "kebab",
      "priceRange": "€€",
      "mapsUrl": "https://maps.google.com/?q=37.3873958,-6.0803703",
      "lat": 37.3873958,
      "lng": -6.0803703,
      "halalConfidence": "likely",
      "source": "osm"
    },
    {
      "nom": "Turkey Kebab",
      "type": "kebab",
      "priceRange": "€€",
      "mapsUrl": "https://maps.google.com/?q=37.3421961,-6.0671629",
      "lat": 37.3421961,
      "lng": -6.0671629,
      "halalConfidence": "likely",
      "source": "osm"
    },
    {
      "nom": "Mumbai Indian Restaurant",
      "lat": 37.3962871,
      "lng": -5.9941945,
      "type": "indian",
      "halalConfidence": "likely",
      "mapsUrl": "https://maps.google.com/?q=37.3962871,-5.9941945",
      "source": "osm"
    },
    {
      "nom": "Restaurante DkN",
      "lat": 37.3780232,
      "lng": -5.9744965,
      "type": "indian",
      "halalConfidence": "likely",
      "mapsUrl": "https://maps.google.com/?q=37.3780232,-5.9744965",
      "source": "osm"
    },
    {
      "nom": "Bollywood",
      "lat": 37.3717782,
      "lng": -5.9805209,
      "type": "indian",
      "halalConfidence": "likely",
      "mapsUrl": "https://maps.google.com/?q=37.3717782,-5.9805209",
      "source": "osm"
    }
  ],
  "hotels": [
    {
      "nom": "Hostal Puerta Carmona",
      "categorie": "Auberge",
      "priceRange": "€€",
      "mapsUrl": "https://maps.google.com/?q=37.3897292,-5.9845694",
      "lat": 37.3897292,
      "lng": -5.9845694,
      "halalFriendly": false,
      "bookingUrl": "https://maps.google.com/?q=37.3897292,-5.9845694",
      "source": "osm"
    },
    {
      "nom": "Pensión Azahar",
      "categorie": "Maison d'hôtes",
      "priceRange": "€€",
      "mapsUrl": "https://maps.google.com/?q=37.38926,-5.985531",
      "lat": 37.38926,
      "lng": -5.985531,
      "halalFriendly": false,
      "bookingUrl": "https://maps.google.com/?q=37.38926,-5.985531",
      "source": "osm"
    },
    {
      "nom": "Hostal Alcobia",
      "categorie": "Hôtel",
      "priceRange": "€€",
      "mapsUrl": "https://maps.google.com/?q=37.3884234,-5.9852129",
      "lat": 37.3884234,
      "lng": -5.9852129,
      "halalFriendly": false,
      "bookingUrl": "https://maps.google.com/?q=37.3884234,-5.9852129",
      "source": "osm"
    },
    {
      "nom": "Pension Virgen de la Luz",
      "categorie": "Hôtel",
      "priceRange": "€€",
      "mapsUrl": "https://maps.google.com/?q=37.3898488,-5.9853764",
      "lat": 37.3898488,
      "lng": -5.9853764,
      "halalFriendly": false,
      "bookingUrl": "https://maps.google.com/?q=37.3898488,-5.9853764",
      "source": "osm"
    },
    {
      "nom": "Hotel Catalonia Giralda",
      "categorie": "Hôtel",
      "priceRange": "€€€€",
      "score": 4,
      "mapsUrl": "https://maps.google.com/?q=37.3901535,-5.9848282",
      "lat": 37.3901535,
      "lng": -5.9848282,
      "halalFriendly": false,
      "bookingUrl": "https://www.cataloniahotels.com/es/hotel/catalonia-giralda",
      "source": "osm"
    },
    {
      "nom": "Hotel Macià Kubb",
      "categorie": "Hôtel",
      "priceRange": "€€€€",
      "score": 4,
      "mapsUrl": "https://maps.google.com/?q=37.390558,-5.9834847",
      "lat": 37.390558,
      "lng": -5.9834847,
      "halalFriendly": false,
      "bookingUrl": "https://www.larhotel.com/",
      "source": "osm"
    },
    {
      "nom": "Singular Pilatos",
      "categorie": "Appartement",
      "priceRange": "€€",
      "mapsUrl": "https://maps.google.com/?q=37.3905042,-5.9863508",
      "lat": 37.3905042,
      "lng": -5.9863508,
      "halalFriendly": false,
      "bookingUrl": "https://maps.google.com/?q=37.3905042,-5.9863508",
      "source": "osm"
    },
    {
      "nom": "Hostal Florida",
      "categorie": "Auberge",
      "priceRange": "€€",
      "mapsUrl": "https://maps.google.com/?q=37.3870717,-5.9854937",
      "lat": 37.3870717,
      "lng": -5.9854937,
      "halalFriendly": false,
      "bookingUrl": "https://maps.google.com/?q=37.3870717,-5.9854937",
      "source": "osm"
    },
    {
      "nom": "Casa Imperial",
      "categorie": "Hôtel",
      "priceRange": "€€",
      "mapsUrl": "https://maps.google.com/?q=37.3905583,-5.9867434",
      "lat": 37.3905583,
      "lng": -5.9867434,
      "halalFriendly": false,
      "bookingUrl": "https://maps.google.com/?q=37.3905583,-5.9867434",
      "source": "osm"
    },
    {
      "nom": "Hostal San Francisco",
      "categorie": "Auberge",
      "priceRange": "€€",
      "mapsUrl": "https://maps.google.com/?q=37.386954,-5.985675",
      "lat": 37.386954,
      "lng": -5.985675,
      "halalFriendly": false,
      "bookingUrl": "http://www.hostalsanfranciscosevilla.com",
      "source": "osm"
    },
    {
      "nom": "Hostal Sevilla  Santa Justa",
      "categorie": "Maison d'hôtes",
      "priceRange": "€€",
      "mapsUrl": "https://maps.google.com/?q=37.3896473,-5.9814007",
      "lat": 37.3896473,
      "lng": -5.9814007,
      "halalFriendly": false,
      "bookingUrl": "https://sevillasantajusta.es/",
      "source": "osm"
    },
    {
      "nom": "Pensión Pérez Montilla",
      "categorie": "Maison d'hôtes",
      "priceRange": "€€",
      "mapsUrl": "https://maps.google.com/?q=37.3868348,-5.9862665",
      "lat": 37.3868348,
      "lng": -5.9862665,
      "halalFriendly": false,
      "bookingUrl": "https://maps.google.com/?q=37.3868348,-5.9862665",
      "source": "osm"
    },
    {
      "nom": "Pensión Doña Trinidad",
      "categorie": "Maison d'hôtes",
      "priceRange": "€€",
      "mapsUrl": "https://maps.google.com/?q=37.386844,-5.986609",
      "lat": 37.386844,
      "lng": -5.986609,
      "halalFriendly": false,
      "bookingUrl": "https://maps.google.com/?q=37.386844,-5.986609",
      "source": "osm"
    },
    {
      "nom": "Palacio de Villapanes",
      "categorie": "Hôtel",
      "priceRange": "€€",
      "mapsUrl": "https://maps.google.com/?q=37.3915781,-5.9863922",
      "lat": 37.3915781,
      "lng": -5.9863922,
      "halalFriendly": false,
      "bookingUrl": "https://maps.google.com/?q=37.3915781,-5.9863922",
      "source": "osm"
    },
    {
      "nom": "New Samay Hostel",
      "categorie": "Auberge",
      "priceRange": "€€",
      "mapsUrl": "https://maps.google.com/?q=37.3864077,-5.985862",
      "lat": 37.3864077,
      "lng": -5.985862,
      "halalFriendly": false,
      "bookingUrl": "https://www.newsamayhostel.com/",
      "source": "osm"
    },
    {
      "nom": "Las Casas del Rey de Baeza",
      "categorie": "Hôtel",
      "priceRange": "€€",
      "mapsUrl": "https://maps.google.com/?q=37.3913905,-5.9867462",
      "lat": 37.3913905,
      "lng": -5.9867462,
      "halalFriendly": false,
      "bookingUrl": "https://maps.google.com/?q=37.3913905,-5.9867462",
      "source": "osm"
    },
    {
      "nom": "Hotel Casa Imperial",
      "categorie": "Hôtel",
      "priceRange": "€€",
      "mapsUrl": "https://maps.google.com/?q=37.3910251,-5.9874174",
      "lat": 37.3910251,
      "lng": -5.9874174,
      "halalFriendly": false,
      "bookingUrl": "https://maps.google.com/?q=37.3910251,-5.9874174",
      "source": "osm"
    },
    {
      "nom": "Hostal Atenas",
      "categorie": "Auberge",
      "priceRange": "€€",
      "score": 2,
      "mapsUrl": "https://maps.google.com/?q=37.390547,-5.987844",
      "lat": 37.390547,
      "lng": -5.987844,
      "halalFriendly": false,
      "bookingUrl": "https://maps.google.com/?q=37.390547,-5.987844",
      "source": "osm"
    },
    {
      "nom": "Pensión Bienvenido",
      "categorie": "Maison d'hôtes",
      "priceRange": "€€",
      "mapsUrl": "https://maps.google.com/?q=37.3866639,-5.9870222",
      "lat": 37.3866639,
      "lng": -5.9870222,
      "halalFriendly": false,
      "bookingUrl": "https://www.pensionjavier.es/",
      "source": "osm"
    },
    {
      "nom": "Pensión Orense",
      "categorie": "Maison d'hôtes",
      "priceRange": "€€",
      "mapsUrl": "https://maps.google.com/?q=37.3865327,-5.9869212",
      "lat": 37.3865327,
      "lng": -5.9869212,
      "halalFriendly": false,
      "bookingUrl": "https://maps.google.com/?q=37.3865327,-5.9869212",
      "source": "osm"
    },
    {
      "nom": "Pensión Javier",
      "categorie": "Maison d'hôtes",
      "priceRange": "€€",
      "mapsUrl": "https://maps.google.com/?q=37.3865809,-5.9871016",
      "lat": 37.3865809,
      "lng": -5.9871016,
      "halalFriendly": false,
      "bookingUrl": "https://www.pensionjavier.es/",
      "source": "osm"
    },
    {
      "nom": "Hotel Abanico",
      "categorie": "Hôtel",
      "priceRange": "€€€",
      "score": 3,
      "mapsUrl": "https://maps.google.com/?q=37.389904,-5.98867",
      "lat": 37.389904,
      "lng": -5.98867,
      "halalFriendly": false,
      "bookingUrl": "https://maps.google.com/?q=37.389904,-5.98867",
      "source": "osm"
    },
    {
      "nom": "Hotel Fernando III",
      "categorie": "Hôtel",
      "priceRange": "€€€€",
      "score": 4,
      "mapsUrl": "https://maps.google.com/?q=37.3870206,-5.9879811",
      "lat": 37.3870206,
      "lng": -5.9879811,
      "halalFriendly": false,
      "bookingUrl": "http://www.hotelfernandoiiisevilla.com",
      "source": "osm"
    },
    {
      "nom": "Pensión Dulces Sueños",
      "categorie": "Hôtel",
      "priceRange": "€€",
      "mapsUrl": "https://maps.google.com/?q=37.3859048,-5.9865139",
      "lat": 37.3859048,
      "lng": -5.9865139,
      "halalFriendly": false,
      "bookingUrl": "https://maps.google.com/?q=37.3859048,-5.9865139",
      "source": "osm"
    },
    {
      "nom": "Hotel Rey Alfonso X",
      "categorie": "Hôtel",
      "priceRange": "€€€€",
      "score": 4,
      "mapsUrl": "https://maps.google.com/?q=37.3867276,-5.9881672",
      "lat": 37.3867276,
      "lng": -5.9881672,
      "halalFriendly": false,
      "bookingUrl": "https://www.hotelreyalfonsox.es/",
      "source": "osm"
    },
    {
      "nom": "Pensión Santa María la Blanca",
      "categorie": "Maison d'hôtes",
      "priceRange": "€€",
      "mapsUrl": "https://maps.google.com/?q=37.3859659,-5.9871543",
      "lat": 37.3859659,
      "lng": -5.9871543,
      "halalFriendly": false,
      "bookingUrl": "https://maps.google.com/?q=37.3859659,-5.9871543",
      "source": "osm"
    },
    {
      "nom": "Hotel Puerta de Sevilla",
      "categorie": "Hôtel",
      "priceRange": "€€",
      "mapsUrl": "https://maps.google.com/?q=37.385749,-5.9867795",
      "lat": 37.385749,
      "lng": -5.9867795,
      "halalFriendly": false,
      "bookingUrl": "https://www.hotelpuertadesevilla.com/",
      "source": "osm"
    },
    {
      "nom": "Amadeus Sevilla",
      "categorie": "Hôtel",
      "priceRange": "€€",
      "mapsUrl": "https://maps.google.com/?q=37.38717,-5.9887104",
      "lat": 37.38717,
      "lng": -5.9887104,
      "halalFriendly": false,
      "bookingUrl": "https://maps.google.com/?q=37.38717,-5.9887104",
      "source": "osm"
    },
    {
      "nom": "Aguilas5 SevillaSuites",
      "categorie": "Hôtel",
      "priceRange": "€€",
      "mapsUrl": "https://maps.google.com/?q=37.3899421,-5.9892888",
      "lat": 37.3899421,
      "lng": -5.9892888,
      "halalFriendly": false,
      "bookingUrl": "https://www.aguilas5.com/",
      "source": "osm"
    },
    {
      "nom": "Hotel Un patio en Santa Cruz",
      "categorie": "Hôtel",
      "priceRange": "€€",
      "score": 2,
      "mapsUrl": "https://maps.google.com/?q=37.3860215,-5.9875671",
      "lat": 37.3860215,
      "lng": -5.9875671,
      "halalFriendly": false,
      "bookingUrl": "https://patiosantacruz.com/",
      "source": "osm"
    },
    {
      "nom": "Santiago 15",
      "categorie": "Hôtel",
      "priceRange": "€€",
      "mapsUrl": "https://maps.google.com/?q=37.392325,-5.9873396",
      "lat": 37.392325,
      "lng": -5.9873396,
      "halalFriendly": false,
      "bookingUrl": "https://maps.google.com/?q=37.392325,-5.9873396",
      "source": "osm"
    },
    {
      "nom": "Pesión San Pancracio",
      "categorie": "Maison d'hôtes",
      "priceRange": "€€",
      "mapsUrl": "https://maps.google.com/?q=37.3862841,-5.9880173",
      "lat": 37.3862841,
      "lng": -5.9880173,
      "halalFriendly": false,
      "bookingUrl": "https://maps.google.com/?q=37.3862841,-5.9880173",
      "source": "osm"
    },
    {
      "nom": "Pensión Córdoba",
      "categorie": "Hôtel",
      "priceRange": "€€",
      "mapsUrl": "https://maps.google.com/?q=37.3871408,-5.9888434",
      "lat": 37.3871408,
      "lng": -5.9888434,
      "halalFriendly": false,
      "bookingUrl": "https://pensioncordoba.com/",
      "source": "osm"
    },
    {
      "nom": "Petit Palace Santa Cruz",
      "categorie": "Hôtel",
      "priceRange": "€€€€",
      "score": 4,
      "mapsUrl": "https://maps.google.com/?q=37.3883622,-5.9894157",
      "lat": 37.3883622,
      "lng": -5.9894157,
      "halalFriendly": false,
      "bookingUrl": "https://www.petitpalace.com/en/petit-palace-santa-cruz/",
      "source": "osm"
    },
    {
      "nom": "Basic Hotel Dona Manuela",
      "categorie": "Hôtel",
      "priceRange": "€€",
      "mapsUrl": "https://maps.google.com/?q=37.3855814,-5.9869937",
      "lat": 37.3855814,
      "lng": -5.9869937,
      "halalFriendly": false,
      "bookingUrl": "https://maps.google.com/?q=37.3855814,-5.9869937",
      "source": "osm"
    },
    {
      "nom": "Hotel Don Paco",
      "categorie": "Hôtel",
      "priceRange": "€€",
      "mapsUrl": "https://maps.google.com/?q=37.3927272,-5.9868804",
      "lat": 37.3927272,
      "lng": -5.9868804,
      "halalFriendly": false,
      "bookingUrl": "https://maps.google.com/?q=37.3927272,-5.9868804",
      "source": "osm"
    },
    {
      "nom": "Hostel Garden",
      "categorie": "Auberge",
      "priceRange": "€€",
      "mapsUrl": "https://maps.google.com/?q=37.3926095,-5.9874436",
      "lat": 37.3926095,
      "lng": -5.9874436,
      "halalFriendly": false,
      "bookingUrl": "https://maps.google.com/?q=37.3926095,-5.9874436",
      "source": "osm"
    },
    {
      "nom": "Hostal Fabiola",
      "categorie": "Auberge",
      "priceRange": "€€",
      "mapsUrl": "https://maps.google.com/?q=37.3867041,-5.988889",
      "lat": 37.3867041,
      "lng": -5.988889,
      "halalFriendly": false,
      "bookingUrl": "https://www.pensiondonatrinidad.com",
      "source": "osm"
    },
    {
      "nom": "Casa Boutique La Pila del Pato",
      "categorie": "Maison d'hôtes",
      "priceRange": "€€",
      "mapsUrl": "https://maps.google.com/?q=37.3915758,-5.9888409",
      "lat": 37.3915758,
      "lng": -5.9888409,
      "halalFriendly": false,
      "bookingUrl": "https://maps.google.com/?q=37.3915758,-5.9888409",
      "source": "osm"
    },
    {
      "nom": "Hotel Doña Blanca",
      "categorie": "Hôtel",
      "priceRange": "€€",
      "mapsUrl": "https://maps.google.com/?q=37.39326,-5.9864711",
      "lat": 37.39326,
      "lng": -5.9864711,
      "halalFriendly": false,
      "bookingUrl": "https://maps.google.com/?q=37.39326,-5.9864711",
      "source": "osm"
    },
    {
      "nom": "Palacio Mármoles",
      "categorie": "Hôtel",
      "priceRange": "€€",
      "mapsUrl": "https://maps.google.com/?q=37.3883092,-5.9900128",
      "lat": 37.3883092,
      "lng": -5.9900128,
      "halalFriendly": false,
      "bookingUrl": "https://palaciomarmoles.com/",
      "source": "osm"
    },
    {
      "nom": "Hotel Baco",
      "categorie": "Hôtel",
      "priceRange": "€€",
      "mapsUrl": "https://maps.google.com/?q=37.3930076,-5.9874042",
      "lat": 37.3930076,
      "lng": -5.9874042,
      "halalFriendly": false,
      "bookingUrl": "https://maps.google.com/?q=37.3930076,-5.9874042",
      "source": "osm"
    },
    {
      "nom": "Casual de las Letras",
      "categorie": "Hôtel",
      "priceRange": "€€",
      "score": 2,
      "mapsUrl": "https://maps.google.com/?q=37.3921983,-5.9886814",
      "lat": 37.3921983,
      "lng": -5.9886814,
      "halalFriendly": false,
      "bookingUrl": "https://maps.google.com/?q=37.3921983,-5.9886814",
      "source": "osm"
    },
    {
      "nom": "Hotel Casa del Poeta",
      "categorie": "Hôtel",
      "priceRange": "€€€€",
      "score": 4,
      "mapsUrl": "https://maps.google.com/?q=37.3864222,-5.9891226",
      "lat": 37.3864222,
      "lng": -5.9891226,
      "halalFriendly": false,
      "bookingUrl": "https://casadelpoeta.es/",
      "source": "osm"
    },
    {
      "nom": "Casa 17",
      "categorie": "Hôtel",
      "priceRange": "€€",
      "mapsUrl": "https://maps.google.com/?q=37.3861873,-5.9891443",
      "lat": 37.3861873,
      "lng": -5.9891443,
      "halalFriendly": false,
      "bookingUrl": "https://maps.google.com/?q=37.3861873,-5.9891443",
      "source": "osm"
    },
    {
      "nom": "Catalonia",
      "categorie": "Hôtel",
      "priceRange": "€€",
      "mapsUrl": "https://maps.google.com/?q=37.393588,-5.9827243",
      "lat": 37.393588,
      "lng": -5.9827243,
      "halalFriendly": false,
      "bookingUrl": "https://maps.google.com/?q=37.393588,-5.9827243",
      "source": "osm"
    },
    {
      "nom": "Hotel Catalonia Santa Justa",
      "categorie": "Hôtel",
      "priceRange": "€€",
      "mapsUrl": "https://maps.google.com/?q=37.3935863,-5.982692",
      "lat": 37.3935863,
      "lng": -5.982692,
      "halalFriendly": false,
      "bookingUrl": "https://maps.google.com/?q=37.3935863,-5.982692",
      "source": "osm"
    },
    {
      "nom": "La Rosa de la Alfalfa",
      "categorie": "Hôtel",
      "priceRange": "€€",
      "mapsUrl": "https://maps.google.com/?q=37.3900382,-5.9903778",
      "lat": 37.3900382,
      "lng": -5.9903778,
      "halalFriendly": false,
      "bookingUrl": "https://maps.google.com/?q=37.3900382,-5.9903778",
      "source": "osm"
    },
    {
      "nom": "Hotel Goya",
      "categorie": "Hôtel",
      "priceRange": "€€",
      "score": 2,
      "mapsUrl": "https://maps.google.com/?q=37.3867189,-5.9898253",
      "lat": 37.3867189,
      "lng": -5.9898253,
      "halalFriendly": false,
      "bookingUrl": "https://hotelgoyasevilla.com/",
      "source": "osm"
    },
    {
      "nom": "Vergara",
      "categorie": "Auberge",
      "priceRange": "€€",
      "mapsUrl": "https://maps.google.com/?q=37.3861759,-5.9893949",
      "lat": 37.3861759,
      "lng": -5.9893949,
      "halalFriendly": false,
      "bookingUrl": "https://maps.google.com/?q=37.3861759,-5.9893949",
      "source": "osm"
    },
    {
      "nom": "Hostal Toledo",
      "categorie": "Hôtel",
      "priceRange": "€",
      "score": 1,
      "mapsUrl": "https://maps.google.com/?q=37.3854937,-5.9886314",
      "lat": 37.3854937,
      "lng": -5.9886314,
      "halalFriendly": false,
      "bookingUrl": "https://maps.google.com/?q=37.3854937,-5.9886314",
      "source": "osm"
    },
    {
      "nom": "San Isidoro Hostel",
      "categorie": "Auberge",
      "priceRange": "€€",
      "mapsUrl": "https://maps.google.com/?q=37.3890972,-5.990654",
      "lat": 37.3890972,
      "lng": -5.990654,
      "halalFriendly": false,
      "bookingUrl": "https://maps.google.com/?q=37.3890972,-5.990654",
      "source": "osm"
    },
    {
      "nom": "ITC Artemisa by Soho Boutique",
      "categorie": "Hôtel",
      "priceRange": "€€",
      "mapsUrl": "https://maps.google.com/?q=37.3940032,-5.984432",
      "lat": 37.3940032,
      "lng": -5.984432,
      "halalFriendly": false,
      "bookingUrl": "https://www.sohohoteles.com/destinos/itaca-boutique-artemisa-by-soho-3/",
      "source": "osm"
    },
    {
      "nom": "Pension Vergara",
      "categorie": "Hôtel",
      "priceRange": "€€",
      "mapsUrl": "https://maps.google.com/?q=37.3860558,-5.9894834",
      "lat": 37.3860558,
      "lng": -5.9894834,
      "halalFriendly": false,
      "bookingUrl": "https://maps.google.com/?q=37.3860558,-5.9894834",
      "source": "osm"
    },
    {
      "nom": "Santa Catalina",
      "categorie": "Auberge",
      "priceRange": "€€",
      "mapsUrl": "https://maps.google.com/?q=37.393043,-5.9884947",
      "lat": 37.393043,
      "lng": -5.9884947,
      "halalFriendly": false,
      "bookingUrl": "https://maps.google.com/?q=37.393043,-5.9884947",
      "source": "osm"
    },
    {
      "nom": "Slow Suites Setas",
      "categorie": "Appartement",
      "priceRange": "€€",
      "mapsUrl": "https://maps.google.com/?q=37.3923404,-5.9895031",
      "lat": 37.3923404,
      "lng": -5.9895031,
      "halalFriendly": false,
      "bookingUrl": "https://www.slowsuites.com/sevilla/",
      "source": "osm"
    },
    {
      "nom": "Callejon del Agua",
      "categorie": "Hôtel",
      "priceRange": "€€",
      "mapsUrl": "https://maps.google.com/?q=37.3885093,-5.9909403",
      "lat": 37.3885093,
      "lng": -5.9909403,
      "halalFriendly": false,
      "bookingUrl": "https://maps.google.com/?q=37.3885093,-5.9909403",
      "source": "osm"
    },
    {
      "nom": "Hostal Sierpes",
      "categorie": "Hôtel",
      "priceRange": "€€",
      "mapsUrl": "https://maps.google.com/?q=37.3885623,-5.9909696",
      "lat": 37.3885623,
      "lng": -5.9909696,
      "halalFriendly": false,
      "bookingUrl": "https://maps.google.com/?q=37.3885623,-5.9909696",
      "source": "osm"
    },
    {
      "nom": "Cicerone",
      "categorie": "Hôtel",
      "priceRange": "€€",
      "mapsUrl": "https://maps.google.com/?q=37.3860756,-5.9897988",
      "lat": 37.3860756,
      "lng": -5.9897988,
      "halalFriendly": false,
      "bookingUrl": "https://maps.google.com/?q=37.3860756,-5.9897988",
      "source": "osm"
    },
    {
      "nom": "Hotel Murillo",
      "categorie": "Hôtel",
      "priceRange": "€€",
      "mapsUrl": "https://maps.google.com/?q=37.3855033,-5.9892193",
      "lat": 37.3855033,
      "lng": -5.9892193,
      "halalFriendly": false,
      "bookingUrl": "https://maps.google.com/?q=37.3855033,-5.9892193",
      "source": "osm"
    },
    {
      "nom": "Ibis Styles",
      "categorie": "Hôtel",
      "priceRange": "€€",
      "mapsUrl": "https://maps.google.com/?q=37.3869685,-5.9784803",
      "lat": 37.3869685,
      "lng": -5.9784803,
      "halalFriendly": false,
      "bookingUrl": "https://maps.google.com/?q=37.3869685,-5.9784803",
      "source": "osm"
    },
    {
      "nom": "El Rey Moro",
      "categorie": "Hôtel",
      "priceRange": "€€",
      "mapsUrl": "https://maps.google.com/?q=37.3855734,-5.9894227",
      "lat": 37.3855734,
      "lng": -5.9894227,
      "halalFriendly": false,
      "bookingUrl": "https://elreymoro.com/",
      "source": "osm"
    },
    {
      "nom": "Hotel Posada del Lucero",
      "categorie": "Hôtel",
      "priceRange": "€€",
      "mapsUrl": "https://maps.google.com/?q=37.3928697,-5.9891521",
      "lat": 37.3928697,
      "lng": -5.9891521,
      "halalFriendly": false,
      "bookingUrl": "https://www.hotelposadadellucero.es/es/",
      "source": "osm"
    },
    {
      "nom": "Vincci Selección Unuk",
      "categorie": "Hôtel",
      "priceRange": "€€€€",
      "score": 5,
      "mapsUrl": "https://maps.google.com/?q=37.3913702,-5.9906219",
      "lat": 37.3913702,
      "lng": -5.9906219,
      "halalFriendly": false,
      "bookingUrl": "https://www.vinccihoteles.com/hoteles/sevilla/vincci-seleccion-unuk/",
      "source": "osm"
    },
    {
      "nom": "Sevilla Inn Backpackers",
      "categorie": "Auberge",
      "priceRange": "€€",
      "mapsUrl": "https://maps.google.com/?q=37.3863226,-5.9904544",
      "lat": 37.3863226,
      "lng": -5.9904544,
      "halalFriendly": false,
      "bookingUrl": "http://sevillabackpackers.es/",
      "source": "osm"
    },
    {
      "nom": "Hostal Lis I",
      "categorie": "Auberge",
      "priceRange": "€€",
      "mapsUrl": "https://maps.google.com/?q=37.3919413,-5.9906148",
      "lat": 37.3919413,
      "lng": -5.9906148,
      "halalFriendly": false,
      "bookingUrl": "https://maps.google.com/?q=37.3919413,-5.9906148",
      "source": "osm"
    },
    {
      "nom": "Onefam Catedral Hostel Seville",
      "categorie": "Auberge",
      "priceRange": "€€",
      "mapsUrl": "https://maps.google.com/?q=37.3855365,-5.990027",
      "lat": 37.3855365,
      "lng": -5.990027,
      "halalFriendly": false,
      "bookingUrl": "https://onefamhostels.com/catedral-onefam-hostel-sevilla/",
      "source": "osm"
    },
    {
      "nom": "Cool Sevilla Hotel",
      "categorie": "Hôtel",
      "priceRange": "€€",
      "mapsUrl": "https://maps.google.com/?q=37.3930389,-5.9896092",
      "lat": 37.3930389,
      "lng": -5.9896092,
      "halalFriendly": false,
      "bookingUrl": "https://maps.google.com/?q=37.3930389,-5.9896092",
      "source": "osm"
    },
    {
      "nom": "Hosteria del Laurel",
      "categorie": "Hôtel",
      "priceRange": "€€",
      "score": 2,
      "mapsUrl": "https://maps.google.com/?q=37.3850492,-5.9895289",
      "lat": 37.3850492,
      "lng": -5.9895289,
      "halalFriendly": false,
      "bookingUrl": "https://www.hosteriadellaurel.com/",
      "source": "osm"
    },
    {
      "nom": "Overland Suites Catedral",
      "categorie": "Appartement",
      "priceRange": "€€",
      "mapsUrl": "https://maps.google.com/?q=37.3878941,-5.9915096",
      "lat": 37.3878941,
      "lng": -5.9915096,
      "halalFriendly": false,
      "bookingUrl": "https://maps.google.com/?q=37.3878941,-5.9915096",
      "source": "osm"
    },
    {
      "nom": "Eurostars",
      "categorie": "Hôtel",
      "priceRange": "€€",
      "mapsUrl": "https://maps.google.com/?q=37.3866749,-5.9910536",
      "lat": 37.3866749,
      "lng": -5.9910536,
      "halalFriendly": false,
      "bookingUrl": "https://maps.google.com/?q=37.3866749,-5.9910536",
      "source": "osm"
    },
    {
      "nom": "Hotel Itaca",
      "categorie": "Hôtel",
      "priceRange": "€€",
      "mapsUrl": "https://maps.google.com/?q=37.3917278,-5.9910319",
      "lat": 37.3917278,
      "lng": -5.9910319,
      "halalFriendly": false,
      "bookingUrl": "http://itacasevilla.com",
      "source": "osm"
    },
    {
      "nom": "Hotel Don Pedro",
      "categorie": "Hôtel",
      "priceRange": "€€",
      "mapsUrl": "https://maps.google.com/?q=37.3938507,-5.9888876",
      "lat": 37.3938507,
      "lng": -5.9888876,
      "halalFriendly": false,
      "bookingUrl": "https://maps.google.com/?q=37.3938507,-5.9888876",
      "source": "osm"
    },
    {
      "nom": "Los Venerables",
      "categorie": "Appartement",
      "priceRange": "€€",
      "mapsUrl": "https://maps.google.com/?q=37.3855061,-5.9904279",
      "lat": 37.3855061,
      "lng": -5.9904279,
      "halalFriendly": false,
      "bookingUrl": "http://apartamentoslosvenerables.es",
      "source": "osm"
    },
    {
      "nom": "Los seises sevilla",
      "categorie": "Hôtel",
      "priceRange": "€€",
      "mapsUrl": "https://maps.google.com/?q=37.3873783,-5.9916521",
      "lat": 37.3873783,
      "lng": -5.9916521,
      "halalFriendly": false,
      "bookingUrl": "https://maps.google.com/?q=37.3873783,-5.9916521",
      "source": "osm"
    },
    {
      "nom": "Casa 1800",
      "categorie": "Hôtel",
      "priceRange": "€€",
      "mapsUrl": "https://maps.google.com/?q=37.3858539,-5.990801",
      "lat": 37.3858539,
      "lng": -5.990801,
      "halalFriendly": false,
      "bookingUrl": "https://maps.google.com/?q=37.3858539,-5.990801",
      "source": "osm"
    },
    {
      "nom": "APARTMENTS OLE - PAJARITOS TERRAZA",
      "categorie": "Appartement",
      "priceRange": "€€",
      "mapsUrl": "https://maps.google.com/?q=37.3884178,-5.9919855",
      "lat": 37.3884178,
      "lng": -5.9919855,
      "halalFriendly": false,
      "bookingUrl": "http://www.olepajaritosterraza.eshotel.site/",
      "source": "osm"
    },
    {
      "nom": "Palacio Pinello",
      "categorie": "Hôtel",
      "priceRange": "€€",
      "mapsUrl": "https://maps.google.com/?q=37.387614,-5.9918877",
      "lat": 37.387614,
      "lng": -5.9918877,
      "halalFriendly": false,
      "bookingUrl": "https://www.palaciopinello.com/",
      "source": "osm"
    },
    {
      "nom": "Hotel Alcázar",
      "categorie": "Hôtel",
      "priceRange": "€€€",
      "score": 3,
      "mapsUrl": "https://maps.google.com/?q=37.3833624,-5.9870423",
      "lat": 37.3833624,
      "lng": -5.9870423,
      "halalFriendly": false,
      "bookingUrl": "https://maps.google.com/?q=37.3833624,-5.9870423",
      "source": "osm"
    },
    {
      "nom": "Hotel Palacio Alcázar",
      "categorie": "Hôtel",
      "priceRange": "€€",
      "mapsUrl": "https://maps.google.com/?q=37.3855804,-5.9910152",
      "lat": 37.3855804,
      "lng": -5.9910152,
      "halalFriendly": false,
      "bookingUrl": "https://palacioalcazar.com/",
      "source": "osm"
    },
    {
      "nom": "Dona Maria Hotel",
      "categorie": "Hôtel",
      "priceRange": "€€",
      "mapsUrl": "https://maps.google.com/?q=37.3863947,-5.99161",
      "lat": 37.3863947,
      "lng": -5.99161,
      "halalFriendly": false,
      "bookingUrl": "https://maps.google.com/?q=37.3863947,-5.99161",
      "source": "osm"
    },
    {
      "nom": "Hotel Elvira Plaza",
      "categorie": "Hôtel",
      "priceRange": "€€",
      "mapsUrl": "https://maps.google.com/?q=37.3849123,-5.9903658",
      "lat": 37.3849123,
      "lng": -5.9903658,
      "halalFriendly": false,
      "bookingUrl": "https://maps.google.com/?q=37.3849123,-5.9903658",
      "source": "osm"
    },
    {
      "nom": "Hotel la Gloria",
      "categorie": "Hôtel",
      "priceRange": "€€",
      "mapsUrl": "https://maps.google.com/?q=37.3876899,-5.9921999",
      "lat": 37.3876899,
      "lng": -5.9921999,
      "halalFriendly": false,
      "bookingUrl": "https://maps.google.com/?q=37.3876899,-5.9921999",
      "source": "osm"
    },
    {
      "nom": "Seville",
      "categorie": "Maison d'hôtes",
      "priceRange": "€€",
      "mapsUrl": "https://maps.google.com/?q=37.3894735,-5.9925058",
      "lat": 37.3894735,
      "lng": -5.9925058,
      "halalFriendly": false,
      "bookingUrl": "https://maps.google.com/?q=37.3894735,-5.9925058",
      "source": "osm"
    },
    {
      "nom": "Hotel Abba",
      "categorie": "Hôtel",
      "priceRange": "€€",
      "mapsUrl": "https://maps.google.com/?q=37.3921737,-5.9916932",
      "lat": 37.3921737,
      "lng": -5.9916932,
      "halalFriendly": false,
      "bookingUrl": "https://maps.google.com/?q=37.3921737,-5.9916932",
      "source": "osm"
    },
    {
      "nom": "The Tourist House",
      "categorie": "Appartement",
      "priceRange": "€€",
      "mapsUrl": "https://maps.google.com/?q=37.3892471,-5.9927076",
      "lat": 37.3892471,
      "lng": -5.9927076,
      "halalFriendly": false,
      "bookingUrl": "https://maps.google.com/?q=37.3892471,-5.9927076",
      "source": "osm"
    },
    {
      "nom": "Apartamento Jardín de Santa Paula",
      "categorie": "Appartement",
      "priceRange": "€€",
      "mapsUrl": "https://maps.google.com/?q=37.3955626,-5.9856323",
      "lat": 37.3955626,
      "lng": -5.9856323,
      "halalFriendly": false,
      "bookingUrl": "https://www.booking.com/Share-dfkdtD",
      "source": "osm"
    },
    {
      "nom": "Hotel Cetina",
      "categorie": "Hôtel",
      "priceRange": "€€",
      "mapsUrl": "https://maps.google.com/?q=37.3912784,-5.9922486",
      "lat": 37.3912784,
      "lng": -5.9922486,
      "halalFriendly": false,
      "bookingUrl": "https://maps.google.com/?q=37.3912784,-5.9922486",
      "source": "osm"
    },
    {
      "nom": "Ocean Drive Sevilla",
      "categorie": "Hôtel",
      "priceRange": "€€",
      "mapsUrl": "https://maps.google.com/?q=37.3930525,-5.9912392",
      "lat": 37.3930525,
      "lng": -5.9912392,
      "halalFriendly": false,
      "bookingUrl": "https://www.od-hotels.com/ocean-drive-sevilla/",
      "source": "osm"
    },
    {
      "nom": "H10 Casa de la Plata",
      "categorie": "Hôtel",
      "priceRange": "€€€€",
      "score": 4,
      "mapsUrl": "https://maps.google.com/?q=37.391231,-5.9925147",
      "lat": 37.391231,
      "lng": -5.9925147,
      "halalFriendly": false,
      "bookingUrl": "https://www.h10hotels.com/fr/hotels-sevilla/h10-casa-de-la-plata",
      "source": "osm"
    },
    {
      "nom": "Welldone Metropol",
      "categorie": "Hôtel",
      "priceRange": "€€",
      "mapsUrl": "https://maps.google.com/?q=37.3934774,-5.9912357",
      "lat": 37.3934774,
      "lng": -5.9912357,
      "halalFriendly": false,
      "bookingUrl": "https://www.welldonemetropol.com/",
      "source": "osm"
    },
    {
      "nom": "Hotel EME",
      "categorie": "Hôtel",
      "priceRange": "€€",
      "mapsUrl": "https://maps.google.com/?q=37.3868651,-5.9927362",
      "lat": 37.3868651,
      "lng": -5.9927362,
      "halalFriendly": false,
      "bookingUrl": "https://www.emecatedralmercer.com/",
      "source": "osm"
    },
    {
      "nom": "Hotel Casa de los Mercaderes",
      "categorie": "Hôtel",
      "priceRange": "€€",
      "mapsUrl": "https://maps.google.com/?q=37.389224,-5.993255",
      "lat": 37.389224,
      "lng": -5.993255,
      "halalFriendly": false,
      "bookingUrl": "https://maps.google.com/?q=37.389224,-5.993255",
      "source": "osm"
    },
    {
      "nom": "Oasis Backpackers Hostel Sevilla",
      "categorie": "Auberge",
      "priceRange": "€€",
      "mapsUrl": "https://maps.google.com/?q=37.3921595,-5.9923945",
      "lat": 37.3921595,
      "lng": -5.9923945,
      "halalFriendly": false,
      "bookingUrl": "https://www.oasissevilla.com/sevilla-hostel",
      "source": "osm"
    },
    {
      "nom": "room00 Salvador Hostel",
      "categorie": "Hôtel",
      "priceRange": "€€",
      "mapsUrl": "https://maps.google.com/?q=37.3918086,-5.9926416",
      "lat": 37.3918086,
      "lng": -5.9926416,
      "halalFriendly": false,
      "bookingUrl": "https://www.room00hostel.com/",
      "source": "osm"
    },
    {
      "nom": "Great apt super close to the Cathedral and Giralda!",
      "categorie": "Appartement",
      "priceRange": "€€",
      "mapsUrl": "https://maps.google.com/?q=37.3872641,-5.9933301",
      "lat": 37.3872641,
      "lng": -5.9933301,
      "halalFriendly": false,
      "bookingUrl": "https://www.booking.com/Share-XdU6P7",
      "source": "osm"
    },
    {
      "nom": "Puerta Catedral",
      "categorie": "Appartement",
      "priceRange": "€€",
      "mapsUrl": "https://maps.google.com/?q=37.3868402,-5.9931816",
      "lat": 37.3868402,
      "lng": -5.9931816,
      "halalFriendly": false,
      "bookingUrl": "https://maps.google.com/?q=37.3868402,-5.9931816",
      "source": "osm"
    },
    {
      "nom": "Hotel Casa de Colón",
      "categorie": "Hôtel",
      "priceRange": "€€",
      "mapsUrl": "https://maps.google.com/?q=37.3878682,-5.993522",
      "lat": 37.3878682,
      "lng": -5.993522,
      "halalFriendly": false,
      "bookingUrl": "https://maps.google.com/?q=37.3878682,-5.993522",
      "source": "osm"
    },
    {
      "nom": "Mercer Hotel",
      "categorie": "Hôtel",
      "priceRange": "€€",
      "mapsUrl": "https://maps.google.com/?q=37.3882321,-5.9936623",
      "lat": 37.3882321,
      "lng": -5.9936623,
      "halalFriendly": false,
      "bookingUrl": "https://mercerplazasevilla.com",
      "source": "osm"
    },
    {
      "nom": "Hotel Abril",
      "categorie": "Hôtel",
      "priceRange": "€€",
      "mapsUrl": "https://maps.google.com/?q=37.3944452,-5.99105",
      "lat": 37.3944452,
      "lng": -5.99105,
      "halalFriendly": false,
      "bookingUrl": "https://maps.google.com/?q=37.3944452,-5.99105",
      "source": "osm"
    },
    {
      "nom": "Casa de Indias",
      "categorie": "Hôtel",
      "priceRange": "€€",
      "mapsUrl": "https://maps.google.com/?q=37.3938935,-5.9919788",
      "lat": 37.3938935,
      "lng": -5.9919788,
      "halalFriendly": false,
      "bookingUrl": "https://maps.google.com/?q=37.3938935,-5.9919788",
      "source": "osm"
    },
    {
      "nom": "Leyenda del Hereje",
      "categorie": "Appartement",
      "priceRange": "€€",
      "mapsUrl": "https://maps.google.com/?q=37.3952072,-5.9905699",
      "lat": 37.3952072,
      "lng": -5.9905699,
      "halalFriendly": false,
      "bookingUrl": "https://leyendadelhereje.com/",
      "source": "osm"
    },
    {
      "nom": "Hotel Ayre Sevilla",
      "categorie": "Hôtel",
      "priceRange": "€€",
      "mapsUrl": "https://maps.google.com/?q=37.3891832,-5.9746824",
      "lat": 37.3891832,
      "lng": -5.9746824,
      "halalFriendly": false,
      "bookingUrl": "https://maps.google.com/?q=37.3891832,-5.9746824",
      "source": "osm"
    },
    {
      "nom": "Hostal Van Gogh",
      "categorie": "Auberge",
      "priceRange": "€€",
      "mapsUrl": "https://maps.google.com/?q=37.3843243,-5.992472",
      "lat": 37.3843243,
      "lng": -5.992472,
      "halalFriendly": false,
      "bookingUrl": "http://www.hostalvangoghsevilla.com",
      "source": "osm"
    },
    {
      "nom": "welldone",
      "categorie": "Hôtel",
      "priceRange": "€€",
      "mapsUrl": "https://maps.google.com/?q=37.3909969,-5.9942761",
      "lat": 37.3909969,
      "lng": -5.9942761,
      "halalFriendly": false,
      "bookingUrl": "https://maps.google.com/?q=37.3909969,-5.9942761",
      "source": "osm"
    },
    {
      "nom": "Room Select Tetuán",
      "categorie": "Hôtel",
      "priceRange": "€€",
      "mapsUrl": "https://maps.google.com/?q=37.3901697,-5.9945579",
      "lat": 37.3901697,
      "lng": -5.9945579,
      "halalFriendly": false,
      "bookingUrl": "https://roomselecthotels.com/sevilla/",
      "source": "osm"
    },
    {
      "nom": "Hotel Giralda Center",
      "categorie": "Hôtel",
      "priceRange": "€€",
      "mapsUrl": "https://maps.google.com/?q=37.3810922,-5.983014",
      "lat": 37.3810922,
      "lng": -5.983014,
      "halalFriendly": false,
      "bookingUrl": "https://www.hotelescenter.es/fr/hotel-giralda-center/",
      "source": "osm"
    },
    {
      "nom": "Ritual Sevilla Apartments",
      "categorie": "Appartement",
      "priceRange": "€€",
      "mapsUrl": "https://maps.google.com/?q=37.3924521,-5.9938156",
      "lat": 37.3924521,
      "lng": -5.9938156,
      "halalFriendly": false,
      "bookingUrl": "https://www.ritualsevillasuites.com",
      "source": "osm"
    },
    {
      "nom": "Hotel Soho Boutique",
      "categorie": "Hôtel",
      "priceRange": "€€",
      "mapsUrl": "https://maps.google.com/?q=37.3872253,-5.9944669",
      "lat": 37.3872253,
      "lng": -5.9944669,
      "halalFriendly": false,
      "bookingUrl": "https://www.sohohoteles.com/destinos/hotel-soho-boutique-catedral-4/",
      "source": "osm"
    },
    {
      "nom": "La Puerta de Palacio",
      "categorie": "Hôtel",
      "priceRange": "€€",
      "mapsUrl": "https://maps.google.com/?q=37.3841223,-5.9927558",
      "lat": 37.3841223,
      "lng": -5.9927558,
      "halalFriendly": false,
      "bookingUrl": "https://www.lapuertadepalacio.es/",
      "source": "osm"
    },
    {
      "nom": "Hotel Querencia de Sevilla",
      "categorie": "Hôtel",
      "priceRange": "€€€€",
      "score": 4,
      "mapsUrl": "https://maps.google.com/?q=37.3877496,-5.994744",
      "lat": 37.3877496,
      "lng": -5.994744,
      "halalFriendly": false,
      "bookingUrl": "https://maps.google.com/?q=37.3877496,-5.994744",
      "source": "osm"
    },
    {
      "nom": "Hotel Plaza Santa Lucía",
      "categorie": "Hôtel",
      "priceRange": "€€",
      "mapsUrl": "https://maps.google.com/?q=37.3974083,-5.9836839",
      "lat": 37.3974083,
      "lng": -5.9836839,
      "halalFriendly": false,
      "bookingUrl": "https://hotelplazasantalucia.com/",
      "source": "osm"
    },
    {
      "nom": "Catedral Boutique",
      "categorie": "Maison d'hôtes",
      "priceRange": "€€",
      "mapsUrl": "https://maps.google.com/?q=37.3859236,-5.9942111",
      "lat": 37.3859236,
      "lng": -5.9942111,
      "halalFriendly": false,
      "bookingUrl": "http://catedralboutique.es",
      "source": "osm"
    },
    {
      "nom": "Hostal Nuevo Suizo",
      "categorie": "Hôtel",
      "priceRange": "€€",
      "mapsUrl": "https://maps.google.com/?q=37.3921346,-5.9943177",
      "lat": 37.3921346,
      "lng": -5.9943177,
      "halalFriendly": false,
      "bookingUrl": "http://www.hostalnuevosuizosevilla.com/",
      "source": "osm"
    },
    {
      "nom": "Sevilla Center",
      "categorie": "Hôtel",
      "priceRange": "€€",
      "mapsUrl": "https://maps.google.com/?q=37.3814342,-5.9801658",
      "lat": 37.3814342,
      "lng": -5.9801658,
      "halalFriendly": false,
      "bookingUrl": "https://maps.google.com/?q=37.3814342,-5.9801658",
      "source": "osm"
    },
    {
      "nom": "Legado Alcazar Hotel",
      "categorie": "Hôtel",
      "priceRange": "€€",
      "mapsUrl": "https://maps.google.com/?q=37.3830804,-5.9920146",
      "lat": 37.3830804,
      "lng": -5.9920146,
      "halalFriendly": false,
      "bookingUrl": "https://maps.google.com/?q=37.3830804,-5.9920146",
      "source": "osm"
    },
    {
      "nom": "Sevilla Kitsch Hostel Art",
      "categorie": "Auberge",
      "priceRange": "€€",
      "mapsUrl": "https://maps.google.com/?q=37.3835135,-5.9926959",
      "lat": 37.3835135,
      "lng": -5.9926959,
      "halalFriendly": false,
      "bookingUrl": "http://sevillakitschhoste.wix.com/hostelart",
      "source": "osm"
    },
    {
      "nom": "Petit Palace Marqués Santa Ana",
      "categorie": "Hôtel",
      "priceRange": "€€€€",
      "score": 4,
      "mapsUrl": "https://maps.google.com/?q=37.387361,-5.9951403",
      "lat": 37.387361,
      "lng": -5.9951403,
      "halalFriendly": false,
      "bookingUrl": "https://www.petitpalace.com/en/petit-palace-marques-santa-ana/",
      "source": "osm"
    },
    {
      "nom": "nQn aparts & suites",
      "categorie": "Appartement",
      "priceRange": "€€",
      "mapsUrl": "https://maps.google.com/?q=37.3924139,-5.9945461",
      "lat": 37.3924139,
      "lng": -5.9945461,
      "halalFriendly": false,
      "bookingUrl": "https://www.nqnapartments.com/",
      "source": "osm"
    }
  ],
  "mosqueesPrincipales": [
    {
      "id": "m1",
      "nom": "Grande Mosquée de Séville",
      "type": "Mosquée",
      "adresse": "Centre-ville, Séville",
      "description": "Mosquée principale de la ville.",
      "note": 5,
      "acces_non_musulmans": false,
      "mapsUrl": "https://maps.google.com/?q=Mosque%20S%C3%A9ville%20S%C3%A9ville"
    }
  ],
  "activites": [
    {
      "id": "a1",
      "nom": "La Giralda",
      "categorie": "Histoire",
      "description": "Ancien minaret almohade devenu clocher de la cathédrale.",
      "prix": "Payant",
      "duree": "",
      "mapsUrl": "https://maps.google.com/?q=La%20Giralda%20S%C3%A9ville",
      "lat": 37.386207,
      "lng": -5.9925557,
      "geocoded": true
    },
    {
      "id": "a2",
      "nom": "Alcázar de Séville (UNESCO)",
      "categorie": "Culture",
      "description": "Palais royal aux décors et jardins mauresques.",
      "prix": "Payant",
      "duree": "",
      "mapsUrl": "https://maps.google.com/?q=Alc%C3%A1zar%20de%20S%C3%A9ville%20%28UNESCO%29%20S%C3%A9ville"
    },
    {
      "id": "a3",
      "nom": "Quartier de Santa Cruz",
      "categorie": "Culture",
      "description": "Ruelles de l'ancienne médina andalouse.",
      "prix": "Gratuit",
      "duree": "",
      "mapsUrl": "https://maps.google.com/?q=Quartier%20de%20Santa%20Cruz%20S%C3%A9ville"
    },
    {
      "nom": "Antonio Machín",
      "lat": 37.3908017,
      "lng": -5.9836154,
      "coordonnees": {
        "lat": 37.3908017,
        "lng": -5.9836154
      },
      "categorie": "À voir",
      "mapsUrl": "https://maps.google.com/?q=37.3908017,-5.9836154",
      "source": "osm"
    },
    {
      "nom": "Zurbarán Statue",
      "lat": 37.3896259,
      "lng": -5.9869879,
      "coordonnees": {
        "lat": 37.3896259,
        "lng": -5.9869879
      },
      "categorie": "À voir",
      "mapsUrl": "https://maps.google.com/?q=37.3896259,-5.9869879",
      "source": "osm"
    },
    {
      "nom": "Plaza Poeta Luis Chamizo",
      "lat": 37.3866014,
      "lng": -5.9841787,
      "coordonnees": {
        "lat": 37.3866014,
        "lng": -5.9841787
      },
      "categorie": "Nature",
      "mapsUrl": "https://maps.google.com/?q=37.3866014,-5.9841787",
      "source": "osm"
    },
    {
      "nom": "Al Marqués",
      "lat": 37.3865857,
      "lng": -5.9884036,
      "coordonnees": {
        "lat": 37.3865857,
        "lng": -5.9884036
      },
      "categorie": "À voir",
      "mapsUrl": "https://maps.google.com/?q=37.3865857,-5.9884036",
      "source": "osm"
    },
    {
      "nom": "Cementerio de la Judería",
      "lat": 37.385437,
      "lng": -5.9868736,
      "coordonnees": {
        "lat": 37.385437,
        "lng": -5.9868736
      },
      "categorie": "Histoire",
      "mapsUrl": "https://maps.google.com/?q=37.385437,-5.9868736",
      "source": "osm"
    },
    {
      "nom": "Casa Fabiola",
      "lat": 37.3872036,
      "lng": -5.9892812,
      "coordonnees": {
        "lat": 37.3872036,
        "lng": -5.9892812
      },
      "categorie": "Culture",
      "mapsUrl": "https://maps.google.com/?q=37.3872036,-5.9892812",
      "source": "osm"
    },
    {
      "nom": "Columnas romanas",
      "lat": 37.3882401,
      "lng": -5.990514,
      "coordonnees": {
        "lat": 37.3882401,
        "lng": -5.990514
      },
      "categorie": "Histoire",
      "mapsUrl": "https://maps.google.com/?q=37.3882401,-5.990514",
      "source": "osm"
    },
    {
      "nom": "Monumento al Niño Ricardo",
      "lat": 37.3917978,
      "lng": -5.989749,
      "coordonnees": {
        "lat": 37.3917978,
        "lng": -5.989749
      },
      "categorie": "Histoire",
      "mapsUrl": "https://maps.google.com/?q=37.3917978,-5.989749",
      "source": "osm"
    },
    {
      "nom": "Casa de Murillo",
      "lat": 37.3857166,
      "lng": -5.9890807,
      "coordonnees": {
        "lat": 37.3857166,
        "lng": -5.9890807
      },
      "categorie": "Culture",
      "mapsUrl": "https://maps.google.com/?q=37.3857166,-5.9890807",
      "source": "osm"
    },
    {
      "nom": "Imagen de las Ánimas",
      "lat": 37.3932471,
      "lng": -5.9879907,
      "coordonnees": {
        "lat": 37.3932471,
        "lng": -5.9879907
      },
      "categorie": "Histoire",
      "mapsUrl": "https://maps.google.com/?q=37.3932471,-5.9879907",
      "source": "osm"
    },
    {
      "nom": "Busto de Ofelia Nieto",
      "lat": 37.3911382,
      "lng": -5.9785426,
      "coordonnees": {
        "lat": 37.3911382,
        "lng": -5.9785426
      },
      "categorie": "À voir",
      "mapsUrl": "https://maps.google.com/?q=37.3911382,-5.9785426",
      "source": "osm"
    },
    {
      "nom": "Museo del Baile Flamenco",
      "lat": 37.3889491,
      "lng": -5.9911333,
      "coordonnees": {
        "lat": 37.3889491,
        "lng": -5.9911333
      },
      "categorie": "Culture",
      "mapsUrl": "https://maps.google.com/?q=37.3889491,-5.9911333",
      "source": "osm"
    },
    {
      "nom": "El balcón de la Rosina",
      "lat": 37.3848297,
      "lng": -5.9886254,
      "coordonnees": {
        "lat": 37.3848297,
        "lng": -5.9886254
      },
      "categorie": "À voir",
      "mapsUrl": "https://maps.google.com/?q=37.3848297,-5.9886254",
      "source": "osm"
    },
    {
      "nom": "Monumento a Clara Campoamor",
      "lat": 37.3898422,
      "lng": -5.99135,
      "coordonnees": {
        "lat": 37.3898422,
        "lng": -5.99135
      },
      "categorie": "Histoire",
      "mapsUrl": "https://maps.google.com/?q=37.3898422,-5.99135",
      "source": "osm"
    },
    {
      "nom": "Monumento a Santa Ángela de la Cruz",
      "lat": 37.3926312,
      "lng": -5.9902483,
      "coordonnees": {
        "lat": 37.3926312,
        "lng": -5.9902483
      },
      "categorie": "Histoire",
      "mapsUrl": "https://maps.google.com/?q=37.3926312,-5.9902483",
      "source": "osm"
    },
    {
      "nom": "Pascual González Moreno",
      "lat": 37.3887462,
      "lng": -5.976796,
      "coordonnees": {
        "lat": 37.3887462,
        "lng": -5.976796
      },
      "categorie": "Histoire",
      "mapsUrl": "https://maps.google.com/?q=37.3887462,-5.976796",
      "source": "osm"
    },
    {
      "nom": "Monumento a Cristóbal Colón",
      "lat": 37.3834693,
      "lng": -5.9879112,
      "coordonnees": {
        "lat": 37.3834693,
        "lng": -5.9879112
      },
      "categorie": "Histoire",
      "mapsUrl": "https://maps.google.com/?q=37.3834693,-5.9879112",
      "source": "osm"
    },
    {
      "nom": "Alianza Art Gallery",
      "lat": 37.38568,
      "lng": -5.9912946,
      "coordonnees": {
        "lat": 37.38568,
        "lng": -5.9912946
      },
      "categorie": "Culture",
      "mapsUrl": "https://maps.google.com/?q=37.38568,-5.9912946",
      "source": "osm"
    },
    {
      "nom": "Caracol",
      "lat": 37.3910203,
      "lng": -5.9924079,
      "coordonnees": {
        "lat": 37.3910203,
        "lng": -5.9924079
      },
      "categorie": "À voir",
      "mapsUrl": "https://maps.google.com/?q=37.3910203,-5.9924079",
      "source": "osm"
    },
    {
      "nom": "Corral del Coliseo",
      "lat": 37.3937486,
      "lng": -5.9907396,
      "coordonnees": {
        "lat": 37.3937486,
        "lng": -5.9907396
      },
      "categorie": "À voir",
      "mapsUrl": "https://maps.google.com/?q=37.3937486,-5.9907396",
      "source": "osm"
    },
    {
      "nom": "Placa a Luis Cernuda",
      "lat": 37.384355,
      "lng": -5.9906244,
      "coordonnees": {
        "lat": 37.384355,
        "lng": -5.9906244
      },
      "categorie": "Histoire",
      "mapsUrl": "https://maps.google.com/?q=37.384355,-5.9906244",
      "source": "osm"
    },
    {
      "nom": "Azulejos Saimaza",
      "lat": 37.3918196,
      "lng": -5.9926039,
      "coordonnees": {
        "lat": 37.3918196,
        "lng": -5.9926039
      },
      "categorie": "À voir",
      "mapsUrl": "https://maps.google.com/?q=37.3918196,-5.9926039",
      "source": "osm"
    },
    {
      "nom": "Palacio de Lebrija",
      "lat": 37.3899536,
      "lng": -5.9932692,
      "coordonnees": {
        "lat": 37.3899536,
        "lng": -5.9932692
      },
      "categorie": "À voir",
      "mapsUrl": "https://maps.google.com/?q=37.3899536,-5.9932692",
      "source": "osm"
    },
    {
      "nom": "Antiqvarivm",
      "lat": 37.3929572,
      "lng": -5.9921569,
      "coordonnees": {
        "lat": 37.3929572,
        "lng": -5.9921569
      },
      "categorie": "Culture",
      "mapsUrl": "https://maps.google.com/?q=37.3929572,-5.9921569",
      "source": "osm"
    },
    {
      "nom": "La Inmaculada Concepción",
      "lat": 37.3851436,
      "lng": -5.9921019,
      "coordonnees": {
        "lat": 37.3851436,
        "lng": -5.9921019
      },
      "categorie": "Histoire",
      "mapsUrl": "https://maps.google.com/?q=37.3851436,-5.9921019",
      "source": "osm"
    },
    {
      "nom": "Monumento a Miguel de Cervantes",
      "lat": 37.3893514,
      "lng": -5.9939562,
      "coordonnees": {
        "lat": 37.3893514,
        "lng": -5.9939562
      },
      "categorie": "Histoire",
      "mapsUrl": "https://maps.google.com/?q=37.3893514,-5.9939562",
      "source": "osm"
    },
    {
      "nom": "Tumba de Cristóbal Colón",
      "lat": 37.3854736,
      "lng": -5.9930455,
      "coordonnees": {
        "lat": 37.3854736,
        "lng": -5.9930455
      },
      "categorie": "Histoire",
      "mapsUrl": "https://maps.google.com/?q=37.3854736,-5.9930455",
      "source": "osm"
    },
    {
      "nom": "Monumento a la Libertad",
      "lat": 37.3900355,
      "lng": -5.9748343,
      "coordonnees": {
        "lat": 37.3900355,
        "lng": -5.9748343
      },
      "categorie": "Histoire",
      "mapsUrl": "https://maps.google.com/?q=37.3900355,-5.9748343",
      "source": "osm"
    },
    {
      "nom": "Circulo Mercantil E Industrial",
      "lat": 37.3904297,
      "lng": -5.9942824,
      "coordonnees": {
        "lat": 37.3904297,
        "lng": -5.9942824
      },
      "categorie": "À voir",
      "mapsUrl": "https://maps.google.com/?q=37.3904297,-5.9942824",
      "source": "osm"
    },
    {
      "nom": "Agamenón",
      "lat": 37.3926098,
      "lng": -5.9755247,
      "coordonnees": {
        "lat": 37.3926098,
        "lng": -5.9755247
      },
      "categorie": "À voir",
      "mapsUrl": "https://maps.google.com/?q=37.3926098,-5.9755247",
      "source": "osm"
    },
    {
      "nom": "Centro Cultural Flamenco \"Casa de la Memoria\"",
      "lat": 37.3923173,
      "lng": -5.9938277,
      "coordonnees": {
        "lat": 37.3923173,
        "lng": -5.9938277
      },
      "categorie": "À voir",
      "mapsUrl": "https://maps.google.com/?q=37.3923173,-5.9938277",
      "source": "osm"
    },
    {
      "nom": "San Juan Bosco",
      "lat": 37.3969267,
      "lng": -5.9813598,
      "coordonnees": {
        "lat": 37.3969267,
        "lng": -5.9813598
      },
      "categorie": "Histoire",
      "mapsUrl": "https://maps.google.com/?q=37.3969267,-5.9813598",
      "source": "osm"
    },
    {
      "nom": "La Feria de Abril",
      "lat": 37.3817575,
      "lng": -5.9892457,
      "coordonnees": {
        "lat": 37.3817575,
        "lng": -5.9892457
      },
      "categorie": "Histoire",
      "mapsUrl": "https://maps.google.com/?q=37.3817575,-5.9892457",
      "source": "osm"
    },
    {
      "nom": "Jardín Inglés",
      "lat": 37.382305,
      "lng": -5.9904799,
      "coordonnees": {
        "lat": 37.382305,
        "lng": -5.9904799
      },
      "categorie": "Nature",
      "mapsUrl": "https://maps.google.com/?q=37.382305,-5.9904799",
      "source": "osm"
    },
    {
      "nom": "Glorieta Americanista Luis Navarro Garcia",
      "lat": 37.384583,
      "lng": -5.9934613,
      "coordonnees": {
        "lat": 37.384583,
        "lng": -5.9934613
      },
      "categorie": "À voir",
      "mapsUrl": "https://maps.google.com/?q=37.384583,-5.9934613",
      "source": "osm"
    },
    {
      "nom": "free tour",
      "lat": 37.388437,
      "lng": -5.9951155,
      "coordonnees": {
        "lat": 37.388437,
        "lng": -5.9951155
      },
      "categorie": "À voir",
      "mapsUrl": "https://maps.google.com/?q=37.388437,-5.9951155",
      "source": "osm"
    },
    {
      "nom": "Centro de Documentación de las Artes Escénicas de Andalucía",
      "lat": 37.3976247,
      "lng": -5.9832546,
      "coordonnees": {
        "lat": 37.3976247,
        "lng": -5.9832546
      },
      "categorie": "Culture",
      "mapsUrl": "https://maps.google.com/?q=37.3976247,-5.9832546",
      "source": "osm"
    },
    {
      "nom": "En este Lugar Nacio",
      "lat": 37.3834004,
      "lng": -5.9928696,
      "coordonnees": {
        "lat": 37.3834004,
        "lng": -5.9928696
      },
      "categorie": "Histoire",
      "mapsUrl": "https://maps.google.com/?q=37.3834004,-5.9928696",
      "source": "osm"
    },
    {
      "nom": "Plaza de los Maldonados",
      "lat": 37.3966462,
      "lng": -5.9906854,
      "coordonnees": {
        "lat": 37.3966462,
        "lng": -5.9906854
      },
      "categorie": "Nature",
      "mapsUrl": "https://maps.google.com/?q=37.3966462,-5.9906854",
      "source": "osm"
    },
    {
      "nom": "Abaceria del Postigo",
      "lat": 37.3850174,
      "lng": -5.9946508,
      "coordonnees": {
        "lat": 37.3850174,
        "lng": -5.9946508
      },
      "categorie": "À voir",
      "mapsUrl": "https://maps.google.com/?q=37.3850174,-5.9946508",
      "source": "osm"
    },
    {
      "nom": "Monumento a Pastora Imperio",
      "lat": 37.3919342,
      "lng": -5.9955517,
      "coordonnees": {
        "lat": 37.3919342,
        "lng": -5.9955517
      },
      "categorie": "Histoire",
      "mapsUrl": "https://maps.google.com/?q=37.3919342,-5.9955517",
      "source": "osm"
    },
    {
      "nom": "San Expedito",
      "lat": 37.3908563,
      "lng": -5.9960584,
      "coordonnees": {
        "lat": 37.3908563,
        "lng": -5.9960584
      },
      "categorie": "À voir",
      "mapsUrl": "https://maps.google.com/?q=37.3908563,-5.9960584",
      "source": "osm"
    },
    {
      "nom": "Francisco Palacios Ortega",
      "lat": 37.3836734,
      "lng": -5.9944123,
      "coordonnees": {
        "lat": 37.3836734,
        "lng": -5.9944123
      },
      "categorie": "À voir",
      "mapsUrl": "https://maps.google.com/?q=37.3836734,-5.9944123",
      "source": "osm"
    },
    {
      "nom": "Plaza de Puerta Jerez",
      "lat": 37.3826092,
      "lng": -5.9934051,
      "coordonnees": {
        "lat": 37.3826092,
        "lng": -5.9934051
      },
      "categorie": "À voir",
      "mapsUrl": "https://maps.google.com/?q=37.3826092,-5.9934051",
      "source": "osm"
    },
    {
      "nom": "DIWAP Design and Gallery",
      "lat": 37.3973322,
      "lng": -5.9912458,
      "coordonnees": {
        "lat": 37.3973322,
        "lng": -5.9912458
      },
      "categorie": "Culture",
      "mapsUrl": "https://maps.google.com/?q=37.3973322,-5.9912458",
      "source": "osm"
    },
    {
      "nom": "Velázquez",
      "lat": 37.3930567,
      "lng": -5.9958549,
      "coordonnees": {
        "lat": 37.3930567,
        "lng": -5.9958549
      },
      "categorie": "Histoire",
      "mapsUrl": "https://maps.google.com/?q=37.3930567,-5.9958549",
      "source": "osm"
    },
    {
      "nom": "El Cid Campeador",
      "lat": 37.3796997,
      "lng": -5.9891063,
      "coordonnees": {
        "lat": 37.3796997,
        "lng": -5.9891063
      },
      "categorie": "Histoire",
      "mapsUrl": "https://maps.google.com/?q=37.3796997,-5.9891063",
      "source": "osm"
    },
    {
      "nom": "Museo de las ilusiones",
      "lat": 37.3918489,
      "lng": -5.9970788,
      "coordonnees": {
        "lat": 37.3918489,
        "lng": -5.9970788
      },
      "categorie": "Culture",
      "mapsUrl": "https://maps.google.com/?q=37.3918489,-5.9970788",
      "source": "osm"
    },
    {
      "nom": "Hermandad El Baratillo",
      "lat": 37.3862635,
      "lng": -5.9975456,
      "coordonnees": {
        "lat": 37.3862635,
        "lng": -5.9975456
      },
      "categorie": "À voir",
      "mapsUrl": "https://maps.google.com/?q=37.3862635,-5.9975456",
      "source": "osm"
    },
    {
      "nom": "Placa \"Reconocimiento Guardia Civil\"",
      "lat": 37.3940891,
      "lng": -5.9964889,
      "coordonnees": {
        "lat": 37.3940891,
        "lng": -5.9964889
      },
      "categorie": "Histoire",
      "mapsUrl": "https://maps.google.com/?q=37.3940891,-5.9964889",
      "source": "osm"
    },
    {
      "nom": "Parque Vecinal Pulmón Verde",
      "lat": 37.3989458,
      "lng": -5.9901665,
      "coordonnees": {
        "lat": 37.3989458,
        "lng": -5.9901665
      },
      "categorie": "Nature",
      "mapsUrl": "https://maps.google.com/?q=37.3989458,-5.9901665",
      "source": "osm"
    },
    {
      "nom": "La riqueza material de Sevilla",
      "lat": 37.378806,
      "lng": -5.9893999,
      "coordonnees": {
        "lat": 37.378806,
        "lng": -5.9893999
      },
      "categorie": "À voir",
      "mapsUrl": "https://maps.google.com/?q=37.378806,-5.9893999",
      "source": "osm"
    },
    {
      "nom": "Museo Histórico Militar",
      "lat": 37.3782843,
      "lng": -5.9874538,
      "coordonnees": {
        "lat": 37.3782843,
        "lng": -5.9874538
      },
      "categorie": "Culture",
      "mapsUrl": "https://maps.google.com/?q=37.3782843,-5.9874538",
      "source": "osm"
    },
    {
      "nom": "Puerta de Córdoba",
      "lat": 37.400171,
      "lng": -5.9851973,
      "coordonnees": {
        "lat": 37.400171,
        "lng": -5.9851973
      },
      "categorie": "Histoire",
      "mapsUrl": "https://maps.google.com/?q=37.400171,-5.9851973",
      "source": "osm"
    },
    {
      "nom": "Mozart",
      "lat": 37.3836078,
      "lng": -5.996806,
      "coordonnees": {
        "lat": 37.3836078,
        "lng": -5.996806
      },
      "categorie": "À voir",
      "mapsUrl": "https://maps.google.com/?q=37.3836078,-5.996806",
      "source": "osm"
    },
    {
      "nom": "Galeria Alarcón",
      "lat": 37.3849085,
      "lng": -5.9977784,
      "coordonnees": {
        "lat": 37.3849085,
        "lng": -5.9977784
      },
      "categorie": "Culture",
      "mapsUrl": "https://maps.google.com/?q=37.3849085,-5.9977784",
      "source": "osm"
    },
    {
      "nom": "Estatua del Explorador",
      "lat": 37.3932722,
      "lng": -5.9710518,
      "coordonnees": {
        "lat": 37.3932722,
        "lng": -5.9710518
      },
      "categorie": "Histoire",
      "mapsUrl": "https://maps.google.com/?q=37.3932722,-5.9710518",
      "source": "osm"
    }
  ],
  "imageCredit": "Wikimedia Commons",
  "osmEnriched": true,
  "osmEnrichedAt": "2026-06-30",
  "description_en": "Seville, in Spain, is a halal-friendly destination with a Halal Trust Score of 4.5/5. Muslim travelers will find 43 halal restaurants listed, 1 mosques, real-time prayer times and the Qibla direction — a complete guide to travel with peace of mind.",
  "metaDescription_en": "Halal guide to Seville: 43 halal restaurants listed, 1 mosques, prayer times and tips for Muslim travelers. Halal Trust Score 4.5/5.",
  "nom_en": "Seville",
  "boucheries": []
}