{
  "slug": "siem-reap",
  "nom": "Siem Reap",
  "pays": "Cambodge",
  "pays_slug": "cambodge",
  "continent": "Asie",
  "region": "Cambodge",
  "coordonnees": {
    "lat": 13.3671,
    "lng": 103.8448
  },
  "codeISO": "KH",
  "score_halal": 3.1,
  "halalScore": 6.2,
  "villeNonMusulmane": true,
  "description": "Porte des temples d'Angkor. Communauté cham, mosquées et restaurants halal pour les visiteurs.",
  "metaDescription": "Porte des temples d'Angkor. Communauté cham, mosquées et restaurants halal pour les visiteurs.",
  "image": "https://upload.wikimedia.org/wikipedia/commons/9/9e/Cambodge.-_Siem_Reap%2C_Cambodge.jpg",
  "image_hero": "https://upload.wikimedia.org/wikipedia/commons/9/9e/Cambodge.-_Siem_Reap%2C_Cambodge.jpg",
  "imageCredit": "Wikimedia Commons",
  "statistiques": {
    "restaurants_halal": 11,
    "mosquees": 3,
    "hotels": 120
  },
  "infoPratique": {
    "transport": "Accessible par avion et transports en commun locaux.",
    "meilleureEpoque": "Printemps et automne (climat tempéré).",
    "conseilHalal": "Ville non-musulmane : repérez les restaurants halal signalés et les mosquées via l'application avant votre visite."
  },
  "tags": [
    "halal",
    "ville non-musulmane",
    "asie"
  ],
  "restaurants": [
    {
      "nom": "Kebab & Falafel Time Halal & Vegan Food & Cafe",
      "type": "turkish",
      "priceRange": "€€",
      "mapsUrl": "https://maps.google.com/?q=13.3538586,103.8496251",
      "lat": 13.3538586,
      "lng": 103.8496251,
      "halalConfidence": "yes",
      "source": "osm"
    },
    {
      "nom": "Royal Theatre Restaurant",
      "type": "buffet, asian, western, apsara",
      "priceRange": "€€",
      "mapsUrl": "https://maps.google.com/?q=13.380342,103.8593835",
      "lat": 13.380342,
      "lng": 103.8593835,
      "halalConfidence": "yes",
      "source": "osm"
    },
    {
      "nom": "Deniz Vegan & Vegetarian Kitchen",
      "type": "turkish",
      "priceRange": "€€",
      "mapsUrl": "https://maps.google.com/?q=13.3568625,103.8506805",
      "lat": 13.3568625,
      "lng": 103.8506805,
      "halalConfidence": "likely",
      "source": "osm"
    },
    {
      "nom": "Sway away",
      "type": "turkish, international",
      "priceRange": "€€",
      "mapsUrl": "https://maps.google.com/?q=13.3577342,103.8529858",
      "lat": 13.3577342,
      "lng": 103.8529858,
      "halalConfidence": "likely",
      "source": "osm"
    },
    {
      "nom": "Oliveo",
      "type": "turkish",
      "priceRange": "€€",
      "mapsUrl": "https://maps.google.com/?q=13.3548501,103.8505311",
      "lat": 13.3548501,
      "lng": 103.8505311,
      "halalConfidence": "likely",
      "source": "osm"
    },
    {
      "nom": "The R.E.A.L Kebab",
      "type": "kebab",
      "priceRange": "€€",
      "mapsUrl": "https://maps.google.com/?q=13.3547025,103.8519503",
      "lat": 13.3547025,
      "lng": 103.8519503,
      "halalConfidence": "likely",
      "source": "osm"
    },
    {
      "nom": "Atmosphère",
      "type": "lebanese, local",
      "priceRange": "€€",
      "mapsUrl": "https://maps.google.com/?q=13.353768,103.851834",
      "lat": 13.353768,
      "lng": 103.851834,
      "halalConfidence": "likely",
      "source": "osm"
    },
    {
      "nom": "Mezze Bar Club",
      "type": "lebanese",
      "priceRange": "€€",
      "mapsUrl": "https://maps.google.com/?q=13.3549207,103.8541929",
      "lat": 13.3549207,
      "lng": 103.8541929,
      "halalConfidence": "likely",
      "source": "osm"
    },
    {
      "nom": "Tavern Bistro",
      "type": "arab, greek, italian pizza, lebanese",
      "priceRange": "€€",
      "mapsUrl": "https://maps.google.com/?q=13.3541119,103.8531832",
      "lat": 13.3541119,
      "lng": 103.8531832,
      "halalConfidence": "likely",
      "source": "osm"
    },
    {
      "nom": "Snow Yogurt",
      "type": "kebab",
      "priceRange": "€€",
      "mapsUrl": "https://maps.google.com/?q=13.3576877,103.8577689",
      "lat": 13.3576877,
      "lng": 103.8577689,
      "halalConfidence": "likely",
      "source": "osm"
    },
    {
      "nom": "Elia Greek Kitchen",
      "type": "greek, grill, coffee shop, fish, chicken, diner, seafood, tea, turkish, mediterranean",
      "priceRange": "€€",
      "mapsUrl": "https://maps.google.com/?q=13.3543998,103.8556116",
      "lat": 13.3543998,
      "lng": 103.8556116,
      "halalConfidence": "likely",
      "source": "osm"
    },
    {
      "nom": "Himalayan Kitchen",
      "lat": 13.3606781,
      "lng": 103.8533016,
      "type": "indian",
      "halalConfidence": "likely",
      "mapsUrl": "https://maps.google.com/?q=13.3606781,103.8533016",
      "source": "osm"
    },
    {
      "nom": "Curry walla",
      "lat": 13.3600198,
      "lng": 103.8550505,
      "type": "indian",
      "halalConfidence": "likely",
      "mapsUrl": "https://maps.google.com/?q=13.3600198,103.8550505",
      "source": "osm"
    },
    {
      "nom": "Amar Cuisine",
      "lat": 13.3547497,
      "lng": 103.8443072,
      "type": "indian",
      "halalConfidence": "likely",
      "mapsUrl": "https://maps.google.com/?q=13.3547497,103.8443072",
      "source": "osm"
    },
    {
      "nom": "Taj Mahal",
      "lat": 13.3549265,
      "lng": 103.848889,
      "type": "indian",
      "halalConfidence": "likely",
      "mapsUrl": "https://maps.google.com/?q=13.3549265,103.848889",
      "source": "osm"
    },
    {
      "nom": "The Mountain",
      "lat": 13.3554129,
      "lng": 103.8527558,
      "type": "indian",
      "halalConfidence": "likely",
      "mapsUrl": "https://maps.google.com/?q=13.3554129,103.8527558",
      "source": "osm"
    },
    {
      "nom": "Madras Jasmin Restaurant",
      "lat": 13.3559322,
      "lng": 103.8546181,
      "type": "indian",
      "halalConfidence": "likely",
      "mapsUrl": "https://maps.google.com/?q=13.3559322,103.8546181",
      "source": "osm"
    },
    {
      "nom": "Vanakkam india",
      "lat": 13.3552806,
      "lng": 103.8549635,
      "type": "indian",
      "halalConfidence": "likely",
      "mapsUrl": "https://maps.google.com/?q=13.3552806,103.8549635",
      "source": "osm"
    },
    {
      "nom": "Modiji's",
      "lat": 13.3539176,
      "lng": 103.8541923,
      "type": "indian",
      "halalConfidence": "likely",
      "mapsUrl": "https://maps.google.com/?q=13.3539176,103.8541923",
      "source": "osm"
    },
    {
      "nom": "Soul",
      "lat": 13.3514813,
      "lng": 103.8555614,
      "type": "indian",
      "halalConfidence": "likely",
      "mapsUrl": "https://maps.google.com/?q=13.3514813,103.8555614",
      "source": "osm"
    }
  ],
  "hotels": [
    {
      "nom": "Clay D'Ankor",
      "categorie": "Hôtel",
      "priceRange": "€€",
      "mapsUrl": "https://maps.google.com/?q=13.3658876,103.8447487",
      "lat": 13.3658876,
      "lng": 103.8447487,
      "halalFriendly": false,
      "bookingUrl": "https://maps.google.com/?q=13.3658876,103.8447487",
      "source": "osm"
    },
    {
      "nom": "Earthwalkers",
      "categorie": "Maison d'hôtes",
      "priceRange": "€€",
      "mapsUrl": "https://maps.google.com/?q=13.3685509,103.8436665",
      "lat": 13.3685509,
      "lng": 103.8436665,
      "halalFriendly": false,
      "bookingUrl": "https://maps.google.com/?q=13.3685509,103.8436665",
      "source": "osm"
    },
    {
      "nom": "Rotha Guest House",
      "categorie": "Maison d'hôtes",
      "priceRange": "€€",
      "mapsUrl": "https://maps.google.com/?q=13.3688209,103.8458628",
      "lat": 13.3688209,
      "lng": 103.8458628,
      "halalFriendly": false,
      "bookingUrl": "https://maps.google.com/?q=13.3688209,103.8458628",
      "source": "osm"
    },
    {
      "nom": "Khemara Hotel & Spa",
      "categorie": "Hôtel",
      "priceRange": "€€",
      "mapsUrl": "https://maps.google.com/?q=13.3675938,103.8469637",
      "lat": 13.3675938,
      "lng": 103.8469637,
      "halalFriendly": false,
      "bookingUrl": "https://maps.google.com/?q=13.3675938,103.8469637",
      "source": "osm"
    },
    {
      "nom": "Kouprey",
      "categorie": "Hôtel",
      "priceRange": "€€",
      "mapsUrl": "https://maps.google.com/?q=13.368677,103.8427374",
      "lat": 13.368677,
      "lng": 103.8427374,
      "halalFriendly": false,
      "bookingUrl": "https://maps.google.com/?q=13.368677,103.8427374",
      "source": "osm"
    },
    {
      "nom": "Somreth Por Apartment",
      "categorie": "Maison d'hôtes",
      "priceRange": "€€",
      "mapsUrl": "https://maps.google.com/?q=13.3644097,103.8464296",
      "lat": 13.3644097,
      "lng": 103.8464296,
      "halalFriendly": false,
      "bookingUrl": "https://maps.google.com/?q=13.3644097,103.8464296",
      "source": "osm"
    },
    {
      "nom": "Phum Khmer Lodge",
      "categorie": "Hôtel",
      "priceRange": "€€",
      "mapsUrl": "https://maps.google.com/?q=13.3643547,103.843031",
      "lat": 13.3643547,
      "lng": 103.843031,
      "halalFriendly": false,
      "bookingUrl": "https://maps.google.com/?q=13.3643547,103.843031",
      "source": "osm"
    },
    {
      "nom": "Angkor Grant Pleasure",
      "categorie": "Hôtel",
      "priceRange": "€€",
      "mapsUrl": "https://maps.google.com/?q=13.3684093,103.8481496",
      "lat": 13.3684093,
      "lng": 103.8481496,
      "halalFriendly": false,
      "bookingUrl": "https://maps.google.com/?q=13.3684093,103.8481496",
      "source": "osm"
    },
    {
      "nom": "Sophorn Malin Guest House",
      "categorie": "Maison d'hôtes",
      "priceRange": "€€",
      "mapsUrl": "https://maps.google.com/?q=13.3708721,103.8429839",
      "lat": 13.3708721,
      "lng": 103.8429839,
      "halalFriendly": false,
      "bookingUrl": "https://maps.google.com/?q=13.3708721,103.8429839",
      "source": "osm"
    },
    {
      "nom": "Rom Doul Siem Reap Guest house",
      "categorie": "Maison d'hôtes",
      "priceRange": "€€",
      "mapsUrl": "https://maps.google.com/?q=13.3679754,103.8490506",
      "lat": 13.3679754,
      "lng": 103.8490506,
      "halalFriendly": false,
      "bookingUrl": "https://maps.google.com/?q=13.3679754,103.8490506",
      "source": "osm"
    },
    {
      "nom": "pos . edoor",
      "categorie": "Hôtel",
      "priceRange": "€€",
      "mapsUrl": "https://maps.google.com/?q=13.3643028,103.8483711",
      "lat": 13.3643028,
      "lng": 103.8483711,
      "halalFriendly": false,
      "bookingUrl": "https://maps.google.com/?q=13.3643028,103.8483711",
      "source": "osm"
    },
    {
      "nom": "My Friend Boutique Hotel",
      "categorie": "Hôtel",
      "priceRange": "€€",
      "mapsUrl": "https://maps.google.com/?q=13.3703617,103.8412476",
      "lat": 13.3703617,
      "lng": 103.8412476,
      "halalFriendly": false,
      "bookingUrl": "www.myfriendboutique.com",
      "source": "osm"
    },
    {
      "nom": "POV MEAN CHEY GUESTHOUSE",
      "categorie": "Auberge",
      "priceRange": "€€",
      "mapsUrl": "https://maps.google.com/?q=13.363113,103.8474856",
      "lat": 13.363113,
      "lng": 103.8474856,
      "halalFriendly": false,
      "bookingUrl": "https://maps.google.com/?q=13.363113,103.8474856",
      "source": "osm"
    },
    {
      "nom": "Goldiana Angkor Hotel",
      "categorie": "Hôtel",
      "priceRange": "€€",
      "mapsUrl": "https://maps.google.com/?q=13.3682963,103.8495638",
      "lat": 13.3682963,
      "lng": 103.8495638,
      "halalFriendly": false,
      "bookingUrl": "http://goldiana.com/sr/goldiana_angkor/site/?p=home",
      "source": "osm"
    },
    {
      "nom": "Apsara Holiday",
      "categorie": "Hôtel",
      "priceRange": "€€",
      "mapsUrl": "https://maps.google.com/?q=13.3711533,103.8419162",
      "lat": 13.3711533,
      "lng": 103.8419162,
      "halalFriendly": false,
      "bookingUrl": "https://maps.google.com/?q=13.3711533,103.8419162",
      "source": "osm"
    },
    {
      "nom": "Pidor Pich",
      "categorie": "Maison d'hôtes",
      "priceRange": "€€",
      "mapsUrl": "https://maps.google.com/?q=13.3631398,103.8479148",
      "lat": 13.3631398,
      "lng": 103.8479148,
      "halalFriendly": false,
      "bookingUrl": "https://maps.google.com/?q=13.3631398,103.8479148",
      "source": "osm"
    },
    {
      "nom": "Family Hostel",
      "categorie": "Auberge",
      "priceRange": "€€",
      "mapsUrl": "https://maps.google.com/?q=13.3721384,103.8453143",
      "lat": 13.3721384,
      "lng": 103.8453143,
      "halalFriendly": false,
      "bookingUrl": "https://maps.google.com/?q=13.3721384,103.8453143",
      "source": "osm"
    },
    {
      "nom": "Prum Bayon Hotel",
      "categorie": "Hôtel",
      "priceRange": "€€",
      "mapsUrl": "https://maps.google.com/?q=13.3663683,103.8499792",
      "lat": 13.3663683,
      "lng": 103.8499792,
      "halalFriendly": false,
      "bookingUrl": "https://maps.google.com/?q=13.3663683,103.8499792",
      "source": "osm"
    },
    {
      "nom": "Cambada d'Angkor Suite",
      "categorie": "Hôtel",
      "priceRange": "€€",
      "mapsUrl": "https://maps.google.com/?q=13.3673238,103.8500393",
      "lat": 13.3673238,
      "lng": 103.8500393,
      "halalFriendly": false,
      "bookingUrl": "https://maps.google.com/?q=13.3673238,103.8500393",
      "source": "osm"
    },
    {
      "nom": "The glory guest house spa",
      "categorie": "Maison d'hôtes",
      "priceRange": "€€",
      "mapsUrl": "https://maps.google.com/?q=13.3630799,103.848216",
      "lat": 13.3630799,
      "lng": 103.848216,
      "halalFriendly": false,
      "bookingUrl": "https://maps.google.com/?q=13.3630799,103.848216",
      "source": "osm"
    },
    {
      "nom": "Monoreach Hotel",
      "categorie": "Hôtel",
      "priceRange": "€€",
      "mapsUrl": "https://maps.google.com/?q=13.3719438,103.8425466",
      "lat": 13.3719438,
      "lng": 103.8425466,
      "halalFriendly": false,
      "bookingUrl": "https://maps.google.com/?q=13.3719438,103.8425466",
      "source": "osm"
    },
    {
      "nom": "Sakmut Boutique Hotel & Spa",
      "categorie": "Hôtel",
      "priceRange": "€€€€",
      "score": 4,
      "mapsUrl": "https://maps.google.com/?q=13.3723633,103.8435033",
      "lat": 13.3723633,
      "lng": 103.8435033,
      "halalFriendly": false,
      "bookingUrl": "https://maps.google.com/?q=13.3723633,103.8435033",
      "source": "osm"
    },
    {
      "nom": "Lotus Blanc Resort",
      "categorie": "Hôtel",
      "priceRange": "€€",
      "mapsUrl": "https://maps.google.com/?q=13.3714309,103.8414407",
      "lat": 13.3714309,
      "lng": 103.8414407,
      "halalFriendly": false,
      "bookingUrl": "https://maps.google.com/?q=13.3714309,103.8414407",
      "source": "osm"
    },
    {
      "nom": "ABACUS Hotel",
      "categorie": "Hôtel",
      "priceRange": "€€",
      "mapsUrl": "https://maps.google.com/?q=13.3679403,103.8504038",
      "lat": 13.3679403,
      "lng": 103.8504038,
      "halalFriendly": false,
      "bookingUrl": "https://maps.google.com/?q=13.3679403,103.8504038",
      "source": "osm"
    },
    {
      "nom": "Royal Empire",
      "categorie": "Hôtel",
      "priceRange": "€€",
      "mapsUrl": "https://maps.google.com/?q=13.3720689,103.8423316",
      "lat": 13.3720689,
      "lng": 103.8423316,
      "halalFriendly": false,
      "bookingUrl": "https://maps.google.com/?q=13.3720689,103.8423316",
      "source": "osm"
    },
    {
      "nom": "Angkor Hotel",
      "categorie": "Hôtel",
      "priceRange": "€€",
      "mapsUrl": "https://maps.google.com/?q=13.3671558,103.8507099",
      "lat": 13.3671558,
      "lng": 103.8507099,
      "halalFriendly": false,
      "bookingUrl": "https://maps.google.com/?q=13.3671558,103.8507099",
      "source": "osm"
    },
    {
      "nom": "Kiri Residence",
      "categorie": "Hôtel",
      "priceRange": "€€",
      "mapsUrl": "https://maps.google.com/?q=13.3728265,103.8462574",
      "lat": 13.3728265,
      "lng": 103.8462574,
      "halalFriendly": false,
      "bookingUrl": "https://maps.google.com/?q=13.3728265,103.8462574",
      "source": "osm"
    },
    {
      "nom": "The Mount Apartment",
      "categorie": "Hôtel",
      "priceRange": "€€",
      "mapsUrl": "https://maps.google.com/?q=13.3645262,103.8502773",
      "lat": 13.3645262,
      "lng": 103.8502773,
      "halalFriendly": false,
      "bookingUrl": "https://maps.google.com/?q=13.3645262,103.8502773",
      "source": "osm"
    },
    {
      "nom": "Adan World Hostel",
      "categorie": "Auberge",
      "priceRange": "€€",
      "mapsUrl": "https://maps.google.com/?q=13.3649571,103.8504907",
      "lat": 13.3649571,
      "lng": 103.8504907,
      "halalFriendly": false,
      "bookingUrl": "https://maps.google.com/?q=13.3649571,103.8504907",
      "source": "osm"
    },
    {
      "nom": "J's Links Angkor Boutique Hotel",
      "categorie": "Hôtel",
      "priceRange": "€€",
      "mapsUrl": "https://maps.google.com/?q=13.3682999,103.850978",
      "lat": 13.3682999,
      "lng": 103.850978,
      "halalFriendly": false,
      "bookingUrl": "https://maps.google.com/?q=13.3682999,103.850978",
      "source": "osm"
    },
    {
      "nom": "City Angkor Hotel",
      "categorie": "Hôtel",
      "priceRange": "€€",
      "mapsUrl": "https://maps.google.com/?q=13.3719192,103.8405583",
      "lat": 13.3719192,
      "lng": 103.8405583,
      "halalFriendly": false,
      "bookingUrl": "https://maps.google.com/?q=13.3719192,103.8405583",
      "source": "osm"
    },
    {
      "nom": "Aspara Angkor Resort & Conference",
      "categorie": "Hôtel",
      "priceRange": "€€",
      "mapsUrl": "https://maps.google.com/?q=13.3728269,103.841516",
      "lat": 13.3728269,
      "lng": 103.841516,
      "halalFriendly": false,
      "bookingUrl": "https://maps.google.com/?q=13.3728269,103.841516",
      "source": "osm"
    },
    {
      "nom": "Kravan Siem reap Boutique Villa",
      "categorie": "Hôtel",
      "priceRange": "€€",
      "mapsUrl": "https://maps.google.com/?q=13.373644,103.8437125",
      "lat": 13.373644,
      "lng": 103.8437125,
      "halalFriendly": false,
      "bookingUrl": "https://maps.google.com/?q=13.373644,103.8437125",
      "source": "osm"
    },
    {
      "nom": "LY Apartments",
      "categorie": "Appartement",
      "priceRange": "€€",
      "mapsUrl": "https://maps.google.com/?q=13.3608354,103.8425017",
      "lat": 13.3608354,
      "lng": 103.8425017,
      "halalFriendly": false,
      "bookingUrl": "https://maps.google.com/?q=13.3608354,103.8425017",
      "source": "osm"
    },
    {
      "nom": "Ravady d'Angkor",
      "categorie": "Hôtel",
      "priceRange": "€€",
      "mapsUrl": "https://maps.google.com/?q=13.3739502,103.8439918",
      "lat": 13.3739502,
      "lng": 103.8439918,
      "halalFriendly": false,
      "bookingUrl": "https://maps.google.com/?q=13.3739502,103.8439918",
      "source": "osm"
    },
    {
      "nom": "Villa ChezNous",
      "categorie": "Maison d'hôtes",
      "priceRange": "€€",
      "mapsUrl": "https://maps.google.com/?q=13.3601643,103.8425643",
      "lat": 13.3601643,
      "lng": 103.8425643,
      "halalFriendly": false,
      "bookingUrl": "https://maps.google.com/?q=13.3601643,103.8425643",
      "source": "osm"
    },
    {
      "nom": "Blue Indigo Yoga",
      "categorie": "Auberge",
      "priceRange": "€€",
      "mapsUrl": "https://maps.google.com/?q=13.3615784,103.8497647",
      "lat": 13.3615784,
      "lng": 103.8497647,
      "halalFriendly": false,
      "bookingUrl": "https://blueindigoyogasiemreap.com",
      "source": "osm"
    },
    {
      "nom": "Kuanghua hotel",
      "categorie": "Auberge",
      "priceRange": "€€",
      "mapsUrl": "https://maps.google.com/?q=13.3625803,103.8508586",
      "lat": 13.3625803,
      "lng": 103.8508586,
      "halalFriendly": false,
      "bookingUrl": "https://maps.google.com/?q=13.3625803,103.8508586",
      "source": "osm"
    },
    {
      "nom": "Ankor chuan chu yuan restaurant",
      "categorie": "Hôtel",
      "priceRange": "€€",
      "mapsUrl": "https://maps.google.com/?q=13.362546,103.8510033",
      "lat": 13.362546,
      "lng": 103.8510033,
      "halalFriendly": false,
      "bookingUrl": "https://maps.google.com/?q=13.362546,103.8510033",
      "source": "osm"
    },
    {
      "nom": "Sunvy Angkor Villa Boutique",
      "categorie": "Maison d'hôtes",
      "priceRange": "€€",
      "mapsUrl": "https://maps.google.com/?q=13.361629,103.8502194",
      "lat": 13.361629,
      "lng": 103.8502194,
      "halalFriendly": false,
      "bookingUrl": "https://maps.google.com/?q=13.361629,103.8502194",
      "source": "osm"
    },
    {
      "nom": "La Residence Blanc d'Angkor",
      "categorie": "Hôtel",
      "priceRange": "€€",
      "mapsUrl": "https://maps.google.com/?q=13.3724849,103.8392101",
      "lat": 13.3724849,
      "lng": 103.8392101,
      "halalFriendly": false,
      "bookingUrl": "https://maps.google.com/?q=13.3724849,103.8392101",
      "source": "osm"
    },
    {
      "nom": "Rady",
      "categorie": "Appartement",
      "priceRange": "€€",
      "mapsUrl": "https://maps.google.com/?q=13.3722689,103.8508456",
      "lat": 13.3722689,
      "lng": 103.8508456,
      "halalFriendly": false,
      "bookingUrl": "https://maps.google.com/?q=13.3722689,103.8508456",
      "source": "osm"
    },
    {
      "nom": "Angkor Paradise",
      "categorie": "Hôtel",
      "priceRange": "€€",
      "mapsUrl": "https://maps.google.com/?q=13.3644479,103.8523939",
      "lat": 13.3644479,
      "lng": 103.8523939,
      "halalFriendly": false,
      "bookingUrl": "https://maps.google.com/?q=13.3644479,103.8523939",
      "source": "osm"
    },
    {
      "nom": "Angkor Selia Pich",
      "categorie": "Hôtel",
      "priceRange": "€€",
      "mapsUrl": "https://maps.google.com/?q=13.3639384,103.8522554",
      "lat": 13.3639384,
      "lng": 103.8522554,
      "halalFriendly": false,
      "bookingUrl": "https://maps.google.com/?q=13.3639384,103.8522554",
      "source": "osm"
    },
    {
      "nom": "Bopha Polen",
      "categorie": "Hôtel",
      "priceRange": "€€",
      "mapsUrl": "https://maps.google.com/?q=13.36267,103.851618",
      "lat": 13.36267,
      "lng": 103.851618,
      "halalFriendly": false,
      "bookingUrl": "https://maps.google.com/?q=13.36267,103.851618",
      "source": "osm"
    },
    {
      "nom": "Pheakdey",
      "categorie": "Maison d'hôtes",
      "priceRange": "€€",
      "mapsUrl": "https://maps.google.com/?q=13.373716,103.8402095",
      "lat": 13.373716,
      "lng": 103.8402095,
      "halalFriendly": false,
      "bookingUrl": "https://maps.google.com/?q=13.373716,103.8402095",
      "source": "osm"
    },
    {
      "nom": "Botoum Hostel",
      "categorie": "Maison d'hôtes",
      "priceRange": "€€",
      "mapsUrl": "https://maps.google.com/?q=13.359063,103.8451703",
      "lat": 13.359063,
      "lng": 103.8451703,
      "halalFriendly": false,
      "bookingUrl": "https://botoumhostel.com/",
      "source": "osm"
    },
    {
      "nom": "Bokre Angkor Hostel",
      "categorie": "Auberge",
      "priceRange": "€€",
      "mapsUrl": "https://maps.google.com/?q=13.3636291,103.8523762",
      "lat": 13.3636291,
      "lng": 103.8523762,
      "halalFriendly": false,
      "bookingUrl": "https://bokreangkor.com/",
      "source": "osm"
    },
    {
      "nom": "Jasmin Family",
      "categorie": "Auberge",
      "priceRange": "€€",
      "mapsUrl": "https://maps.google.com/?q=13.3653575,103.8530143",
      "lat": 13.3653575,
      "lng": 103.8530143,
      "halalFriendly": false,
      "bookingUrl": "https://maps.google.com/?q=13.3653575,103.8530143",
      "source": "osm"
    },
    {
      "nom": "Ang Korean",
      "categorie": "Auberge",
      "priceRange": "€€",
      "mapsUrl": "https://maps.google.com/?q=13.3623535,103.8517332",
      "lat": 13.3623535,
      "lng": 103.8517332,
      "halalFriendly": false,
      "bookingUrl": "https://maps.google.com/?q=13.3623535,103.8517332",
      "source": "osm"
    },
    {
      "nom": "Okay 1 Villa",
      "categorie": "Hôtel",
      "priceRange": "€€",
      "mapsUrl": "https://maps.google.com/?q=13.3636385,103.8525889",
      "lat": 13.3636385,
      "lng": 103.8525889,
      "halalFriendly": false,
      "bookingUrl": "https://maps.google.com/?q=13.3636385,103.8525889",
      "source": "osm"
    },
    {
      "nom": "Yes Angkor Guesthouse",
      "categorie": "Hôtel",
      "priceRange": "€€",
      "mapsUrl": "https://maps.google.com/?q=13.3623065,103.8519344",
      "lat": 13.3623065,
      "lng": 103.8519344,
      "halalFriendly": false,
      "bookingUrl": "http://www.xingangkorhotel.com",
      "source": "osm"
    },
    {
      "nom": "Advisor Angkor Villa",
      "categorie": "Hôtel",
      "priceRange": "€€",
      "mapsUrl": "https://maps.google.com/?q=13.3642044,103.8529548",
      "lat": 13.3642044,
      "lng": 103.8529548,
      "halalFriendly": false,
      "bookingUrl": "https://maps.google.com/?q=13.3642044,103.8529548",
      "source": "osm"
    },
    {
      "nom": "Jasmine Family Hostel",
      "categorie": "Hôtel",
      "priceRange": "€€",
      "mapsUrl": "https://maps.google.com/?q=13.3659196,103.8534383",
      "lat": 13.3659196,
      "lng": 103.8534383,
      "halalFriendly": false,
      "bookingUrl": "https://maps.google.com/?q=13.3659196,103.8534383",
      "source": "osm"
    },
    {
      "nom": "Xiang Ankor",
      "categorie": "Hôtel",
      "priceRange": "€€",
      "mapsUrl": "https://maps.google.com/?q=13.3621826,103.8520046",
      "lat": 13.3621826,
      "lng": 103.8520046,
      "halalFriendly": false,
      "bookingUrl": "https://maps.google.com/?q=13.3621826,103.8520046",
      "source": "osm"
    },
    {
      "nom": "Tom & Jerry",
      "categorie": "Hôtel",
      "priceRange": "€€",
      "mapsUrl": "https://maps.google.com/?q=13.3622624,103.8520652",
      "lat": 13.3622624,
      "lng": 103.8520652,
      "halalFriendly": false,
      "bookingUrl": "https://maps.google.com/?q=13.3622624,103.8520652",
      "source": "osm"
    },
    {
      "nom": "Victory guesthouse",
      "categorie": "Maison d'hôtes",
      "priceRange": "€€",
      "mapsUrl": "https://maps.google.com/?q=13.3639521,103.8531249",
      "lat": 13.3639521,
      "lng": 103.8531249,
      "halalFriendly": false,
      "bookingUrl": "https://maps.google.com/?q=13.3639521,103.8531249",
      "source": "osm"
    },
    {
      "nom": "The City Premium Guesthouse",
      "categorie": "Auberge",
      "priceRange": "€€",
      "mapsUrl": "https://maps.google.com/?q=13.3656216,103.8536615",
      "lat": 13.3656216,
      "lng": 103.8536615,
      "halalFriendly": false,
      "bookingUrl": "http://city-gh.com",
      "source": "osm"
    },
    {
      "nom": "The City Premium Guest House",
      "categorie": "Maison d'hôtes",
      "priceRange": "€€",
      "mapsUrl": "https://maps.google.com/?q=13.3657552,103.8537344",
      "lat": 13.3657552,
      "lng": 103.8537344,
      "halalFriendly": false,
      "bookingUrl": "http://city-gh.com/en/",
      "source": "osm"
    },
    {
      "nom": "Angkor Ruby",
      "categorie": "Maison d'hôtes",
      "priceRange": "€€",
      "mapsUrl": "https://maps.google.com/?q=13.3621488,103.8522724",
      "lat": 13.3621488,
      "lng": 103.8522724,
      "halalFriendly": false,
      "bookingUrl": "https://maps.google.com/?q=13.3621488,103.8522724",
      "source": "osm"
    },
    {
      "nom": "Okay guesthouse",
      "categorie": "Hôtel",
      "priceRange": "€€",
      "mapsUrl": "https://maps.google.com/?q=13.3640851,103.8533633",
      "lat": 13.3640851,
      "lng": 103.8533633,
      "halalFriendly": false,
      "bookingUrl": "https://maps.google.com/?q=13.3640851,103.8533633",
      "source": "osm"
    },
    {
      "nom": "ANGKOR TIGER RESORT",
      "categorie": "Hôtel",
      "priceRange": "€€",
      "mapsUrl": "https://maps.google.com/?q=13.3686494,103.8537781",
      "lat": 13.3686494,
      "lng": 103.8537781,
      "halalFriendly": false,
      "bookingUrl": "https://maps.google.com/?q=13.3686494,103.8537781",
      "source": "osm"
    },
    {
      "nom": "Sambath Residence",
      "categorie": "Hôtel",
      "priceRange": "€€",
      "mapsUrl": "https://maps.google.com/?q=13.3752216,103.8411052",
      "lat": 13.3752216,
      "lng": 103.8411052,
      "halalFriendly": false,
      "bookingUrl": "https://maps.google.com/?q=13.3752216,103.8411052",
      "source": "osm"
    },
    {
      "nom": "Boutique Cambo Hotel",
      "categorie": "Hôtel",
      "priceRange": "€€",
      "mapsUrl": "https://maps.google.com/?q=13.3682758,103.8538892",
      "lat": 13.3682758,
      "lng": 103.8538892,
      "halalFriendly": false,
      "bookingUrl": "https://www.boutiquecambo.com/",
      "source": "osm"
    },
    {
      "nom": "Angkor Tep Guest house",
      "categorie": "Maison d'hôtes",
      "priceRange": "€€",
      "mapsUrl": "https://maps.google.com/?q=13.3641153,103.8534662",
      "lat": 13.3641153,
      "lng": 103.8534662,
      "halalFriendly": false,
      "bookingUrl": "https://maps.google.com/?q=13.3641153,103.8534662",
      "source": "osm"
    },
    {
      "nom": "Thanak Thun",
      "categorie": "Maison d'hôtes",
      "priceRange": "€€",
      "mapsUrl": "https://maps.google.com/?q=13.3599062,103.8503496",
      "lat": 13.3599062,
      "lng": 103.8503496,
      "halalFriendly": false,
      "bookingUrl": "https://maps.google.com/?q=13.3599062,103.8503496",
      "source": "osm"
    },
    {
      "nom": "Chheng Residence",
      "categorie": "Hôtel",
      "priceRange": "€€",
      "mapsUrl": "https://maps.google.com/?q=13.3591278,103.8492858",
      "lat": 13.3591278,
      "lng": 103.8492858,
      "halalFriendly": false,
      "bookingUrl": "https://chhengresidence.com/",
      "source": "osm"
    },
    {
      "nom": "Palm Garden Lodge",
      "categorie": "Hôtel",
      "priceRange": "€€",
      "mapsUrl": "https://maps.google.com/?q=13.359146,103.8494843",
      "lat": 13.359146,
      "lng": 103.8494843,
      "halalFriendly": false,
      "bookingUrl": "https://maps.google.com/?q=13.359146,103.8494843",
      "source": "osm"
    },
    {
      "nom": "Visoth Angkor Residence",
      "categorie": "Hôtel",
      "priceRange": "€€",
      "mapsUrl": "https://maps.google.com/?q=13.3579631,103.8456874",
      "lat": 13.3579631,
      "lng": 103.8456874,
      "halalFriendly": false,
      "bookingUrl": "https://maps.google.com/?q=13.3579631,103.8456874",
      "source": "osm"
    },
    {
      "nom": "MotherHome Inn",
      "categorie": "Hôtel",
      "priceRange": "€€",
      "mapsUrl": "https://maps.google.com/?q=13.363626,103.8536708",
      "lat": 13.363626,
      "lng": 103.8536708,
      "halalFriendly": false,
      "bookingUrl": "https://maps.google.com/?q=13.363626,103.8536708",
      "source": "osm"
    },
    {
      "nom": "Apsara Angkor Guesthouse",
      "categorie": "Maison d'hôtes",
      "priceRange": "€€",
      "mapsUrl": "https://maps.google.com/?q=13.363935,103.8538507",
      "lat": 13.363935,
      "lng": 103.8538507,
      "halalFriendly": false,
      "bookingUrl": "https://maps.google.com/?q=13.363935,103.8538507",
      "source": "osm"
    },
    {
      "nom": "Oral D' Angkor",
      "categorie": "Hôtel",
      "priceRange": "€€",
      "mapsUrl": "https://maps.google.com/?q=13.3588638,103.8493801",
      "lat": 13.3588638,
      "lng": 103.8493801,
      "halalFriendly": false,
      "bookingUrl": "https://maps.google.com/?q=13.3588638,103.8493801",
      "source": "osm"
    },
    {
      "nom": "Siem Reap Container House",
      "categorie": "Auberge",
      "priceRange": "€€",
      "mapsUrl": "https://maps.google.com/?q=13.3580055,103.8424835",
      "lat": 13.3580055,
      "lng": 103.8424835,
      "halalFriendly": false,
      "bookingUrl": "https://maps.google.com/?q=13.3580055,103.8424835",
      "source": "osm"
    },
    {
      "nom": "Bou Savy",
      "categorie": "Maison d'hôtes",
      "priceRange": "€€",
      "mapsUrl": "https://maps.google.com/?q=13.3654387,103.8542829",
      "lat": 13.3654387,
      "lng": 103.8542829,
      "halalFriendly": false,
      "bookingUrl": "https://maps.google.com/?q=13.3654387,103.8542829",
      "source": "osm"
    },
    {
      "nom": "Prana Hotel",
      "categorie": "Hôtel",
      "priceRange": "€€",
      "mapsUrl": "https://maps.google.com/?q=13.3746705,103.8505187",
      "lat": 13.3746705,
      "lng": 103.8505187,
      "halalFriendly": false,
      "bookingUrl": "https://maps.google.com/?q=13.3746705,103.8505187",
      "source": "osm"
    },
    {
      "nom": "Amiral",
      "categorie": "Hôtel",
      "priceRange": "€€",
      "mapsUrl": "https://maps.google.com/?q=13.3706414,103.8537911",
      "lat": 13.3706414,
      "lng": 103.8537911,
      "halalFriendly": false,
      "bookingUrl": "https://maps.google.com/?q=13.3706414,103.8537911",
      "source": "osm"
    },
    {
      "nom": "Silver Palms Residence",
      "categorie": "Hôtel",
      "priceRange": "€€",
      "mapsUrl": "https://maps.google.com/?q=13.3760726,103.8417676",
      "lat": 13.3760726,
      "lng": 103.8417676,
      "halalFriendly": false,
      "bookingUrl": "https://maps.google.com/?q=13.3760726,103.8417676",
      "source": "osm"
    },
    {
      "nom": "IKI IKI",
      "categorie": "Maison d'hôtes",
      "priceRange": "€€",
      "mapsUrl": "https://maps.google.com/?q=13.3657908,103.8544357",
      "lat": 13.3657908,
      "lng": 103.8544357,
      "halalFriendly": false,
      "bookingUrl": "https://maps.google.com/?q=13.3657908,103.8544357",
      "source": "osm"
    },
    {
      "nom": "Ta Som Guesthouse & Tour Services right location",
      "categorie": "Maison d'hôtes",
      "priceRange": "€€",
      "mapsUrl": "https://maps.google.com/?q=13.3638296,103.8540933",
      "lat": 13.3638296,
      "lng": 103.8540933,
      "halalFriendly": false,
      "bookingUrl": "https://maps.google.com/?q=13.3638296,103.8540933",
      "source": "osm"
    },
    {
      "nom": "ម្លប់ស្បូវ",
      "categorie": "Appartement",
      "priceRange": "€€",
      "mapsUrl": "https://maps.google.com/?q=13.3691889,103.8544524",
      "lat": 13.3691889,
      "lng": 103.8544524,
      "halalFriendly": false,
      "bookingUrl": "https://maps.google.com/?q=13.3691889,103.8544524",
      "source": "osm"
    },
    {
      "nom": "Vimean Angkor Pich",
      "categorie": "Hôtel",
      "priceRange": "€€",
      "mapsUrl": "https://maps.google.com/?q=13.3620798,103.8532357",
      "lat": 13.3620798,
      "lng": 103.8532357,
      "halalFriendly": false,
      "bookingUrl": "https://maps.google.com/?q=13.3620798,103.8532357",
      "source": "osm"
    },
    {
      "nom": "City Premium Guesthouse",
      "categorie": "Maison d'hôtes",
      "priceRange": "€€",
      "mapsUrl": "https://maps.google.com/?q=13.3645787,103.8543548",
      "lat": 13.3645787,
      "lng": 103.8543548,
      "halalFriendly": false,
      "bookingUrl": "https://maps.google.com/?q=13.3645787,103.8543548",
      "source": "osm"
    },
    {
      "nom": "Elma's Hotel",
      "categorie": "Hôtel",
      "priceRange": "€€",
      "mapsUrl": "https://maps.google.com/?q=13.3574617,103.8448213",
      "lat": 13.3574617,
      "lng": 103.8448213,
      "halalFriendly": false,
      "bookingUrl": "https://maps.google.com/?q=13.3574617,103.8448213",
      "source": "osm"
    },
    {
      "nom": "Les Bambous Boutique",
      "categorie": "Hôtel",
      "priceRange": "€€",
      "mapsUrl": "https://maps.google.com/?q=13.3728396,103.8368235",
      "lat": 13.3728396,
      "lng": 103.8368235,
      "halalFriendly": false,
      "bookingUrl": "https://maps.google.com/?q=13.3728396,103.8368235",
      "source": "osm"
    },
    {
      "nom": "Pura Vida Boutique",
      "categorie": "Hôtel",
      "priceRange": "€€",
      "mapsUrl": "https://maps.google.com/?q=13.3617109,103.8532181",
      "lat": 13.3617109,
      "lng": 103.8532181,
      "halalFriendly": false,
      "bookingUrl": "https://maps.google.com/?q=13.3617109,103.8532181",
      "source": "osm"
    },
    {
      "nom": "Kiri Villa",
      "categorie": "Hôtel",
      "priceRange": "€€",
      "mapsUrl": "https://maps.google.com/?q=13.3593667,103.8510894",
      "lat": 13.3593667,
      "lng": 103.8510894,
      "halalFriendly": false,
      "bookingUrl": "https://maps.google.com/?q=13.3593667,103.8510894",
      "source": "osm"
    },
    {
      "nom": "Central Boutique Angkor Hotel",
      "categorie": "Hôtel",
      "priceRange": "€€",
      "mapsUrl": "https://maps.google.com/?q=13.3605821,103.852423",
      "lat": 13.3605821,
      "lng": 103.852423,
      "halalFriendly": false,
      "bookingUrl": "https://maps.google.com/?q=13.3605821,103.852423",
      "source": "osm"
    },
    {
      "nom": "Olongpich Guest House",
      "categorie": "Maison d'hôtes",
      "priceRange": "€€",
      "mapsUrl": "https://maps.google.com/?q=13.3616154,103.8532558",
      "lat": 13.3616154,
      "lng": 103.8532558,
      "halalFriendly": false,
      "bookingUrl": "https://maps.google.com/?q=13.3616154,103.8532558",
      "source": "osm"
    },
    {
      "nom": "New Home",
      "categorie": "Auberge",
      "priceRange": "€€",
      "mapsUrl": "https://maps.google.com/?q=13.3615379,103.8532223",
      "lat": 13.3615379,
      "lng": 103.8532223,
      "halalFriendly": false,
      "bookingUrl": "https://maps.google.com/?q=13.3615379,103.8532223",
      "source": "osm"
    },
    {
      "nom": "Smiley Guest House",
      "categorie": "Maison d'hôtes",
      "priceRange": "€€",
      "mapsUrl": "https://maps.google.com/?q=13.3610158,103.8528382",
      "lat": 13.3610158,
      "lng": 103.8528382,
      "halalFriendly": false,
      "bookingUrl": "http://www.smileyguesthouse.com/",
      "source": "osm"
    },
    {
      "nom": "Angkor Pearl Hotel",
      "categorie": "Hôtel",
      "priceRange": "€€",
      "mapsUrl": "https://maps.google.com/?q=13.3619295,103.8535337",
      "lat": 13.3619295,
      "lng": 103.8535337,
      "halalFriendly": false,
      "bookingUrl": "https://www.angkorpearl.com/hotel/",
      "source": "osm"
    },
    {
      "nom": "Nika's Residence",
      "categorie": "Maison d'hôtes",
      "priceRange": "€€",
      "mapsUrl": "https://maps.google.com/?q=13.357069,103.8452357",
      "lat": 13.357069,
      "lng": 103.8452357,
      "halalFriendly": false,
      "bookingUrl": "https://ancientadventurescambodia.com/nikas-residence/",
      "source": "osm"
    },
    {
      "nom": "Molina 2 Guest House",
      "categorie": "Maison d'hôtes",
      "priceRange": "€€",
      "mapsUrl": "https://maps.google.com/?q=13.3633995,103.8544051",
      "lat": 13.3633995,
      "lng": 103.8544051,
      "halalFriendly": false,
      "bookingUrl": "https://maps.google.com/?q=13.3633995,103.8544051",
      "source": "osm"
    },
    {
      "nom": "The Khmer House Villa",
      "categorie": "Hôtel",
      "priceRange": "€€",
      "mapsUrl": "https://maps.google.com/?q=13.3579906,103.8492047",
      "lat": 13.3579906,
      "lng": 103.8492047,
      "halalFriendly": false,
      "bookingUrl": "https://maps.google.com/?q=13.3579906,103.8492047",
      "source": "osm"
    },
    {
      "nom": "Paris Angkor",
      "categorie": "Hôtel",
      "priceRange": "€€",
      "mapsUrl": "https://maps.google.com/?q=13.3629992,103.8542901",
      "lat": 13.3629992,
      "lng": 103.8542901,
      "halalFriendly": false,
      "bookingUrl": "https://maps.google.com/?q=13.3629992,103.8542901",
      "source": "osm"
    },
    {
      "nom": "Villa Sweet Angkor Boutique",
      "categorie": "Auberge",
      "priceRange": "€€",
      "mapsUrl": "https://maps.google.com/?q=13.3575697,103.8483123",
      "lat": 13.3575697,
      "lng": 103.8483123,
      "halalFriendly": false,
      "bookingUrl": "https://maps.google.com/?q=13.3575697,103.8483123",
      "source": "osm"
    },
    {
      "nom": "Angkorland Hotel",
      "categorie": "Hôtel",
      "priceRange": "€€",
      "mapsUrl": "https://maps.google.com/?q=13.3624176,103.854057",
      "lat": 13.3624176,
      "lng": 103.854057,
      "halalFriendly": false,
      "bookingUrl": "https://maps.google.com/?q=13.3624176,103.854057",
      "source": "osm"
    },
    {
      "nom": "Orient d'Angkor Hotel",
      "categorie": "Hôtel",
      "priceRange": "€€",
      "mapsUrl": "https://maps.google.com/?q=13.3756337,103.850516",
      "lat": 13.3756337,
      "lng": 103.850516,
      "halalFriendly": false,
      "bookingUrl": "https://maps.google.com/?q=13.3756337,103.850516",
      "source": "osm"
    },
    {
      "nom": "Vanneth",
      "categorie": "Hôtel",
      "priceRange": "€€",
      "mapsUrl": "https://maps.google.com/?q=13.3705456,103.8546876",
      "lat": 13.3705456,
      "lng": 103.8546876,
      "halalFriendly": false,
      "bookingUrl": "https://maps.google.com/?q=13.3705456,103.8546876",
      "source": "osm"
    },
    {
      "nom": "Angkor Palace Resort & Spa",
      "categorie": "Hôtel",
      "priceRange": "€€",
      "mapsUrl": "https://maps.google.com/?q=13.3718271,103.8354736",
      "lat": 13.3718271,
      "lng": 103.8354736,
      "halalFriendly": false,
      "bookingUrl": "https://maps.google.com/?q=13.3718271,103.8354736",
      "source": "osm"
    },
    {
      "nom": "Kingdom Angkor",
      "categorie": "Hôtel",
      "priceRange": "€€",
      "mapsUrl": "https://maps.google.com/?q=13.374275,103.8372851",
      "lat": 13.374275,
      "lng": 103.8372851,
      "halalFriendly": false,
      "bookingUrl": "https://maps.google.com/?q=13.374275,103.8372851",
      "source": "osm"
    },
    {
      "nom": "Topsky",
      "categorie": "Maison d'hôtes",
      "priceRange": "€€",
      "mapsUrl": "https://maps.google.com/?q=13.3585186,103.8506248",
      "lat": 13.3585186,
      "lng": 103.8506248,
      "halalFriendly": false,
      "bookingUrl": "https://maps.google.com/?q=13.3585186,103.8506248",
      "source": "osm"
    },
    {
      "nom": "Avatar Angkor Hotel",
      "categorie": "Hôtel",
      "priceRange": "€€",
      "mapsUrl": "https://maps.google.com/?q=13.361005,103.8533393",
      "lat": 13.361005,
      "lng": 103.8533393,
      "halalFriendly": false,
      "bookingUrl": "https://maps.google.com/?q=13.361005,103.8533393",
      "source": "osm"
    },
    {
      "nom": "Siem Reap Center Hotel",
      "categorie": "Hôtel",
      "priceRange": "€€",
      "mapsUrl": "https://maps.google.com/?q=13.3609014,103.8533023",
      "lat": 13.3609014,
      "lng": 103.8533023,
      "halalFriendly": false,
      "bookingUrl": "https://woodenangkorhotel.com/",
      "source": "osm"
    },
    {
      "nom": "Hima Boutique",
      "categorie": "Hôtel",
      "priceRange": "€€",
      "mapsUrl": "https://maps.google.com/?q=13.3609368,103.853378",
      "lat": 13.3609368,
      "lng": 103.853378,
      "halalFriendly": false,
      "bookingUrl": "https://maps.google.com/?q=13.3609368,103.853378",
      "source": "osm"
    },
    {
      "nom": "Asia Happy Guesthouse",
      "categorie": "Hôtel",
      "priceRange": "€€",
      "mapsUrl": "https://maps.google.com/?q=13.3630539,103.8546398",
      "lat": 13.3630539,
      "lng": 103.8546398,
      "halalFriendly": false,
      "bookingUrl": "https://maps.google.com/?q=13.3630539,103.8546398",
      "source": "osm"
    },
    {
      "nom": "Asia Happy Villa",
      "categorie": "Hôtel",
      "priceRange": "€€",
      "mapsUrl": "https://maps.google.com/?q=13.3632633,103.8547912",
      "lat": 13.3632633,
      "lng": 103.8547912,
      "halalFriendly": false,
      "bookingUrl": "https://maps.google.com/?q=13.3632633,103.8547912",
      "source": "osm"
    },
    {
      "nom": "Funky Flash Hostel",
      "categorie": "Auberge",
      "priceRange": "€€",
      "mapsUrl": "https://maps.google.com/?q=13.3581967,103.850555",
      "lat": 13.3581967,
      "lng": 103.850555,
      "halalFriendly": false,
      "bookingUrl": "https://maps.google.com/?q=13.3581967,103.850555",
      "source": "osm"
    },
    {
      "nom": "Sam Moon's Hotel Angkor",
      "categorie": "Hôtel",
      "priceRange": "€€",
      "mapsUrl": "https://maps.google.com/?q=13.361798,103.8541741",
      "lat": 13.361798,
      "lng": 103.8541741,
      "halalFriendly": false,
      "bookingUrl": "https://maps.google.com/?q=13.361798,103.8541741",
      "source": "osm"
    },
    {
      "nom": "Long Live Angkor Villa",
      "categorie": "Hôtel",
      "priceRange": "€€",
      "mapsUrl": "https://maps.google.com/?q=13.3624345,103.8545334",
      "lat": 13.3624345,
      "lng": 103.8545334,
      "halalFriendly": false,
      "bookingUrl": "https://maps.google.com/?q=13.3624345,103.8545334",
      "source": "osm"
    },
    {
      "nom": "Senses Suites",
      "categorie": "Auberge",
      "priceRange": "€€",
      "mapsUrl": "https://maps.google.com/?q=13.3596516,103.8524917",
      "lat": 13.3596516,
      "lng": 103.8524917,
      "halalFriendly": false,
      "bookingUrl": "https://maps.google.com/?q=13.3596516,103.8524917",
      "source": "osm"
    },
    {
      "nom": "Century Annex",
      "categorie": "Hôtel",
      "priceRange": "€€",
      "mapsUrl": "https://maps.google.com/?q=13.3663074,103.8556232",
      "lat": 13.3663074,
      "lng": 103.8556232,
      "halalFriendly": false,
      "bookingUrl": "https://maps.google.com/?q=13.3663074,103.8556232",
      "source": "osm"
    },
    {
      "nom": "Asanak D'Angkor Boutique Hotel",
      "categorie": "Hôtel",
      "priceRange": "€€",
      "mapsUrl": "https://maps.google.com/?q=13.3570312,103.8481008",
      "lat": 13.3570312,
      "lng": 103.8481008,
      "halalFriendly": false,
      "bookingUrl": "http://www.asanakdangkor.com/",
      "source": "osm"
    },
    {
      "nom": "Holy Angkor",
      "categorie": "Hôtel",
      "priceRange": "€€",
      "mapsUrl": "https://maps.google.com/?q=13.3626525,103.8546607",
      "lat": 13.3626525,
      "lng": 103.8546607,
      "halalFriendly": false,
      "bookingUrl": "https://maps.google.com/?q=13.3626525,103.8546607",
      "source": "osm"
    },
    {
      "nom": "Crystal hotel",
      "categorie": "Hôtel",
      "priceRange": "€€",
      "mapsUrl": "https://maps.google.com/?q=13.3735821,103.8361661",
      "lat": 13.3735821,
      "lng": 103.8361661,
      "halalFriendly": false,
      "bookingUrl": "https://maps.google.com/?q=13.3735821,103.8361661",
      "source": "osm"
    },
    {
      "nom": "Aroma Angkor",
      "categorie": "Hôtel",
      "priceRange": "€€",
      "mapsUrl": "https://maps.google.com/?q=13.3607473,103.8536222",
      "lat": 13.3607473,
      "lng": 103.8536222,
      "halalFriendly": false,
      "bookingUrl": "https://maps.google.com/?q=13.3607473,103.8536222",
      "source": "osm"
    },
    {
      "nom": "Khmere Maison d'Angkor",
      "categorie": "Hôtel",
      "priceRange": "€€",
      "mapsUrl": "https://maps.google.com/?q=13.3645668,103.8554667",
      "lat": 13.3645668,
      "lng": 103.8554667,
      "halalFriendly": false,
      "bookingUrl": "http://www.khmeremaisondangkor.com",
      "source": "osm"
    },
    {
      "nom": "Mad Monkey",
      "categorie": "Auberge",
      "priceRange": "€€",
      "mapsUrl": "https://maps.google.com/?q=13.3569653,103.8484327",
      "lat": 13.3569653,
      "lng": 103.8484327,
      "halalFriendly": false,
      "bookingUrl": "https://maps.google.com/?q=13.3569653,103.8484327",
      "source": "osm"
    }
  ],
  "mosqueesPrincipales": [
    {
      "id": "m395152962",
      "nom": "Al-Nikmatul",
      "type": "Mosquée",
      "adresse": "Siem Reap",
      "description": "Lieu de prière (OpenStreetMap).",
      "mapsUrl": "https://maps.google.com/?q=13.3530267,103.8487217",
      "lat": 13.3530267,
      "lng": 103.8487217,
      "source": "osm"
    },
    {
      "id": "m194617982",
      "nom": "Prasat Koh Ho",
      "type": "Mosquée",
      "adresse": "13.42209, 103.79086, Banteay Chheu, Toek Vil, Krong Siem Reap, Siem Reap province",
      "description": "Lieu de prière (OpenStreetMap).",
      "mapsUrl": "https://maps.google.com/?q=13.42209,103.7909827",
      "lat": 13.42209,
      "lng": 103.7909827,
      "source": "osm"
    },
    {
      "id": "m240141751",
      "nom": "ប្រាសាទ​បាពួន",
      "type": "Mosquée",
      "adresse": "13.44389, 103.85634, Kok Chak, Krong Siem Reap, Siem Reap province",
      "description": "Lieu de prière (OpenStreetMap).",
      "mapsUrl": "https://maps.google.com/?q=13.4437968,103.8562169",
      "lat": 13.4437968,
      "lng": 103.8562169,
      "source": "osm"
    }
  ],
  "activites": [
    {
      "id": "a4816591324",
      "nom": "ArtBox",
      "categorie": "museum",
      "description": "",
      "prix": "",
      "duree": "",
      "mapsUrl": "https://maps.google.com/?q=13.3618489,103.8320969",
      "lat": 13.3618489,
      "lng": 103.8320969,
      "source": "osm"
    },
    {
      "id": "a6349216296",
      "nom": "Garuda",
      "categorie": "monument",
      "description": "",
      "prix": "",
      "duree": "",
      "mapsUrl": "https://maps.google.com/?q=13.3612147,103.8572923",
      "lat": 13.3612147,
      "lng": 103.8572923,
      "source": "osm"
    },
    {
      "id": "a4554959791",
      "nom": "Artwork Gallery",
      "categorie": "gallery",
      "description": "",
      "prix": "",
      "duree": "",
      "mapsUrl": "https://maps.google.com/?q=13.3564104,103.8540101",
      "lat": 13.3564104,
      "lng": 103.8540101,
      "source": "osm"
    },
    {
      "id": "a786233120",
      "nom": "យាយទេព",
      "categorie": "attraction",
      "description": "",
      "prix": "",
      "duree": "",
      "mapsUrl": "https://maps.google.com/?q=13.3623122,103.8586356",
      "lat": 13.3623122,
      "lng": 103.8586356,
      "source": "osm"
    },
    {
      "id": "a322700733",
      "nom": "Angkor National Museum",
      "categorie": "museum",
      "description": "",
      "prix": "",
      "duree": "",
      "mapsUrl": "https://maps.google.com/?q=13.3663847,103.8595207",
      "lat": 13.3663847,
      "lng": 103.8595207,
      "source": "osm"
    },
    {
      "id": "a11209642783",
      "nom": "Cirque Phare",
      "categorie": "attraction",
      "description": "",
      "prix": "",
      "duree": "",
      "mapsUrl": "https://maps.google.com/?q=13.3538787,103.8389515",
      "lat": 13.3538787,
      "lng": 103.8389515,
      "source": "osm"
    },
    {
      "id": "a457433263",
      "nom": "Royal Gardens",
      "categorie": "attraction",
      "description": "",
      "prix": "",
      "duree": "",
      "mapsUrl": "https://maps.google.com/?q=13.3629326,103.8590254",
      "lat": 13.3629326,
      "lng": 103.8590254,
      "source": "osm"
    },
    {
      "id": "a1119983021",
      "nom": "Angkor Eye",
      "categorie": "theme park",
      "description": "",
      "prix": "",
      "duree": "",
      "mapsUrl": "https://maps.google.com/?q=13.3765947,103.8329785",
      "lat": 13.3765947,
      "lng": 103.8329785,
      "source": "osm"
    },
    {
      "id": "a6246267881",
      "nom": "Tribe",
      "categorie": "gallery",
      "description": "",
      "prix": "",
      "duree": "",
      "mapsUrl": "https://maps.google.com/?q=13.3570227,103.8567169",
      "lat": 13.3570227,
      "lng": 103.8567169,
      "source": "osm"
    },
    {
      "id": "a4493451289",
      "nom": "នាងនាគ",
      "categorie": "monument",
      "description": "",
      "prix": "",
      "duree": "",
      "mapsUrl": "https://maps.google.com/?q=13.3616936,103.8598813",
      "lat": 13.3616936,
      "lng": 103.8598813,
      "source": "osm"
    },
    {
      "id": "a4279278591",
      "nom": "Pub Street",
      "categorie": "attraction",
      "description": "",
      "prix": "",
      "duree": "",
      "mapsUrl": "https://maps.google.com/?q=13.3548263,103.8547837",
      "lat": 13.3548263,
      "lng": 103.8547837,
      "source": "osm"
    },
    {
      "id": "a4349322489",
      "nom": "Elephant Statue",
      "categorie": "monument",
      "description": "",
      "prix": "",
      "duree": "",
      "mapsUrl": "https://maps.google.com/?q=13.353747,103.8536932",
      "lat": 13.353747,
      "lng": 103.8536932,
      "source": "osm"
    },
    {
      "id": "a219627849",
      "nom": "Angkor Green Gardens",
      "categorie": "attraction",
      "description": "",
      "prix": "",
      "duree": "",
      "mapsUrl": "https://maps.google.com/?q=13.3747611,103.8303796",
      "lat": 13.3747611,
      "lng": 103.8303796,
      "source": "osm"
    },
    {
      "id": "a645727695",
      "nom": "Artisans d'Angkor",
      "categorie": "attraction",
      "description": "",
      "prix": "",
      "duree": "",
      "mapsUrl": "https://maps.google.com/?q=13.3526196,103.8518371",
      "lat": 13.3526196,
      "lng": 103.8518371,
      "source": "osm"
    },
    {
      "id": "a5126474304",
      "nom": "Memorial for fallen soldiers",
      "categorie": "memorial",
      "description": "",
      "prix": "",
      "duree": "",
      "mapsUrl": "https://maps.google.com/?q=13.3753899,103.8590546",
      "lat": 13.3753899,
      "lng": 103.8590546,
      "source": "osm"
    },
    {
      "id": "a6349202235",
      "nom": "Breastfeeding Woman",
      "categorie": "monument",
      "description": "",
      "prix": "",
      "duree": "",
      "mapsUrl": "https://maps.google.com/?q=13.3566659,103.8579571",
      "lat": 13.3566659,
      "lng": 103.8579571,
      "source": "osm"
    },
    {
      "id": "a4816601737",
      "nom": "Diwo Gallery 2",
      "categorie": "gallery",
      "description": "",
      "prix": "",
      "duree": "",
      "mapsUrl": "https://maps.google.com/?q=13.3531137,103.854251",
      "lat": 13.3531137,
      "lng": 103.854251,
      "source": "osm"
    },
    {
      "id": "a5201648621",
      "nom": "Brahma Statue",
      "categorie": "monument",
      "description": "",
      "prix": "",
      "duree": "",
      "mapsUrl": "https://maps.google.com/?q=13.3527869,103.8543958",
      "lat": 13.3527869,
      "lng": 103.8543958,
      "source": "osm"
    },
    {
      "id": "a785382253",
      "nom": "2",
      "categorie": "attraction",
      "description": "",
      "prix": "",
      "duree": "",
      "mapsUrl": "https://maps.google.com/?q=13.3530969,103.8549972",
      "lat": 13.3530969,
      "lng": 103.8549972,
      "source": "osm"
    },
    {
      "id": "a785382260",
      "nom": "Art Market Bridge",
      "categorie": "attraction",
      "description": "",
      "prix": "",
      "duree": "",
      "mapsUrl": "https://maps.google.com/?q=13.3525656,103.8543075",
      "lat": 13.3525656,
      "lng": 103.8543075,
      "source": "osm"
    },
    {
      "id": "a6911014885",
      "nom": "Cambodian Wax Museum",
      "categorie": "museum",
      "description": "",
      "prix": "",
      "duree": "",
      "mapsUrl": "https://maps.google.com/?q=13.3774679,103.830585",
      "lat": 13.3774679,
      "lng": 103.830585,
      "source": "osm"
    },
    {
      "id": "a191526735",
      "nom": "Old Market Bridge",
      "categorie": "attraction",
      "description": "",
      "prix": "",
      "duree": "",
      "mapsUrl": "https://maps.google.com/?q=13.3528505,103.8551153",
      "lat": 13.3528505,
      "lng": 103.8551153,
      "source": "osm"
    },
    {
      "id": "a5103774917",
      "nom": "Vishnu Roundabout",
      "categorie": "monument",
      "description": "",
      "prix": "",
      "duree": "",
      "mapsUrl": "https://maps.google.com/?q=13.3529329,103.8562613",
      "lat": 13.3529329,
      "lng": 103.8562613,
      "source": "osm"
    },
    {
      "id": "a7340937598",
      "nom": "Capicua",
      "categorie": "artwork",
      "description": "",
      "prix": "",
      "duree": "",
      "mapsUrl": "https://maps.google.com/?q=13.3546211,103.8582276",
      "lat": 13.3546211,
      "lng": 103.8582276,
      "source": "osm"
    },
    {
      "id": "a4318464900",
      "nom": "Miniature Replicas of Angkor",
      "categorie": "museum",
      "description": "",
      "prix": "",
      "duree": "",
      "mapsUrl": "https://maps.google.com/?q=13.3637515,103.8632601",
      "lat": 13.3637515,
      "lng": 103.8632601,
      "source": "osm"
    },
    {
      "id": "a8781412898",
      "nom": "The Khmer Home Hub",
      "categorie": "park",
      "description": "",
      "prix": "",
      "duree": "",
      "mapsUrl": "https://maps.google.com/?q=13.3819722,103.8575529",
      "lat": 13.3819722,
      "lng": 103.8575529,
      "source": "osm"
    },
    {
      "id": "a6165208085",
      "nom": "Sacred Dancers of Angkor",
      "categorie": "attraction",
      "description": "",
      "prix": "",
      "duree": "",
      "mapsUrl": "https://maps.google.com/?q=13.3709553,103.8650573",
      "lat": 13.3709553,
      "lng": 103.8650573,
      "source": "osm"
    },
    {
      "id": "a1765743313",
      "nom": "Angkor Conservancy",
      "categorie": "museum",
      "description": "",
      "prix": "",
      "duree": "",
      "mapsUrl": "https://maps.google.com/?q=13.373402,103.86463",
      "lat": 13.373402,
      "lng": 103.86463,
      "source": "osm"
    },
    {
      "id": "a13451247065",
      "nom": "Mortar",
      "categorie": "attraction",
      "description": "",
      "prix": "",
      "duree": "",
      "mapsUrl": "https://maps.google.com/?q=13.3851907,103.8555208",
      "lat": 13.3851907,
      "lng": 103.8555208,
      "source": "osm"
    },
    {
      "id": "a7401989780",
      "nom": "Budda",
      "categorie": "memorial",
      "description": "",
      "prix": "",
      "duree": "",
      "mapsUrl": "https://maps.google.com/?q=13.356308,103.8635191",
      "lat": 13.356308,
      "lng": 103.8635191,
      "source": "osm"
    },
    {
      "id": "a502822459",
      "nom": "Red Khmers Museum",
      "categorie": "museum",
      "description": "",
      "prix": "",
      "duree": "",
      "mapsUrl": "https://maps.google.com/?q=13.3824856,103.8601479",
      "lat": 13.3824856,
      "lng": 103.8601479,
      "source": "osm"
    },
    {
      "id": "a13294514898",
      "nom": "VIMEAN SOKHA MUSEUM",
      "categorie": "museum",
      "description": "",
      "prix": "",
      "duree": "",
      "mapsUrl": "https://maps.google.com/?q=13.3856143,103.8566458",
      "lat": 13.3856143,
      "lng": 103.8566458,
      "source": "osm"
    },
    {
      "id": "a5588481021",
      "nom": "Exposition gratuite Krousar Thmey",
      "categorie": "museum",
      "description": "",
      "prix": "",
      "duree": "",
      "mapsUrl": "https://maps.google.com/?q=13.3812447,103.8633959",
      "lat": 13.3812447,
      "lng": 103.8633959,
      "source": "osm"
    },
    {
      "id": "a11638012182",
      "nom": "Masa Studio - Damien Dufresne",
      "categorie": "gallery",
      "description": "",
      "prix": "",
      "duree": "",
      "mapsUrl": "https://maps.google.com/?q=13.3475245,103.8574112",
      "lat": 13.3475245,
      "lng": 103.8574112,
      "source": "osm"
    },
    {
      "id": "a13711280647",
      "nom": "Ostriches",
      "categorie": "attraction",
      "description": "",
      "prix": "",
      "duree": "",
      "mapsUrl": "https://maps.google.com/?q=13.3847946,103.8619149",
      "lat": 13.3847946,
      "lng": 103.8619149,
      "source": "osm"
    },
    {
      "id": "a13711286954",
      "nom": "Rabbits",
      "categorie": "attraction",
      "description": "",
      "prix": "",
      "duree": "",
      "mapsUrl": "https://maps.google.com/?q=13.3844812,103.862335",
      "lat": 13.3844812,
      "lng": 103.862335,
      "source": "osm"
    },
    {
      "id": "a13718113782",
      "nom": "Iguana",
      "categorie": "attraction",
      "description": "",
      "prix": "",
      "duree": "",
      "mapsUrl": "https://maps.google.com/?q=13.3845301,103.8623355",
      "lat": 13.3845301,
      "lng": 103.8623355,
      "source": "osm"
    },
    {
      "id": "a13711286951",
      "nom": "Geese",
      "categorie": "attraction",
      "description": "",
      "prix": "",
      "duree": "",
      "mapsUrl": "https://maps.google.com/?q=13.384709,103.8621899",
      "lat": 13.384709,
      "lng": 103.8621899,
      "source": "osm"
    },
    {
      "id": "a13711286955",
      "nom": "Guinea pigs",
      "categorie": "attraction",
      "description": "",
      "prix": "",
      "duree": "",
      "mapsUrl": "https://maps.google.com/?q=13.3845704,103.8623483",
      "lat": 13.3845704,
      "lng": 103.8623483,
      "source": "osm"
    },
    {
      "id": "a13711286971",
      "nom": "Pigeons",
      "categorie": "attraction",
      "description": "",
      "prix": "",
      "duree": "",
      "mapsUrl": "https://maps.google.com/?q=13.3847001,103.8622898",
      "lat": 13.3847001,
      "lng": 103.8622898,
      "source": "osm"
    },
    {
      "id": "a1165569951",
      "nom": "Angkor Botanical Garden",
      "categorie": "attraction",
      "description": "",
      "prix": "",
      "duree": "",
      "mapsUrl": "https://maps.google.com/?q=13.3848375,103.8622626",
      "lat": 13.3848375,
      "lng": 103.8622626,
      "source": "osm"
    },
    {
      "id": "a13711286802",
      "nom": "Ducks",
      "categorie": "attraction",
      "description": "",
      "prix": "",
      "duree": "",
      "mapsUrl": "https://maps.google.com/?q=13.3849073,103.8622719",
      "lat": 13.3849073,
      "lng": 103.8622719,
      "source": "osm"
    },
    {
      "id": "a13711286970",
      "nom": "Turtles",
      "categorie": "attraction",
      "description": "",
      "prix": "",
      "duree": "",
      "mapsUrl": "https://maps.google.com/?q=13.3843885,103.8628746",
      "lat": 13.3843885,
      "lng": 103.8628746,
      "source": "osm"
    },
    {
      "id": "a10019777477",
      "nom": "Chocolate Gardens",
      "categorie": "garden",
      "description": "",
      "prix": "",
      "duree": "",
      "mapsUrl": "https://maps.google.com/?q=13.3476859,103.8618087",
      "lat": 13.3476859,
      "lng": 103.8618087,
      "source": "osm"
    },
    {
      "id": "a13711286825",
      "nom": "Red junglefowls",
      "categorie": "attraction",
      "description": "",
      "prix": "",
      "duree": "",
      "mapsUrl": "https://maps.google.com/?q=13.3860977,103.8626927",
      "lat": 13.3860977,
      "lng": 103.8626927,
      "source": "osm"
    },
    {
      "id": "a13711286827",
      "nom": "Peacocks",
      "categorie": "attraction",
      "description": "",
      "prix": "",
      "duree": "",
      "mapsUrl": "https://maps.google.com/?q=13.3859889,103.8629323",
      "lat": 13.3859889,
      "lng": 103.8629323,
      "source": "osm"
    },
    {
      "id": "a13711286824",
      "nom": "Sopheap the Gibbon",
      "categorie": "attraction",
      "description": "",
      "prix": "",
      "duree": "",
      "mapsUrl": "https://maps.google.com/?q=13.3862292,103.8627443",
      "lat": 13.3862292,
      "lng": 103.8627443,
      "source": "osm"
    },
    {
      "id": "a13711286826",
      "nom": "White chickens",
      "categorie": "attraction",
      "description": "",
      "prix": "",
      "duree": "",
      "mapsUrl": "https://maps.google.com/?q=13.3861198,103.8629394",
      "lat": 13.3861198,
      "lng": 103.8629394,
      "source": "osm"
    },
    {
      "id": "a4816646698",
      "nom": "Angkor Artwork",
      "categorie": "gallery",
      "description": "",
      "prix": "",
      "duree": "",
      "mapsUrl": "https://maps.google.com/?q=13.3438335,103.8625848",
      "lat": 13.3438335,
      "lng": 103.8625848,
      "source": "osm"
    },
    {
      "id": "a625509562",
      "nom": "Butterfly Paradise",
      "categorie": "attraction",
      "description": "",
      "prix": "",
      "duree": "",
      "mapsUrl": "https://maps.google.com/?q=13.3505266,103.8191562",
      "lat": 13.3505266,
      "lng": 103.8191562,
      "source": "osm"
    },
    {
      "id": "a4408189191",
      "nom": "Cambodia war remnant museum",
      "categorie": "museum",
      "description": "",
      "prix": "",
      "duree": "",
      "mapsUrl": "https://maps.google.com/?q=13.3876676,103.8683079",
      "lat": 13.3876676,
      "lng": 103.8683079,
      "source": "osm"
    },
    {
      "id": "a6209774385",
      "nom": "Large Transformer Robots",
      "categorie": "attraction",
      "description": "",
      "prix": "",
      "duree": "",
      "mapsUrl": "https://maps.google.com/?q=13.3753268,103.8763139",
      "lat": 13.3753268,
      "lng": 103.8763139,
      "source": "osm"
    },
    {
      "id": "a1458766804",
      "nom": "Sokha Siem Reap Resort & Convention Center",
      "categorie": "hotel;hôtel",
      "description": "",
      "prix": "",
      "duree": "",
      "mapsUrl": "https://maps.google.com/?q=13.3773407,103.8768321",
      "lat": 13.3773407,
      "lng": 103.8768321,
      "source": "osm"
    },
    {
      "id": "a5105402650",
      "nom": "Apsara Roundabout",
      "categorie": "monument",
      "description": "",
      "prix": "",
      "duree": "",
      "mapsUrl": "https://maps.google.com/?q=13.3760774,103.8793162",
      "lat": 13.3760774,
      "lng": 103.8793162,
      "source": "osm"
    },
    {
      "id": "a4452212813",
      "nom": "MGC Asian Traditional Textiles Museum",
      "categorie": "museum",
      "description": "",
      "prix": "",
      "duree": "",
      "mapsUrl": "https://maps.google.com/?q=13.3753729,103.8802421",
      "lat": 13.3753729,
      "lng": 103.8802421,
      "source": "osm"
    },
    {
      "id": "a5730493221",
      "nom": "សារាយ",
      "categorie": "artwork",
      "description": "",
      "prix": "",
      "duree": "",
      "mapsUrl": "https://maps.google.com/?q=13.4026946,103.8508372",
      "lat": 13.4026946,
      "lng": 103.8508372,
      "source": "osm"
    },
    {
      "id": "a472292260",
      "nom": "Angkor Panorama Museum (closed)",
      "categorie": "museum",
      "description": "",
      "prix": "",
      "duree": "",
      "mapsUrl": "https://maps.google.com/?q=13.3775241,103.8807197",
      "lat": 13.3775241,
      "lng": 103.8807197,
      "source": "osm"
    },
    {
      "id": "a4841595721",
      "nom": "Silk Screen Ethical Printing Lab",
      "categorie": "attraction",
      "description": "",
      "prix": "",
      "duree": "",
      "mapsUrl": "https://maps.google.com/?q=13.3303335,103.8475804",
      "lat": 13.3303335,
      "lng": 103.8475804,
      "source": "osm"
    },
    {
      "id": "a5413926632",
      "nom": "រង្វង់មូល ជ័យវរ្ម័នទី ៧",
      "categorie": "monument",
      "description": "",
      "prix": "",
      "duree": "",
      "mapsUrl": "https://maps.google.com/?q=13.3889794,103.8142043",
      "lat": 13.3889794,
      "lng": 103.8142043,
      "source": "osm"
    },
    {
      "id": "a7328267085",
      "nom": "ព្រុំដី",
      "categorie": "viewpoint",
      "description": "",
      "prix": "",
      "duree": "",
      "mapsUrl": "https://maps.google.com/?q=13.3341356,103.8238794",
      "lat": 13.3341356,
      "lng": 103.8238794,
      "source": "osm"
    },
    {
      "id": "a6353809385",
      "nom": "NPA Explosive Detection Dog Demonstration",
      "categorie": "attraction",
      "description": "",
      "prix": "",
      "duree": "",
      "mapsUrl": "https://maps.google.com/?q=13.3987661,103.815405",
      "lat": 13.3987661,
      "lng": 103.815405,
      "source": "osm"
    },
    {
      "id": "a205078328",
      "nom": "Prasat Vat Athvea",
      "categorie": "ruins",
      "description": "",
      "prix": "",
      "duree": "",
      "mapsUrl": "https://maps.google.com/?q=13.3235298,103.8410196",
      "lat": 13.3235298,
      "lng": 103.8410196,
      "source": "osm"
    },
    {
      "id": "a4227598289",
      "nom": "House Ta Som Ceremory Prayer",
      "categorie": "memorial",
      "description": "",
      "prix": "",
      "duree": "",
      "mapsUrl": "https://maps.google.com/?q=13.332001,103.8750183",
      "lat": 13.332001,
      "lng": 103.8750183,
      "source": "osm"
    },
    {
      "id": "a4474516289",
      "nom": "Angkor Ballon",
      "categorie": "attraction",
      "description": "",
      "prix": "",
      "duree": "",
      "mapsUrl": "https://maps.google.com/?q=13.4136478,103.8500524",
      "lat": 13.4136478,
      "lng": 103.8500524,
      "source": "osm"
    },
    {
      "id": "a2479897985",
      "nom": "រូបសំណាកព្រះវិស្ណុ",
      "categorie": "artwork",
      "description": "",
      "prix": "",
      "duree": "",
      "mapsUrl": "https://maps.google.com/?q=13.4122279,103.8618092",
      "lat": 13.4122279,
      "lng": 103.8618092,
      "source": "osm"
    },
    {
      "id": "a11726991069",
      "nom": "Sunrise spot",
      "categorie": "viewpoint",
      "description": "",
      "prix": "",
      "duree": "",
      "mapsUrl": "https://maps.google.com/?q=13.4135768,103.8596037",
      "lat": 13.4135768,
      "lng": 103.8596037,
      "source": "osm"
    },
    {
      "id": "a6901036485",
      "nom": "Sunrise viewing spot",
      "categorie": "attraction",
      "description": "",
      "prix": "",
      "duree": "",
      "mapsUrl": "https://maps.google.com/?q=13.4144301,103.8565675",
      "lat": 13.4144301,
      "lng": 103.8565675,
      "source": "osm"
    },
    {
      "id": "a4436241272",
      "nom": "ច្រកទ្វារខាងត្បូង",
      "categorie": "monument",
      "description": "",
      "prix": "",
      "duree": "",
      "mapsUrl": "https://maps.google.com/?q=13.4114999,103.8669282",
      "lat": 13.4114999,
      "lng": 103.8669282,
      "source": "osm"
    },
    {
      "id": "a4773763423",
      "nom": "Gallery of a Thousand Buddhas",
      "categorie": "attraction",
      "description": "",
      "prix": "",
      "duree": "",
      "mapsUrl": "https://maps.google.com/?q=13.4121984,103.8661097",
      "lat": 13.4121984,
      "lng": 103.8661097,
      "source": "osm"
    },
    {
      "id": "a4140551398",
      "nom": "Angkor Wat Putt Miniature Golf",
      "categorie": "attraction",
      "description": "",
      "prix": "",
      "duree": "",
      "mapsUrl": "https://maps.google.com/?q=13.3238771,103.8707111",
      "lat": 13.3238771,
      "lng": 103.8707111,
      "source": "osm"
    },
    {
      "id": "a1113380295",
      "nom": "អង្គរវត្ត",
      "categorie": "attraction",
      "description": "",
      "prix": "",
      "duree": "",
      "mapsUrl": "https://maps.google.com/?q=13.4124706,103.8665738",
      "lat": 13.4124706,
      "lng": 103.8665738,
      "source": "osm"
    },
    {
      "id": "a4773763622",
      "nom": "សាលនៃអេកូ",
      "categorie": "attraction",
      "description": "",
      "prix": "",
      "duree": "",
      "mapsUrl": "https://maps.google.com/?q=13.4127348,103.8661143",
      "lat": 13.4127348,
      "lng": 103.8661143,
      "source": "osm"
    },
    {
      "id": "a7348423380",
      "nom": "ព្រះពុទ្ធមាស",
      "categorie": "memorial",
      "description": "",
      "prix": "",
      "duree": "",
      "mapsUrl": "https://maps.google.com/?q=13.4137368,103.8644022",
      "lat": 13.4137368,
      "lng": 103.8644022,
      "source": "osm"
    },
    {
      "id": "a228153343",
      "nom": "ប្រាសាទតាព្រហ្មកិល",
      "categorie": "attraction",
      "description": "",
      "prix": "",
      "duree": "",
      "mapsUrl": "https://maps.google.com/?q=13.4156969,103.8586058",
      "lat": 13.4156969,
      "lng": 103.8586058,
      "source": "osm"
    },
    {
      "id": "a7348423343",
      "nom": "ព្រះពុទ្ធ",
      "categorie": "memorial",
      "description": "",
      "prix": "",
      "duree": "",
      "mapsUrl": "https://maps.google.com/?q=13.4140749,103.8646346",
      "lat": 13.4140749,
      "lng": 103.8646346,
      "source": "osm"
    },
    {
      "id": "a4436262003",
      "nom": "ខ្លោងទ្វារខាងជើង",
      "categorie": "monument",
      "description": "",
      "prix": "",
      "duree": "",
      "mapsUrl": "https://maps.google.com/?q=13.4134276,103.866932",
      "lat": 13.4134276,
      "lng": 103.866932,
      "source": "osm"
    },
    {
      "id": "a13277118053",
      "nom": "Ice and Snow World",
      "categorie": "theme park",
      "description": "",
      "prix": "",
      "duree": "",
      "mapsUrl": "https://maps.google.com/?q=13.3564242,103.8974003",
      "lat": 13.3564242,
      "lng": 103.8974003,
      "source": "osm"
    },
    {
      "id": "a2310417051",
      "nom": "Prasat Rorng Ramong",
      "categorie": "ruins",
      "description": "",
      "prix": "",
      "duree": "",
      "mapsUrl": "https://maps.google.com/?q=13.4220593,103.8598894",
      "lat": 13.4220593,
      "lng": 103.8598894,
      "source": "osm"
    },
    {
      "id": "a9664894443",
      "nom": "តោ (ច្រកទ្វារខាងលិច)",
      "categorie": "monument",
      "description": "",
      "prix": "",
      "duree": "",
      "mapsUrl": "https://maps.google.com/?q=13.4238241,103.8537375",
      "lat": 13.4238241,
      "lng": 103.8537375,
      "source": "osm"
    },
    {
      "id": "a228284686",
      "nom": "ប្រាសាទភ្នំបាខែង",
      "categorie": "attraction",
      "description": "",
      "prix": "",
      "duree": "",
      "mapsUrl": "https://maps.google.com/?q=13.4237688,103.8561521",
      "lat": 13.4237688,
      "lng": 103.8561521,
      "source": "osm"
    },
    {
      "id": "a4553156090",
      "nom": "Bakheng",
      "categorie": "viewpoint",
      "description": "",
      "prix": "",
      "duree": "",
      "mapsUrl": "https://maps.google.com/?q=13.4235453,103.8575289",
      "lat": 13.4235453,
      "lng": 103.8575289,
      "source": "osm"
    },
    {
      "id": "a7610909485",
      "nom": "Connection point",
      "categorie": "viewpoint",
      "description": "",
      "prix": "",
      "duree": "",
      "mapsUrl": "https://maps.google.com/?q=13.31855,103.8772886",
      "lat": 13.31855,
      "lng": 103.8772886,
      "source": "osm"
    },
    {
      "id": "a9883965817",
      "nom": "ត្រពាំងខ្នារ",
      "categorie": "attraction",
      "description": "",
      "prix": "",
      "duree": "",
      "mapsUrl": "https://maps.google.com/?q=13.3396639,103.8976885",
      "lat": 13.3396639,
      "lng": 103.8976885,
      "source": "osm"
    },
    {
      "id": "a6307474886",
      "nom": "ក",
      "categorie": "viewpoint",
      "description": "",
      "prix": "",
      "duree": "",
      "mapsUrl": "https://maps.google.com/?q=13.3319865,103.8928832",
      "lat": 13.3319865,
      "lng": 103.8928832,
      "source": "osm"
    },
    {
      "id": "a526496308",
      "nom": "Watermill",
      "categorie": "attraction",
      "description": "",
      "prix": "",
      "duree": "",
      "mapsUrl": "https://maps.google.com/?q=13.4145228,103.8804088",
      "lat": 13.4145228,
      "lng": 103.8804088,
      "source": "osm"
    },
    {
      "id": "a11921220069",
      "nom": "iihk",
      "categorie": "artwork",
      "description": "",
      "prix": "",
      "duree": "",
      "mapsUrl": "https://maps.google.com/?q=13.3505245,103.903706",
      "lat": 13.3505245,
      "lng": 103.903706,
      "source": "osm"
    },
    {
      "id": "a9664894444",
      "nom": "Prasat Sâk Krâop",
      "categorie": "ruins",
      "description": "",
      "prix": "",
      "duree": "",
      "mapsUrl": "https://maps.google.com/?q=13.426234,103.8548825",
      "lat": 13.426234,
      "lng": 103.8548825,
      "source": "osm"
    },
    {
      "id": "a228153660",
      "nom": "ប្រាសាទតាយកក",
      "categorie": "ruins",
      "description": "",
      "prix": "",
      "duree": "",
      "mapsUrl": "https://maps.google.com/?q=13.4262124,103.8589276",
      "lat": 13.4262124,
      "lng": 103.8589276,
      "source": "osm"
    },
    {
      "id": "a205040958",
      "nom": "Prasat Vat Chedai",
      "categorie": "ruins",
      "description": "",
      "prix": "",
      "duree": "",
      "mapsUrl": "https://maps.google.com/?q=13.3268371,103.7972951",
      "lat": 13.3268371,
      "lng": 103.7972951,
      "source": "osm"
    },
    {
      "id": "a7263335486",
      "nom": "Sunset viewpoint",
      "categorie": "viewpoint",
      "description": "",
      "prix": "",
      "duree": "",
      "mapsUrl": "https://maps.google.com/?q=13.4270801,103.8594615",
      "lat": 13.4270801,
      "lng": 103.8594615,
      "source": "osm"
    },
    {
      "id": "a6503445285",
      "nom": "Small Lotus field",
      "categorie": "viewpoint",
      "description": "",
      "prix": "",
      "duree": "",
      "mapsUrl": "https://maps.google.com/?q=13.299578,103.8409564",
      "lat": 13.299578,
      "lng": 103.8409564,
      "source": "osm"
    },
    {
      "id": "a5694167725",
      "nom": "1",
      "categorie": "viewpoint",
      "description": "",
      "prix": "",
      "duree": "",
      "mapsUrl": "https://maps.google.com/?q=13.313535,103.8905341",
      "lat": 13.313535,
      "lng": 103.8905341,
      "source": "osm"
    },
    {
      "id": "a5322110221",
      "nom": "East Baray Platform",
      "categorie": "viewpoint",
      "description": "",
      "prix": "",
      "duree": "",
      "mapsUrl": "https://maps.google.com/?q=13.4405213,103.8369706",
      "lat": 13.4405213,
      "lng": 103.8369706,
      "source": "osm"
    },
    {
      "id": "a8407330645",
      "nom": "Dog Park and Playground",
      "categorie": "park",
      "description": "",
      "prix": "",
      "duree": "",
      "mapsUrl": "https://maps.google.com/?q=13.408025,103.7813096",
      "lat": 13.408025,
      "lng": 103.7813096,
      "source": "osm"
    },
    {
      "id": "a4419134193",
      "nom": "Lotus Farm;SAMATOA LOTUS TEXTILES",
      "categorie": "attraction",
      "description": "",
      "prix": "",
      "duree": "",
      "mapsUrl": "https://maps.google.com/?q=13.2941381,103.8314532",
      "lat": 13.2941381,
      "lng": 103.8314532,
      "source": "osm"
    }
  ],
  "scoreIndicatif": true,
  "osmEnriched": true,
  "osmEnrichedAt": "2026-06-30",
  "description_en": "Siem Reap may not be a Muslim-majority destination, but it welcomes Muslim travelers with real halal options. You'll find 11 halal restaurants and 3 mosques nearby, plus real-time prayer times and the Qibla direction — everything to explore Siem Reap, Cambodia, with peace of mind.",
  "metaDescription_en": "Halal guide to Siem Reap: 11+ halal restaurants, 3 mosques, prayer times and tips for Muslim travelers. Halal Trust Score 3.1/5.",
  "nom_en": "Siem Reap",
  "boucheries": []
}