{
 "slug": "siem-reap",
 "nom": "Siem Reap",
 "pays": "Cambodge",
 "pays_slug": "cambodge",
 "continent": "Asie",
 "region": "Cambodge",
 "coordonnees": {
  "lat": 13.3671,
  "lng": 103.8448
 },
 "codeISO": "KH",
 "score_halal": 3.1,
 "halalScore": 6.2,
 "villeNonMusulmane": true,
 "description": "Porte des temples d'Angkor. Communauté cham, mosquées et restaurants halal pour les visiteurs.",
 "metaDescription": "Porte des temples d'Angkor. Communauté cham, mosquées et restaurants halal pour les visiteurs.",
 "image": "https://upload.wikimedia.org/wikipedia/commons/9/9e/Cambodge.-_Siem_Reap%2C_Cambodge.jpg",
 "image_hero": "https://upload.wikimedia.org/wikipedia/commons/9/9e/Cambodge.-_Siem_Reap%2C_Cambodge.jpg",
 "imageCredit": "Wikimedia Commons",
 "statistiques": {
  "restaurants_halal": 11,
  "mosquees": 1,
  "hotels": 30
 },
 "infoPratique": {
  "transport": "Accessible par avion et transports en commun locaux.",
  "meilleureEpoque": "Printemps et automne (climat tempéré).",
  "conseilHalal": "Ville non-musulmane : repérez les restaurants halal certifiés et les mosquées via l'application avant votre visite."
 },
 "tags": [
  "halal",
  "ville non-musulmane",
  "asie"
 ],
 "restaurants": [
  {
   "nom": "Kebab & Falafel Time Halal & Vegan Food & Cafe",
   "type": "turkish",
   "priceRange": "€€",
   "mapsUrl": "https://maps.google.com/?q=13.3538586,103.8496251",
   "lat": 13.3538586,
   "lng": 103.8496251,
   "halalConfidence": "yes",
   "source": "osm"
  },
  {
   "nom": "Royal Theatre Restaurant",
   "type": "buffet, asian, western, apsara",
   "priceRange": "€€",
   "mapsUrl": "https://maps.google.com/?q=13.380342,103.8593835",
   "lat": 13.380342,
   "lng": 103.8593835,
   "halalConfidence": "yes",
   "source": "osm"
  },
  {
   "nom": "Deniz Vegan & Vegetarian Kitchen",
   "type": "turkish",
   "priceRange": "€€",
   "mapsUrl": "https://maps.google.com/?q=13.3568625,103.8506805",
   "lat": 13.3568625,
   "lng": 103.8506805,
   "halalConfidence": "likely",
   "source": "osm"
  },
  {
   "nom": "Sway away",
   "type": "turkish, international",
   "priceRange": "€€",
   "mapsUrl": "https://maps.google.com/?q=13.3577342,103.8529858",
   "lat": 13.3577342,
   "lng": 103.8529858,
   "halalConfidence": "likely",
   "source": "osm"
  },
  {
   "nom": "Oliveo",
   "type": "turkish",
   "priceRange": "€€",
   "mapsUrl": "https://maps.google.com/?q=13.3548501,103.8505311",
   "lat": 13.3548501,
   "lng": 103.8505311,
   "halalConfidence": "likely",
   "source": "osm"
  },
  {
   "nom": "The R.E.A.L Kebab",
   "type": "kebab",
   "priceRange": "€€",
   "mapsUrl": "https://maps.google.com/?q=13.3547025,103.8519503",
   "lat": 13.3547025,
   "lng": 103.8519503,
   "halalConfidence": "likely",
   "source": "osm"
  },
  {
   "nom": "Atmosphère",
   "type": "lebanese, local",
   "priceRange": "€€",
   "mapsUrl": "https://maps.google.com/?q=13.353768,103.851834",
   "lat": 13.353768,
   "lng": 103.851834,
   "halalConfidence": "likely",
   "source": "osm"
  },
  {
   "nom": "Mezze Bar Club",
   "type": "lebanese",
   "priceRange": "€€",
   "mapsUrl": "https://maps.google.com/?q=13.3549207,103.8541929",
   "lat": 13.3549207,
   "lng": 103.8541929,
   "halalConfidence": "likely",
   "source": "osm"
  },
  {
   "nom": "Tavern Bistro",
   "type": "arab, greek, italian pizza, lebanese",
   "priceRange": "€€",
   "mapsUrl": "https://maps.google.com/?q=13.3541119,103.8531832",
   "lat": 13.3541119,
   "lng": 103.8531832,
   "halalConfidence": "likely",
   "source": "osm"
  },
  {
   "nom": "Snow Yogurt",
   "type": "kebab",
   "priceRange": "€€",
   "mapsUrl": "https://maps.google.com/?q=13.3576877,103.8577689",
   "lat": 13.3576877,
   "lng": 103.8577689,
   "halalConfidence": "likely",
   "source": "osm"
  },
  {
   "nom": "Elia Greek Kitchen",
   "type": "greek, grill, coffee shop, fish, chicken, diner, seafood, tea, turkish, mediterranean",
   "priceRange": "€€",
   "mapsUrl": "https://maps.google.com/?q=13.3543998,103.8556116",
   "lat": 13.3543998,
   "lng": 103.8556116,
   "halalConfidence": "likely",
   "source": "osm"
  }
 ],
 "hotels": [
  {
   "nom": "Clay D'Ankor",
   "categorie": "Hôtel",
   "priceRange": "€€",
   "mapsUrl": "https://maps.google.com/?q=13.3658876,103.8447487",
   "lat": 13.3658876,
   "lng": 103.8447487,
   "halalFriendly": false,
   "bookingUrl": "https://maps.google.com/?q=13.3658876,103.8447487",
   "source": "osm"
  },
  {
   "nom": "Earthwalkers",
   "categorie": "Maison d'hôtes",
   "priceRange": "€€",
   "mapsUrl": "https://maps.google.com/?q=13.3685509,103.8436665",
   "lat": 13.3685509,
   "lng": 103.8436665,
   "halalFriendly": false,
   "bookingUrl": "https://maps.google.com/?q=13.3685509,103.8436665",
   "source": "osm"
  },
  {
   "nom": "Rotha Guest House",
   "categorie": "Maison d'hôtes",
   "priceRange": "€€",
   "mapsUrl": "https://maps.google.com/?q=13.3688209,103.8458628",
   "lat": 13.3688209,
   "lng": 103.8458628,
   "halalFriendly": false,
   "bookingUrl": "https://maps.google.com/?q=13.3688209,103.8458628",
   "source": "osm"
  },
  {
   "nom": "Khemara Hotel & Spa",
   "categorie": "Hôtel",
   "priceRange": "€€",
   "mapsUrl": "https://maps.google.com/?q=13.3675938,103.8469637",
   "lat": 13.3675938,
   "lng": 103.8469637,
   "halalFriendly": false,
   "bookingUrl": "https://maps.google.com/?q=13.3675938,103.8469637",
   "source": "osm"
  },
  {
   "nom": "Kouprey",
   "categorie": "Hôtel",
   "priceRange": "€€",
   "mapsUrl": "https://maps.google.com/?q=13.368677,103.8427374",
   "lat": 13.368677,
   "lng": 103.8427374,
   "halalFriendly": false,
   "bookingUrl": "https://maps.google.com/?q=13.368677,103.8427374",
   "source": "osm"
  },
  {
   "nom": "Somreth Por Apartment",
   "categorie": "Maison d'hôtes",
   "priceRange": "€€",
   "mapsUrl": "https://maps.google.com/?q=13.3644097,103.8464296",
   "lat": 13.3644097,
   "lng": 103.8464296,
   "halalFriendly": false,
   "bookingUrl": "https://maps.google.com/?q=13.3644097,103.8464296",
   "source": "osm"
  },
  {
   "nom": "Phum Khmer Lodge",
   "categorie": "Hôtel",
   "priceRange": "€€",
   "mapsUrl": "https://maps.google.com/?q=13.3643547,103.843031",
   "lat": 13.3643547,
   "lng": 103.843031,
   "halalFriendly": false,
   "bookingUrl": "https://maps.google.com/?q=13.3643547,103.843031",
   "source": "osm"
  },
  {
   "nom": "Angkor Grant Pleasure",
   "categorie": "Hôtel",
   "priceRange": "€€",
   "mapsUrl": "https://maps.google.com/?q=13.3684093,103.8481496",
   "lat": 13.3684093,
   "lng": 103.8481496,
   "halalFriendly": false,
   "bookingUrl": "https://maps.google.com/?q=13.3684093,103.8481496",
   "source": "osm"
  },
  {
   "nom": "Sophorn Malin Guest House",
   "categorie": "Maison d'hôtes",
   "priceRange": "€€",
   "mapsUrl": "https://maps.google.com/?q=13.3708721,103.8429839",
   "lat": 13.3708721,
   "lng": 103.8429839,
   "halalFriendly": false,
   "bookingUrl": "https://maps.google.com/?q=13.3708721,103.8429839",
   "source": "osm"
  },
  {
   "nom": "Rom Doul Siem Reap Guest house",
   "categorie": "Maison d'hôtes",
   "priceRange": "€€",
   "mapsUrl": "https://maps.google.com/?q=13.3679754,103.8490506",
   "lat": 13.3679754,
   "lng": 103.8490506,
   "halalFriendly": false,
   "bookingUrl": "https://maps.google.com/?q=13.3679754,103.8490506",
   "source": "osm"
  },
  {
   "nom": "pos . edoor",
   "categorie": "Hôtel",
   "priceRange": "€€",
   "mapsUrl": "https://maps.google.com/?q=13.3643028,103.8483711",
   "lat": 13.3643028,
   "lng": 103.8483711,
   "halalFriendly": false,
   "bookingUrl": "https://maps.google.com/?q=13.3643028,103.8483711",
   "source": "osm"
  },
  {
   "nom": "My Friend Boutique Hotel",
   "categorie": "Hôtel",
   "priceRange": "€€",
   "mapsUrl": "https://maps.google.com/?q=13.3703617,103.8412476",
   "lat": 13.3703617,
   "lng": 103.8412476,
   "halalFriendly": false,
   "bookingUrl": "www.myfriendboutique.com",
   "source": "osm"
  },
  {
   "nom": "POV MEAN CHEY GUESTHOUSE",
   "categorie": "Auberge",
   "priceRange": "€€",
   "mapsUrl": "https://maps.google.com/?q=13.363113,103.8474856",
   "lat": 13.363113,
   "lng": 103.8474856,
   "halalFriendly": false,
   "bookingUrl": "https://maps.google.com/?q=13.363113,103.8474856",
   "source": "osm"
  },
  {
   "nom": "Goldiana Angkor Hotel",
   "categorie": "Hôtel",
   "priceRange": "€€",
   "mapsUrl": "https://maps.google.com/?q=13.3682963,103.8495638",
   "lat": 13.3682963,
   "lng": 103.8495638,
   "halalFriendly": false,
   "bookingUrl": "http://goldiana.com/sr/goldiana_angkor/site/?p=home",
   "source": "osm"
  },
  {
   "nom": "Apsara Holiday",
   "categorie": "Hôtel",
   "priceRange": "€€",
   "mapsUrl": "https://maps.google.com/?q=13.3711533,103.8419162",
   "lat": 13.3711533,
   "lng": 103.8419162,
   "halalFriendly": false,
   "bookingUrl": "https://maps.google.com/?q=13.3711533,103.8419162",
   "source": "osm"
  },
  {
   "nom": "Pidor Pich",
   "categorie": "Maison d'hôtes",
   "priceRange": "€€",
   "mapsUrl": "https://maps.google.com/?q=13.3631398,103.8479148",
   "lat": 13.3631398,
   "lng": 103.8479148,
   "halalFriendly": false,
   "bookingUrl": "https://maps.google.com/?q=13.3631398,103.8479148",
   "source": "osm"
  },
  {
   "nom": "Family Hostel",
   "categorie": "Auberge",
   "priceRange": "€€",
   "mapsUrl": "https://maps.google.com/?q=13.3721384,103.8453143",
   "lat": 13.3721384,
   "lng": 103.8453143,
   "halalFriendly": false,
   "bookingUrl": "https://maps.google.com/?q=13.3721384,103.8453143",
   "source": "osm"
  },
  {
   "nom": "Prum Bayon Hotel",
   "categorie": "Hôtel",
   "priceRange": "€€",
   "mapsUrl": "https://maps.google.com/?q=13.3663683,103.8499792",
   "lat": 13.3663683,
   "lng": 103.8499792,
   "halalFriendly": false,
   "bookingUrl": "https://maps.google.com/?q=13.3663683,103.8499792",
   "source": "osm"
  },
  {
   "nom": "Cambada d'Angkor Suite",
   "categorie": "Hôtel",
   "priceRange": "€€",
   "mapsUrl": "https://maps.google.com/?q=13.3673238,103.8500393",
   "lat": 13.3673238,
   "lng": 103.8500393,
   "halalFriendly": false,
   "bookingUrl": "https://maps.google.com/?q=13.3673238,103.8500393",
   "source": "osm"
  },
  {
   "nom": "The glory guest house spa",
   "categorie": "Maison d'hôtes",
   "priceRange": "€€",
   "mapsUrl": "https://maps.google.com/?q=13.3630799,103.848216",
   "lat": 13.3630799,
   "lng": 103.848216,
   "halalFriendly": false,
   "bookingUrl": "https://maps.google.com/?q=13.3630799,103.848216",
   "source": "osm"
  },
  {
   "nom": "Monoreach Hotel",
   "categorie": "Hôtel",
   "priceRange": "€€",
   "mapsUrl": "https://maps.google.com/?q=13.3719438,103.8425466",
   "lat": 13.3719438,
   "lng": 103.8425466,
   "halalFriendly": false,
   "bookingUrl": "https://maps.google.com/?q=13.3719438,103.8425466",
   "source": "osm"
  },
  {
   "nom": "Sakmut Boutique Hotel & Spa",
   "categorie": "Hôtel",
   "priceRange": "€€€€",
   "score": 4,
   "mapsUrl": "https://maps.google.com/?q=13.3723633,103.8435033",
   "lat": 13.3723633,
   "lng": 103.8435033,
   "halalFriendly": false,
   "bookingUrl": "https://maps.google.com/?q=13.3723633,103.8435033",
   "source": "osm"
  },
  {
   "nom": "Lotus Blanc Resort",
   "categorie": "Hôtel",
   "priceRange": "€€",
   "mapsUrl": "https://maps.google.com/?q=13.3714309,103.8414407",
   "lat": 13.3714309,
   "lng": 103.8414407,
   "halalFriendly": false,
   "bookingUrl": "https://maps.google.com/?q=13.3714309,103.8414407",
   "source": "osm"
  },
  {
   "nom": "ABACUS Hotel",
   "categorie": "Hôtel",
   "priceRange": "€€",
   "mapsUrl": "https://maps.google.com/?q=13.3679403,103.8504038",
   "lat": 13.3679403,
   "lng": 103.8504038,
   "halalFriendly": false,
   "bookingUrl": "https://maps.google.com/?q=13.3679403,103.8504038",
   "source": "osm"
  },
  {
   "nom": "Royal Empire",
   "categorie": "Hôtel",
   "priceRange": "€€",
   "mapsUrl": "https://maps.google.com/?q=13.3720689,103.8423316",
   "lat": 13.3720689,
   "lng": 103.8423316,
   "halalFriendly": false,
   "bookingUrl": "https://maps.google.com/?q=13.3720689,103.8423316",
   "source": "osm"
  },
  {
   "nom": "Angkor Hotel",
   "categorie": "Hôtel",
   "priceRange": "€€",
   "mapsUrl": "https://maps.google.com/?q=13.3671558,103.8507099",
   "lat": 13.3671558,
   "lng": 103.8507099,
   "halalFriendly": false,
   "bookingUrl": "https://maps.google.com/?q=13.3671558,103.8507099",
   "source": "osm"
  },
  {
   "nom": "Kiri Residence",
   "categorie": "Hôtel",
   "priceRange": "€€",
   "mapsUrl": "https://maps.google.com/?q=13.3728265,103.8462574",
   "lat": 13.3728265,
   "lng": 103.8462574,
   "halalFriendly": false,
   "bookingUrl": "https://maps.google.com/?q=13.3728265,103.8462574",
   "source": "osm"
  },
  {
   "nom": "The Mount Apartment",
   "categorie": "Hôtel",
   "priceRange": "€€",
   "mapsUrl": "https://maps.google.com/?q=13.3645262,103.8502773",
   "lat": 13.3645262,
   "lng": 103.8502773,
   "halalFriendly": false,
   "bookingUrl": "https://maps.google.com/?q=13.3645262,103.8502773",
   "source": "osm"
  },
  {
   "nom": "Adan World Hostel",
   "categorie": "Auberge",
   "priceRange": "€€",
   "mapsUrl": "https://maps.google.com/?q=13.3649571,103.8504907",
   "lat": 13.3649571,
   "lng": 103.8504907,
   "halalFriendly": false,
   "bookingUrl": "https://maps.google.com/?q=13.3649571,103.8504907",
   "source": "osm"
  },
  {
   "nom": "J's Links Angkor Boutique Hotel",
   "categorie": "Hôtel",
   "priceRange": "€€",
   "mapsUrl": "https://maps.google.com/?q=13.3682999,103.850978",
   "lat": 13.3682999,
   "lng": 103.850978,
   "halalFriendly": false,
   "bookingUrl": "https://maps.google.com/?q=13.3682999,103.850978",
   "source": "osm"
  }
 ],
 "mosqueesPrincipales": [
  {
   "id": "m395152962",
   "nom": "Al-Nikmatul",
   "type": "Mosquée",
   "adresse": "Siem Reap",
   "description": "Lieu de prière (OpenStreetMap).",
   "mapsUrl": "https://maps.google.com/?q=13.3530267,103.8487217",
   "lat": 13.3530267,
   "lng": 103.8487217,
   "source": "osm"
  }
 ],
 "activites": [
  {
   "id": "a4816591324",
   "nom": "ArtBox",
   "categorie": "museum",
   "description": "",
   "prix": "",
   "duree": "",
   "mapsUrl": "https://maps.google.com/?q=13.3618489,103.8320969",
   "lat": 13.3618489,
   "lng": 103.8320969,
   "source": "osm"
  },
  {
   "id": "a6349216296",
   "nom": "Garuda",
   "categorie": "monument",
   "description": "",
   "prix": "",
   "duree": "",
   "mapsUrl": "https://maps.google.com/?q=13.3612147,103.8572923",
   "lat": 13.3612147,
   "lng": 103.8572923,
   "source": "osm"
  },
  {
   "id": "a4554959791",
   "nom": "Artwork Gallery",
   "categorie": "gallery",
   "description": "",
   "prix": "",
   "duree": "",
   "mapsUrl": "https://maps.google.com/?q=13.3564104,103.8540101",
   "lat": 13.3564104,
   "lng": 103.8540101,
   "source": "osm"
  },
  {
   "id": "a786233120",
   "nom": "យាយទេព",
   "categorie": "attraction",
   "description": "",
   "prix": "",
   "duree": "",
   "mapsUrl": "https://maps.google.com/?q=13.3623122,103.8586356",
   "lat": 13.3623122,
   "lng": 103.8586356,
   "source": "osm"
  },
  {
   "id": "a322700733",
   "nom": "Angkor National Museum",
   "categorie": "museum",
   "description": "",
   "prix": "",
   "duree": "",
   "mapsUrl": "https://maps.google.com/?q=13.3663847,103.8595207",
   "lat": 13.3663847,
   "lng": 103.8595207,
   "source": "osm"
  },
  {
   "id": "a11209642783",
   "nom": "Cirque Phare",
   "categorie": "attraction",
   "description": "",
   "prix": "",
   "duree": "",
   "mapsUrl": "https://maps.google.com/?q=13.3538787,103.8389515",
   "lat": 13.3538787,
   "lng": 103.8389515,
   "source": "osm"
  },
  {
   "id": "a457433263",
   "nom": "Royal Gardens",
   "categorie": "attraction",
   "description": "",
   "prix": "",
   "duree": "",
   "mapsUrl": "https://maps.google.com/?q=13.3629326,103.8590254",
   "lat": 13.3629326,
   "lng": 103.8590254,
   "source": "osm"
  },
  {
   "id": "a6246267881",
   "nom": "Tribe",
   "categorie": "gallery",
   "description": "",
   "prix": "",
   "duree": "",
   "mapsUrl": "https://maps.google.com/?q=13.3570227,103.8567169",
   "lat": 13.3570227,
   "lng": 103.8567169,
   "source": "osm"
  },
  {
   "id": "a4493451289",
   "nom": "នាងនាគ",
   "categorie": "monument",
   "description": "",
   "prix": "",
   "duree": "",
   "mapsUrl": "https://maps.google.com/?q=13.3616936,103.8598813",
   "lat": 13.3616936,
   "lng": 103.8598813,
   "source": "osm"
  },
  {
   "id": "a4279278591",
   "nom": "Pub Street",
   "categorie": "attraction",
   "description": "",
   "prix": "",
   "duree": "",
   "mapsUrl": "https://maps.google.com/?q=13.3548263,103.8547837",
   "lat": 13.3548263,
   "lng": 103.8547837,
   "source": "osm"
  },
  {
   "id": "a4349322489",
   "nom": "Elephant Statue",
   "categorie": "monument",
   "description": "",
   "prix": "",
   "duree": "",
   "mapsUrl": "https://maps.google.com/?q=13.353747,103.8536932",
   "lat": 13.353747,
   "lng": 103.8536932,
   "source": "osm"
  },
  {
   "id": "a219627849",
   "nom": "Angkor Green Gardens",
   "categorie": "attraction",
   "description": "",
   "prix": "",
   "duree": "",
   "mapsUrl": "https://maps.google.com/?q=13.3747611,103.8303796",
   "lat": 13.3747611,
   "lng": 103.8303796,
   "source": "osm"
  },
  {
   "id": "a645727695",
   "nom": "Artisans d'Angkor",
   "categorie": "attraction",
   "description": "",
   "prix": "",
   "duree": "",
   "mapsUrl": "https://maps.google.com/?q=13.3526196,103.8518371",
   "lat": 13.3526196,
   "lng": 103.8518371,
   "source": "osm"
  },
  {
   "id": "a5126474304",
   "nom": "Memorial for fallen soldiers",
   "categorie": "memorial",
   "description": "",
   "prix": "",
   "duree": "",
   "mapsUrl": "https://maps.google.com/?q=13.3753899,103.8590546",
   "lat": 13.3753899,
   "lng": 103.8590546,
   "source": "osm"
  },
  {
   "id": "a6349202235",
   "nom": "Breastfeeding Woman",
   "categorie": "monument",
   "description": "",
   "prix": "",
   "duree": "",
   "mapsUrl": "https://maps.google.com/?q=13.3566659,103.8579571",
   "lat": 13.3566659,
   "lng": 103.8579571,
   "source": "osm"
  },
  {
   "id": "a4816601737",
   "nom": "Diwo Gallery 2",
   "categorie": "gallery",
   "description": "",
   "prix": "",
   "duree": "",
   "mapsUrl": "https://maps.google.com/?q=13.3531137,103.854251",
   "lat": 13.3531137,
   "lng": 103.854251,
   "source": "osm"
  },
  {
   "id": "a5201648621",
   "nom": "Brahma Statue",
   "categorie": "monument",
   "description": "",
   "prix": "",
   "duree": "",
   "mapsUrl": "https://maps.google.com/?q=13.3527869,103.8543958",
   "lat": 13.3527869,
   "lng": 103.8543958,
   "source": "osm"
  },
  {
   "id": "a785382253",
   "nom": "2",
   "categorie": "attraction",
   "description": "",
   "prix": "",
   "duree": "",
   "mapsUrl": "https://maps.google.com/?q=13.3530969,103.8549972",
   "lat": 13.3530969,
   "lng": 103.8549972,
   "source": "osm"
  },
  {
   "id": "a785382260",
   "nom": "Art Market Bridge",
   "categorie": "attraction",
   "description": "",
   "prix": "",
   "duree": "",
   "mapsUrl": "https://maps.google.com/?q=13.3525656,103.8543075",
   "lat": 13.3525656,
   "lng": 103.8543075,
   "source": "osm"
  },
  {
   "id": "a6911014885",
   "nom": "Cambodian Wax Museum",
   "categorie": "museum",
   "description": "",
   "prix": "",
   "duree": "",
   "mapsUrl": "https://maps.google.com/?q=13.3774679,103.830585",
   "lat": 13.3774679,
   "lng": 103.830585,
   "source": "osm"
  },
  {
   "id": "a191526708",
   "nom": "Art Market Bridge",
   "categorie": "attraction",
   "description": "",
   "prix": "",
   "duree": "",
   "mapsUrl": "https://maps.google.com/?q=13.3524575,103.8543594",
   "lat": 13.3524575,
   "lng": 103.8543594,
   "source": "osm"
  },
  {
   "id": "a191526735",
   "nom": "Old Market Bridge",
   "categorie": "attraction",
   "description": "",
   "prix": "",
   "duree": "",
   "mapsUrl": "https://maps.google.com/?q=13.3528505,103.8551153",
   "lat": 13.3528505,
   "lng": 103.8551153,
   "source": "osm"
  },
  {
   "id": "a5103774917",
   "nom": "Vishnu Roundabout",
   "categorie": "monument",
   "description": "",
   "prix": "",
   "duree": "",
   "mapsUrl": "https://maps.google.com/?q=13.3529329,103.8562613",
   "lat": 13.3529329,
   "lng": 103.8562613,
   "source": "osm"
  },
  {
   "id": "a4318464900",
   "nom": "Miniature Replicas of Angkor",
   "categorie": "museum",
   "description": "",
   "prix": "",
   "duree": "",
   "mapsUrl": "https://maps.google.com/?q=13.3637515,103.8632601",
   "lat": 13.3637515,
   "lng": 103.8632601,
   "source": "osm"
  },
  {
   "id": "a6165208085",
   "nom": "Sacred Dancers of Angkor",
   "categorie": "attraction",
   "description": "",
   "prix": "",
   "duree": "",
   "mapsUrl": "https://maps.google.com/?q=13.3709553,103.8650573",
   "lat": 13.3709553,
   "lng": 103.8650573,
   "source": "osm"
  },
  {
   "id": "a1765743313",
   "nom": "Angkor Conservancy",
   "categorie": "museum",
   "description": "",
   "prix": "",
   "duree": "",
   "mapsUrl": "https://maps.google.com/?q=13.373402,103.86463",
   "lat": 13.373402,
   "lng": 103.86463,
   "source": "osm"
  },
  {
   "id": "a13451247065",
   "nom": "Mortar",
   "categorie": "attraction",
   "description": "",
   "prix": "",
   "duree": "",
   "mapsUrl": "https://maps.google.com/?q=13.3851907,103.8555208",
   "lat": 13.3851907,
   "lng": 103.8555208,
   "source": "osm"
  },
  {
   "id": "a7401989780",
   "nom": "Budda",
   "categorie": "memorial",
   "description": "",
   "prix": "",
   "duree": "",
   "mapsUrl": "https://maps.google.com/?q=13.356308,103.8635191",
   "lat": 13.356308,
   "lng": 103.8635191,
   "source": "osm"
  },
  {
   "id": "a7401989778",
   "nom": "Budda",
   "categorie": "memorial",
   "description": "",
   "prix": "",
   "duree": "",
   "mapsUrl": "https://maps.google.com/?q=13.3565001,103.8636622",
   "lat": 13.3565001,
   "lng": 103.8636622,
   "source": "osm"
  },
  {
   "id": "a7402006216",
   "nom": "Budda",
   "categorie": "memorial",
   "description": "",
   "prix": "",
   "duree": "",
   "mapsUrl": "https://maps.google.com/?q=13.3562015,103.8636101",
   "lat": 13.3562015,
   "lng": 103.8636101,
   "source": "osm"
  }
 ],
 "scoreIndicatif": true,
 "osmEnriched": true,
 "osmEnrichedAt": "2026-06-30"
}
