{
  "slug": "sousse",
  "nom": "Sousse",
  "pays": "Tunisie",
  "pays_slug": "tunisie",
  "continent": "Afrique",
  "region": "Afrique du Nord",
  "coordonnees": {
    "lat": 35.8256,
    "lng": 10.6369
  },
  "codeISO": "",
  "score_halal": 4.5,
  "halalScore": 9,
  "description": "'Perle du Sahel' tunisien, Sousse possède une médina classée UNESCO avec sa grande mosquée et son ribat, le long de plages méditerranéennes.",
  "image": "https://upload.wikimedia.org/wikipedia/commons/thumb/9/9e/Mus%C3%A9e_arch%C3%A9logique_de_Sousse%2C_Tunisie%2C_9_f%C3%A9vrier_2023%2C_ZVE02124.jpg/1920px-Mus%C3%A9e_arch%C3%A9logique_de_Sousse%2C_Tunisie%2C_9_f%C3%A9vrier_2023%2C_ZVE02124.jpg",
  "image_hero": "https://upload.wikimedia.org/wikipedia/commons/thumb/9/9e/Mus%C3%A9e_arch%C3%A9logique_de_Sousse%2C_Tunisie%2C_9_f%C3%A9vrier_2023%2C_ZVE02124.jpg/1920px-Mus%C3%A9e_arch%C3%A9logique_de_Sousse%2C_Tunisie%2C_9_f%C3%A9vrier_2023%2C_ZVE02124.jpg",
  "metaDescription": "'Perle du Sahel' tunisien, Sousse possède une médina classée UNESCO avec sa grande mosquée et son ribat, le long de plages méditerranéennes.",
  "statistiques": {
    "restaurants_halal": 5,
    "mosquees": 1,
    "hotels": 93
  },
  "infoPratique": {
    "transport": "Accessible par avion / transports locaux.",
    "meilleureEpoque": "Printemps et automne."
  },
  "tags": [
    "halal"
  ],
  "restaurants": [
    {
      "nom": "KFC Sousse Vicomte",
      "type": "burger",
      "priceRange": "€€",
      "mapsUrl": "https://maps.google.com/?q=35.8475346,10.6185512",
      "lat": 35.8475346,
      "lng": 10.6185512,
      "halalConfidence": "yes",
      "source": "osm"
    },
    {
      "nom": "WONDERFOOD",
      "type": "pizza, sandwich, chicken, regional, kebab",
      "priceRange": "€€",
      "mapsUrl": "https://maps.google.com/?q=35.8140167,10.6233646",
      "lat": 35.8140167,
      "lng": 10.6233646,
      "halalConfidence": "likely",
      "source": "osm"
    },
    {
      "nom": "مشاوي الغزالي",
      "type": "turkish",
      "priceRange": "€€",
      "mapsUrl": "https://maps.google.com/?q=35.8127525,10.605972",
      "lat": 35.8127525,
      "lng": 10.605972,
      "halalConfidence": "likely",
      "source": "osm"
    },
    {
      "nom": "Tacos fastfood",
      "type": "pizza, burger, kebab, fast food",
      "priceRange": "€€",
      "mapsUrl": "https://maps.google.com/?q=35.7536721,10.7152391",
      "lat": 35.7536721,
      "lng": 10.7152391,
      "halalConfidence": "likely",
      "source": "osm"
    },
    {
      "nom": "pizzaria ayouni",
      "type": "burger, fish, sandwich, pasta, pizza, chicken, italian pizza, kebab",
      "priceRange": "€€",
      "mapsUrl": "https://maps.google.com/?q=35.735121,10.5776926",
      "lat": 35.735121,
      "lng": 10.5776926,
      "halalConfidence": "likely",
      "source": "osm"
    }
  ],
  "hotels": [
    {
      "nom": "Hotel Gabes",
      "categorie": "Hôtel",
      "priceRange": "€€",
      "mapsUrl": "https://maps.google.com/?q=35.8261374,10.6391774",
      "lat": 35.8261374,
      "lng": 10.6391774,
      "halalFriendly": false,
      "bookingUrl": "https://maps.google.com/?q=35.8261374,10.6391774",
      "source": "osm"
    },
    {
      "nom": "فندق المدينة",
      "categorie": "Hôtel",
      "priceRange": "€€",
      "mapsUrl": "https://maps.google.com/?q=35.8264234,10.6394085",
      "lat": 35.8264234,
      "lng": 10.6394085,
      "halalFriendly": false,
      "bookingUrl": "hotel-Medina.com",
      "source": "osm"
    },
    {
      "nom": "أميرة",
      "categorie": "Hôtel",
      "priceRange": "€€",
      "mapsUrl": "https://maps.google.com/?q=35.8249944,10.6396723",
      "lat": 35.8249944,
      "lng": 10.6396723,
      "halalFriendly": false,
      "bookingUrl": "https://maps.google.com/?q=35.8249944,10.6396723",
      "source": "osm"
    },
    {
      "nom": "emira hotel",
      "categorie": "Hôtel",
      "priceRange": "€€",
      "mapsUrl": "https://maps.google.com/?q=35.8255327,10.6398663",
      "lat": 35.8255327,
      "lng": 10.6398663,
      "halalFriendly": false,
      "bookingUrl": "https://maps.google.com/?q=35.8255327,10.6398663",
      "source": "osm"
    },
    {
      "nom": "Dar Antonia",
      "categorie": "Hôtel",
      "priceRange": "€€",
      "mapsUrl": "https://maps.google.com/?q=35.8236875,10.6393256",
      "lat": 35.8236875,
      "lng": 10.6393256,
      "halalFriendly": false,
      "bookingUrl": "https://maps.google.com/?q=35.8236875,10.6393256",
      "source": "osm"
    },
    {
      "nom": "Hôtel Paris",
      "categorie": "Hôtel",
      "priceRange": "€€",
      "mapsUrl": "https://maps.google.com/?q=35.8281663,10.6397227",
      "lat": 35.8281663,
      "lng": 10.6397227,
      "halalFriendly": false,
      "bookingUrl": "https://maps.google.com/?q=35.8281663,10.6397227",
      "source": "osm"
    },
    {
      "nom": "كلاريدج",
      "categorie": "Hôtel",
      "priceRange": "€€",
      "mapsUrl": "https://maps.google.com/?q=35.8300642,10.6403721",
      "lat": 35.8300642,
      "lng": 10.6403721,
      "halalFriendly": false,
      "bookingUrl": "https://maps.google.com/?q=35.8300642,10.6403721",
      "source": "osm"
    },
    {
      "nom": "Hotel Residence Momia",
      "categorie": "Hôtel",
      "priceRange": "€€",
      "mapsUrl": "https://maps.google.com/?q=35.8307152,10.6398371",
      "lat": 35.8307152,
      "lng": 10.6398371,
      "halalFriendly": false,
      "bookingUrl": "https://maps.google.com/?q=35.8307152,10.6398371",
      "source": "osm"
    },
    {
      "nom": "سوس بالاس",
      "categorie": "Hôtel",
      "priceRange": "€€",
      "mapsUrl": "https://maps.google.com/?q=35.8309135,10.6416093",
      "lat": 35.8309135,
      "lng": 10.6416093,
      "halalFriendly": false,
      "bookingUrl": "http://www.shdthotels.com/index.php/soussepalace",
      "source": "osm"
    },
    {
      "nom": "نزل رويال",
      "categorie": "Hôtel",
      "priceRange": "€€",
      "mapsUrl": "https://maps.google.com/?q=35.8338699,10.638403",
      "lat": 35.8338699,
      "lng": 10.638403,
      "halalFriendly": false,
      "bookingUrl": "https://maps.google.com/?q=35.8338699,10.638403",
      "source": "osm"
    },
    {
      "nom": "دار الكرى",
      "categorie": "Appartement",
      "priceRange": "€€",
      "mapsUrl": "https://maps.google.com/?q=35.8167019,10.6393672",
      "lat": 35.8167019,
      "lng": 10.6393672,
      "halalFriendly": false,
      "bookingUrl": "https://maps.google.com/?q=35.8167019,10.6393672",
      "source": "osm"
    },
    {
      "nom": "Justinia",
      "categorie": "Hôtel",
      "priceRange": "€€€",
      "score": 3,
      "mapsUrl": "https://maps.google.com/?q=35.8351826,10.637678",
      "lat": 35.8351826,
      "lng": 10.637678,
      "halalFriendly": false,
      "bookingUrl": "http://www.justinia.com.tn/",
      "source": "osm"
    },
    {
      "nom": "El Faracha",
      "categorie": "Hôtel",
      "priceRange": "€€€",
      "score": 3,
      "mapsUrl": "https://maps.google.com/?q=35.8352283,10.6363428",
      "lat": 35.8352283,
      "lng": 10.6363428,
      "halalFriendly": false,
      "bookingUrl": "https://maps.google.com/?q=35.8352283,10.6363428",
      "source": "osm"
    },
    {
      "nom": "La Gondole",
      "categorie": "Hôtel",
      "priceRange": "€€",
      "mapsUrl": "https://maps.google.com/?q=35.8354033,10.6378233",
      "lat": 35.8354033,
      "lng": 10.6378233,
      "halalFriendly": false,
      "bookingUrl": "https://maps.google.com/?q=35.8354033,10.6378233",
      "source": "osm"
    },
    {
      "nom": "Nawres Beach",
      "categorie": "Hôtel",
      "priceRange": "€€",
      "mapsUrl": "https://maps.google.com/?q=35.8355006,10.6360175",
      "lat": 35.8355006,
      "lng": 10.6360175,
      "halalFriendly": false,
      "bookingUrl": "https://maps.google.com/?q=35.8355006,10.6360175",
      "source": "osm"
    },
    {
      "nom": "Karawan",
      "categorie": "Hôtel",
      "priceRange": "€€",
      "mapsUrl": "https://maps.google.com/?q=35.8356762,10.6363294",
      "lat": 35.8356762,
      "lng": 10.6363294,
      "halalFriendly": false,
      "bookingUrl": "https://maps.google.com/?q=35.8356762,10.6363294",
      "source": "osm"
    },
    {
      "nom": "Résidence Boujaafar",
      "categorie": "Hôtel",
      "priceRange": "€€",
      "mapsUrl": "https://maps.google.com/?q=35.8357175,10.637476",
      "lat": 35.8357175,
      "lng": 10.637476,
      "halalFriendly": false,
      "bookingUrl": "https://maps.google.com/?q=35.8357175,10.637476",
      "source": "osm"
    },
    {
      "nom": "Prima Life Karawan",
      "categorie": "Hôtel",
      "priceRange": "€€€€",
      "score": 4,
      "mapsUrl": "https://maps.google.com/?q=35.8359143,10.6366529",
      "lat": 35.8359143,
      "lng": 10.6366529,
      "halalFriendly": false,
      "bookingUrl": "http://www.primalife-hotels.com/fr/index.php?ids=3&idpd=con&id=3&id_left=8",
      "source": "osm"
    },
    {
      "nom": "Abou Nawas Nejma Hotel",
      "categorie": "Hôtel",
      "priceRange": "€€€€",
      "score": 4,
      "mapsUrl": "https://maps.google.com/?q=35.8365067,10.6356725",
      "lat": 35.8365067,
      "lng": 10.6356725,
      "halalFriendly": false,
      "bookingUrl": "http://www.abounawas.com.tn/site/fr/home.php?id_article=1",
      "source": "osm"
    },
    {
      "nom": "دار",
      "categorie": "Maison d'hôtes",
      "priceRange": "€€",
      "mapsUrl": "https://maps.google.com/?q=35.8135994,10.6329442",
      "lat": 35.8135994,
      "lng": 10.6329442,
      "halalFriendly": false,
      "bookingUrl": "https://maps.google.com/?q=35.8135994,10.6329442",
      "source": "osm"
    },
    {
      "nom": "El Hana Beach",
      "categorie": "Hôtel",
      "priceRange": "€€€",
      "score": 3,
      "mapsUrl": "https://maps.google.com/?q=35.8385073,10.6331563",
      "lat": 35.8385073,
      "lng": 10.6331563,
      "halalFriendly": false,
      "bookingUrl": "https://maps.google.com/?q=35.8385073,10.6331563",
      "source": "osm"
    },
    {
      "nom": "Le Printemps",
      "categorie": "Hôtel",
      "priceRange": "€€€€",
      "score": 4,
      "mapsUrl": "https://maps.google.com/?q=35.8386196,10.6331062",
      "lat": 35.8386196,
      "lng": 10.6331062,
      "halalFriendly": false,
      "bookingUrl": "http://www.travelpod.com/hotel/Le_Printemps-Sousse.html",
      "source": "osm"
    },
    {
      "nom": "Résidence",
      "categorie": "Hôtel",
      "priceRange": "€€€€",
      "score": 4,
      "mapsUrl": "https://maps.google.com/?q=35.8393901,10.6316435",
      "lat": 35.8393901,
      "lng": 10.6316435,
      "halalFriendly": false,
      "bookingUrl": "https://maps.google.com/?q=35.8393901,10.6316435",
      "source": "osm"
    },
    {
      "nom": "Chems el Hana",
      "categorie": "Hôtel",
      "priceRange": "€€€",
      "score": 3,
      "mapsUrl": "https://maps.google.com/?q=35.8397119,10.6306189",
      "lat": 35.8397119,
      "lng": 10.6306189,
      "halalFriendly": false,
      "bookingUrl": "https://maps.google.com/?q=35.8397119,10.6306189",
      "source": "osm"
    },
    {
      "nom": "Sousse Pearl Marriott Resort & Spa",
      "categorie": "Hôtel",
      "priceRange": "€€",
      "mapsUrl": "https://maps.google.com/?q=35.8398269,10.6306249",
      "lat": 35.8398269,
      "lng": 10.6306249,
      "halalFriendly": false,
      "bookingUrl": "https://www.marriott.com/fr/hotels/mirms-sousse-pearl-marriott-resort-and-spa",
      "source": "osm"
    },
    {
      "nom": "Riadh Palms",
      "categorie": "Hôtel",
      "priceRange": "€€",
      "mapsUrl": "https://maps.google.com/?q=35.8407768,10.6292845",
      "lat": 35.8407768,
      "lng": 10.6292845,
      "halalFriendly": false,
      "bookingUrl": "https://maps.google.com/?q=35.8407768,10.6292845",
      "source": "osm"
    },
    {
      "nom": "Hôtel Riadh Palms",
      "categorie": "Hôtel",
      "priceRange": "€€€€",
      "score": 4,
      "mapsUrl": "https://maps.google.com/?q=35.8413708,10.6296551",
      "lat": 35.8413708,
      "lng": 10.6296551,
      "halalFriendly": false,
      "bookingUrl": "https://www.hotelriadhpalms.com/info/Contact.aspx?user=1066&curr=1&ilng=1&fromdate=06/03/2011&todate=27/03/2011&id=897&idsection=651",
      "source": "osm"
    },
    {
      "nom": "Kaiser",
      "categorie": "Hôtel",
      "priceRange": "€€",
      "mapsUrl": "https://maps.google.com/?q=35.8397391,10.6243283",
      "lat": 35.8397391,
      "lng": 10.6243283,
      "halalFriendly": false,
      "bookingUrl": "https://maps.google.com/?q=35.8397391,10.6243283",
      "source": "osm"
    },
    {
      "nom": "Hôtel Tej Marhaba",
      "categorie": "Hôtel",
      "priceRange": "€€€€",
      "score": 4,
      "mapsUrl": "https://maps.google.com/?q=35.8405893,10.6257748",
      "lat": 35.8405893,
      "lng": 10.6257748,
      "halalFriendly": false,
      "bookingUrl": "https://www.marhabahotels.tn/",
      "source": "osm"
    },
    {
      "nom": "Tej Marhaba",
      "categorie": "Hôtel",
      "priceRange": "€€€€",
      "score": 4,
      "mapsUrl": "https://maps.google.com/?q=35.8412388,10.626245",
      "lat": 35.8412388,
      "lng": 10.626245,
      "halalFriendly": false,
      "bookingUrl": "https://www.hotelscombined.fr/Hotel/Tej_Marhaba_Hotel_Sousse.htm",
      "source": "osm"
    },
    {
      "nom": "Mövenpick Resort & Marine Spa",
      "categorie": "Hôtel",
      "priceRange": "€€€€",
      "score": 5,
      "mapsUrl": "https://maps.google.com/?q=35.8429939,10.6269782",
      "lat": 35.8429939,
      "lng": 10.6269782,
      "halalFriendly": false,
      "bookingUrl": "https://maps.google.com/?q=35.8429939,10.6269782",
      "source": "osm"
    },
    {
      "nom": "Samara Hotel",
      "categorie": "Hôtel",
      "priceRange": "€€",
      "mapsUrl": "https://maps.google.com/?q=35.8427801,10.6237523",
      "lat": 35.8427801,
      "lng": 10.6237523,
      "halalFriendly": false,
      "bookingUrl": "https://maps.google.com/?q=35.8427801,10.6237523",
      "source": "osm"
    },
    {
      "nom": "Hôtel Marabout",
      "categorie": "Hôtel",
      "priceRange": "€€",
      "mapsUrl": "https://maps.google.com/?q=35.844338,10.6254084",
      "lat": 35.844338,
      "lng": 10.6254084,
      "halalFriendly": false,
      "bookingUrl": "https://maps.google.com/?q=35.844338,10.6254084",
      "source": "osm"
    },
    {
      "nom": "Royal Beach",
      "categorie": "Hôtel",
      "priceRange": "€€",
      "mapsUrl": "https://maps.google.com/?q=35.8451935,10.6254085",
      "lat": 35.8451935,
      "lng": 10.6254085,
      "halalFriendly": false,
      "bookingUrl": "https://maps.google.com/?q=35.8451935,10.6254085",
      "source": "osm"
    },
    {
      "nom": "Le Monaco Hôtel & Thalasso",
      "categorie": "Hôtel",
      "priceRange": "€€",
      "mapsUrl": "https://maps.google.com/?q=35.8452526,10.6248438",
      "lat": 35.8452526,
      "lng": 10.6248438,
      "halalFriendly": false,
      "bookingUrl": "https://maps.google.com/?q=35.8452526,10.6248438",
      "source": "osm"
    },
    {
      "nom": "Hôtel Marhaba Club",
      "categorie": "Hôtel",
      "priceRange": "€€€€",
      "score": 4,
      "mapsUrl": "https://maps.google.com/?q=35.8452064,10.6229745",
      "lat": 35.8452064,
      "lng": 10.6229745,
      "halalFriendly": false,
      "bookingUrl": "https://www.marhabahotels.tn/",
      "source": "osm"
    },
    {
      "nom": "Résidence Bel Air",
      "categorie": "Hôtel",
      "priceRange": "€€",
      "mapsUrl": "https://maps.google.com/?q=35.8423433,10.61767",
      "lat": 35.8423433,
      "lng": 10.61767,
      "halalFriendly": false,
      "bookingUrl": "https://maps.google.com/?q=35.8423433,10.61767",
      "source": "osm"
    },
    {
      "nom": "chelli app",
      "categorie": "Hôtel",
      "priceRange": "€€",
      "mapsUrl": "https://maps.google.com/?q=35.8072013,10.6167902",
      "lat": 35.8072013,
      "lng": 10.6167902,
      "halalFriendly": false,
      "bookingUrl": "https://maps.google.com/?q=35.8072013,10.6167902",
      "source": "osm"
    },
    {
      "nom": "dar nabil",
      "categorie": "Hôtel",
      "priceRange": "€€",
      "mapsUrl": "https://maps.google.com/?q=35.80633,10.6180467",
      "lat": 35.80633,
      "lng": 10.6180467,
      "halalFriendly": false,
      "bookingUrl": "https://maps.google.com/?q=35.80633,10.6180467",
      "source": "osm"
    },
    {
      "nom": "Hôtel Marhaba",
      "categorie": "Hôtel",
      "priceRange": "€€€",
      "score": 3,
      "mapsUrl": "https://maps.google.com/?q=35.8469712,10.6216166",
      "lat": 35.8469712,
      "lng": 10.6216166,
      "halalFriendly": false,
      "bookingUrl": "https://www.marhabahotels.tn/",
      "source": "osm"
    },
    {
      "nom": "Occidental Sousse Marhaba",
      "categorie": "Hôtel",
      "priceRange": "€€",
      "mapsUrl": "https://maps.google.com/?q=35.8471564,10.6212289",
      "lat": 35.8471564,
      "lng": 10.6212289,
      "halalFriendly": false,
      "bookingUrl": "https://www.barcelo.com/fr/occidental-hotels/hotels/tunisie/sousse/occidental-sousse-marhaba/",
      "source": "osm"
    },
    {
      "nom": "Hôtel Marhaba Beach",
      "categorie": "Hôtel",
      "priceRange": "€€€€",
      "score": 4,
      "mapsUrl": "https://maps.google.com/?q=35.8482455,10.6228449",
      "lat": 35.8482455,
      "lng": 10.6228449,
      "halalFriendly": false,
      "bookingUrl": "https://www.marhabahotels.tn/",
      "source": "osm"
    },
    {
      "nom": "Jaz Tour Khalef",
      "categorie": "Hôtel",
      "priceRange": "€€€€",
      "score": 4,
      "mapsUrl": "https://maps.google.com/?q=35.8487794,10.6203016",
      "lat": 35.8487794,
      "lng": 10.6203016,
      "halalFriendly": false,
      "bookingUrl": "https://www.marhabahotels.tn/",
      "source": "osm"
    },
    {
      "nom": "إقامة الامتياز",
      "categorie": "Auberge",
      "priceRange": "€€",
      "mapsUrl": "https://maps.google.com/?q=35.8082085,10.6102507",
      "lat": 35.8082085,
      "lng": 10.6102507,
      "halalFriendly": false,
      "bookingUrl": "https://maps.google.com/?q=35.8082085,10.6102507",
      "source": "osm"
    },
    {
      "nom": "lti El Ksar Resort & Thalasso",
      "categorie": "Hôtel",
      "priceRange": "€€€€",
      "score": 4,
      "mapsUrl": "https://maps.google.com/?q=35.8510603,10.6206219",
      "lat": 35.8510603,
      "lng": 10.6206219,
      "halalFriendly": false,
      "bookingUrl": "https://maps.google.com/?q=35.8510603,10.6206219",
      "source": "osm"
    },
    {
      "nom": "Jungle park",
      "categorie": "Hôtel",
      "priceRange": "€€€€",
      "score": 4,
      "mapsUrl": "https://maps.google.com/?q=35.8513113,10.6191918",
      "lat": 35.8513113,
      "lng": 10.6191918,
      "halalFriendly": false,
      "bookingUrl": "https://maps.google.com/?q=35.8513113,10.6191918",
      "source": "osm"
    },
    {
      "nom": "Maison cité arriadh",
      "categorie": "Auberge",
      "priceRange": "€€",
      "mapsUrl": "https://maps.google.com/?q=35.8064559,10.605756",
      "lat": 35.8064559,
      "lng": 10.605756,
      "halalFriendly": false,
      "bookingUrl": "https://maps.google.com/?q=35.8064559,10.605756",
      "source": "osm"
    },
    {
      "nom": "Hôtel Hill Diar",
      "categorie": "Hôtel",
      "priceRange": "€€€",
      "score": 3,
      "mapsUrl": "https://maps.google.com/?q=35.8542105,10.61855",
      "lat": 35.8542105,
      "lng": 10.61855,
      "halalFriendly": false,
      "bookingUrl": "https://maps.google.com/?q=35.8542105,10.61855",
      "source": "osm"
    },
    {
      "nom": "Nsibti",
      "categorie": "Maison d'hôtes",
      "priceRange": "€€",
      "mapsUrl": "https://maps.google.com/?q=35.8037676,10.6075356",
      "lat": 35.8037676,
      "lng": 10.6075356,
      "halalFriendly": false,
      "bookingUrl": "https://maps.google.com/?q=35.8037676,10.6075356",
      "source": "osm"
    },
    {
      "nom": "Cesar Palace",
      "categorie": "Hôtel",
      "priceRange": "€€",
      "mapsUrl": "https://maps.google.com/?q=35.854459,10.6162345",
      "lat": 35.854459,
      "lng": 10.6162345,
      "halalFriendly": false,
      "bookingUrl": "https://maps.google.com/?q=35.854459,10.6162345",
      "source": "osm"
    },
    {
      "nom": "Casa Haouas",
      "categorie": "Maison d'hôtes",
      "priceRange": "€€",
      "mapsUrl": "https://maps.google.com/?q=35.8379657,10.5981314",
      "lat": 35.8379657,
      "lng": 10.5981314,
      "halalFriendly": false,
      "bookingUrl": "https://maps.google.com/?q=35.8379657,10.5981314",
      "source": "osm"
    },
    {
      "nom": "TUI BLUE Scheherazade",
      "categorie": "Hôtel",
      "priceRange": "€€",
      "mapsUrl": "https://maps.google.com/?q=35.8569821,10.6175292",
      "lat": 35.8569821,
      "lng": 10.6175292,
      "halalFriendly": false,
      "bookingUrl": "https://maps.google.com/?q=35.8569821,10.6175292",
      "source": "osm"
    },
    {
      "nom": "Hôtel Marhaba Royal Salem",
      "categorie": "Hôtel",
      "priceRange": "€€€€",
      "score": 4,
      "mapsUrl": "https://maps.google.com/?q=35.858452,10.6159926",
      "lat": 35.858452,
      "lng": 10.6159926,
      "halalFriendly": false,
      "bookingUrl": "https://www.marhabahotels.tn/",
      "source": "osm"
    },
    {
      "nom": "Hôtel Marhaba Salem Resort",
      "categorie": "Hôtel",
      "priceRange": "€€€€",
      "score": 4,
      "mapsUrl": "https://maps.google.com/?q=35.8591635,10.6167844",
      "lat": 35.8591635,
      "lng": 10.6167844,
      "halalFriendly": false,
      "bookingUrl": "https://www.marhabahotels.tn/",
      "source": "osm"
    },
    {
      "nom": "Hôtel Orient Palace",
      "categorie": "Hôtel",
      "priceRange": "€€€€",
      "score": 5,
      "mapsUrl": "https://maps.google.com/?q=35.8607376,10.6164226",
      "lat": 35.8607376,
      "lng": 10.6164226,
      "halalFriendly": false,
      "bookingUrl": "https://orientpalace-hotel.com/",
      "source": "osm"
    },
    {
      "nom": "Apartments Olea",
      "categorie": "Appartement",
      "priceRange": "€€",
      "mapsUrl": "https://maps.google.com/?q=35.8579296,10.6096962",
      "lat": 35.8579296,
      "lng": 10.6096962,
      "halalFriendly": false,
      "bookingUrl": "https://maps.google.com/?q=35.8579296,10.6096962",
      "source": "osm"
    },
    {
      "nom": "lti Thalassa Sousse Resort & Aquapark",
      "categorie": "Hôtel",
      "priceRange": "€€€€",
      "score": 4,
      "mapsUrl": "https://maps.google.com/?q=35.8618588,10.6150751",
      "lat": 35.8618588,
      "lng": 10.6150751,
      "halalFriendly": false,
      "bookingUrl": "http://www.lti.de/hotel/tunesien/lti-thalassa-sousse-resort-aquapark",
      "source": "osm"
    },
    {
      "nom": "Hôtel Jinene Resort",
      "categorie": "Hôtel",
      "priceRange": "€€",
      "mapsUrl": "https://maps.google.com/?q=35.8621039,10.6122645",
      "lat": 35.8621039,
      "lng": 10.6122645,
      "halalFriendly": false,
      "bookingUrl": "https://maps.google.com/?q=35.8621039,10.6122645",
      "source": "osm"
    },
    {
      "nom": "Hôtel Royal Jinene",
      "categorie": "Hôtel",
      "priceRange": "€€€€",
      "score": 4,
      "mapsUrl": "https://maps.google.com/?q=35.8628025,10.6127621",
      "lat": 35.8628025,
      "lng": 10.6127621,
      "halalFriendly": false,
      "bookingUrl": "https://maps.google.com/?q=35.8628025,10.6127621",
      "source": "osm"
    },
    {
      "nom": "dar najat",
      "categorie": "Maison d'hôtes",
      "priceRange": "€€",
      "mapsUrl": "https://maps.google.com/?q=35.8594711,10.6045805",
      "lat": 35.8594711,
      "lng": 10.6045805,
      "halalFriendly": false,
      "bookingUrl": "https://maps.google.com/?q=35.8594711,10.6045805",
      "source": "osm"
    },
    {
      "nom": "dar jamila laatiri",
      "categorie": "Appartement",
      "priceRange": "€€",
      "mapsUrl": "https://maps.google.com/?q=35.8475571,10.5874761",
      "lat": 35.8475571,
      "lng": 10.5874761,
      "halalFriendly": false,
      "bookingUrl": "https://maps.google.com/?q=35.8475571,10.5874761",
      "source": "osm"
    },
    {
      "nom": "Résidence Monte Carlo",
      "categorie": "Hôtel",
      "priceRange": "€€",
      "mapsUrl": "https://maps.google.com/?q=35.8664464,10.6110274",
      "lat": 35.8664464,
      "lng": 10.6110274,
      "halalFriendly": false,
      "bookingUrl": "https://maps.google.com/?q=35.8664464,10.6110274",
      "source": "osm"
    },
    {
      "nom": "El Menchia Beach",
      "categorie": "Hôtel",
      "priceRange": "€€",
      "mapsUrl": "https://maps.google.com/?q=35.8650041,10.6078093",
      "lat": 35.8650041,
      "lng": 10.6078093,
      "halalFriendly": false,
      "bookingUrl": "https://maps.google.com/?q=35.8650041,10.6078093",
      "source": "osm"
    },
    {
      "nom": "Dreams Beach",
      "categorie": "Hôtel",
      "priceRange": "€€€",
      "score": 3,
      "mapsUrl": "https://maps.google.com/?q=35.8668687,10.6107407",
      "lat": 35.8668687,
      "lng": 10.6107407,
      "halalFriendly": false,
      "bookingUrl": "https://maps.google.com/?q=35.8668687,10.6107407",
      "source": "osm"
    },
    {
      "nom": "Hôtel El Menchia",
      "categorie": "Hôtel",
      "priceRange": "€€",
      "mapsUrl": "https://maps.google.com/?q=35.8675004,10.6106135",
      "lat": 35.8675004,
      "lng": 10.6106135,
      "halalFriendly": false,
      "bookingUrl": "https://hotelelmenchia.com",
      "source": "osm"
    },
    {
      "nom": "Hôtel Riviera",
      "categorie": "Hôtel",
      "priceRange": "€€",
      "mapsUrl": "https://maps.google.com/?q=35.8668009,10.6054261",
      "lat": 35.8668009,
      "lng": 10.6054261,
      "halalFriendly": false,
      "bookingUrl": "https://maps.google.com/?q=35.8668009,10.6054261",
      "source": "osm"
    },
    {
      "nom": "Hôtel Cleopatra",
      "categorie": "Hôtel",
      "priceRange": "€€",
      "mapsUrl": "https://maps.google.com/?q=35.8679902,10.605166",
      "lat": 35.8679902,
      "lng": 10.605166,
      "halalFriendly": false,
      "bookingUrl": "https://maps.google.com/?q=35.8679902,10.605166",
      "source": "osm"
    },
    {
      "nom": "El Mouradi ****",
      "categorie": "Hôtel",
      "priceRange": "€€",
      "mapsUrl": "https://maps.google.com/?q=35.7840303,10.6886313",
      "lat": 35.7840303,
      "lng": 10.6886313,
      "halalFriendly": false,
      "bookingUrl": "https://maps.google.com/?q=35.7840303,10.6886313",
      "source": "osm"
    },
    {
      "nom": "Eden Club",
      "categorie": "Hôtel",
      "priceRange": "€€€",
      "score": 3,
      "mapsUrl": "https://maps.google.com/?q=35.7838706,10.6890197",
      "lat": 35.7838706,
      "lng": 10.6890197,
      "halalFriendly": false,
      "bookingUrl": "https://maps.google.com/?q=35.7838706,10.6890197",
      "source": "osm"
    },
    {
      "nom": "Palm Inn Monastir",
      "categorie": "Hôtel",
      "priceRange": "€€€",
      "score": 3,
      "mapsUrl": "https://maps.google.com/?q=35.783287,10.690712",
      "lat": 35.783287,
      "lng": 10.690712,
      "halalFriendly": false,
      "bookingUrl": "https://maps.google.com/?q=35.783287,10.690712",
      "source": "osm"
    },
    {
      "nom": "El Mouradi Skanes",
      "categorie": "Hôtel",
      "priceRange": "€€",
      "mapsUrl": "https://maps.google.com/?q=35.7834104,10.6920504",
      "lat": 35.7834104,
      "lng": 10.6920504,
      "halalFriendly": false,
      "bookingUrl": "https://maps.google.com/?q=35.7834104,10.6920504",
      "source": "osm"
    },
    {
      "nom": "Blue Star Hotels (Palmyra Holiday)",
      "categorie": "Hôtel",
      "priceRange": "€€€€",
      "score": 4,
      "mapsUrl": "https://maps.google.com/?q=35.7827226,10.6923194",
      "lat": 35.7827226,
      "lng": 10.6923194,
      "halalFriendly": false,
      "bookingUrl": "https://maps.google.com/?q=35.7827226,10.6923194",
      "source": "osm"
    },
    {
      "nom": "Houda Golf & Beach Club",
      "categorie": "Hôtel",
      "priceRange": "€€€",
      "score": 3,
      "mapsUrl": "https://maps.google.com/?q=35.7821035,10.6938147",
      "lat": 35.7821035,
      "lng": 10.6938147,
      "halalFriendly": false,
      "bookingUrl": "https://maps.google.com/?q=35.7821035,10.6938147",
      "source": "osm"
    },
    {
      "nom": "Alassio Hotel and Thalasso",
      "categorie": "Hôtel",
      "priceRange": "€€",
      "mapsUrl": "https://maps.google.com/?q=35.7817966,10.6958226",
      "lat": 35.7817966,
      "lng": 10.6958226,
      "halalFriendly": false,
      "bookingUrl": "https://maps.google.com/?q=35.7817966,10.6958226",
      "source": "osm"
    },
    {
      "nom": "Caruso Palace Hotel",
      "categorie": "Hôtel",
      "priceRange": "€€",
      "mapsUrl": "https://maps.google.com/?q=35.885049,10.5993062",
      "lat": 35.885049,
      "lng": 10.5993062,
      "halalFriendly": false,
      "bookingUrl": "https://maps.google.com/?q=35.885049,10.5993062",
      "source": "osm"
    },
    {
      "nom": "Chiraz Club",
      "categorie": "Hôtel",
      "priceRange": "€€",
      "mapsUrl": "https://maps.google.com/?q=35.7798924,10.6985174",
      "lat": 35.7798924,
      "lng": 10.6985174,
      "halalFriendly": false,
      "bookingUrl": "https://maps.google.com/?q=35.7798924,10.6985174",
      "source": "osm"
    },
    {
      "nom": "Hôtel El Kantaoui Center",
      "categorie": "Hôtel",
      "priceRange": "€€",
      "mapsUrl": "https://maps.google.com/?q=35.8875515,10.5972972",
      "lat": 35.8875515,
      "lng": 10.5972972,
      "halalFriendly": false,
      "bookingUrl": "https://maps.google.com/?q=35.8875515,10.5972972",
      "source": "osm"
    },
    {
      "nom": "Hasdrubal Thalassa & Spa Port El Kantaoui",
      "categorie": "Hôtel",
      "priceRange": "€€€€",
      "score": 4,
      "mapsUrl": "https://maps.google.com/?q=35.8898591,10.5984871",
      "lat": 35.8898591,
      "lng": 10.5984871,
      "halalFriendly": false,
      "bookingUrl": "http://maps.google.fr/maps?hl=fr&q=sousse%20tunisie&wrapid=tlif129810578265611&um=1&ie=UTF-8&sa=N&tab=wl",
      "source": "osm"
    },
    {
      "nom": "Houria Palace",
      "categorie": "Hôtel",
      "priceRange": "€€€€",
      "score": 4,
      "mapsUrl": "https://maps.google.com/?q=35.888466,10.5951051",
      "lat": 35.888466,
      "lng": 10.5951051,
      "halalFriendly": false,
      "bookingUrl": "https://maps.google.com/?q=35.888466,10.5951051",
      "source": "osm"
    },
    {
      "nom": "Hôtel Golf Residence",
      "categorie": "Hôtel",
      "priceRange": "€€",
      "mapsUrl": "https://maps.google.com/?q=35.8895161,10.5935219",
      "lat": 35.8895161,
      "lng": 10.5935219,
      "halalFriendly": false,
      "bookingUrl": "https://maps.google.com/?q=35.8895161,10.5935219",
      "source": "osm"
    },
    {
      "nom": "نزل كاريبيين ورلد المنستير",
      "categorie": "Hôtel",
      "priceRange": "€€€€",
      "score": 4,
      "mapsUrl": "https://maps.google.com/?q=35.7760866,10.7030141",
      "lat": 35.7760866,
      "lng": 10.7030141,
      "halalFriendly": false,
      "bookingUrl": "https://maps.google.com/?q=35.7760866,10.7030141",
      "source": "osm"
    },
    {
      "nom": "Hannibal palace",
      "categorie": "Hôtel",
      "priceRange": "€€€€",
      "score": 4,
      "mapsUrl": "https://maps.google.com/?q=35.8914659,10.5978996",
      "lat": 35.8914659,
      "lng": 10.5978996,
      "halalFriendly": false,
      "bookingUrl": "https://maps.google.com/?q=35.8914659,10.5978996",
      "source": "osm"
    },
    {
      "nom": "فندق الإقامة القنطاوي",
      "categorie": "Hôtel",
      "priceRange": "€€",
      "mapsUrl": "https://maps.google.com/?q=35.8907904,10.5937353",
      "lat": 35.8907904,
      "lng": 10.5937353,
      "halalFriendly": false,
      "bookingUrl": "https://maps.google.com/?q=35.8907904,10.5937353",
      "source": "osm"
    },
    {
      "nom": "Village Vacances El Shems",
      "categorie": "Hôtel",
      "priceRange": "€€",
      "mapsUrl": "https://maps.google.com/?q=35.7749747,10.7063333",
      "lat": 35.7749747,
      "lng": 10.7063333,
      "halalFriendly": false,
      "bookingUrl": "https://maps.google.com/?q=35.7749747,10.7063333",
      "source": "osm"
    },
    {
      "nom": "Hôtel Kanta",
      "categorie": "Hôtel",
      "priceRange": "€€€€",
      "score": 4,
      "mapsUrl": "https://maps.google.com/?q=35.8941626,10.5933586",
      "lat": 35.8941626,
      "lng": 10.5933586,
      "halalFriendly": false,
      "bookingUrl": "https://www.hotel-kanta.com/francais/hotel/presentation.htm",
      "source": "osm"
    },
    {
      "nom": "Mediterranean Dreams Miramar",
      "categorie": "Hôtel",
      "priceRange": "€€€",
      "score": 3,
      "mapsUrl": "https://maps.google.com/?q=35.8955362,10.5965353",
      "lat": 35.8955362,
      "lng": 10.5965353,
      "halalFriendly": false,
      "bookingUrl": "http://medwebdesignbooking.com/allbooking/Medi/Fr/Home.htm",
      "source": "osm"
    },
    {
      "nom": "Club Rosa Rivage",
      "categorie": "Hôtel",
      "priceRange": "€€€€",
      "score": 4,
      "mapsUrl": "https://maps.google.com/?q=35.7732821,10.7098524",
      "lat": 35.7732821,
      "lng": 10.7098524,
      "halalFriendly": false,
      "bookingUrl": "https://maps.google.com/?q=35.7732821,10.7098524",
      "source": "osm"
    },
    {
      "nom": "Marhaba Palace",
      "categorie": "Hôtel",
      "priceRange": "€€€€",
      "score": 4,
      "mapsUrl": "https://maps.google.com/?q=35.8967264,10.5934552",
      "lat": 35.8967264,
      "lng": 10.5934552,
      "halalFriendly": false,
      "bookingUrl": "http://marhabahotels.com.tn",
      "source": "osm"
    },
    {
      "nom": "Garden Beach",
      "categorie": "Hôtel",
      "priceRange": "€€",
      "mapsUrl": "https://maps.google.com/?q=35.7724542,10.7116578",
      "lat": 35.7724542,
      "lng": 10.7116578,
      "halalFriendly": false,
      "bookingUrl": "https://maps.google.com/?q=35.7724542,10.7116578",
      "source": "osm"
    },
    {
      "nom": "Hôtel Concorde Green Park",
      "categorie": "Hôtel",
      "priceRange": "€€€€",
      "score": 5,
      "mapsUrl": "https://maps.google.com/?q=35.8979091,10.5923003",
      "lat": 35.8979091,
      "lng": 10.5923003,
      "halalFriendly": false,
      "bookingUrl": "https://maps.google.com/?q=35.8979091,10.5923003",
      "source": "osm"
    }
  ],
  "mosqueesPrincipales": [
    {
      "id": "m1",
      "nom": "Grande Mosquée de Sousse",
      "type": "Mosquée",
      "adresse": "Centre-ville, Sousse",
      "description": "Mosquée principale de la ville.",
      "note": 5,
      "acces_non_musulmans": false,
      "mapsUrl": "https://maps.google.com/?q=Mosque%20Sousse%20Sousse"
    }
  ],
  "activites": [
    {
      "id": "a1",
      "nom": "Médina de Sousse (UNESCO)",
      "categorie": "Culture",
      "description": "Remparts, souks et ruelles blanches.",
      "prix": "Gratuit",
      "duree": "",
      "mapsUrl": "https://maps.google.com/?q=M%C3%A9dina%20de%20Sousse%20%28UNESCO%29%20Sousse"
    },
    {
      "id": "a2",
      "nom": "Ribat de Sousse",
      "categorie": "Histoire",
      "description": "Forteresse-monastère du VIIIe siècle.",
      "prix": "Payant",
      "duree": "",
      "mapsUrl": "https://maps.google.com/?q=Ribat%20de%20Sousse%20Sousse"
    },
    {
      "id": "a3",
      "nom": "Grande Mosquée de Sousse",
      "categorie": "Spirituel",
      "description": "Mosquée fortifiée du IXe siècle.",
      "prix": "Gratuit",
      "duree": "",
      "mapsUrl": "https://maps.google.com/?q=Grande%20Mosqu%C3%A9e%20de%20Sousse%20Sousse"
    }
  ],
  "imageCredit": "Wikimedia Commons",
  "osmEnriched": true,
  "osmEnrichedAt": "2026-06-30",
  "description_en": "Sousse, in Tunisia, is a halal-friendly destination with a Halal Trust Score of 4.5/5. Muslim travelers will find 5 halal restaurants, 1 mosques, real-time prayer times and the Qibla direction — a complete guide to travel with peace of mind.",
  "metaDescription_en": "Halal guide to Sousse: 5+ halal restaurants, 1 mosques, prayer times and tips for Muslim travelers. Halal Trust Score 4.5/5.",
  "nom_en": "Sousse"
}