{
  "slug": "sousse",
  "nom": "Sousse",
  "pays": "Tunisie",
  "pays_slug": "tunisie",
  "continent": "Afrique",
  "region": "Afrique du Nord",
  "coordonnees": {
    "lat": 35.8256,
    "lng": 10.6369
  },
  "codeISO": "",
  "score_halal": 4.5,
  "halalScore": 9,
  "description": "'Perle du Sahel' tunisien, Sousse possède une médina classée UNESCO avec sa grande mosquée et son ribat, le long de plages méditerranéennes.",
  "image": "https://upload.wikimedia.org/wikipedia/commons/thumb/9/9e/Mus%C3%A9e_arch%C3%A9logique_de_Sousse%2C_Tunisie%2C_9_f%C3%A9vrier_2023%2C_ZVE02124.jpg/1920px-Mus%C3%A9e_arch%C3%A9logique_de_Sousse%2C_Tunisie%2C_9_f%C3%A9vrier_2023%2C_ZVE02124.jpg",
  "image_hero": "https://upload.wikimedia.org/wikipedia/commons/thumb/9/9e/Mus%C3%A9e_arch%C3%A9logique_de_Sousse%2C_Tunisie%2C_9_f%C3%A9vrier_2023%2C_ZVE02124.jpg/1920px-Mus%C3%A9e_arch%C3%A9logique_de_Sousse%2C_Tunisie%2C_9_f%C3%A9vrier_2023%2C_ZVE02124.jpg",
  "metaDescription": "'Perle du Sahel' tunisien, Sousse possède une médina classée UNESCO avec sa grande mosquée et son ribat, le long de plages méditerranéennes.",
  "statistiques": {
    "restaurants_halal": 5,
    "mosquees": 1,
    "hotels": 93
  },
  "infoPratique": {
    "transport": "Accessible par avion / transports locaux.",
    "meilleureEpoque": "Printemps et automne."
  },
  "tags": [
    "halal"
  ],
  "restaurants": [
    {
      "nom": "KFC Sousse Vicomte",
      "type": "burger",
      "priceRange": "€€",
      "mapsUrl": "https://maps.google.com/?q=35.8475346,10.6185512",
      "lat": 35.8475346,
      "lng": 10.6185512,
      "halalConfidence": "yes",
      "source": "osm"
    },
    {
      "nom": "WONDERFOOD",
      "type": "pizza, sandwich, chicken, regional, kebab",
      "priceRange": "€€",
      "mapsUrl": "https://maps.google.com/?q=35.8140167,10.6233646",
      "lat": 35.8140167,
      "lng": 10.6233646,
      "halalConfidence": "likely",
      "source": "osm"
    },
    {
      "nom": "مشاوي الغزالي",
      "type": "turkish",
      "priceRange": "€€",
      "mapsUrl": "https://maps.google.com/?q=35.8127525,10.605972",
      "lat": 35.8127525,
      "lng": 10.605972,
      "halalConfidence": "likely",
      "source": "osm"
    },
    {
      "nom": "Tacos fastfood",
      "type": "pizza, burger, kebab, fast food",
      "priceRange": "€€",
      "mapsUrl": "https://maps.google.com/?q=35.7536721,10.7152391",
      "lat": 35.7536721,
      "lng": 10.7152391,
      "halalConfidence": "likely",
      "source": "osm"
    },
    {
      "nom": "pizzaria ayouni",
      "type": "burger, fish, sandwich, pasta, pizza, chicken, italian pizza, kebab",
      "priceRange": "€€",
      "mapsUrl": "https://maps.google.com/?q=35.735121,10.5776926",
      "lat": 35.735121,
      "lng": 10.5776926,
      "halalConfidence": "likely",
      "source": "osm"
    },
    {
      "nom": "مقهى القصبة",
      "lat": 35.8247856,
      "lng": 10.6371704,
      "type": "african, arab, coffee shop, crepe, kebab",
      "halalConfidence": "likely",
      "mapsUrl": "https://maps.google.com/?q=35.8247856,10.6371704",
      "source": "osm"
    },
    {
      "nom": "كسكس المدينة",
      "lat": 35.8264027,
      "lng": 10.6392471,
      "type": "tunisian",
      "halalConfidence": "likely",
      "mapsUrl": "https://maps.google.com/?q=35.8264027,10.6392471",
      "source": "osm"
    },
    {
      "nom": "المتوسطى",
      "lat": 35.8930291,
      "lng": 10.5981557,
      "type": "european, tunisian",
      "halalConfidence": "likely",
      "mapsUrl": "https://maps.google.com/?q=35.8930291,10.5981557",
      "source": "osm"
    }
  ],
  "hotels": [
    {
      "nom": "Hotel Gabes",
      "categorie": "Hôtel",
      "priceRange": "€€",
      "mapsUrl": "https://maps.google.com/?q=35.8261374,10.6391774",
      "lat": 35.8261374,
      "lng": 10.6391774,
      "halalFriendly": false,
      "bookingUrl": "https://maps.google.com/?q=35.8261374,10.6391774",
      "source": "osm"
    },
    {
      "nom": "فندق المدينة",
      "categorie": "Hôtel",
      "priceRange": "€€",
      "mapsUrl": "https://maps.google.com/?q=35.8264234,10.6394085",
      "lat": 35.8264234,
      "lng": 10.6394085,
      "halalFriendly": false,
      "bookingUrl": "hotel-Medina.com",
      "source": "osm"
    },
    {
      "nom": "أميرة",
      "categorie": "Hôtel",
      "priceRange": "€€",
      "mapsUrl": "https://maps.google.com/?q=35.8249944,10.6396723",
      "lat": 35.8249944,
      "lng": 10.6396723,
      "halalFriendly": false,
      "bookingUrl": "https://maps.google.com/?q=35.8249944,10.6396723",
      "source": "osm"
    },
    {
      "nom": "emira hotel",
      "categorie": "Hôtel",
      "priceRange": "€€",
      "mapsUrl": "https://maps.google.com/?q=35.8255327,10.6398663",
      "lat": 35.8255327,
      "lng": 10.6398663,
      "halalFriendly": false,
      "bookingUrl": "https://maps.google.com/?q=35.8255327,10.6398663",
      "source": "osm"
    },
    {
      "nom": "Dar Antonia",
      "categorie": "Hôtel",
      "priceRange": "€€",
      "mapsUrl": "https://maps.google.com/?q=35.8236875,10.6393256",
      "lat": 35.8236875,
      "lng": 10.6393256,
      "halalFriendly": false,
      "bookingUrl": "https://maps.google.com/?q=35.8236875,10.6393256",
      "source": "osm"
    },
    {
      "nom": "Hôtel Paris",
      "categorie": "Hôtel",
      "priceRange": "€€",
      "mapsUrl": "https://maps.google.com/?q=35.8281663,10.6397227",
      "lat": 35.8281663,
      "lng": 10.6397227,
      "halalFriendly": false,
      "bookingUrl": "https://maps.google.com/?q=35.8281663,10.6397227",
      "source": "osm"
    },
    {
      "nom": "كلاريدج",
      "categorie": "Hôtel",
      "priceRange": "€€",
      "mapsUrl": "https://maps.google.com/?q=35.8300642,10.6403721",
      "lat": 35.8300642,
      "lng": 10.6403721,
      "halalFriendly": false,
      "bookingUrl": "https://maps.google.com/?q=35.8300642,10.6403721",
      "source": "osm"
    },
    {
      "nom": "Hotel Residence Momia",
      "categorie": "Hôtel",
      "priceRange": "€€",
      "mapsUrl": "https://maps.google.com/?q=35.8307152,10.6398371",
      "lat": 35.8307152,
      "lng": 10.6398371,
      "halalFriendly": false,
      "bookingUrl": "https://maps.google.com/?q=35.8307152,10.6398371",
      "source": "osm"
    },
    {
      "nom": "سوس بالاس",
      "categorie": "Hôtel",
      "priceRange": "€€",
      "mapsUrl": "https://maps.google.com/?q=35.8309135,10.6416093",
      "lat": 35.8309135,
      "lng": 10.6416093,
      "halalFriendly": false,
      "bookingUrl": "http://www.shdthotels.com/index.php/soussepalace",
      "source": "osm"
    },
    {
      "nom": "نزل رويال",
      "categorie": "Hôtel",
      "priceRange": "€€",
      "mapsUrl": "https://maps.google.com/?q=35.8338699,10.638403",
      "lat": 35.8338699,
      "lng": 10.638403,
      "halalFriendly": false,
      "bookingUrl": "https://maps.google.com/?q=35.8338699,10.638403",
      "source": "osm"
    },
    {
      "nom": "دار الكرى",
      "categorie": "Appartement",
      "priceRange": "€€",
      "mapsUrl": "https://maps.google.com/?q=35.8167019,10.6393672",
      "lat": 35.8167019,
      "lng": 10.6393672,
      "halalFriendly": false,
      "bookingUrl": "https://maps.google.com/?q=35.8167019,10.6393672",
      "source": "osm"
    },
    {
      "nom": "Justinia",
      "categorie": "Hôtel",
      "priceRange": "€€€",
      "score": 3,
      "mapsUrl": "https://maps.google.com/?q=35.8351826,10.637678",
      "lat": 35.8351826,
      "lng": 10.637678,
      "halalFriendly": false,
      "bookingUrl": "http://www.justinia.com.tn/",
      "source": "osm"
    },
    {
      "nom": "El Faracha",
      "categorie": "Hôtel",
      "priceRange": "€€€",
      "score": 3,
      "mapsUrl": "https://maps.google.com/?q=35.8352283,10.6363428",
      "lat": 35.8352283,
      "lng": 10.6363428,
      "halalFriendly": false,
      "bookingUrl": "https://maps.google.com/?q=35.8352283,10.6363428",
      "source": "osm"
    },
    {
      "nom": "La Gondole",
      "categorie": "Hôtel",
      "priceRange": "€€",
      "mapsUrl": "https://maps.google.com/?q=35.8354033,10.6378233",
      "lat": 35.8354033,
      "lng": 10.6378233,
      "halalFriendly": false,
      "bookingUrl": "https://maps.google.com/?q=35.8354033,10.6378233",
      "source": "osm"
    },
    {
      "nom": "Nawres Beach",
      "categorie": "Hôtel",
      "priceRange": "€€",
      "mapsUrl": "https://maps.google.com/?q=35.8355006,10.6360175",
      "lat": 35.8355006,
      "lng": 10.6360175,
      "halalFriendly": false,
      "bookingUrl": "https://maps.google.com/?q=35.8355006,10.6360175",
      "source": "osm"
    },
    {
      "nom": "Karawan",
      "categorie": "Hôtel",
      "priceRange": "€€",
      "mapsUrl": "https://maps.google.com/?q=35.8356762,10.6363294",
      "lat": 35.8356762,
      "lng": 10.6363294,
      "halalFriendly": false,
      "bookingUrl": "https://maps.google.com/?q=35.8356762,10.6363294",
      "source": "osm"
    },
    {
      "nom": "Résidence Boujaafar",
      "categorie": "Hôtel",
      "priceRange": "€€",
      "mapsUrl": "https://maps.google.com/?q=35.8357175,10.637476",
      "lat": 35.8357175,
      "lng": 10.637476,
      "halalFriendly": false,
      "bookingUrl": "https://maps.google.com/?q=35.8357175,10.637476",
      "source": "osm"
    },
    {
      "nom": "Prima Life Karawan",
      "categorie": "Hôtel",
      "priceRange": "€€€€",
      "score": 4,
      "mapsUrl": "https://maps.google.com/?q=35.8359143,10.6366529",
      "lat": 35.8359143,
      "lng": 10.6366529,
      "halalFriendly": false,
      "bookingUrl": "http://www.primalife-hotels.com/fr/index.php?ids=3&idpd=con&id=3&id_left=8",
      "source": "osm"
    },
    {
      "nom": "Abou Nawas Nejma Hotel",
      "categorie": "Hôtel",
      "priceRange": "€€€€",
      "score": 4,
      "mapsUrl": "https://maps.google.com/?q=35.8365067,10.6356725",
      "lat": 35.8365067,
      "lng": 10.6356725,
      "halalFriendly": false,
      "bookingUrl": "http://www.abounawas.com.tn/site/fr/home.php?id_article=1",
      "source": "osm"
    },
    {
      "nom": "دار",
      "categorie": "Maison d'hôtes",
      "priceRange": "€€",
      "mapsUrl": "https://maps.google.com/?q=35.8135994,10.6329442",
      "lat": 35.8135994,
      "lng": 10.6329442,
      "halalFriendly": false,
      "bookingUrl": "https://maps.google.com/?q=35.8135994,10.6329442",
      "source": "osm"
    },
    {
      "nom": "El Hana Beach",
      "categorie": "Hôtel",
      "priceRange": "€€€",
      "score": 3,
      "mapsUrl": "https://maps.google.com/?q=35.8385073,10.6331563",
      "lat": 35.8385073,
      "lng": 10.6331563,
      "halalFriendly": false,
      "bookingUrl": "https://maps.google.com/?q=35.8385073,10.6331563",
      "source": "osm"
    },
    {
      "nom": "Le Printemps",
      "categorie": "Hôtel",
      "priceRange": "€€€€",
      "score": 4,
      "mapsUrl": "https://maps.google.com/?q=35.8386196,10.6331062",
      "lat": 35.8386196,
      "lng": 10.6331062,
      "halalFriendly": false,
      "bookingUrl": "http://www.travelpod.com/hotel/Le_Printemps-Sousse.html",
      "source": "osm"
    },
    {
      "nom": "Résidence",
      "categorie": "Hôtel",
      "priceRange": "€€€€",
      "score": 4,
      "mapsUrl": "https://maps.google.com/?q=35.8393901,10.6316435",
      "lat": 35.8393901,
      "lng": 10.6316435,
      "halalFriendly": false,
      "bookingUrl": "https://maps.google.com/?q=35.8393901,10.6316435",
      "source": "osm"
    },
    {
      "nom": "Chems el Hana",
      "categorie": "Hôtel",
      "priceRange": "€€€",
      "score": 3,
      "mapsUrl": "https://maps.google.com/?q=35.8397119,10.6306189",
      "lat": 35.8397119,
      "lng": 10.6306189,
      "halalFriendly": false,
      "bookingUrl": "https://maps.google.com/?q=35.8397119,10.6306189",
      "source": "osm"
    },
    {
      "nom": "Sousse Pearl Marriott Resort & Spa",
      "categorie": "Hôtel",
      "priceRange": "€€",
      "mapsUrl": "https://maps.google.com/?q=35.8398269,10.6306249",
      "lat": 35.8398269,
      "lng": 10.6306249,
      "halalFriendly": false,
      "bookingUrl": "https://www.marriott.com/fr/hotels/mirms-sousse-pearl-marriott-resort-and-spa",
      "source": "osm"
    },
    {
      "nom": "Riadh Palms",
      "categorie": "Hôtel",
      "priceRange": "€€",
      "mapsUrl": "https://maps.google.com/?q=35.8407768,10.6292845",
      "lat": 35.8407768,
      "lng": 10.6292845,
      "halalFriendly": false,
      "bookingUrl": "https://maps.google.com/?q=35.8407768,10.6292845",
      "source": "osm"
    },
    {
      "nom": "Hôtel Riadh Palms",
      "categorie": "Hôtel",
      "priceRange": "€€€€",
      "score": 4,
      "mapsUrl": "https://maps.google.com/?q=35.8413708,10.6296551",
      "lat": 35.8413708,
      "lng": 10.6296551,
      "halalFriendly": false,
      "bookingUrl": "https://www.hotelriadhpalms.com/info/Contact.aspx?user=1066&curr=1&ilng=1&fromdate=06/03/2011&todate=27/03/2011&id=897&idsection=651",
      "source": "osm"
    },
    {
      "nom": "Kaiser",
      "categorie": "Hôtel",
      "priceRange": "€€",
      "mapsUrl": "https://maps.google.com/?q=35.8397391,10.6243283",
      "lat": 35.8397391,
      "lng": 10.6243283,
      "halalFriendly": false,
      "bookingUrl": "https://maps.google.com/?q=35.8397391,10.6243283",
      "source": "osm"
    },
    {
      "nom": "Hôtel Tej Marhaba",
      "categorie": "Hôtel",
      "priceRange": "€€€€",
      "score": 4,
      "mapsUrl": "https://maps.google.com/?q=35.8405893,10.6257748",
      "lat": 35.8405893,
      "lng": 10.6257748,
      "halalFriendly": false,
      "bookingUrl": "https://www.marhabahotels.tn/",
      "source": "osm"
    },
    {
      "nom": "Tej Marhaba",
      "categorie": "Hôtel",
      "priceRange": "€€€€",
      "score": 4,
      "mapsUrl": "https://maps.google.com/?q=35.8412388,10.626245",
      "lat": 35.8412388,
      "lng": 10.626245,
      "halalFriendly": false,
      "bookingUrl": "https://www.hotelscombined.fr/Hotel/Tej_Marhaba_Hotel_Sousse.htm",
      "source": "osm"
    },
    {
      "nom": "Mövenpick Resort & Marine Spa",
      "categorie": "Hôtel",
      "priceRange": "€€€€",
      "score": 5,
      "mapsUrl": "https://maps.google.com/?q=35.8429939,10.6269782",
      "lat": 35.8429939,
      "lng": 10.6269782,
      "halalFriendly": false,
      "bookingUrl": "https://maps.google.com/?q=35.8429939,10.6269782",
      "source": "osm"
    },
    {
      "nom": "Samara Hotel",
      "categorie": "Hôtel",
      "priceRange": "€€",
      "mapsUrl": "https://maps.google.com/?q=35.8427801,10.6237523",
      "lat": 35.8427801,
      "lng": 10.6237523,
      "halalFriendly": false,
      "bookingUrl": "https://maps.google.com/?q=35.8427801,10.6237523",
      "source": "osm"
    },
    {
      "nom": "Hôtel Marabout",
      "categorie": "Hôtel",
      "priceRange": "€€",
      "mapsUrl": "https://maps.google.com/?q=35.844338,10.6254084",
      "lat": 35.844338,
      "lng": 10.6254084,
      "halalFriendly": false,
      "bookingUrl": "https://maps.google.com/?q=35.844338,10.6254084",
      "source": "osm"
    },
    {
      "nom": "Royal Beach",
      "categorie": "Hôtel",
      "priceRange": "€€",
      "mapsUrl": "https://maps.google.com/?q=35.8451935,10.6254085",
      "lat": 35.8451935,
      "lng": 10.6254085,
      "halalFriendly": false,
      "bookingUrl": "https://maps.google.com/?q=35.8451935,10.6254085",
      "source": "osm"
    },
    {
      "nom": "Le Monaco Hôtel & Thalasso",
      "categorie": "Hôtel",
      "priceRange": "€€",
      "mapsUrl": "https://maps.google.com/?q=35.8452526,10.6248438",
      "lat": 35.8452526,
      "lng": 10.6248438,
      "halalFriendly": false,
      "bookingUrl": "https://maps.google.com/?q=35.8452526,10.6248438",
      "source": "osm"
    },
    {
      "nom": "Hôtel Marhaba Club",
      "categorie": "Hôtel",
      "priceRange": "€€€€",
      "score": 4,
      "mapsUrl": "https://maps.google.com/?q=35.8452064,10.6229745",
      "lat": 35.8452064,
      "lng": 10.6229745,
      "halalFriendly": false,
      "bookingUrl": "https://www.marhabahotels.tn/",
      "source": "osm"
    },
    {
      "nom": "Résidence Bel Air",
      "categorie": "Hôtel",
      "priceRange": "€€",
      "mapsUrl": "https://maps.google.com/?q=35.8423433,10.61767",
      "lat": 35.8423433,
      "lng": 10.61767,
      "halalFriendly": false,
      "bookingUrl": "https://maps.google.com/?q=35.8423433,10.61767",
      "source": "osm"
    },
    {
      "nom": "chelli app",
      "categorie": "Hôtel",
      "priceRange": "€€",
      "mapsUrl": "https://maps.google.com/?q=35.8072013,10.6167902",
      "lat": 35.8072013,
      "lng": 10.6167902,
      "halalFriendly": false,
      "bookingUrl": "https://maps.google.com/?q=35.8072013,10.6167902",
      "source": "osm"
    },
    {
      "nom": "dar nabil",
      "categorie": "Hôtel",
      "priceRange": "€€",
      "mapsUrl": "https://maps.google.com/?q=35.80633,10.6180467",
      "lat": 35.80633,
      "lng": 10.6180467,
      "halalFriendly": false,
      "bookingUrl": "https://maps.google.com/?q=35.80633,10.6180467",
      "source": "osm"
    },
    {
      "nom": "Hôtel Marhaba",
      "categorie": "Hôtel",
      "priceRange": "€€€",
      "score": 3,
      "mapsUrl": "https://maps.google.com/?q=35.8469712,10.6216166",
      "lat": 35.8469712,
      "lng": 10.6216166,
      "halalFriendly": false,
      "bookingUrl": "https://www.marhabahotels.tn/",
      "source": "osm"
    },
    {
      "nom": "Occidental Sousse Marhaba",
      "categorie": "Hôtel",
      "priceRange": "€€",
      "mapsUrl": "https://maps.google.com/?q=35.8471564,10.6212289",
      "lat": 35.8471564,
      "lng": 10.6212289,
      "halalFriendly": false,
      "bookingUrl": "https://www.barcelo.com/fr/occidental-hotels/hotels/tunisie/sousse/occidental-sousse-marhaba/",
      "source": "osm"
    },
    {
      "nom": "Hôtel Marhaba Beach",
      "categorie": "Hôtel",
      "priceRange": "€€€€",
      "score": 4,
      "mapsUrl": "https://maps.google.com/?q=35.8482455,10.6228449",
      "lat": 35.8482455,
      "lng": 10.6228449,
      "halalFriendly": false,
      "bookingUrl": "https://www.marhabahotels.tn/",
      "source": "osm"
    },
    {
      "nom": "Jaz Tour Khalef",
      "categorie": "Hôtel",
      "priceRange": "€€€€",
      "score": 4,
      "mapsUrl": "https://maps.google.com/?q=35.8487794,10.6203016",
      "lat": 35.8487794,
      "lng": 10.6203016,
      "halalFriendly": false,
      "bookingUrl": "https://www.marhabahotels.tn/",
      "source": "osm"
    },
    {
      "nom": "إقامة الامتياز",
      "categorie": "Auberge",
      "priceRange": "€€",
      "mapsUrl": "https://maps.google.com/?q=35.8082085,10.6102507",
      "lat": 35.8082085,
      "lng": 10.6102507,
      "halalFriendly": false,
      "bookingUrl": "https://maps.google.com/?q=35.8082085,10.6102507",
      "source": "osm"
    },
    {
      "nom": "lti El Ksar Resort & Thalasso",
      "categorie": "Hôtel",
      "priceRange": "€€€€",
      "score": 4,
      "mapsUrl": "https://maps.google.com/?q=35.8510603,10.6206219",
      "lat": 35.8510603,
      "lng": 10.6206219,
      "halalFriendly": false,
      "bookingUrl": "https://maps.google.com/?q=35.8510603,10.6206219",
      "source": "osm"
    },
    {
      "nom": "Jungle park",
      "categorie": "Hôtel",
      "priceRange": "€€€€",
      "score": 4,
      "mapsUrl": "https://maps.google.com/?q=35.8513113,10.6191918",
      "lat": 35.8513113,
      "lng": 10.6191918,
      "halalFriendly": false,
      "bookingUrl": "https://maps.google.com/?q=35.8513113,10.6191918",
      "source": "osm"
    },
    {
      "nom": "Maison cité arriadh",
      "categorie": "Auberge",
      "priceRange": "€€",
      "mapsUrl": "https://maps.google.com/?q=35.8064559,10.605756",
      "lat": 35.8064559,
      "lng": 10.605756,
      "halalFriendly": false,
      "bookingUrl": "https://maps.google.com/?q=35.8064559,10.605756",
      "source": "osm"
    },
    {
      "nom": "Hôtel Hill Diar",
      "categorie": "Hôtel",
      "priceRange": "€€€",
      "score": 3,
      "mapsUrl": "https://maps.google.com/?q=35.8542105,10.61855",
      "lat": 35.8542105,
      "lng": 10.61855,
      "halalFriendly": false,
      "bookingUrl": "https://maps.google.com/?q=35.8542105,10.61855",
      "source": "osm"
    },
    {
      "nom": "Nsibti",
      "categorie": "Maison d'hôtes",
      "priceRange": "€€",
      "mapsUrl": "https://maps.google.com/?q=35.8037676,10.6075356",
      "lat": 35.8037676,
      "lng": 10.6075356,
      "halalFriendly": false,
      "bookingUrl": "https://maps.google.com/?q=35.8037676,10.6075356",
      "source": "osm"
    },
    {
      "nom": "Cesar Palace",
      "categorie": "Hôtel",
      "priceRange": "€€",
      "mapsUrl": "https://maps.google.com/?q=35.854459,10.6162345",
      "lat": 35.854459,
      "lng": 10.6162345,
      "halalFriendly": false,
      "bookingUrl": "https://maps.google.com/?q=35.854459,10.6162345",
      "source": "osm"
    },
    {
      "nom": "Casa Haouas",
      "categorie": "Maison d'hôtes",
      "priceRange": "€€",
      "mapsUrl": "https://maps.google.com/?q=35.8379657,10.5981314",
      "lat": 35.8379657,
      "lng": 10.5981314,
      "halalFriendly": false,
      "bookingUrl": "https://maps.google.com/?q=35.8379657,10.5981314",
      "source": "osm"
    },
    {
      "nom": "TUI BLUE Scheherazade",
      "categorie": "Hôtel",
      "priceRange": "€€",
      "mapsUrl": "https://maps.google.com/?q=35.8569821,10.6175292",
      "lat": 35.8569821,
      "lng": 10.6175292,
      "halalFriendly": false,
      "bookingUrl": "https://maps.google.com/?q=35.8569821,10.6175292",
      "source": "osm"
    },
    {
      "nom": "Hôtel Marhaba Royal Salem",
      "categorie": "Hôtel",
      "priceRange": "€€€€",
      "score": 4,
      "mapsUrl": "https://maps.google.com/?q=35.858452,10.6159926",
      "lat": 35.858452,
      "lng": 10.6159926,
      "halalFriendly": false,
      "bookingUrl": "https://www.marhabahotels.tn/",
      "source": "osm"
    },
    {
      "nom": "Hôtel Marhaba Salem Resort",
      "categorie": "Hôtel",
      "priceRange": "€€€€",
      "score": 4,
      "mapsUrl": "https://maps.google.com/?q=35.8591635,10.6167844",
      "lat": 35.8591635,
      "lng": 10.6167844,
      "halalFriendly": false,
      "bookingUrl": "https://www.marhabahotels.tn/",
      "source": "osm"
    },
    {
      "nom": "Hôtel Orient Palace",
      "categorie": "Hôtel",
      "priceRange": "€€€€",
      "score": 5,
      "mapsUrl": "https://maps.google.com/?q=35.8607376,10.6164226",
      "lat": 35.8607376,
      "lng": 10.6164226,
      "halalFriendly": false,
      "bookingUrl": "https://orientpalace-hotel.com/",
      "source": "osm"
    },
    {
      "nom": "Apartments Olea",
      "categorie": "Appartement",
      "priceRange": "€€",
      "mapsUrl": "https://maps.google.com/?q=35.8579296,10.6096962",
      "lat": 35.8579296,
      "lng": 10.6096962,
      "halalFriendly": false,
      "bookingUrl": "https://maps.google.com/?q=35.8579296,10.6096962",
      "source": "osm"
    },
    {
      "nom": "lti Thalassa Sousse Resort & Aquapark",
      "categorie": "Hôtel",
      "priceRange": "€€€€",
      "score": 4,
      "mapsUrl": "https://maps.google.com/?q=35.8618588,10.6150751",
      "lat": 35.8618588,
      "lng": 10.6150751,
      "halalFriendly": false,
      "bookingUrl": "http://www.lti.de/hotel/tunesien/lti-thalassa-sousse-resort-aquapark",
      "source": "osm"
    },
    {
      "nom": "Hôtel Jinene Resort",
      "categorie": "Hôtel",
      "priceRange": "€€",
      "mapsUrl": "https://maps.google.com/?q=35.8621039,10.6122645",
      "lat": 35.8621039,
      "lng": 10.6122645,
      "halalFriendly": false,
      "bookingUrl": "https://maps.google.com/?q=35.8621039,10.6122645",
      "source": "osm"
    },
    {
      "nom": "Hôtel Royal Jinene",
      "categorie": "Hôtel",
      "priceRange": "€€€€",
      "score": 4,
      "mapsUrl": "https://maps.google.com/?q=35.8628025,10.6127621",
      "lat": 35.8628025,
      "lng": 10.6127621,
      "halalFriendly": false,
      "bookingUrl": "https://maps.google.com/?q=35.8628025,10.6127621",
      "source": "osm"
    },
    {
      "nom": "dar najat",
      "categorie": "Maison d'hôtes",
      "priceRange": "€€",
      "mapsUrl": "https://maps.google.com/?q=35.8594711,10.6045805",
      "lat": 35.8594711,
      "lng": 10.6045805,
      "halalFriendly": false,
      "bookingUrl": "https://maps.google.com/?q=35.8594711,10.6045805",
      "source": "osm"
    },
    {
      "nom": "dar jamila laatiri",
      "categorie": "Appartement",
      "priceRange": "€€",
      "mapsUrl": "https://maps.google.com/?q=35.8475571,10.5874761",
      "lat": 35.8475571,
      "lng": 10.5874761,
      "halalFriendly": false,
      "bookingUrl": "https://maps.google.com/?q=35.8475571,10.5874761",
      "source": "osm"
    },
    {
      "nom": "Résidence Monte Carlo",
      "categorie": "Hôtel",
      "priceRange": "€€",
      "mapsUrl": "https://maps.google.com/?q=35.8664464,10.6110274",
      "lat": 35.8664464,
      "lng": 10.6110274,
      "halalFriendly": false,
      "bookingUrl": "https://maps.google.com/?q=35.8664464,10.6110274",
      "source": "osm"
    },
    {
      "nom": "El Menchia Beach",
      "categorie": "Hôtel",
      "priceRange": "€€",
      "mapsUrl": "https://maps.google.com/?q=35.8650041,10.6078093",
      "lat": 35.8650041,
      "lng": 10.6078093,
      "halalFriendly": false,
      "bookingUrl": "https://maps.google.com/?q=35.8650041,10.6078093",
      "source": "osm"
    },
    {
      "nom": "Dreams Beach",
      "categorie": "Hôtel",
      "priceRange": "€€€",
      "score": 3,
      "mapsUrl": "https://maps.google.com/?q=35.8668687,10.6107407",
      "lat": 35.8668687,
      "lng": 10.6107407,
      "halalFriendly": false,
      "bookingUrl": "https://maps.google.com/?q=35.8668687,10.6107407",
      "source": "osm"
    },
    {
      "nom": "Hôtel El Menchia",
      "categorie": "Hôtel",
      "priceRange": "€€",
      "mapsUrl": "https://maps.google.com/?q=35.8675004,10.6106135",
      "lat": 35.8675004,
      "lng": 10.6106135,
      "halalFriendly": false,
      "bookingUrl": "https://hotelelmenchia.com",
      "source": "osm"
    },
    {
      "nom": "Hôtel Riviera",
      "categorie": "Hôtel",
      "priceRange": "€€",
      "mapsUrl": "https://maps.google.com/?q=35.8668009,10.6054261",
      "lat": 35.8668009,
      "lng": 10.6054261,
      "halalFriendly": false,
      "bookingUrl": "https://maps.google.com/?q=35.8668009,10.6054261",
      "source": "osm"
    },
    {
      "nom": "Hôtel Cleopatra",
      "categorie": "Hôtel",
      "priceRange": "€€",
      "mapsUrl": "https://maps.google.com/?q=35.8679902,10.605166",
      "lat": 35.8679902,
      "lng": 10.605166,
      "halalFriendly": false,
      "bookingUrl": "https://maps.google.com/?q=35.8679902,10.605166",
      "source": "osm"
    },
    {
      "nom": "El Mouradi ****",
      "categorie": "Hôtel",
      "priceRange": "€€",
      "mapsUrl": "https://maps.google.com/?q=35.7840303,10.6886313",
      "lat": 35.7840303,
      "lng": 10.6886313,
      "halalFriendly": false,
      "bookingUrl": "https://maps.google.com/?q=35.7840303,10.6886313",
      "source": "osm"
    },
    {
      "nom": "Eden Club",
      "categorie": "Hôtel",
      "priceRange": "€€€",
      "score": 3,
      "mapsUrl": "https://maps.google.com/?q=35.7838706,10.6890197",
      "lat": 35.7838706,
      "lng": 10.6890197,
      "halalFriendly": false,
      "bookingUrl": "https://maps.google.com/?q=35.7838706,10.6890197",
      "source": "osm"
    },
    {
      "nom": "Palm Inn Monastir",
      "categorie": "Hôtel",
      "priceRange": "€€€",
      "score": 3,
      "mapsUrl": "https://maps.google.com/?q=35.783287,10.690712",
      "lat": 35.783287,
      "lng": 10.690712,
      "halalFriendly": false,
      "bookingUrl": "https://maps.google.com/?q=35.783287,10.690712",
      "source": "osm"
    },
    {
      "nom": "El Mouradi Skanes",
      "categorie": "Hôtel",
      "priceRange": "€€",
      "mapsUrl": "https://maps.google.com/?q=35.7834104,10.6920504",
      "lat": 35.7834104,
      "lng": 10.6920504,
      "halalFriendly": false,
      "bookingUrl": "https://maps.google.com/?q=35.7834104,10.6920504",
      "source": "osm"
    },
    {
      "nom": "Blue Star Hotels (Palmyra Holiday)",
      "categorie": "Hôtel",
      "priceRange": "€€€€",
      "score": 4,
      "mapsUrl": "https://maps.google.com/?q=35.7827226,10.6923194",
      "lat": 35.7827226,
      "lng": 10.6923194,
      "halalFriendly": false,
      "bookingUrl": "https://maps.google.com/?q=35.7827226,10.6923194",
      "source": "osm"
    },
    {
      "nom": "Houda Golf & Beach Club",
      "categorie": "Hôtel",
      "priceRange": "€€€",
      "score": 3,
      "mapsUrl": "https://maps.google.com/?q=35.7821035,10.6938147",
      "lat": 35.7821035,
      "lng": 10.6938147,
      "halalFriendly": false,
      "bookingUrl": "https://maps.google.com/?q=35.7821035,10.6938147",
      "source": "osm"
    },
    {
      "nom": "Alassio Hotel and Thalasso",
      "categorie": "Hôtel",
      "priceRange": "€€",
      "mapsUrl": "https://maps.google.com/?q=35.7817966,10.6958226",
      "lat": 35.7817966,
      "lng": 10.6958226,
      "halalFriendly": false,
      "bookingUrl": "https://maps.google.com/?q=35.7817966,10.6958226",
      "source": "osm"
    },
    {
      "nom": "Caruso Palace Hotel",
      "categorie": "Hôtel",
      "priceRange": "€€",
      "mapsUrl": "https://maps.google.com/?q=35.885049,10.5993062",
      "lat": 35.885049,
      "lng": 10.5993062,
      "halalFriendly": false,
      "bookingUrl": "https://maps.google.com/?q=35.885049,10.5993062",
      "source": "osm"
    },
    {
      "nom": "Chiraz Club",
      "categorie": "Hôtel",
      "priceRange": "€€",
      "mapsUrl": "https://maps.google.com/?q=35.7798924,10.6985174",
      "lat": 35.7798924,
      "lng": 10.6985174,
      "halalFriendly": false,
      "bookingUrl": "https://maps.google.com/?q=35.7798924,10.6985174",
      "source": "osm"
    },
    {
      "nom": "Hôtel El Kantaoui Center",
      "categorie": "Hôtel",
      "priceRange": "€€",
      "mapsUrl": "https://maps.google.com/?q=35.8875515,10.5972972",
      "lat": 35.8875515,
      "lng": 10.5972972,
      "halalFriendly": false,
      "bookingUrl": "https://maps.google.com/?q=35.8875515,10.5972972",
      "source": "osm"
    },
    {
      "nom": "Hasdrubal Thalassa & Spa Port El Kantaoui",
      "categorie": "Hôtel",
      "priceRange": "€€€€",
      "score": 4,
      "mapsUrl": "https://maps.google.com/?q=35.8898591,10.5984871",
      "lat": 35.8898591,
      "lng": 10.5984871,
      "halalFriendly": false,
      "bookingUrl": "http://maps.google.fr/maps?hl=fr&q=sousse%20tunisie&wrapid=tlif129810578265611&um=1&ie=UTF-8&sa=N&tab=wl",
      "source": "osm"
    },
    {
      "nom": "Houria Palace",
      "categorie": "Hôtel",
      "priceRange": "€€€€",
      "score": 4,
      "mapsUrl": "https://maps.google.com/?q=35.888466,10.5951051",
      "lat": 35.888466,
      "lng": 10.5951051,
      "halalFriendly": false,
      "bookingUrl": "https://maps.google.com/?q=35.888466,10.5951051",
      "source": "osm"
    },
    {
      "nom": "Hôtel Golf Residence",
      "categorie": "Hôtel",
      "priceRange": "€€",
      "mapsUrl": "https://maps.google.com/?q=35.8895161,10.5935219",
      "lat": 35.8895161,
      "lng": 10.5935219,
      "halalFriendly": false,
      "bookingUrl": "https://maps.google.com/?q=35.8895161,10.5935219",
      "source": "osm"
    },
    {
      "nom": "نزل كاريبيين ورلد المنستير",
      "categorie": "Hôtel",
      "priceRange": "€€€€",
      "score": 4,
      "mapsUrl": "https://maps.google.com/?q=35.7760866,10.7030141",
      "lat": 35.7760866,
      "lng": 10.7030141,
      "halalFriendly": false,
      "bookingUrl": "https://maps.google.com/?q=35.7760866,10.7030141",
      "source": "osm"
    },
    {
      "nom": "Hannibal palace",
      "categorie": "Hôtel",
      "priceRange": "€€€€",
      "score": 4,
      "mapsUrl": "https://maps.google.com/?q=35.8914659,10.5978996",
      "lat": 35.8914659,
      "lng": 10.5978996,
      "halalFriendly": false,
      "bookingUrl": "https://maps.google.com/?q=35.8914659,10.5978996",
      "source": "osm"
    },
    {
      "nom": "فندق الإقامة القنطاوي",
      "categorie": "Hôtel",
      "priceRange": "€€",
      "mapsUrl": "https://maps.google.com/?q=35.8907904,10.5937353",
      "lat": 35.8907904,
      "lng": 10.5937353,
      "halalFriendly": false,
      "bookingUrl": "https://maps.google.com/?q=35.8907904,10.5937353",
      "source": "osm"
    },
    {
      "nom": "Village Vacances El Shems",
      "categorie": "Hôtel",
      "priceRange": "€€",
      "mapsUrl": "https://maps.google.com/?q=35.7749747,10.7063333",
      "lat": 35.7749747,
      "lng": 10.7063333,
      "halalFriendly": false,
      "bookingUrl": "https://maps.google.com/?q=35.7749747,10.7063333",
      "source": "osm"
    },
    {
      "nom": "Hôtel Kanta",
      "categorie": "Hôtel",
      "priceRange": "€€€€",
      "score": 4,
      "mapsUrl": "https://maps.google.com/?q=35.8941626,10.5933586",
      "lat": 35.8941626,
      "lng": 10.5933586,
      "halalFriendly": false,
      "bookingUrl": "https://www.hotel-kanta.com/francais/hotel/presentation.htm",
      "source": "osm"
    },
    {
      "nom": "Mediterranean Dreams Miramar",
      "categorie": "Hôtel",
      "priceRange": "€€€",
      "score": 3,
      "mapsUrl": "https://maps.google.com/?q=35.8955362,10.5965353",
      "lat": 35.8955362,
      "lng": 10.5965353,
      "halalFriendly": false,
      "bookingUrl": "http://medwebdesignbooking.com/allbooking/Medi/Fr/Home.htm",
      "source": "osm"
    },
    {
      "nom": "Club Rosa Rivage",
      "categorie": "Hôtel",
      "priceRange": "€€€€",
      "score": 4,
      "mapsUrl": "https://maps.google.com/?q=35.7732821,10.7098524",
      "lat": 35.7732821,
      "lng": 10.7098524,
      "halalFriendly": false,
      "bookingUrl": "https://maps.google.com/?q=35.7732821,10.7098524",
      "source": "osm"
    },
    {
      "nom": "Marhaba Palace",
      "categorie": "Hôtel",
      "priceRange": "€€€€",
      "score": 4,
      "mapsUrl": "https://maps.google.com/?q=35.8967264,10.5934552",
      "lat": 35.8967264,
      "lng": 10.5934552,
      "halalFriendly": false,
      "bookingUrl": "http://marhabahotels.com.tn",
      "source": "osm"
    },
    {
      "nom": "Garden Beach",
      "categorie": "Hôtel",
      "priceRange": "€€",
      "mapsUrl": "https://maps.google.com/?q=35.7724542,10.7116578",
      "lat": 35.7724542,
      "lng": 10.7116578,
      "halalFriendly": false,
      "bookingUrl": "https://maps.google.com/?q=35.7724542,10.7116578",
      "source": "osm"
    },
    {
      "nom": "Hôtel Concorde Green Park",
      "categorie": "Hôtel",
      "priceRange": "€€€€",
      "score": 5,
      "mapsUrl": "https://maps.google.com/?q=35.8979091,10.5923003",
      "lat": 35.8979091,
      "lng": 10.5923003,
      "halalFriendly": false,
      "bookingUrl": "https://maps.google.com/?q=35.8979091,10.5923003",
      "source": "osm"
    }
  ],
  "mosqueesPrincipales": [
    {
      "nom": "Mosquée Badreddine",
      "lat": 35.8239851,
      "lng": 10.6382152,
      "coordonnees": {
        "lat": 35.8239851,
        "lng": 10.6382152
      },
      "mapsUrl": "https://maps.google.com/?q=35.8239851,10.6382152",
      "source": "osm"
    },
    {
      "nom": "Mosquée Bou Ftata",
      "lat": 35.8227951,
      "lng": 10.6380666,
      "coordonnees": {
        "lat": 35.8227951,
        "lng": 10.6380666
      },
      "mapsUrl": "https://maps.google.com/?q=35.8227951,10.6380666",
      "source": "osm"
    },
    {
      "nom": "مسجد التوبة",
      "lat": 35.8319076,
      "lng": 10.6336229,
      "coordonnees": {
        "lat": 35.8319076,
        "lng": 10.6336229
      },
      "mapsUrl": "https://maps.google.com/?q=35.8319076,10.6336229",
      "source": "osm"
    },
    {
      "nom": "Mosquée",
      "lat": 35.8281627,
      "lng": 10.6281029,
      "coordonnees": {
        "lat": 35.8281627,
        "lng": 10.6281029
      },
      "mapsUrl": "https://maps.google.com/?q=35.8281627,10.6281029",
      "source": "osm"
    },
    {
      "nom": "مسجد بوجعفر",
      "lat": 35.8339082,
      "lng": 10.6388766,
      "coordonnees": {
        "lat": 35.8339082,
        "lng": 10.6388766
      },
      "adresse": "سوسة",
      "mapsUrl": "https://maps.google.com/?q=35.8339082,10.6388766",
      "source": "osm"
    },
    {
      "nom": "مسجد الغفران",
      "lat": 35.8250094,
      "lng": 10.6249822,
      "coordonnees": {
        "lat": 35.8250094,
        "lng": 10.6249822
      },
      "mapsUrl": "https://maps.google.com/?q=35.8250094,10.6249822",
      "source": "osm"
    },
    {
      "nom": "Mosque Bilel Ben Rabeh",
      "lat": 35.8121662,
      "lng": 10.6135771,
      "coordonnees": {
        "lat": 35.8121662,
        "lng": 10.6135771
      },
      "mapsUrl": "https://maps.google.com/?q=35.8121662,10.6135771",
      "source": "osm"
    },
    {
      "nom": "جامع التقوى",
      "lat": 35.803657,
      "lng": 10.6142854,
      "coordonnees": {
        "lat": 35.803657,
        "lng": 10.6142854
      },
      "mapsUrl": "https://maps.google.com/?q=35.803657,10.6142854",
      "source": "osm"
    },
    {
      "nom": "Mosquée El Eriane",
      "lat": 35.8585845,
      "lng": 10.5908531,
      "coordonnees": {
        "lat": 35.8585845,
        "lng": 10.5908531
      },
      "mapsUrl": "https://maps.google.com/?q=35.8585845,10.5908531",
      "source": "osm"
    },
    {
      "nom": "Grande Mosquée de Hammam-Sousse",
      "lat": 35.8604063,
      "lng": 10.591546,
      "coordonnees": {
        "lat": 35.8604063,
        "lng": 10.591546
      },
      "mapsUrl": "https://maps.google.com/?q=35.8604063,10.591546",
      "source": "osm"
    },
    {
      "nom": "Mosquée Sidi Abdel Kader",
      "lat": 35.8596179,
      "lng": 10.5874801,
      "coordonnees": {
        "lat": 35.8596179,
        "lng": 10.5874801
      },
      "mapsUrl": "https://maps.google.com/?q=35.8596179,10.5874801",
      "source": "osm"
    },
    {
      "nom": "جامع عمر الفاروق - Mosqué Omar El Farouk",
      "lat": 35.8737287,
      "lng": 10.601983,
      "coordonnees": {
        "lat": 35.8737287,
        "lng": 10.601983
      },
      "mapsUrl": "https://maps.google.com/?q=35.8737287,10.601983",
      "source": "osm"
    },
    {
      "nom": "Mosquée Elizdihar Akouda",
      "lat": 35.8707484,
      "lng": 10.57102,
      "coordonnees": {
        "lat": 35.8707484,
        "lng": 10.57102
      },
      "mapsUrl": "https://maps.google.com/?q=35.8707484,10.57102",
      "source": "osm"
    },
    {
      "nom": "جامع الرحبة",
      "lat": 35.7639037,
      "lng": 10.5959537,
      "coordonnees": {
        "lat": 35.7639037,
        "lng": 10.5959537
      },
      "mapsUrl": "https://maps.google.com/?q=35.7639037,10.5959537",
      "source": "osm"
    },
    {
      "nom": "جامع السلام",
      "lat": 35.7598123,
      "lng": 10.5948794,
      "coordonnees": {
        "lat": 35.7598123,
        "lng": 10.5948794
      },
      "mapsUrl": "https://maps.google.com/?q=35.7598123,10.5948794",
      "source": "osm"
    },
    {
      "nom": "جامع الغفران الحي الشرقي",
      "lat": 35.8733952,
      "lng": 10.5458123,
      "coordonnees": {
        "lat": 35.8733952,
        "lng": 10.5458123
      },
      "mapsUrl": "https://maps.google.com/?q=35.8733952,10.5458123",
      "source": "osm"
    },
    {
      "nom": "Grande Mosquée de Sahline",
      "lat": 35.7528681,
      "lng": 10.7096364,
      "coordonnees": {
        "lat": 35.7528681,
        "lng": 10.7096364
      },
      "mapsUrl": "https://maps.google.com/?q=35.7528681,10.7096364",
      "source": "osm"
    },
    {
      "nom": "المسجد الجبلي",
      "lat": 35.8723756,
      "lng": 10.535521,
      "coordonnees": {
        "lat": 35.8723756,
        "lng": 10.535521
      },
      "mapsUrl": "https://maps.google.com/?q=35.8723756,10.535521",
      "source": "osm"
    },
    {
      "nom": "Mosquée Essouk",
      "lat": 35.751963,
      "lng": 10.7119972,
      "coordonnees": {
        "lat": 35.751963,
        "lng": 10.7119972
      },
      "mapsUrl": "https://maps.google.com/?q=35.751963,10.7119972",
      "source": "osm"
    },
    {
      "nom": "جامع الرحمة",
      "lat": 35.7488907,
      "lng": 10.7136014,
      "coordonnees": {
        "lat": 35.7488907,
        "lng": 10.7136014
      },
      "adresse": "شارع علي بلهوان, الساحلين",
      "mapsUrl": "https://maps.google.com/?q=35.7488907,10.7136014",
      "source": "osm"
    },
    {
      "nom": "Mosquée \"El Baraka\"",
      "lat": 35.7459351,
      "lng": 10.7204793,
      "coordonnees": {
        "lat": 35.7459351,
        "lng": 10.7204793
      },
      "adresse": "Ain Amara, Sahline",
      "mapsUrl": "https://maps.google.com/?q=35.7459351,10.7204793",
      "source": "osm"
    },
    {
      "nom": "الجامع الكبير",
      "lat": 35.7291451,
      "lng": 10.5796662,
      "coordonnees": {
        "lat": 35.7291451,
        "lng": 10.5796662
      },
      "mapsUrl": "https://maps.google.com/?q=35.7291451,10.5796662",
      "source": "osm"
    },
    {
      "nom": "الجامع الكبير بالوردانين",
      "lat": 35.7092768,
      "lng": 10.6762113,
      "coordonnees": {
        "lat": 35.7092768,
        "lng": 10.6762113
      },
      "mapsUrl": "https://maps.google.com/?q=35.7092768,10.6762113",
      "source": "osm"
    },
    {
      "nom": "جامع عيسى ابن مسكين",
      "lat": 35.7216762,
      "lng": 10.7142431,
      "coordonnees": {
        "lat": 35.7216762,
        "lng": 10.7142431
      },
      "mapsUrl": "https://maps.google.com/?q=35.7216762,10.7142431",
      "source": "osm"
    },
    {
      "nom": "جامع الهداية",
      "lat": 35.7012028,
      "lng": 10.5898934,
      "coordonnees": {
        "lat": 35.7012028,
        "lng": 10.5898934
      },
      "adresse": "Beni Khaltoum",
      "mapsUrl": "https://maps.google.com/?q=35.7012028,10.5898934",
      "source": "osm"
    },
    {
      "nom": "مسجد الإحسان",
      "lat": 35.7732011,
      "lng": 10.7893523,
      "coordonnees": {
        "lat": 35.7732011,
        "lng": 10.7893523
      },
      "mapsUrl": "https://maps.google.com/?q=35.7732011,10.7893523",
      "source": "osm"
    },
    {
      "nom": "جامع الصيادي",
      "lat": 35.7748427,
      "lng": 10.7950291,
      "coordonnees": {
        "lat": 35.7748427,
        "lng": 10.7950291
      },
      "mapsUrl": "https://maps.google.com/?q=35.7748427,10.7950291",
      "source": "osm"
    },
    {
      "nom": "جامع منزل خير",
      "lat": 35.6972039,
      "lng": 10.7099648,
      "coordonnees": {
        "lat": 35.6972039,
        "lng": 10.7099648
      },
      "mapsUrl": "https://maps.google.com/?q=35.6972039,10.7099648",
      "source": "osm"
    },
    {
      "nom": "Mosquée Arrazzak",
      "lat": 35.7635347,
      "lng": 10.8033654,
      "coordonnees": {
        "lat": 35.7635347,
        "lng": 10.8033654
      },
      "mapsUrl": "https://maps.google.com/?q=35.7635347,10.8033654",
      "source": "osm"
    },
    {
      "nom": "Mosquée Omar Ibn Al Khattab",
      "lat": 35.7023369,
      "lng": 10.7434587,
      "coordonnees": {
        "lat": 35.7023369,
        "lng": 10.7434587
      },
      "mapsUrl": "https://maps.google.com/?q=35.7023369,10.7434587",
      "source": "osm"
    },
    {
      "nom": "جامع التوفيق السواني",
      "lat": 35.778842,
      "lng": 10.818657,
      "coordonnees": {
        "lat": 35.778842,
        "lng": 10.818657
      },
      "mapsUrl": "https://maps.google.com/?q=35.778842,10.818657",
      "source": "osm"
    },
    {
      "nom": "جامع التوبة",
      "lat": 35.7719193,
      "lng": 10.816673,
      "coordonnees": {
        "lat": 35.7719193,
        "lng": 10.816673
      },
      "adresse": "المنستير",
      "mapsUrl": "https://maps.google.com/?q=35.7719193,10.816673",
      "source": "osm"
    },
    {
      "nom": "Mosquée Sidi Nasr",
      "lat": 35.7577266,
      "lng": 10.812249,
      "coordonnees": {
        "lat": 35.7577266,
        "lng": 10.812249
      },
      "adresse": "المنستير",
      "mapsUrl": "https://maps.google.com/?q=35.7577266,10.812249",
      "source": "osm"
    },
    {
      "nom": "R4",
      "lat": 35.7719149,
      "lng": 10.8205625,
      "coordonnees": {
        "lat": 35.7719149,
        "lng": 10.8205625
      },
      "adresse": "المنستير",
      "mapsUrl": "https://maps.google.com/?q=35.7719149,10.8205625",
      "source": "osm"
    },
    {
      "nom": "جامع الغفران",
      "lat": 35.7676684,
      "lng": 10.818954,
      "coordonnees": {
        "lat": 35.7676684,
        "lng": 10.818954
      },
      "mapsUrl": "https://maps.google.com/?q=35.7676684,10.818954",
      "source": "osm"
    },
    {
      "nom": "جامع بني ربيعة",
      "lat": 35.6752489,
      "lng": 10.5730274,
      "coordonnees": {
        "lat": 35.6752489,
        "lng": 10.5730274
      },
      "mapsUrl": "https://maps.google.com/?q=35.6752489,10.5730274",
      "source": "osm"
    }
  ],
  "activites": [
    {
      "id": "a1",
      "nom": "Médina de Sousse (UNESCO)",
      "categorie": "Culture",
      "description": "Remparts, souks et ruelles blanches.",
      "prix": "Gratuit",
      "duree": "",
      "mapsUrl": "https://maps.google.com/?q=M%C3%A9dina%20de%20Sousse%20%28UNESCO%29%20Sousse"
    },
    {
      "id": "a2",
      "nom": "Ribat de Sousse",
      "categorie": "Histoire",
      "description": "Forteresse-monastère du VIIIe siècle.",
      "prix": "Payant",
      "duree": "",
      "mapsUrl": "https://maps.google.com/?q=Ribat%20de%20Sousse%20Sousse",
      "lat": 35.8274786,
      "lng": 10.638952,
      "geocoded": true
    },
    {
      "id": "a3",
      "nom": "Grande Mosquée de Sousse",
      "categorie": "Spirituel",
      "description": "Mosquée fortifiée du IXe siècle.",
      "prix": "Gratuit",
      "duree": "",
      "mapsUrl": "https://maps.google.com/?q=Grande%20Mosqu%C3%A9e%20de%20Sousse%20Sousse",
      "lat": 35.8268877,
      "lng": 10.6398781,
      "geocoded": true
    },
    {
      "nom": "Mosque",
      "lat": 35.8260693,
      "lng": 10.6356537,
      "coordonnees": {
        "lat": 35.8260693,
        "lng": 10.6356537
      },
      "categorie": "À voir",
      "mapsUrl": "https://maps.google.com/?q=35.8260693,10.6356537",
      "source": "osm"
    },
    {
      "nom": "Kobba - Musée Arts & Trad. Populaires",
      "lat": 35.8250009,
      "lng": 10.6382869,
      "coordonnees": {
        "lat": 35.8250009,
        "lng": 10.6382869
      },
      "categorie": "Culture",
      "mapsUrl": "https://maps.google.com/?q=35.8250009,10.6382869",
      "source": "osm"
    },
    {
      "nom": "Musée Dar Essid",
      "lat": 35.8271516,
      "lng": 10.6354408,
      "coordonnees": {
        "lat": 35.8271516,
        "lng": 10.6354408
      },
      "categorie": "Culture",
      "mapsUrl": "https://maps.google.com/?q=35.8271516,10.6354408",
      "source": "osm"
    },
    {
      "nom": "المتحف الأثري بسوسة",
      "lat": 35.8231085,
      "lng": 10.6355756,
      "coordonnees": {
        "lat": 35.8231085,
        "lng": 10.6355756
      },
      "categorie": "Culture",
      "mapsUrl": "https://maps.google.com/?q=35.8231085,10.6355756",
      "source": "osm"
    },
    {
      "nom": "Bab el Jebli",
      "lat": 35.8281974,
      "lng": 10.6383096,
      "coordonnees": {
        "lat": 35.8281974,
        "lng": 10.6383096
      },
      "categorie": "Histoire",
      "mapsUrl": "https://maps.google.com/?q=35.8281974,10.6383096",
      "source": "osm"
    },
    {
      "nom": "Roman column",
      "lat": 35.8226855,
      "lng": 10.639499,
      "coordonnees": {
        "lat": 35.8226855,
        "lng": 10.639499
      },
      "categorie": "Histoire",
      "mapsUrl": "https://maps.google.com/?q=35.8226855,10.639499",
      "source": "osm"
    },
    {
      "nom": "Bab el Kebli",
      "lat": 35.8218531,
      "lng": 10.6377763,
      "coordonnees": {
        "lat": 35.8218531,
        "lng": 10.6377763
      },
      "categorie": "Histoire",
      "mapsUrl": "https://maps.google.com/?q=35.8218531,10.6377763",
      "source": "osm"
    },
    {
      "nom": "بيت ثقافة بسوسة",
      "lat": 35.8288036,
      "lng": 10.6340351,
      "coordonnees": {
        "lat": 35.8288036,
        "lng": 10.6340351
      },
      "categorie": "À voir",
      "mapsUrl": "https://maps.google.com/?q=35.8288036,10.6340351",
      "source": "osm"
    },
    {
      "nom": "Bateau Pirate Sousse",
      "lat": 35.825988,
      "lng": 10.6420848,
      "coordonnees": {
        "lat": 35.825988,
        "lng": 10.6420848
      },
      "categorie": "Histoire",
      "mapsUrl": "https://maps.google.com/?q=35.825988,10.6420848",
      "source": "osm"
    },
    {
      "nom": "Mansour Mathlouthi Photographe et Vidéo professionel",
      "lat": 35.8230193,
      "lng": 10.6299747,
      "coordonnees": {
        "lat": 35.8230193,
        "lng": 10.6299747
      },
      "categorie": "À voir",
      "mapsUrl": "https://maps.google.com/?q=35.8230193,10.6299747",
      "source": "osm"
    },
    {
      "nom": "Maison Am Taieb d'art contemporain",
      "lat": 35.8214701,
      "lng": 10.630186,
      "coordonnees": {
        "lat": 35.8214701,
        "lng": 10.630186
      },
      "categorie": "Culture",
      "mapsUrl": "https://maps.google.com/?q=35.8214701,10.630186",
      "source": "osm"
    },
    {
      "nom": "Lazer Déco",
      "lat": 35.8318554,
      "lng": 10.6334727,
      "coordonnees": {
        "lat": 35.8318554,
        "lng": 10.6334727
      },
      "categorie": "À voir",
      "mapsUrl": "https://maps.google.com/?q=35.8318554,10.6334727",
      "source": "osm"
    },
    {
      "nom": "Catacombes",
      "lat": 35.8181377,
      "lng": 10.6263994,
      "coordonnees": {
        "lat": 35.8181377,
        "lng": 10.6263994
      },
      "categorie": "Histoire",
      "mapsUrl": "https://maps.google.com/?q=35.8181377,10.6263994",
      "source": "osm"
    },
    {
      "nom": "Cimetière",
      "lat": 35.83423,
      "lng": 10.6179266,
      "coordonnees": {
        "lat": 35.83423,
        "lng": 10.6179266
      },
      "categorie": "Histoire",
      "mapsUrl": "https://maps.google.com/?q=35.83423,10.6179266",
      "source": "osm"
    },
    {
      "nom": "IMMEUBLE BIB RCHD 1",
      "lat": 35.8425767,
      "lng": 10.5986041,
      "coordonnees": {
        "lat": 35.8425767,
        "lng": 10.5986041
      },
      "categorie": "Histoire",
      "mapsUrl": "https://maps.google.com/?q=35.8425767,10.5986041",
      "source": "osm"
    },
    {
      "nom": "الشقة",
      "lat": 35.8678825,
      "lng": 10.6040256,
      "coordonnees": {
        "lat": 35.8678825,
        "lng": 10.6040256
      },
      "categorie": "À voir",
      "mapsUrl": "https://maps.google.com/?q=35.8678825,10.6040256",
      "source": "osm"
    },
    {
      "nom": "Hadhoud",
      "lat": 35.8675391,
      "lng": 10.5993459,
      "coordonnees": {
        "lat": 35.8675391,
        "lng": 10.5993459
      },
      "categorie": "Famille",
      "mapsUrl": "https://maps.google.com/?q=35.8675391,10.5993459",
      "source": "osm"
    },
    {
      "nom": "Cartago Film",
      "lat": 35.8692883,
      "lng": 10.5863141,
      "coordonnees": {
        "lat": 35.8692883,
        "lng": 10.5863141
      },
      "categorie": "À voir",
      "mapsUrl": "https://maps.google.com/?q=35.8692883,10.5863141",
      "source": "osm"
    },
    {
      "nom": "سيدي القنطاوي",
      "lat": 35.8866813,
      "lng": 10.5940388,
      "coordonnees": {
        "lat": 35.8866813,
        "lng": 10.5940388
      },
      "categorie": "Histoire",
      "mapsUrl": "https://maps.google.com/?q=35.8866813,10.5940388",
      "source": "osm"
    },
    {
      "nom": "manège kantaoui",
      "lat": 35.891479,
      "lng": 10.5953649,
      "coordonnees": {
        "lat": 35.891479,
        "lng": 10.5953649
      },
      "categorie": "À voir",
      "mapsUrl": "https://maps.google.com/?q=35.891479,10.5953649",
      "source": "osm"
    },
    {
      "nom": "Maison Mohamed Ezzine",
      "lat": 35.7510377,
      "lng": 10.6898568,
      "coordonnees": {
        "lat": 35.7510377,
        "lng": 10.6898568
      },
      "categorie": "Histoire",
      "mapsUrl": "https://maps.google.com/?q=35.7510377,10.6898568",
      "source": "osm"
    },
    {
      "nom": "Chateau de Meriem",
      "lat": 35.7532335,
      "lng": 10.7132563,
      "coordonnees": {
        "lat": 35.7532335,
        "lng": 10.7132563
      },
      "categorie": "Histoire",
      "mapsUrl": "https://maps.google.com/?q=35.7532335,10.7132563",
      "source": "osm"
    },
    {
      "nom": "مفترق البجعات بالساحلين",
      "lat": 35.7512749,
      "lng": 10.7116793,
      "coordonnees": {
        "lat": 35.7512749,
        "lng": 10.7116793
      },
      "categorie": "Histoire",
      "mapsUrl": "https://maps.google.com/?q=35.7512749,10.7116793",
      "source": "osm"
    },
    {
      "nom": "منتزه سيدي عامر",
      "lat": 35.7436609,
      "lng": 10.7010044,
      "coordonnees": {
        "lat": 35.7436609,
        "lng": 10.7010044
      },
      "categorie": "Nature",
      "mapsUrl": "https://maps.google.com/?q=35.7436609,10.7010044",
      "source": "osm"
    },
    {
      "nom": "تمثال الكرة الأرضية",
      "lat": 35.7387397,
      "lng": 10.7039755,
      "coordonnees": {
        "lat": 35.7387397,
        "lng": 10.7039755
      },
      "categorie": "Histoire",
      "mapsUrl": "https://maps.google.com/?q=35.7387397,10.7039755",
      "source": "osm"
    },
    {
      "nom": "حديقة",
      "lat": 35.7393699,
      "lng": 10.7057476,
      "coordonnees": {
        "lat": 35.7393699,
        "lng": 10.7057476
      },
      "categorie": "Nature",
      "mapsUrl": "https://maps.google.com/?q=35.7393699,10.7057476",
      "source": "osm"
    },
    {
      "nom": "Oil factory",
      "lat": 35.7234534,
      "lng": 10.5747244,
      "coordonnees": {
        "lat": 35.7234534,
        "lng": 10.5747244
      },
      "categorie": "À voir",
      "mapsUrl": "https://maps.google.com/?q=35.7234534,10.5747244",
      "source": "osm"
    },
    {
      "nom": "Medinat Alzahra Parc",
      "lat": 35.8791405,
      "lng": 10.4945262,
      "coordonnees": {
        "lat": 35.8791405,
        "lng": 10.4945262
      },
      "categorie": "À voir",
      "mapsUrl": "https://maps.google.com/?q=35.8791405,10.4945262",
      "source": "osm"
    },
    {
      "nom": "Palais Présidentiel de Bourguiba",
      "lat": 35.7784819,
      "lng": 10.7841109,
      "coordonnees": {
        "lat": 35.7784819,
        "lng": 10.7841109
      },
      "categorie": "Culture",
      "mapsUrl": "https://maps.google.com/?q=35.7784819,10.7841109",
      "source": "osm"
    },
    {
      "nom": "Habib Bourguiba",
      "lat": 35.7737096,
      "lng": 10.7845764,
      "coordonnees": {
        "lat": 35.7737096,
        "lng": 10.7845764
      },
      "categorie": "Histoire",
      "mapsUrl": "https://maps.google.com/?q=35.7737096,10.7845764",
      "source": "osm"
    },
    {
      "nom": "Falaise Park",
      "lat": 35.7837818,
      "lng": 10.8106181,
      "coordonnees": {
        "lat": 35.7837818,
        "lng": 10.8106181
      },
      "categorie": "Nature",
      "mapsUrl": "https://maps.google.com/?q=35.7837818,10.8106181",
      "source": "osm"
    },
    {
      "nom": "Cité Remada",
      "lat": 35.7637971,
      "lng": 10.8165142,
      "coordonnees": {
        "lat": 35.7637971,
        "lng": 10.8165142
      },
      "categorie": "À voir",
      "mapsUrl": "https://maps.google.com/?q=35.7637971,10.8165142",
      "source": "osm"
    }
  ],
  "imageCredit": "Wikimedia Commons",
  "osmEnriched": true,
  "osmEnrichedAt": "2026-06-30",
  "description_en": "Sousse, in Tunisia, is a halal-friendly destination with a Halal Trust Score of 4.5/5. Muslim travelers will find 8 halal restaurants listed, 1 mosques, real-time prayer times and the Qibla direction — a complete guide to travel with peace of mind.",
  "metaDescription_en": "Halal guide to Sousse: 8 halal restaurants listed, 1 mosques, prayer times and tips for Muslim travelers. Halal Trust Score 4.5/5.",
  "nom_en": "Sousse",
  "boucheries": []
}