{
 "slug": "sousse",
 "nom": "Sousse",
 "pays": "Tunisie",
 "pays_slug": "tunisie",
 "continent": "Afrique",
 "region": "Afrique du Nord",
 "coordonnees": {
  "lat": 35.8256,
  "lng": 10.6369
 },
 "codeISO": "",
 "score_halal": 4.5,
 "halalScore": 9,
 "description": "'Perle du Sahel' tunisien, Sousse possède une médina classée UNESCO avec sa grande mosquée et son ribat, le long de plages méditerranéennes.",
 "image": "https://upload.wikimedia.org/wikipedia/commons/thumb/9/9e/Mus%C3%A9e_arch%C3%A9logique_de_Sousse%2C_Tunisie%2C_9_f%C3%A9vrier_2023%2C_ZVE02124.jpg/1920px-Mus%C3%A9e_arch%C3%A9logique_de_Sousse%2C_Tunisie%2C_9_f%C3%A9vrier_2023%2C_ZVE02124.jpg",
 "image_hero": "https://upload.wikimedia.org/wikipedia/commons/thumb/9/9e/Mus%C3%A9e_arch%C3%A9logique_de_Sousse%2C_Tunisie%2C_9_f%C3%A9vrier_2023%2C_ZVE02124.jpg/1920px-Mus%C3%A9e_arch%C3%A9logique_de_Sousse%2C_Tunisie%2C_9_f%C3%A9vrier_2023%2C_ZVE02124.jpg",
 "metaDescription": "'Perle du Sahel' tunisien, Sousse possède une médina classée UNESCO avec sa grande mosquée et son ribat, le long de plages méditerranéennes.",
 "statistiques": {
  "restaurants_halal": 3,
  "mosquees": 1,
  "hotels": 30
 },
 "infoPratique": {
  "transport": "Accessible par avion / transports locaux.",
  "meilleureEpoque": "Printemps et automne."
 },
 "tags": [
  "halal"
 ],
 "restaurants": [
  {
   "nom": "KFC Sousse Vicomte",
   "type": "burger",
   "priceRange": "€€",
   "mapsUrl": "https://maps.google.com/?q=35.8475346,10.6185512",
   "lat": 35.8475346,
   "lng": 10.6185512,
   "halalConfidence": "yes",
   "source": "osm"
  },
  {
   "nom": "WONDERFOOD",
   "type": "pizza, sandwich, chicken, regional, kebab",
   "priceRange": "€€",
   "mapsUrl": "https://maps.google.com/?q=35.8140167,10.6233646",
   "lat": 35.8140167,
   "lng": 10.6233646,
   "halalConfidence": "likely",
   "source": "osm"
  },
  {
   "nom": "مشاوي الغزالي",
   "type": "turkish",
   "priceRange": "€€",
   "mapsUrl": "https://maps.google.com/?q=35.8127525,10.605972",
   "lat": 35.8127525,
   "lng": 10.605972,
   "halalConfidence": "likely",
   "source": "osm"
  }
 ],
 "hotels": [
  {
   "nom": "Hotel Gabes",
   "categorie": "Hôtel",
   "priceRange": "€€",
   "mapsUrl": "https://maps.google.com/?q=35.8261374,10.6391774",
   "lat": 35.8261374,
   "lng": 10.6391774,
   "halalFriendly": false,
   "bookingUrl": "https://maps.google.com/?q=35.8261374,10.6391774",
   "source": "osm"
  },
  {
   "nom": "فندق المدينة",
   "categorie": "Hôtel",
   "priceRange": "€€",
   "mapsUrl": "https://maps.google.com/?q=35.8264234,10.6394085",
   "lat": 35.8264234,
   "lng": 10.6394085,
   "halalFriendly": false,
   "bookingUrl": "hotel-Medina.com",
   "source": "osm"
  },
  {
   "nom": "أميرة",
   "categorie": "Hôtel",
   "priceRange": "€€",
   "mapsUrl": "https://maps.google.com/?q=35.8249944,10.6396723",
   "lat": 35.8249944,
   "lng": 10.6396723,
   "halalFriendly": false,
   "bookingUrl": "https://maps.google.com/?q=35.8249944,10.6396723",
   "source": "osm"
  },
  {
   "nom": "emira hotel",
   "categorie": "Hôtel",
   "priceRange": "€€",
   "mapsUrl": "https://maps.google.com/?q=35.8255327,10.6398663",
   "lat": 35.8255327,
   "lng": 10.6398663,
   "halalFriendly": false,
   "bookingUrl": "https://maps.google.com/?q=35.8255327,10.6398663",
   "source": "osm"
  },
  {
   "nom": "Dar Antonia",
   "categorie": "Hôtel",
   "priceRange": "€€",
   "mapsUrl": "https://maps.google.com/?q=35.8236875,10.6393256",
   "lat": 35.8236875,
   "lng": 10.6393256,
   "halalFriendly": false,
   "bookingUrl": "https://maps.google.com/?q=35.8236875,10.6393256",
   "source": "osm"
  },
  {
   "nom": "Hôtel Paris",
   "categorie": "Hôtel",
   "priceRange": "€€",
   "mapsUrl": "https://maps.google.com/?q=35.8281663,10.6397227",
   "lat": 35.8281663,
   "lng": 10.6397227,
   "halalFriendly": false,
   "bookingUrl": "https://maps.google.com/?q=35.8281663,10.6397227",
   "source": "osm"
  },
  {
   "nom": "كلاريدج",
   "categorie": "Hôtel",
   "priceRange": "€€",
   "mapsUrl": "https://maps.google.com/?q=35.8300642,10.6403721",
   "lat": 35.8300642,
   "lng": 10.6403721,
   "halalFriendly": false,
   "bookingUrl": "https://maps.google.com/?q=35.8300642,10.6403721",
   "source": "osm"
  },
  {
   "nom": "Hotel Residence Momia",
   "categorie": "Hôtel",
   "priceRange": "€€",
   "mapsUrl": "https://maps.google.com/?q=35.8307152,10.6398371",
   "lat": 35.8307152,
   "lng": 10.6398371,
   "halalFriendly": false,
   "bookingUrl": "https://maps.google.com/?q=35.8307152,10.6398371",
   "source": "osm"
  },
  {
   "nom": "سوس بالاس",
   "categorie": "Hôtel",
   "priceRange": "€€",
   "mapsUrl": "https://maps.google.com/?q=35.8309135,10.6416093",
   "lat": 35.8309135,
   "lng": 10.6416093,
   "halalFriendly": false,
   "bookingUrl": "http://www.shdthotels.com/index.php/soussepalace",
   "source": "osm"
  },
  {
   "nom": "نزل رويال",
   "categorie": "Hôtel",
   "priceRange": "€€",
   "mapsUrl": "https://maps.google.com/?q=35.8338699,10.638403",
   "lat": 35.8338699,
   "lng": 10.638403,
   "halalFriendly": false,
   "bookingUrl": "https://maps.google.com/?q=35.8338699,10.638403",
   "source": "osm"
  },
  {
   "nom": "دار الكرى",
   "categorie": "Appartement",
   "priceRange": "€€",
   "mapsUrl": "https://maps.google.com/?q=35.8167019,10.6393672",
   "lat": 35.8167019,
   "lng": 10.6393672,
   "halalFriendly": false,
   "bookingUrl": "https://maps.google.com/?q=35.8167019,10.6393672",
   "source": "osm"
  },
  {
   "nom": "Justinia",
   "categorie": "Hôtel",
   "priceRange": "€€€",
   "score": 3,
   "mapsUrl": "https://maps.google.com/?q=35.8351826,10.637678",
   "lat": 35.8351826,
   "lng": 10.637678,
   "halalFriendly": false,
   "bookingUrl": "http://www.justinia.com.tn/",
   "source": "osm"
  },
  {
   "nom": "El Faracha",
   "categorie": "Hôtel",
   "priceRange": "€€€",
   "score": 3,
   "mapsUrl": "https://maps.google.com/?q=35.8352283,10.6363428",
   "lat": 35.8352283,
   "lng": 10.6363428,
   "halalFriendly": false,
   "bookingUrl": "https://maps.google.com/?q=35.8352283,10.6363428",
   "source": "osm"
  },
  {
   "nom": "La Gondole",
   "categorie": "Hôtel",
   "priceRange": "€€",
   "mapsUrl": "https://maps.google.com/?q=35.8354033,10.6378233",
   "lat": 35.8354033,
   "lng": 10.6378233,
   "halalFriendly": false,
   "bookingUrl": "https://maps.google.com/?q=35.8354033,10.6378233",
   "source": "osm"
  },
  {
   "nom": "Nawres Beach",
   "categorie": "Hôtel",
   "priceRange": "€€",
   "mapsUrl": "https://maps.google.com/?q=35.8355006,10.6360175",
   "lat": 35.8355006,
   "lng": 10.6360175,
   "halalFriendly": false,
   "bookingUrl": "https://maps.google.com/?q=35.8355006,10.6360175",
   "source": "osm"
  },
  {
   "nom": "Karawan",
   "categorie": "Hôtel",
   "priceRange": "€€",
   "mapsUrl": "https://maps.google.com/?q=35.8356762,10.6363294",
   "lat": 35.8356762,
   "lng": 10.6363294,
   "halalFriendly": false,
   "bookingUrl": "https://maps.google.com/?q=35.8356762,10.6363294",
   "source": "osm"
  },
  {
   "nom": "Résidence Boujaafar",
   "categorie": "Hôtel",
   "priceRange": "€€",
   "mapsUrl": "https://maps.google.com/?q=35.8357175,10.637476",
   "lat": 35.8357175,
   "lng": 10.637476,
   "halalFriendly": false,
   "bookingUrl": "https://maps.google.com/?q=35.8357175,10.637476",
   "source": "osm"
  },
  {
   "nom": "Prima Life Karawan",
   "categorie": "Hôtel",
   "priceRange": "€€€€",
   "score": 4,
   "mapsUrl": "https://maps.google.com/?q=35.8359143,10.6366529",
   "lat": 35.8359143,
   "lng": 10.6366529,
   "halalFriendly": false,
   "bookingUrl": "http://www.primalife-hotels.com/fr/index.php?ids=3&idpd=con&id=3&id_left=8",
   "source": "osm"
  },
  {
   "nom": "Abou Nawas Nejma Hotel",
   "categorie": "Hôtel",
   "priceRange": "€€€€",
   "score": 4,
   "mapsUrl": "https://maps.google.com/?q=35.8365067,10.6356725",
   "lat": 35.8365067,
   "lng": 10.6356725,
   "halalFriendly": false,
   "bookingUrl": "http://www.abounawas.com.tn/site/fr/home.php?id_article=1",
   "source": "osm"
  },
  {
   "nom": "دار",
   "categorie": "Maison d'hôtes",
   "priceRange": "€€",
   "mapsUrl": "https://maps.google.com/?q=35.8135994,10.6329442",
   "lat": 35.8135994,
   "lng": 10.6329442,
   "halalFriendly": false,
   "bookingUrl": "https://maps.google.com/?q=35.8135994,10.6329442",
   "source": "osm"
  },
  {
   "nom": "El Hana Beach",
   "categorie": "Hôtel",
   "priceRange": "€€€",
   "score": 3,
   "mapsUrl": "https://maps.google.com/?q=35.8385073,10.6331563",
   "lat": 35.8385073,
   "lng": 10.6331563,
   "halalFriendly": false,
   "bookingUrl": "https://maps.google.com/?q=35.8385073,10.6331563",
   "source": "osm"
  },
  {
   "nom": "Le Printemps",
   "categorie": "Hôtel",
   "priceRange": "€€€€",
   "score": 4,
   "mapsUrl": "https://maps.google.com/?q=35.8386196,10.6331062",
   "lat": 35.8386196,
   "lng": 10.6331062,
   "halalFriendly": false,
   "bookingUrl": "http://www.travelpod.com/hotel/Le_Printemps-Sousse.html",
   "source": "osm"
  },
  {
   "nom": "Résidence",
   "categorie": "Hôtel",
   "priceRange": "€€€€",
   "score": 4,
   "mapsUrl": "https://maps.google.com/?q=35.8393901,10.6316435",
   "lat": 35.8393901,
   "lng": 10.6316435,
   "halalFriendly": false,
   "bookingUrl": "https://maps.google.com/?q=35.8393901,10.6316435",
   "source": "osm"
  },
  {
   "nom": "El Hana Beach",
   "categorie": "Hôtel",
   "priceRange": "€€€",
   "score": 3,
   "mapsUrl": "https://maps.google.com/?q=35.8394949,10.6317335",
   "lat": 35.8394949,
   "lng": 10.6317335,
   "halalFriendly": false,
   "bookingUrl": "https://www.elhana-hotels.com/fr/beach/detail_hb.html",
   "source": "osm"
  },
  {
   "nom": "Chems el Hana",
   "categorie": "Hôtel",
   "priceRange": "€€€",
   "score": 3,
   "mapsUrl": "https://maps.google.com/?q=35.8397119,10.6306189",
   "lat": 35.8397119,
   "lng": 10.6306189,
   "halalFriendly": false,
   "bookingUrl": "https://maps.google.com/?q=35.8397119,10.6306189",
   "source": "osm"
  },
  {
   "nom": "Sousse Pearl Marriott Resort & Spa",
   "categorie": "Hôtel",
   "priceRange": "€€",
   "mapsUrl": "https://maps.google.com/?q=35.8398269,10.6306249",
   "lat": 35.8398269,
   "lng": 10.6306249,
   "halalFriendly": false,
   "bookingUrl": "https://www.marriott.com/fr/hotels/mirms-sousse-pearl-marriott-resort-and-spa",
   "source": "osm"
  },
  {
   "nom": "Riadh Palms",
   "categorie": "Hôtel",
   "priceRange": "€€",
   "mapsUrl": "https://maps.google.com/?q=35.8407768,10.6292845",
   "lat": 35.8407768,
   "lng": 10.6292845,
   "halalFriendly": false,
   "bookingUrl": "https://maps.google.com/?q=35.8407768,10.6292845",
   "source": "osm"
  },
  {
   "nom": "Hôtel Riadh Palms",
   "categorie": "Hôtel",
   "priceRange": "€€€€",
   "score": 4,
   "mapsUrl": "https://maps.google.com/?q=35.8413708,10.6296551",
   "lat": 35.8413708,
   "lng": 10.6296551,
   "halalFriendly": false,
   "bookingUrl": "https://www.hotelriadhpalms.com/info/Contact.aspx?user=1066&curr=1&ilng=1&fromdate=06/03/2011&todate=27/03/2011&id=897&idsection=651",
   "source": "osm"
  },
  {
   "nom": "Kaiser",
   "categorie": "Hôtel",
   "priceRange": "€€",
   "mapsUrl": "https://maps.google.com/?q=35.8397391,10.6243283",
   "lat": 35.8397391,
   "lng": 10.6243283,
   "halalFriendly": false,
   "bookingUrl": "https://maps.google.com/?q=35.8397391,10.6243283",
   "source": "osm"
  },
  {
   "nom": "Hôtel Tej Marhaba",
   "categorie": "Hôtel",
   "priceRange": "€€€€",
   "score": 4,
   "mapsUrl": "https://maps.google.com/?q=35.8405893,10.6257748",
   "lat": 35.8405893,
   "lng": 10.6257748,
   "halalFriendly": false,
   "bookingUrl": "https://www.marhabahotels.tn/",
   "source": "osm"
  }
 ],
 "mosqueesPrincipales": [
  {
   "id": "m1",
   "nom": "Grande Mosquée de Sousse",
   "type": "Mosquée",
   "adresse": "Centre-ville, Sousse",
   "description": "Mosquée principale de la ville.",
   "note": 5,
   "acces_non_musulmans": false,
   "mapsUrl": "https://maps.google.com/?q=Mosque%20Sousse%20Sousse"
  }
 ],
 "activites": [
  {
   "id": "a1",
   "nom": "Médina de Sousse (UNESCO)",
   "categorie": "Culture",
   "description": "Remparts, souks et ruelles blanches.",
   "prix": "Gratuit",
   "duree": "",
   "mapsUrl": "https://maps.google.com/?q=M%C3%A9dina%20de%20Sousse%20%28UNESCO%29%20Sousse"
  },
  {
   "id": "a2",
   "nom": "Ribat de Sousse",
   "categorie": "Histoire",
   "description": "Forteresse-monastère du VIIIe siècle.",
   "prix": "Payant",
   "duree": "",
   "mapsUrl": "https://maps.google.com/?q=Ribat%20de%20Sousse%20Sousse"
  },
  {
   "id": "a3",
   "nom": "Grande Mosquée de Sousse",
   "categorie": "Spirituel",
   "description": "Mosquée fortifiée du IXe siècle.",
   "prix": "Gratuit",
   "duree": "",
   "mapsUrl": "https://maps.google.com/?q=Grande%20Mosqu%C3%A9e%20de%20Sousse%20Sousse"
  }
 ],
 "imageCredit": "Wikimedia Commons",
 "osmEnriched": true,
 "osmEnrichedAt": "2026-06-30"
}
