{
 "slug": "taroudant",
 "nom": "Taroudant",
 "pays": "Maroc",
 "pays_slug": "maroc",
 "continent": "Afrique",
 "region": "Sud du Maroc",
 "coordonnees": {
  "lat": 30.4711,
  "lng": -8.877
 },
 "codeISO": "MA",
 "score_halal": 4.6,
 "halalScore": 9.2,
 "description": "Surnommée 'la petite Marrakech', Taroudant séduit par ses remparts intacts, son souk berbère authentique et sa position dans la plaine du Souss.",
 "image": "https://upload.wikimedia.org/wikipedia/commons/f/f7/Taroudant-murailles.jpg",
 "image_hero": "https://upload.wikimedia.org/wikipedia/commons/f/f7/Taroudant-murailles.jpg",
 "metaDescription": "Surnommée 'la petite Marrakech', Taroudant séduit par ses remparts intacts, son souk berbère authentique et sa position dans la plaine du Souss.",
 "monnaie": "MAD (Dirham marocain)",
 "langue": "Arabe, Tamazight, Français",
 "statistiques": {
  "restaurants_halal": 3,
  "mosquees": 20,
  "hotels": 37
 },
 "infoPratique": {
  "monnaie": "MAD (Dirham marocain)",
  "langue": "Arabe, Tamazight, Français",
  "transport": "Accessible en bus (CTM/Supratours), grand taxi ou voiture.",
  "meilleureEpoque": "Printemps et automne (climat doux)."
 },
 "tags": [
  "halal",
  "Maroc"
 ],
 "restaurants": [
  {
   "nom": "cafe restaurant/snack Al Masjid",
   "type": "moroccan",
   "priceRange": "€€",
   "mapsUrl": "https://maps.google.com/?q=30.4688263,-8.8775461",
   "lat": 30.4688263,
   "lng": -8.8775461,
   "halalConfidence": "likely",
   "source": "osm"
  },
  {
   "nom": "Restaurant Azzar",
   "type": "steak house, moroccan, sandwich, local",
   "priceRange": "€€",
   "mapsUrl": "https://maps.google.com/?q=30.4690328,-8.8824972",
   "lat": 30.4690328,
   "lng": -8.8824972,
   "halalConfidence": "likely",
   "source": "osm"
  },
  {
   "nom": "Café Les Cafés",
   "lat": 30.4685775,
   "lng": -8.8764597,
   "type": "balkan, moroccan",
   "halalConfidence": "likely",
   "mapsUrl": "https://maps.google.com/?q=30.4685775,-8.8764597",
   "source": "osm"
  }
 ],
 "hotels": [
  {
   "nom": "Hotel Tiouit",
   "categorie": "Hôtel",
   "priceRange": "€€",
   "score": 2,
   "mapsUrl": "https://maps.google.com/?q=30.4692646,-8.8760728",
   "lat": 30.4692646,
   "lng": -8.8760728,
   "halalFriendly": false,
   "bookingUrl": "https://maps.google.com/?q=30.4692646,-8.8760728",
   "source": "osm"
  },
  {
   "nom": "Palais Taroudant",
   "categorie": "Maison d'hôtes",
   "priceRange": "€€",
   "mapsUrl": "https://maps.google.com/?q=30.4686785,-8.8773321",
   "lat": 30.4686785,
   "lng": -8.8773321,
   "halalFriendly": false,
   "bookingUrl": "https://www.instagram.com/palaistaroudant/",
   "source": "osm"
  },
  {
   "nom": "Riad Maia",
   "categorie": "Hôtel",
   "priceRange": "€€",
   "mapsUrl": "https://maps.google.com/?q=30.4685455,-8.8760071",
   "lat": 30.4685455,
   "lng": -8.8760071,
   "halalFriendly": false,
   "bookingUrl": "https://maps.google.com/?q=30.4685455,-8.8760071",
   "source": "osm"
  },
  {
   "nom": "Hotel Dar Fatima",
   "categorie": "Hôtel",
   "priceRange": "€€",
   "mapsUrl": "https://maps.google.com/?q=30.4684133,-8.876193",
   "lat": 30.4684133,
   "lng": -8.876193,
   "halalFriendly": false,
   "bookingUrl": "www.darfatima.com",
   "source": "osm"
  },
  {
   "nom": "dar fatima",
   "categorie": "Hôtel",
   "priceRange": "€€",
   "mapsUrl": "https://maps.google.com/?q=30.4682359,-8.8761693",
   "lat": 30.4682359,
   "lng": -8.8761693,
   "halalFriendly": false,
   "bookingUrl": "https://maps.google.com/?q=30.4682359,-8.8761693",
   "source": "osm"
  },
  {
   "nom": "Ennasr",
   "categorie": "Hôtel",
   "priceRange": "€€",
   "mapsUrl": "https://maps.google.com/?q=30.4685595,-8.8789035",
   "lat": 30.4685595,
   "lng": -8.8789035,
   "halalFriendly": false,
   "bookingUrl": "https://maps.google.com/?q=30.4685595,-8.8789035",
   "source": "osm"
  },
  {
   "nom": "Houara",
   "categorie": "Hôtel",
   "priceRange": "€€",
   "mapsUrl": "https://maps.google.com/?q=30.4686239,-8.8791128",
   "lat": 30.4686239,
   "lng": -8.8791128,
   "halalFriendly": false,
   "bookingUrl": "https://maps.google.com/?q=30.4686239,-8.8791128",
   "source": "osm"
  },
  {
   "nom": "Aniloul",
   "categorie": "Hôtel",
   "priceRange": "€€",
   "mapsUrl": "https://maps.google.com/?q=30.4687527,-8.8796827",
   "lat": 30.4687527,
   "lng": -8.8796827,
   "halalFriendly": false,
   "bookingUrl": "https://maps.google.com/?q=30.4687527,-8.8796827",
   "source": "osm"
  },
  {
   "nom": "Riad Tafilag",
   "categorie": "Hôtel",
   "priceRange": "€€",
   "mapsUrl": "https://maps.google.com/?q=30.4742968,-8.8781458",
   "lat": 30.4742968,
   "lng": -8.8781458,
   "halalFriendly": false,
   "bookingUrl": "https://maps.google.com/?q=30.4742968,-8.8781458",
   "source": "osm"
  },
  {
   "nom": "Palais Oumensour",
   "categorie": "Hôtel",
   "priceRange": "€€",
   "mapsUrl": "https://maps.google.com/?q=30.4725311,-8.8807928",
   "lat": 30.4725311,
   "lng": -8.8807928,
   "halalFriendly": false,
   "bookingUrl": "https://www.palaisoumensour.com/",
   "source": "osm"
  },
  {
   "nom": "Hotel El Warda",
   "categorie": "Hôtel",
   "priceRange": "€€",
   "mapsUrl": "https://maps.google.com/?q=30.4684894,-8.8804411",
   "lat": 30.4684894,
   "lng": -8.8804411,
   "halalFriendly": false,
   "bookingUrl": "https://maps.google.com/?q=30.4684894,-8.8804411",
   "source": "osm"
  },
  {
   "nom": "Warda",
   "categorie": "Hôtel",
   "priceRange": "€€",
   "mapsUrl": "https://maps.google.com/?q=30.4681624,-8.8803052",
   "lat": 30.4681624,
   "lng": -8.8803052,
   "halalFriendly": false,
   "bookingUrl": "https://maps.google.com/?q=30.4681624,-8.8803052",
   "source": "osm"
  },
  {
   "nom": "Mentaga",
   "categorie": "Hôtel",
   "priceRange": "€€",
   "mapsUrl": "https://maps.google.com/?q=30.4680019,-8.8803418",
   "lat": 30.4680019,
   "lng": -8.8803418,
   "halalFriendly": false,
   "bookingUrl": "https://maps.google.com/?q=30.4680019,-8.8803418",
   "source": "osm"
  },
  {
   "nom": "Hotel Atlas sgl rm 90d w bath",
   "categorie": "Hôtel",
   "priceRange": "€€",
   "mapsUrl": "https://maps.google.com/?q=30.4668847,-8.8760068",
   "lat": 30.4668847,
   "lng": -8.8760068,
   "halalFriendly": false,
   "bookingUrl": "https://maps.google.com/?q=30.4668847,-8.8760068",
   "source": "osm"
  },
  {
   "nom": "Saadiens",
   "categorie": "Hôtel",
   "priceRange": "€€",
   "mapsUrl": "https://maps.google.com/?q=30.4726816,-8.8818105",
   "lat": 30.4726816,
   "lng": -8.8818105,
   "halalFriendly": false,
   "bookingUrl": "https://maps.google.com/?q=30.4726816,-8.8818105",
   "source": "osm"
  },
  {
   "nom": "Riad souss",
   "categorie": "Hôtel",
   "priceRange": "€€",
   "mapsUrl": "https://maps.google.com/?q=30.4668247,-8.8754085",
   "lat": 30.4668247,
   "lng": -8.8754085,
   "halalFriendly": false,
   "bookingUrl": "https://maps.google.com/?q=30.4668247,-8.8754085",
   "source": "osm"
  },
  {
   "nom": "Dar Zahia",
   "categorie": "Hôtel",
   "priceRange": "€€",
   "mapsUrl": "https://maps.google.com/?q=30.4740451,-8.8812039",
   "lat": 30.4740451,
   "lng": -8.8812039,
   "halalFriendly": false,
   "bookingUrl": "https://maps.google.com/?q=30.4740451,-8.8812039",
   "source": "osm"
  },
  {
   "nom": "Riad Amnay",
   "categorie": "Maison d'hôtes",
   "priceRange": "€€",
   "mapsUrl": "https://maps.google.com/?q=30.4690468,-8.8819236",
   "lat": 30.4690468,
   "lng": -8.8819236,
   "halalFriendly": false,
   "bookingUrl": "https://maps.google.com/?q=30.4690468,-8.8819236",
   "source": "osm"
  },
  {
   "nom": "Riad Benyara",
   "categorie": "Hôtel",
   "priceRange": "€€",
   "mapsUrl": "https://maps.google.com/?q=30.4665886,-8.8786879",
   "lat": 30.4665886,
   "lng": -8.8786879,
   "halalFriendly": false,
   "bookingUrl": "https://maps.google.com/?q=30.4665886,-8.8786879",
   "source": "osm"
  },
  {
   "nom": "Hotel Les Arcades",
   "categorie": "Hôtel",
   "priceRange": "€€",
   "mapsUrl": "https://maps.google.com/?q=30.4696667,-8.8827123",
   "lat": 30.4696667,
   "lng": -8.8827123,
   "halalFriendly": false,
   "bookingUrl": "https://maps.google.com/?q=30.4696667,-8.8827123",
   "source": "osm"
  },
  {
   "nom": "Palais Salam",
   "categorie": "Hôtel",
   "priceRange": "€€",
   "mapsUrl": "https://maps.google.com/?q=30.4729147,-8.8713029",
   "lat": 30.4729147,
   "lng": -8.8713029,
   "halalFriendly": false,
   "bookingUrl": "https://maps.google.com/?q=30.4729147,-8.8713029",
   "source": "osm"
  },
  {
   "nom": "Hotel Roudani",
   "categorie": "Hôtel",
   "priceRange": "€€",
   "mapsUrl": "https://maps.google.com/?q=30.4696118,-8.8829761",
   "lat": 30.4696118,
   "lng": -8.8829761,
   "halalFriendly": false,
   "bookingUrl": "https://maps.google.com/?q=30.4696118,-8.8829761",
   "source": "osm"
  },
  {
   "nom": "Riad Taroudant",
   "categorie": "Hôtel",
   "priceRange": "€€",
   "mapsUrl": "https://maps.google.com/?q=30.466362,-8.8809213",
   "lat": 30.466362,
   "lng": -8.8809213,
   "halalFriendly": false,
   "bookingUrl": "https://www.riadtaroudant.com/",
   "source": "osm"
  },
  {
   "nom": "Hotel Taroudannt",
   "categorie": "Hôtel",
   "priceRange": "€€",
   "mapsUrl": "https://maps.google.com/?q=30.46919,-8.8834779",
   "lat": 30.46919,
   "lng": -8.8834779,
   "halalFriendly": false,
   "bookingUrl": "https://maps.google.com/?q=30.46919,-8.8834779",
   "source": "osm"
  },
  {
   "nom": "Riad Dar Dzahra",
   "categorie": "Hôtel",
   "priceRange": "€€",
   "score": 2,
   "mapsUrl": "https://maps.google.com/?q=30.4677456,-8.8839288",
   "lat": 30.4677456,
   "lng": -8.8839288,
   "halalFriendly": false,
   "bookingUrl": "https://maps.google.com/?q=30.4677456,-8.8839288",
   "source": "osm"
  },
  {
   "nom": "Residence Roudana",
   "categorie": "Hôtel",
   "priceRange": "€€",
   "mapsUrl": "https://maps.google.com/?q=30.4693025,-8.884745",
   "lat": 30.4693025,
   "lng": -8.884745,
   "halalFriendly": false,
   "bookingUrl": "https://maps.google.com/?q=30.4693025,-8.884745",
   "source": "osm"
  },
  {
   "nom": "Dar El Hana",
   "categorie": "Maison d'hôtes",
   "priceRange": "€€",
   "mapsUrl": "https://maps.google.com/?q=30.4666811,-8.8834025",
   "lat": 30.4666811,
   "lng": -8.8834025,
   "halalFriendly": false,
   "bookingUrl": "https://maps.google.com/?q=30.4666811,-8.8834025",
   "source": "osm"
  },
  {
   "nom": "Dar Randigaba",
   "categorie": "Maison d'hôtes",
   "priceRange": "€€",
   "mapsUrl": "https://maps.google.com/?q=30.472339,-8.8892213",
   "lat": 30.472339,
   "lng": -8.8892213,
   "halalFriendly": false,
   "bookingUrl": "https://maps.google.com/?q=30.472339,-8.8892213",
   "source": "osm"
  },
  {
   "nom": "Le Moulin",
   "categorie": "Hôtel",
   "priceRange": "€€",
   "mapsUrl": "https://maps.google.com/?q=30.476601,-8.8879341",
   "lat": 30.476601,
   "lng": -8.8879341,
   "halalFriendly": false,
   "bookingUrl": "https://maps.google.com/?q=30.476601,-8.8879341",
   "source": "osm"
  },
  {
   "nom": "Riad El Hanaoui",
   "categorie": "Hôtel",
   "priceRange": "€€",
   "mapsUrl": "https://maps.google.com/?q=30.4671519,-8.8574116",
   "lat": 30.4671519,
   "lng": -8.8574116,
   "halalFriendly": false,
   "bookingUrl": "https://maps.google.com/?q=30.4671519,-8.8574116",
   "source": "osm"
  },
  {
   "nom": "Dar Zitoune",
   "categorie": "Hôtel",
   "priceRange": "€€",
   "mapsUrl": "https://maps.google.com/?q=30.4521549,-8.8802196",
   "lat": 30.4521549,
   "lng": -8.8802196,
   "halalFriendly": false,
   "bookingUrl": "https://maps.google.com/?q=30.4521549,-8.8802196",
   "source": "osm"
  },
  {
   "nom": "Le jardin des épices",
   "categorie": "Maison d'hôtes",
   "priceRange": "€€",
   "mapsUrl": "https://maps.google.com/?q=30.4622257,-8.9084035",
   "lat": 30.4622257,
   "lng": -8.9084035,
   "halalFriendly": false,
   "bookingUrl": "https://www.lejardindesepices.com/",
   "source": "osm"
  },
  {
   "nom": "Kasbah Gousteau",
   "categorie": "Hôtel",
   "priceRange": "€€",
   "mapsUrl": "https://maps.google.com/?q=30.4393108,-8.8777953",
   "lat": 30.4393108,
   "lng": -8.8777953,
   "halalFriendly": false,
   "bookingUrl": "https://maps.google.com/?q=30.4393108,-8.8777953",
   "source": "osm"
  },
  {
   "nom": "Riad Le Jasmin",
   "categorie": "Hôtel",
   "priceRange": "€€",
   "mapsUrl": "https://maps.google.com/?q=30.478368,-8.8311839",
   "lat": 30.478368,
   "lng": -8.8311839,
   "halalFriendly": false,
   "bookingUrl": "https://www.riadlejasmin.com/",
   "source": "osm"
  },
  {
   "nom": "Riad El Aissi",
   "categorie": "Hôtel",
   "priceRange": "€€€",
   "score": 3,
   "mapsUrl": "https://maps.google.com/?q=30.4775855,-8.9264948",
   "lat": 30.4775855,
   "lng": -8.9264948,
   "halalFriendly": false,
   "bookingUrl": "https://www.riadelaissi.ma/",
   "source": "osm"
  },
  {
   "nom": "Riad Anma",
   "categorie": "Hôtel",
   "priceRange": "€€",
   "mapsUrl": "https://maps.google.com/?q=30.4818575,-8.8118226",
   "lat": 30.4818575,
   "lng": -8.8118226,
   "halalFriendly": false,
   "bookingUrl": "https://maps.google.com/?q=30.4818575,-8.8118226",
   "source": "osm"
  },
  {
   "nom": "Palais Musée Claudio Bravo",
   "categorie": "Hôtel",
   "priceRange": "€€",
   "mapsUrl": "https://maps.google.com/?q=30.5500854,-8.8770582",
   "lat": 30.5500854,
   "lng": -8.8770582,
   "halalFriendly": false,
   "bookingUrl": "https://maps.google.com/?q=30.5500854,-8.8770582",
   "source": "osm"
  }
 ],
 "mosqueesPrincipales": [
  {
   "nom": "Mosquée Tasoukt Ighezifen",
   "lat": 30.4687887,
   "lng": -8.8759786,
   "coordonnees": {
    "lat": 30.4687887,
    "lng": -8.8759786
   },
   "mapsUrl": "https://maps.google.com/?q=30.4687887,-8.8759786",
   "source": "osm"
  },
  {
   "nom": "Mosquée Ennour",
   "lat": 30.4776298,
   "lng": -8.8637174,
   "coordonnees": {
    "lat": 30.4776298,
    "lng": -8.8637174
   },
   "mapsUrl": "https://maps.google.com/?q=30.4776298,-8.8637174",
   "source": "osm"
  },
  {
   "nom": "Mosquée Mhaita",
   "lat": 30.4760151,
   "lng": -8.8616575,
   "coordonnees": {
    "lat": 30.4760151,
    "lng": -8.8616575
   },
   "mapsUrl": "https://maps.google.com/?q=30.4760151,-8.8616575",
   "source": "osm"
  },
  {
   "nom": "Mosquée Badr",
   "lat": 30.4633535,
   "lng": -8.8911739,
   "coordonnees": {
    "lat": 30.4633535,
    "lng": -8.8911739
   },
   "mapsUrl": "https://maps.google.com/?q=30.4633535,-8.8911739",
   "source": "osm"
  },
  {
   "nom": "Mosquée Oulad Aarfa",
   "lat": 30.4833309,
   "lng": -8.8241077,
   "coordonnees": {
    "lat": 30.4833309,
    "lng": -8.8241077
   },
   "mapsUrl": "https://maps.google.com/?q=30.4833309,-8.8241077",
   "source": "osm"
  },
  {
   "nom": "mosquée chraga",
   "lat": 30.5170073,
   "lng": -9.0074292,
   "coordonnees": {
    "lat": 30.5170073,
    "lng": -9.0074292
   },
   "mapsUrl": "https://maps.google.com/?q=30.5170073,-9.0074292",
   "source": "osm"
  },
  {
   "nom": "mosquee ait mhand said",
   "lat": 30.5243703,
   "lng": -9.0073542,
   "coordonnees": {
    "lat": 30.5243703,
    "lng": -9.0073542
   },
   "mapsUrl": "https://maps.google.com/?q=30.5243703,-9.0073542",
   "source": "osm"
  },
  {
   "nom": "mosquée baakila",
   "lat": 30.4762975,
   "lng": -9.0219301,
   "coordonnees": {
    "lat": 30.4762975,
    "lng": -9.0219301
   },
   "mapsUrl": "https://maps.google.com/?q=30.4762975,-9.0219301",
   "source": "osm"
  },
  {
   "nom": "mosquée ait ben bihi",
   "lat": 30.5436679,
   "lng": -9.0085332,
   "coordonnees": {
    "lat": 30.5436679,
    "lng": -9.0085332
   },
   "mapsUrl": "https://maps.google.com/?q=30.5436679,-9.0085332",
   "source": "osm"
  },
  {
   "id": "osm-11204153729",
   "nom": "مسجد أولاد محلة",
   "type": "mosquee",
   "adresse": "Ouled Mouhala, Sebt El Guerdane",
   "lat": 30.4267065,
   "lng": -8.9592489,
   "mapsUrl": "https://maps.google.com/?q=30.4267065,-8.9592489",
   "source": "osm"
  },
  {
   "id": "osm-220454481",
   "nom": "Mosquée Sidi Belkass",
   "type": "mosquee",
   "lat": 30.4700852,
   "lng": -8.897118,
   "mapsUrl": "https://maps.google.com/?q=30.4700852,-8.897118",
   "source": "osm"
  },
  {
   "id": "osm-484622170",
   "nom": "Mosque Arrachad",
   "type": "mosquee",
   "lat": 30.4677663,
   "lng": -8.8736618,
   "mapsUrl": "https://maps.google.com/?q=30.4677663,-8.8736618",
   "source": "osm"
  },
  {
   "id": "osm-485213650",
   "nom": "Mosquee Assarag",
   "type": "mosquee",
   "lat": 30.4689525,
   "lng": -8.8823861,
   "mapsUrl": "https://maps.google.com/?q=30.4689525,-8.8823861",
   "source": "osm"
  },
  {
   "id": "osm-486221150",
   "nom": "Mosquée Nadim",
   "type": "mosquee",
   "lat": 30.4690742,
   "lng": -8.8623113,
   "mapsUrl": "https://maps.google.com/?q=30.4690742,-8.8623113",
   "source": "osm"
  },
  {
   "id": "osm-486221153",
   "nom": "Mosqué Belakchach",
   "type": "mosquee",
   "lat": 30.4695432,
   "lng": -8.8690255,
   "mapsUrl": "https://maps.google.com/?q=30.4695432,-8.8690255",
   "source": "osm"
  },
  {
   "id": "osm-486225436",
   "nom": "Mosquée Bouikido",
   "type": "mosquee",
   "lat": 30.477165,
   "lng": -8.8568919,
   "mapsUrl": "https://maps.google.com/?q=30.477165,-8.8568919",
   "source": "osm"
  },
  {
   "id": "osm-486995631",
   "nom": "Mosque Agafay",
   "type": "mosquee",
   "lat": 30.4731756,
   "lng": -8.8852076,
   "mapsUrl": "https://maps.google.com/?q=30.4731756,-8.8852076",
   "source": "osm"
  },
  {
   "id": "osm-1208057074",
   "nom": "Mosquée Arrahma",
   "type": "mosquee",
   "lat": 30.4769344,
   "lng": -8.8776119,
   "mapsUrl": "https://maps.google.com/?q=30.4769344,-8.8776119",
   "source": "osm"
  },
  {
   "id": "osm-2915168",
   "nom": "Mosquée Ferq Lahbab",
   "type": "mosquee",
   "lat": 30.4737569,
   "lng": -8.8785571,
   "mapsUrl": "https://maps.google.com/?q=30.4737569,-8.8785571",
   "source": "osm"
  },
  {
   "id": "osm-2915220",
   "nom": "Grand Mosquée الجامع الكبير",
   "type": "mosquee",
   "adresse": "Tarudant تارودانت",
   "lat": 30.4684688,
   "lng": -8.8777524,
   "mapsUrl": "https://maps.google.com/?q=30.4684688,-8.8777524",
   "source": "osm"
  }
 ],
 "activites": [
  {
   "nom": "Bab Zargane",
   "lat": 30.465123,
   "lng": -8.8782725,
   "coordonnees": {
    "lat": 30.465123,
    "lng": -8.8782725
   },
   "categorie": "Histoire",
   "mapsUrl": "https://maps.google.com/?q=30.465123,-8.8782725",
   "source": "osm"
  },
  {
   "nom": "دار الشباب",
   "lat": 30.474748,
   "lng": -8.8840106,
   "coordonnees": {
    "lat": 30.474748,
    "lng": -8.8840106
   },
   "categorie": "À voir",
   "mapsUrl": "https://maps.google.com/?q=30.474748,-8.8840106",
   "source": "osm"
  },
  {
   "nom": "Bab Agafay",
   "lat": 30.4730501,
   "lng": -8.8881668,
   "coordonnees": {
    "lat": 30.4730501,
    "lng": -8.8881668
   },
   "categorie": "Histoire",
   "mapsUrl": "https://maps.google.com/?q=30.4730501,-8.8881668",
   "source": "osm"
  },
  {
   "nom": "visite technique auto المصلحة التقنية لفحص السيارات",
   "lat": 30.4653844,
   "lng": -8.928178,
   "coordonnees": {
    "lat": 30.4653844,
    "lng": -8.928178
   },
   "categorie": "À voir",
   "mapsUrl": "https://maps.google.com/?q=30.4653844,-8.928178",
   "source": "osm"
  },
  {
   "nom": "Musée Claudio Bravo",
   "lat": 30.5499289,
   "lng": -8.8769641,
   "coordonnees": {
    "lat": 30.5499289,
    "lng": -8.8769641
   },
   "categorie": "Culture",
   "mapsUrl": "https://maps.google.com/?q=30.5499289,-8.8769641",
   "source": "osm"
  }
 ],
 "imageCredit": "Wikimedia Commons",
 "osmEnriched": true,
 "osmEnrichedAt": "2026-07-15",
 "description_en": "Taroudant, in Morocco, is a halal-friendly destination with a Halal Trust Score of 4.6/5. Muslim travelers will find 3 halal restaurants listed, 1 mosques, real-time prayer times and the Qibla direction — a complete guide to travel with peace of mind.",
 "metaDescription_en": "Halal guide to Taroudant: 3 halal restaurants listed, 1 mosques, prayer times and tips for Muslim travelers. Halal Trust Score 4.6/5.",
 "nom_en": "Taroudant",
 "boucheries": [],
 "dataPurgedAt": "2026-07-15"
}