{
 "slug": "tetouan",
 "nom": "Tétouan",
 "pays": "Maroc",
 "pays_slug": "maroc",
 "continent": "Afrique",
 "region": "Nord du Maroc",
 "coordonnees": {
  "lat": 35.5785,
  "lng": -5.3684
 },
 "codeISO": "MA",
 "score_halal": 4.5,
 "halalScore": 9.1,
 "description": "Surnommée 'la Colombe blanche', Tétouan possède une médina classée UNESCO à la forte influence andalouse, héritée des réfugiés de Grenade. Capitale culturelle du Rif occidental, proche des plages de Cabo Negro et Martil.",
 "image": "https://upload.wikimedia.org/wikipedia/commons/thumb/9/94/Tetuan_vista_desde_un_tejado.JPG/1920px-Tetuan_vista_desde_un_tejado.JPG",
 "image_hero": "https://upload.wikimedia.org/wikipedia/commons/thumb/9/94/Tetuan_vista_desde_un_tejado.JPG/1920px-Tetuan_vista_desde_un_tejado.JPG",
 "metaDescription": "Surnommée 'la Colombe blanche', Tétouan possède une médina classée UNESCO à la forte influence andalouse, héritée des réfugiés de Grenade. Capitale culturelle d",
 "monnaie": "MAD (Dirham marocain)",
 "langue": "Arabe, Tamazight, Français",
 "statistiques": {
  "restaurants_halal": 1,
  "mosquees": 8,
  "hotels": 41
 },
 "infoPratique": {
  "monnaie": "MAD (Dirham marocain)",
  "langue": "Arabe, Tamazight, Français",
  "transport": "Accessible en bus (CTM/Supratours), grand taxi ou voiture.",
  "meilleureEpoque": "Printemps et automne (climat doux)."
 },
 "tags": [
  "halal",
  "Maroc"
 ],
 "restaurants": [
  {
   "nom": "مقهى ومطع بوعنان (شنشانة)",
   "lat": 35.5471473,
   "lng": -5.3793633,
   "type": "moroccan",
   "halalConfidence": "likely",
   "mapsUrl": "https://maps.google.com/?q=35.5471473,-5.3793633",
   "source": "osm"
  }
 ],
 "hotels": [
  {
   "nom": "Dar Rehla",
   "categorie": "Maison d'hôtes",
   "priceRange": "€€",
   "mapsUrl": "https://maps.google.com/?q=35.5727808,-5.3709446",
   "lat": 35.5727808,
   "lng": -5.3709446,
   "halalFriendly": false,
   "bookingUrl": "https://maps.google.com/?q=35.5727808,-5.3709446",
   "source": "osm"
  },
  {
   "nom": "Dar Hanae",
   "categorie": "Maison d'hôtes",
   "priceRange": "€€",
   "mapsUrl": "https://maps.google.com/?q=35.5718282,-5.3662552",
   "lat": 35.5718282,
   "lng": -5.3662552,
   "halalFriendly": false,
   "bookingUrl": "https://maps.google.com/?q=35.5718282,-5.3662552",
   "source": "osm"
  },
  {
   "nom": "Riad Khmisa",
   "categorie": "Maison d'hôtes",
   "priceRange": "€€",
   "mapsUrl": "https://maps.google.com/?q=35.5717445,-5.3666424",
   "lat": 35.5717445,
   "lng": -5.3666424,
   "halalFriendly": false,
   "bookingUrl": "https://maps.google.com/?q=35.5717445,-5.3666424",
   "source": "osm"
  },
  {
   "nom": "Riad Soul of Tetouan",
   "categorie": "Hôtel",
   "priceRange": "€€",
   "mapsUrl": "https://maps.google.com/?q=35.571881,-5.3713057",
   "lat": 35.571881,
   "lng": -5.3713057,
   "halalFriendly": false,
   "bookingUrl": "https://maps.google.com/?q=35.571881,-5.3713057",
   "source": "osm"
  },
  {
   "nom": "Hôtel Africa",
   "categorie": "Hôtel",
   "priceRange": "€€",
   "mapsUrl": "https://maps.google.com/?q=35.570737,-5.3696314",
   "lat": 35.570737,
   "lng": -5.3696314,
   "halalFriendly": false,
   "bookingUrl": "https://maps.google.com/?q=35.570737,-5.3696314",
   "source": "osm"
  },
  {
   "nom": "Casa Medina Sanaa",
   "categorie": "Maison d'hôtes",
   "priceRange": "€€",
   "mapsUrl": "https://maps.google.com/?q=35.5710348,-5.3654332",
   "lat": 35.5710348,
   "lng": -5.3654332,
   "halalFriendly": false,
   "bookingUrl": "https://maps.google.com/?q=35.5710348,-5.3654332",
   "source": "osm"
  },
  {
   "nom": "Blanco Riad Hotel&Restaurante",
   "categorie": "Maison d'hôtes",
   "priceRange": "€€",
   "mapsUrl": "https://maps.google.com/?q=35.5707534,-5.3701323",
   "lat": 35.5707534,
   "lng": -5.3701323,
   "halalFriendly": false,
   "bookingUrl": "https://maps.google.com/?q=35.5707534,-5.3701323",
   "source": "osm"
  },
  {
   "nom": "Hotel Afrika",
   "categorie": "Hôtel",
   "priceRange": "€€",
   "mapsUrl": "https://maps.google.com/?q=35.5701908,-5.3696121",
   "lat": 35.5701908,
   "lng": -5.3696121,
   "halalFriendly": false,
   "bookingUrl": "https://maps.google.com/?q=35.5701908,-5.3696121",
   "source": "osm"
  },
  {
   "nom": "Regina",
   "categorie": "Hôtel",
   "priceRange": "€€",
   "mapsUrl": "https://maps.google.com/?q=35.5705265,-5.3722409",
   "lat": 35.5705265,
   "lng": -5.3722409,
   "halalFriendly": false,
   "bookingUrl": "https://maps.google.com/?q=35.5705265,-5.3722409",
   "source": "osm"
  },
  {
   "nom": "Casa mima",
   "categorie": "Hôtel",
   "priceRange": "€€",
   "mapsUrl": "https://maps.google.com/?q=35.5729266,-5.36026",
   "lat": 35.5729266,
   "lng": -5.36026,
   "halalFriendly": false,
   "bookingUrl": "https://maps.google.com/?q=35.5729266,-5.36026",
   "source": "osm"
  },
  {
   "nom": "Bilbao",
   "categorie": "Hôtel",
   "priceRange": "€€",
   "mapsUrl": "https://maps.google.com/?q=35.5699217,-5.3709803",
   "lat": 35.5699217,
   "lng": -5.3709803,
   "halalFriendly": false,
   "bookingUrl": "https://maps.google.com/?q=35.5699217,-5.3709803",
   "source": "osm"
  },
  {
   "nom": "Hôtel Sevillana",
   "categorie": "Hôtel",
   "priceRange": "€€",
   "mapsUrl": "https://maps.google.com/?q=35.5691139,-5.3694197",
   "lat": 35.5691139,
   "lng": -5.3694197,
   "halalFriendly": false,
   "bookingUrl": "https://maps.google.com/?q=35.5691139,-5.3694197",
   "source": "osm"
  },
  {
   "nom": "Hôtel Nairobi",
   "categorie": "Hôtel",
   "priceRange": "€€",
   "mapsUrl": "https://maps.google.com/?q=35.5690989,-5.3702232",
   "lat": 35.5690989,
   "lng": -5.3702232,
   "halalFriendly": false,
   "bookingUrl": "https://maps.google.com/?q=35.5690989,-5.3702232",
   "source": "osm"
  },
  {
   "nom": "Riad Darna",
   "categorie": "Hôtel",
   "priceRange": "€€",
   "mapsUrl": "https://maps.google.com/?q=35.5692318,-5.3652197",
   "lat": 35.5692318,
   "lng": -5.3652197,
   "halalFriendly": false,
   "bookingUrl": "https://maps.google.com/?q=35.5692318,-5.3652197",
   "source": "osm"
  },
  {
   "nom": "Pension Camas",
   "categorie": "Hôtel",
   "priceRange": "€€",
   "mapsUrl": "https://maps.google.com/?q=35.5688633,-5.3683964",
   "lat": 35.5688633,
   "lng": -5.3683964,
   "halalFriendly": false,
   "bookingUrl": "https://maps.google.com/?q=35.5688633,-5.3683964",
   "source": "osm"
  },
  {
   "nom": "Riad Al Borj",
   "categorie": "Hôtel",
   "priceRange": "€€",
   "mapsUrl": "https://maps.google.com/?q=35.5686612,-5.3654492",
   "lat": 35.5686612,
   "lng": -5.3654492,
   "halalFriendly": false,
   "bookingUrl": "https://maps.google.com/?q=35.5686612,-5.3654492",
   "source": "osm"
  },
  {
   "nom": "Hotel Trebol",
   "categorie": "Hôtel",
   "priceRange": "€€",
   "mapsUrl": "https://maps.google.com/?q=35.5689475,-5.3732438",
   "lat": 35.5689475,
   "lng": -5.3732438,
   "halalFriendly": false,
   "bookingUrl": "https://maps.google.com/?q=35.5689475,-5.3732438",
   "source": "osm"
  },
  {
   "nom": "Dar Targha",
   "categorie": "Maison d'hôtes",
   "priceRange": "€€",
   "mapsUrl": "https://maps.google.com/?q=35.567952,-5.3663477",
   "lat": 35.567952,
   "lng": -5.3663477,
   "halalFriendly": false,
   "bookingUrl": "https://dar-targha.jimdo.com/",
   "source": "osm"
  },
  {
   "nom": "Hotel Marina",
   "categorie": "Hôtel",
   "priceRange": "€€",
   "mapsUrl": "https://maps.google.com/?q=35.5626175,-5.3685636",
   "lat": 35.5626175,
   "lng": -5.3685636,
   "halalFriendly": false,
   "bookingUrl": "https://maps.google.com/?q=35.5626175,-5.3685636",
   "source": "osm"
  },
  {
   "nom": "Hotel Prestige",
   "categorie": "Hôtel",
   "priceRange": "€€",
   "mapsUrl": "https://maps.google.com/?q=35.5659882,-5.3822703",
   "lat": 35.5659882,
   "lng": -5.3822703,
   "halalFriendly": false,
   "bookingUrl": "https://maps.google.com/?q=35.5659882,-5.3822703",
   "source": "osm"
  },
  {
   "nom": "Hotel Chams",
   "categorie": "Hôtel",
   "priceRange": "€€",
   "mapsUrl": "https://maps.google.com/?q=35.5811387,-5.3364849",
   "lat": 35.5811387,
   "lng": -5.3364849,
   "halalFriendly": false,
   "bookingUrl": "https://maps.google.com/?q=35.5811387,-5.3364849",
   "source": "osm"
  },
  {
   "nom": "Hotel Dream",
   "categorie": "Hôtel",
   "priceRange": "€€",
   "mapsUrl": "https://maps.google.com/?q=35.5820157,-5.3352189",
   "lat": 35.5820157,
   "lng": -5.3352189,
   "halalFriendly": false,
   "bookingUrl": "https://maps.google.com/?q=35.5820157,-5.3352189",
   "source": "osm"
  },
  {
   "nom": "El Yacout",
   "categorie": "Hôtel",
   "priceRange": "€€",
   "mapsUrl": "https://maps.google.com/?q=35.5996025,-5.338332",
   "lat": 35.5996025,
   "lng": -5.338332,
   "halalFriendly": false,
   "bookingUrl": "https://maps.google.com/?q=35.5996025,-5.338332",
   "source": "osm"
  },
  {
   "nom": "فندق مكارم تطوان",
   "categorie": "Hôtel",
   "priceRange": "€€",
   "mapsUrl": "https://maps.google.com/?q=35.567843,-5.408301",
   "lat": 35.567843,
   "lng": -5.408301,
   "halalFriendly": false,
   "bookingUrl": "https://maps.google.com/?q=35.567843,-5.408301",
   "source": "osm"
  },
  {
   "nom": "Diars Tamouda",
   "categorie": "Hôtel",
   "priceRange": "€€",
   "mapsUrl": "https://maps.google.com/?q=35.568431,-5.412596",
   "lat": 35.568431,
   "lng": -5.412596,
   "halalFriendly": false,
   "bookingUrl": "https://maps.google.com/?q=35.568431,-5.412596",
   "source": "osm"
  },
  {
   "nom": "La Paloma",
   "categorie": "Hôtel",
   "priceRange": "€€€€",
   "score": 4,
   "mapsUrl": "https://maps.google.com/?q=35.5650179,-5.4120129",
   "lat": 35.5650179,
   "lng": -5.4120129,
   "halalFriendly": false,
   "bookingUrl": "https://maps.google.com/?q=35.5650179,-5.4120129",
   "source": "osm"
  },
  {
   "nom": "فندق پالوما",
   "categorie": "Hôtel",
   "priceRange": "€€",
   "mapsUrl": "https://maps.google.com/?q=35.565025,-5.41215",
   "lat": 35.565025,
   "lng": -5.41215,
   "halalFriendly": false,
   "bookingUrl": "https://maps.google.com/?q=35.565025,-5.41215",
   "source": "osm"
  },
  {
   "nom": "فندق پالوما",
   "categorie": "Hôtel",
   "priceRange": "€€",
   "mapsUrl": "https://maps.google.com/?q=35.565005,-5.412149",
   "lat": 35.565005,
   "lng": -5.412149,
   "halalFriendly": false,
   "bookingUrl": "https://maps.google.com/?q=35.565005,-5.412149",
   "source": "osm"
  },
  {
   "nom": "Hostelling International Youth Hostel",
   "categorie": "Auberge",
   "priceRange": "€€",
   "mapsUrl": "https://maps.google.com/?q=35.5898325,-5.3216286",
   "lat": 35.5898325,
   "lng": -5.3216286,
   "halalFriendly": false,
   "bookingUrl": "https://maps.google.com/?q=35.5898325,-5.3216286",
   "source": "osm"
  },
  {
   "nom": "Ayoub’s Homestay",
   "categorie": "Maison d'hôtes",
   "priceRange": "€€",
   "mapsUrl": "https://maps.google.com/?q=35.5569437,-5.4162422",
   "lat": 35.5569437,
   "lng": -5.4162422,
   "halalFriendly": false,
   "bookingUrl": "https://maps.google.com/?q=35.5569437,-5.4162422",
   "source": "osm"
  },
  {
   "nom": "مشروع تطوان مدينة سهل وادي مرتيل قريبا",
   "categorie": "Hôtel",
   "priceRange": "€€",
   "mapsUrl": "https://maps.google.com/?q=35.584794,-5.302745",
   "lat": 35.584794,
   "lng": -5.302745,
   "halalFriendly": false,
   "bookingUrl": "https://maps.google.com/?q=35.584794,-5.302745",
   "source": "osm"
  },
  {
   "nom": "Hôtel Mandy",
   "categorie": "Hôtel",
   "priceRange": "€€",
   "mapsUrl": "https://maps.google.com/?q=35.628036,-5.338149",
   "lat": 35.628036,
   "lng": -5.338149,
   "halalFriendly": false,
   "bookingUrl": "https://maps.google.com/?q=35.628036,-5.338149",
   "source": "osm"
  },
  {
   "nom": "إقامة ناردينا كولدن",
   "categorie": "Hôtel",
   "priceRange": "€€",
   "mapsUrl": "https://maps.google.com/?q=35.625976,-5.329873",
   "lat": 35.625976,
   "lng": -5.329873,
   "halalFriendly": false,
   "bookingUrl": "https://maps.google.com/?q=35.625976,-5.329873",
   "source": "osm"
  },
  {
   "nom": "اسماعيل بنعياد",
   "categorie": "Hôtel",
   "priceRange": "€€",
   "mapsUrl": "https://maps.google.com/?q=35.520386,-5.340534",
   "lat": 35.520386,
   "lng": -5.340534,
   "halalFriendly": false,
   "bookingUrl": "https://maps.google.com/?q=35.520386,-5.340534",
   "source": "osm"
  },
  {
   "nom": "NB Appartements",
   "categorie": "Hôtel",
   "priceRange": "€€",
   "mapsUrl": "https://maps.google.com/?q=35.612475,-5.300068",
   "lat": 35.612475,
   "lng": -5.300068,
   "halalFriendly": false,
   "bookingUrl": "https://maps.google.com/?q=35.612475,-5.300068",
   "source": "osm"
  },
  {
   "nom": "Abroedies",
   "categorie": "Hôtel",
   "priceRange": "€€",
   "mapsUrl": "https://maps.google.com/?q=35.6154084,-5.3014172",
   "lat": 35.6154084,
   "lng": -5.3014172,
   "halalFriendly": false,
   "bookingUrl": "https://maps.google.com/?q=35.6154084,-5.3014172",
   "source": "osm"
  },
  {
   "nom": "Sakina martil",
   "categorie": "Hôtel",
   "priceRange": "€€",
   "mapsUrl": "https://maps.google.com/?q=35.616876,-5.291179",
   "lat": 35.616876,
   "lng": -5.291179,
   "halalFriendly": false,
   "bookingUrl": "https://maps.google.com/?q=35.616876,-5.291179",
   "source": "osm"
  },
  {
   "nom": "Martil Oasis de Lujo",
   "categorie": "Hôtel",
   "priceRange": "€€",
   "mapsUrl": "https://maps.google.com/?q=35.6131016,-5.2867145",
   "lat": 35.6131016,
   "lng": -5.2867145,
   "halalFriendly": false,
   "bookingUrl": "https://maps.google.com/?q=35.6131016,-5.2867145",
   "source": "osm"
  },
  {
   "nom": "Résidence palmera",
   "categorie": "Hôtel",
   "priceRange": "€€",
   "mapsUrl": "https://maps.google.com/?q=35.616084,-5.287691",
   "lat": 35.616084,
   "lng": -5.287691,
   "halalFriendly": false,
   "bookingUrl": "https://maps.google.com/?q=35.616084,-5.287691",
   "source": "osm"
  },
  {
   "nom": "Résidence Laurena",
   "categorie": "Hôtel",
   "priceRange": "€€",
   "mapsUrl": "https://maps.google.com/?q=35.617885,-5.288857",
   "lat": 35.617885,
   "lng": -5.288857,
   "halalFriendly": false,
   "bookingUrl": "https://maps.google.com/?q=35.617885,-5.288857",
   "source": "osm"
  },
  {
   "nom": "Appartement à louer à Martil / DariSmart-002 الكراء اليومي",
   "categorie": "Hôtel",
   "priceRange": "€€",
   "mapsUrl": "https://maps.google.com/?q=35.618555,-5.282871",
   "lat": 35.618555,
   "lng": -5.282871,
   "halalFriendly": false,
   "bookingUrl": "https://maps.google.com/?q=35.618555,-5.282871",
   "source": "osm"
  }
 ],
 "mosqueesPrincipales": [
  {
   "nom": "Mosque Al Houda",
   "lat": 35.5779612,
   "lng": -5.3610396,
   "coordonnees": {
    "lat": 35.5779612,
    "lng": -5.3610396
   },
   "mapsUrl": "https://maps.google.com/?q=35.5779612,-5.3610396",
   "source": "osm"
  },
  {
   "nom": "مسجد القصبة",
   "lat": 35.5755998,
   "lng": -5.3753007,
   "coordonnees": {
    "lat": 35.5755998,
    "lng": -5.3753007
   },
   "mapsUrl": "https://maps.google.com/?q=35.5755998,-5.3753007",
   "source": "osm"
  },
  {
   "nom": "Mosque Afaylal",
   "lat": 35.578924,
   "lng": -5.359553,
   "coordonnees": {
    "lat": 35.578924,
    "lng": -5.359553
   },
   "mapsUrl": "https://maps.google.com/?q=35.578924,-5.359553",
   "source": "osm"
  },
  {
   "nom": "El Quds",
   "lat": 35.5685375,
   "lng": -5.3672214,
   "coordonnees": {
    "lat": 35.5685375,
    "lng": -5.3672214
   },
   "mapsUrl": "https://maps.google.com/?q=35.5685375,-5.3672214",
   "source": "osm"
  },
  {
   "nom": "Mosquée Hassan II",
   "lat": 35.5700161,
   "lng": -5.3775173,
   "coordonnees": {
    "lat": 35.5700161,
    "lng": -5.3775173
   },
   "mapsUrl": "https://maps.google.com/?q=35.5700161,-5.3775173",
   "source": "osm"
  },
  {
   "nom": "Mosque Al Sunah",
   "lat": 35.5648324,
   "lng": -5.3682542,
   "coordonnees": {
    "lat": 35.5648324,
    "lng": -5.3682542
   },
   "mapsUrl": "https://maps.google.com/?q=35.5648324,-5.3682542",
   "source": "osm"
  },
  {
   "nom": "Mosquée Badr مسجد بدر",
   "lat": 35.5811082,
   "lng": -5.3453618,
   "coordonnees": {
    "lat": 35.5811082,
    "lng": -5.3453618
   },
   "adresse": "Avenue Mohamed Daoud, TETOUAN",
   "mapsUrl": "https://maps.google.com/?q=35.5811082,-5.3453618",
   "source": "osm"
  },
  {
   "nom": "Mosque Al Massira",
   "lat": 35.5707697,
   "lng": -5.3961373,
   "coordonnees": {
    "lat": 35.5707697,
    "lng": -5.3961373
   },
   "mapsUrl": "https://maps.google.com/?q=35.5707697,-5.3961373",
   "source": "osm"
  }
 ],
 "activites": [
  {
   "nom": "Viewpoint",
   "lat": 35.5761036,
   "lng": -5.3712582,
   "coordonnees": {
    "lat": 35.5761036,
    "lng": -5.3712582
   },
   "categorie": "Panorama",
   "mapsUrl": "https://maps.google.com/?q=35.5761036,-5.3712582",
   "source": "osm"
  },
  {
   "nom": "Kasbah",
   "lat": 35.5743413,
   "lng": -5.3719913,
   "coordonnees": {
    "lat": 35.5743413,
    "lng": -5.3719913
   },
   "categorie": "Histoire",
   "mapsUrl": "https://maps.google.com/?q=35.5743413,-5.3719913",
   "source": "osm"
  },
  {
   "nom": "Bab Jiaf",
   "lat": 35.5738702,
   "lng": -5.3653178,
   "coordonnees": {
    "lat": 35.5738702,
    "lng": -5.3653178
   },
   "categorie": "À voir",
   "mapsUrl": "https://maps.google.com/?q=35.5738702,-5.3653178",
   "source": "osm"
  },
  {
   "nom": "Tanneries",
   "lat": 35.5729867,
   "lng": -5.3675389,
   "coordonnees": {
    "lat": 35.5729867,
    "lng": -5.3675389
   },
   "categorie": "Panorama",
   "mapsUrl": "https://maps.google.com/?q=35.5729867,-5.3675389",
   "source": "osm"
  },
  {
   "nom": "The Al-Ayoun Oven",
   "lat": 35.5728561,
   "lng": -5.3720731,
   "coordonnees": {
    "lat": 35.5728561,
    "lng": -5.3720731
   },
   "categorie": "À voir",
   "mapsUrl": "https://maps.google.com/?q=35.5728561,-5.3720731",
   "source": "osm"
  },
  {
   "nom": "The Attar Oven",
   "lat": 35.5726193,
   "lng": -5.3648846,
   "coordonnees": {
    "lat": 35.5726193,
    "lng": -5.3648846
   },
   "categorie": "À voir",
   "mapsUrl": "https://maps.google.com/?q=35.5726193,-5.3648846",
   "source": "osm"
  },
  {
   "nom": "El-Fasi Zaouia",
   "lat": 35.5720272,
   "lng": -5.3696362,
   "coordonnees": {
    "lat": 35.5720272,
    "lng": -5.3696362
   },
   "categorie": "Histoire",
   "mapsUrl": "https://maps.google.com/?q=35.5720272,-5.3696362",
   "source": "osm"
  },
  {
   "nom": "Bab Saida",
   "lat": 35.5732485,
   "lng": -5.3633396,
   "coordonnees": {
    "lat": 35.5732485,
    "lng": -5.3633396
   },
   "categorie": "Histoire",
   "mapsUrl": "https://maps.google.com/?q=35.5732485,-5.3633396",
   "source": "osm"
  },
  {
   "nom": "Funduq Slama",
   "lat": 35.5716096,
   "lng": -5.3682517,
   "coordonnees": {
    "lat": 35.5716096,
    "lng": -5.3682517
   },
   "categorie": "À voir",
   "mapsUrl": "https://maps.google.com/?q=35.5716096,-5.3682517",
   "source": "osm"
  },
  {
   "nom": "Four traditionnel",
   "lat": 35.5718017,
   "lng": -5.3656143,
   "coordonnees": {
    "lat": 35.5718017,
    "lng": -5.3656143
   },
   "categorie": "À voir",
   "mapsUrl": "https://maps.google.com/?q=35.5718017,-5.3656143",
   "source": "osm"
  },
  {
   "nom": "Artwork",
   "lat": 35.5730077,
   "lng": -5.3747669,
   "coordonnees": {
    "lat": 35.5730077,
    "lng": -5.3747669
   },
   "categorie": "À voir",
   "mapsUrl": "https://maps.google.com/?q=35.5730077,-5.3747669",
   "source": "osm"
  },
  {
   "nom": "Médina المدينة العتيقة",
   "lat": 35.5710625,
   "lng": -5.3664659,
   "coordonnees": {
    "lat": 35.5710625,
    "lng": -5.3664659
   },
   "categorie": "À voir",
   "mapsUrl": "https://maps.google.com/?q=35.5710625,-5.3664659",
   "source": "osm"
  },
  {
   "nom": "Bab Tut",
   "lat": 35.5713586,
   "lng": -5.3719206,
   "coordonnees": {
    "lat": 35.5713586,
    "lng": -5.3719206
   },
   "categorie": "À voir",
   "mapsUrl": "https://maps.google.com/?q=35.5713586,-5.3719206",
   "source": "osm"
  },
  {
   "nom": "Superbe vue d'ensemble sur la ville blanche",
   "lat": 35.5718408,
   "lng": -5.373281,
   "coordonnees": {
    "lat": 35.5718408,
    "lng": -5.373281
   },
   "categorie": "Panorama",
   "mapsUrl": "https://maps.google.com/?q=35.5718408,-5.373281",
   "source": "osm"
  },
  {
   "nom": "وفاء اسم على مسمى",
   "lat": 35.5794557,
   "lng": -5.3587541,
   "coordonnees": {
    "lat": 35.5794557,
    "lng": -5.3587541
   },
   "categorie": "Culture",
   "mapsUrl": "https://maps.google.com/?q=35.5794557,-5.3587541",
   "source": "osm"
  },
  {
   "nom": "Musée Archéologique",
   "lat": 35.5706357,
   "lng": -5.370667,
   "coordonnees": {
    "lat": 35.5706357,
    "lng": -5.370667
   },
   "categorie": "Culture",
   "mapsUrl": "https://maps.google.com/?q=35.5706357,-5.370667",
   "source": "osm"
  },
  {
   "nom": "Plaza de Mechouar",
   "lat": 35.5703648,
   "lng": -5.3690651,
   "coordonnees": {
    "lat": 35.5703648,
    "lng": -5.3690651
   },
   "categorie": "Nature",
   "mapsUrl": "https://maps.google.com/?q=35.5703648,-5.3690651",
   "source": "osm"
  },
  {
   "nom": "Jenoui Oven",
   "lat": 35.5705908,
   "lng": -5.3641887,
   "coordonnees": {
    "lat": 35.5705908,
    "lng": -5.3641887
   },
   "categorie": "À voir",
   "mapsUrl": "https://maps.google.com/?q=35.5705908,-5.3641887",
   "source": "osm"
  },
  {
   "nom": "The Souika Ulia Oven",
   "lat": 35.569987,
   "lng": -5.36575,
   "coordonnees": {
    "lat": 35.569987,
    "lng": -5.36575
   },
   "categorie": "À voir",
   "mapsUrl": "https://maps.google.com/?q=35.569987,-5.36575",
   "source": "osm"
  },
  {
   "nom": "Instituto Cervantes Tetuan",
   "lat": 35.5693553,
   "lng": -5.3704002,
   "coordonnees": {
    "lat": 35.5693553,
    "lng": -5.3704002
   },
   "categorie": "À voir",
   "mapsUrl": "https://maps.google.com/?q=35.5693553,-5.3704002",
   "source": "osm"
  },
  {
   "nom": "Hammam El-Tub Oven",
   "lat": 35.5694795,
   "lng": -5.3649182,
   "coordonnees": {
    "lat": 35.5694795,
    "lng": -5.3649182
   },
   "categorie": "À voir",
   "mapsUrl": "https://maps.google.com/?q=35.5694795,-5.3649182",
   "source": "osm"
  },
  {
   "nom": "Los Matadores Graffiti",
   "lat": 35.5765208,
   "lng": -5.380231,
   "coordonnees": {
    "lat": 35.5765208,
    "lng": -5.380231
   },
   "categorie": "À voir",
   "mapsUrl": "https://maps.google.com/?q=35.5765208,-5.380231",
   "source": "osm"
  },
  {
   "nom": "Bab Rmouz",
   "lat": 35.5676004,
   "lng": -5.3669886,
   "coordonnees": {
    "lat": 35.5676004,
    "lng": -5.3669886
   },
   "categorie": "Histoire",
   "mapsUrl": "https://maps.google.com/?q=35.5676004,-5.3669886",
   "source": "osm"
  },
  {
   "nom": "الحمامة البيضاء",
   "lat": 35.5701035,
   "lng": -5.3857908,
   "coordonnees": {
    "lat": 35.5701035,
    "lng": -5.3857908
   },
   "categorie": "À voir",
   "mapsUrl": "https://maps.google.com/?q=35.5701035,-5.3857908",
   "source": "osm"
  },
  {
   "nom": "Beautiful view of the mountains",
   "lat": 35.5682137,
   "lng": -5.3889499,
   "coordonnees": {
    "lat": 35.5682137,
    "lng": -5.3889499
   },
   "categorie": "Panorama",
   "mapsUrl": "https://maps.google.com/?q=35.5682137,-5.3889499",
   "source": "osm"
  },
  {
   "nom": "Oued Martil Viewpoint of Riff Mountains",
   "lat": 35.5577416,
   "lng": -5.3698059,
   "coordonnees": {
    "lat": 35.5577416,
    "lng": -5.3698059
   },
   "categorie": "Panorama",
   "mapsUrl": "https://maps.google.com/?q=35.5577416,-5.3698059",
   "source": "osm"
  },
  {
   "nom": "حي كرة السبع",
   "lat": 35.5513019,
   "lng": -5.3867234,
   "coordonnees": {
    "lat": 35.5513019,
    "lng": -5.3867234
   },
   "categorie": "À voir",
   "mapsUrl": "https://maps.google.com/?q=35.5513019,-5.3867234",
   "source": "osm"
  },
  {
   "nom": "Tamuda",
   "lat": 35.5593337,
   "lng": -5.410943,
   "coordonnees": {
    "lat": 35.5593337,
    "lng": -5.410943
   },
   "categorie": "Histoire",
   "mapsUrl": "https://maps.google.com/?q=35.5593337,-5.410943",
   "source": "osm"
  },
  {
   "nom": "Ain Zarqa",
   "lat": 35.520034,
   "lng": -5.3412095,
   "coordonnees": {
    "lat": 35.520034,
    "lng": -5.3412095
   },
   "categorie": "À voir",
   "mapsUrl": "https://maps.google.com/?q=35.520034,-5.3412095",
   "source": "osm"
  },
  {
   "nom": "City Pool",
   "lat": 35.6245792,
   "lng": -5.2744327,
   "coordonnees": {
    "lat": 35.6245792,
    "lng": -5.2744327
   },
   "categorie": "À voir",
   "mapsUrl": "https://maps.google.com/?q=35.6245792,-5.2744327",
   "source": "osm"
  },
  {
   "nom": "قمة جبل بوزيتون",
   "lat": 35.4904744,
   "lng": -5.3329514,
   "coordonnees": {
    "lat": 35.4904744,
    "lng": -5.3329514
   },
   "categorie": "À voir",
   "mapsUrl": "https://maps.google.com/?q=35.4904744,-5.3329514",
   "source": "osm"
  },
  {
   "nom": "جبل غرغيز الإذاعة",
   "lat": 35.4853464,
   "lng": -5.3614758,
   "coordonnees": {
    "lat": 35.4853464,
    "lng": -5.3614758
   },
   "categorie": "À voir",
   "mapsUrl": "https://maps.google.com/?q=35.4853464,-5.3614758",
   "source": "osm"
  },
  {
   "nom": "جبل الحوز،جبل لبيض",
   "lat": 35.6665105,
   "lng": -5.4393961,
   "coordonnees": {
    "lat": 35.6665105,
    "lng": -5.4393961
   },
   "categorie": "Panorama",
   "mapsUrl": "https://maps.google.com/?q=35.6665105,-5.4393961",
   "source": "osm"
  }
 ],
 "imageCredit": "Wikimedia Commons",
 "osmEnriched": true,
 "osmEnrichedAt": "2026-06-30",
 "description_en": "Tetouan, in Morocco, is a halal-friendly destination with a Halal Trust Score of 4.5/5. Muslim travelers will find a selection of halal restaurants, 1 mosques, real-time prayer times and the Qibla direction — a complete guide to travel with peace of mind.",
 "metaDescription_en": "Halal guide to Tetouan: halal restaurants, 1 mosques, prayer times and tips for Muslim travelers. Halal Trust Score 4.5/5.",
 "nom_en": "Tetouan",
 "boucheries": [],
 "dataPurgedAt": "2026-07-15",
 "googleBakedAt": "2026-07-15"
}