{
 "slug": "tunis",
 "nom": "Tunis",
 "nom_arabe": "تونس",
 "pays": "Tunisie",
 "pays_slug": "tunisie",
 "drapeau": "🇹🇳",
 "region": "Afrique du Nord",
 "coordonnees": {
  "lat": 36.819,
  "lng": 10.1658
 },
 "score_halal": 4.3,
 "score_securite": 4,
 "score_famille": 4,
 "score_budget": 5,
 "description": "La médina de Tunis classée UNESCO, la Mosquée de la Zitouna millénaire et une cuisine maghrébine parmi les plus raffinées du monde arabe.",
 "description_courte": "La médina dorée, capitale du jasmin",
 "description_longue": "Tunis est une ville à double visage — la médina médiévale classée UNESCO avec ses souks labyrinthiques et ses zaouïas soufies, et la ville moderne coloniale avec ses cafés art déco et ses villas blanches. La Tunisie est un pays à 99% musulman mais avec une longue tradition d'ouverture — laïcité constitutionnelle, femmes voilées et non voilées côte à côte, cuisine fine mêlant influences berbères, arabes, ottomanes et méditerranéennes.",
 "image_hero": "https://images.unsplash.com/photo-1580836738558-e6c749ca8e53?w=1400&q=85",
 "image_alt": "Médina de Tunis avec minarets de la mosquée Zitouna",
 "meta_title": "Tunis Halal 2025 — Guide Voyage Musulman",
 "meta_description": "Guide halal Tunis : restaurants, mosquée Zitouna, médina UNESCO, boulangeries, activités. La capitale tunisienne authentique.",
 "statistiques": {
  "mosquees": 50,
  "restaurants_halal": 17,
  "hotels_halal": 100,
  "boucheries_halal": 1000,
  "habitants_musulmans_pct": 99,
  "habitants": 2800000,
  "superficie_km2": 346,
  "hotels": 111
 },
 "infos_pratiques": {
  "langue_officielle": "Arabe",
  "langues_parlees": [
   "Arabe",
   "Français",
   "Tunisien (darija)"
  ],
  "monnaie": "Dinar tunisien (TND)",
  "taux_change_eur": "1 EUR ≈ 3.40 TND",
  "meilleure_periode": "Avril-Juin et Septembre-Novembre",
  "a_eviter": "Juillet-Août (très chaud, 38°C+, tourists)",
  "fuseau_horaire": "CET (UTC+1)",
  "appel_priere": "Oui, dans toute la médina",
  "nourriture_halal": "Très majoritairement halal — vérifier dans hôtels et restaurants internationaux",
  "alcool": "Légal et disponible dans restaurants touristiques, supermarchés. Restaurants populaires tunisiens sans alcool.",
  "tenue_recommandee": "Décontractée acceptable, tenue modeste dans la médina et les mosquées",
  "securite": "Bonne sécurité depuis 2015, présence policière visible",
  "transport_local": "Métro léger, bus, louage (taxi collectif), taxis jaunes",
  "aeroport": "Aéroport Tunis-Carthage (TUN) — 8 km du centre",
  "visa": "Exemption visa 3 mois pour les ressortissants français, belges, suisses"
 },
 "meteo_par_mois": [
  {
   "mois": "Janvier",
   "temp_max": 14,
   "temp_min": 6,
   "pluie_jours": 9,
   "emoji": "🌧️"
  },
  {
   "mois": "Février",
   "temp_max": 15,
   "temp_min": 7,
   "pluie_jours": 7,
   "emoji": "🌦️"
  },
  {
   "mois": "Mars",
   "temp_max": 18,
   "temp_min": 9,
   "pluie_jours": 7,
   "emoji": "🌤️"
  },
  {
   "mois": "Avril",
   "temp_max": 21,
   "temp_min": 12,
   "pluie_jours": 5,
   "emoji": "⛅"
  },
  {
   "mois": "Mai",
   "temp_max": 26,
   "temp_min": 16,
   "pluie_jours": 3,
   "emoji": "☀️"
  },
  {
   "mois": "Juin",
   "temp_max": 31,
   "temp_min": 20,
   "pluie_jours": 1,
   "emoji": "☀️"
  },
  {
   "mois": "Juillet",
   "temp_max": 33,
   "temp_min": 23,
   "pluie_jours": 0,
   "emoji": "🌞"
  },
  {
   "mois": "Août",
   "temp_max": 34,
   "temp_min": 23,
   "pluie_jours": 1,
   "emoji": "🌞"
  },
  {
   "mois": "Septembre",
   "temp_max": 29,
   "temp_min": 20,
   "pluie_jours": 3,
   "emoji": "☀️"
  },
  {
   "mois": "Octobre",
   "temp_max": 24,
   "temp_min": 15,
   "pluie_jours": 5,
   "emoji": "⛅"
  },
  {
   "mois": "Novembre",
   "temp_max": 18,
   "temp_min": 10,
   "pluie_jours": 8,
   "emoji": "🌧️"
  },
  {
   "mois": "Décembre",
   "temp_max": 14,
   "temp_min": 7,
   "pluie_jours": 9,
   "emoji": "🌧️"
  }
 ],
 "restaurants": [
  {
   "nom": "Le Magicien",
   "lat": 36.8141299,
   "lng": 10.1791513,
   "type": "italian pizza, pizza, pasta, sandwich, arab",
   "halalConfidence": "likely",
   "mapsUrl": "https://maps.google.com/?q=36.8141299,10.1791513",
   "source": "osm"
  },
  {
   "nom": "كتكوت",
   "lat": 36.8129666,
   "lng": 10.1450014,
   "type": "Restaurant",
   "halalConfidence": "high",
   "mapsUrl": "https://maps.google.com/?q=36.8129666,10.1450014",
   "source": "osm"
  },
  {
   "nom": "Tej El Madina",
   "lat": 36.8062136,
   "lng": 10.1820558,
   "type": "pizza, sandwich, kebab",
   "halalConfidence": "likely",
   "mapsUrl": "https://maps.google.com/?q=36.8062136,10.1820558",
   "source": "osm"
  },
  {
   "nom": "Doken",
   "lat": 36.796918,
   "lng": 10.1722374,
   "type": "arab, mediterranean",
   "halalConfidence": "likely",
   "mapsUrl": "https://maps.google.com/?q=36.796918,10.1722374",
   "source": "osm"
  },
  {
   "nom": "Fakhr Eddine",
   "lat": 36.8486067,
   "lng": 10.1708355,
   "type": "kebab",
   "halalConfidence": "likely",
   "mapsUrl": "https://maps.google.com/?q=36.8486067,10.1708355",
   "source": "osm"
  },
  {
   "nom": "Route 66 menzah 6",
   "lat": 36.8494103,
   "lng": 10.1653036,
   "type": "burger, chicken, fish, italian, italian pizza, kebab, mediterranean",
   "halalConfidence": "high",
   "mapsUrl": "https://maps.google.com/?q=36.8494103,10.1653036",
   "source": "osm"
  },
  {
   "nom": "Food'z",
   "lat": 36.8465057,
   "lng": 10.1980246,
   "type": "fish, burger, sandwich, cake, coffee shop, steak house, pasta, pizza, chicken, arab, kebab",
   "halalConfidence": "likely",
   "mapsUrl": "https://maps.google.com/?q=36.8465057,10.1980246",
   "source": "osm"
  },
  {
   "nom": "Le safran Ennasr II",
   "lat": 36.8598735,
   "lng": 10.1625753,
   "type": "turkish",
   "halalConfidence": "high",
   "mapsUrl": "https://maps.google.com/?q=36.8598735,10.1625753",
   "source": "osm"
  },
  {
   "nom": "مطعم Nice View",
   "lat": 36.7770547,
   "lng": 10.1896419,
   "type": "chicken, arab, sandwich, pizza",
   "halalConfidence": "likely",
   "mapsUrl": "https://maps.google.com/?q=36.7770547,10.1896419",
   "source": "osm"
  },
  {
   "nom": "Bricks",
   "lat": 36.8331946,
   "lng": 10.2379783,
   "type": "arab, burger",
   "halalConfidence": "likely",
   "mapsUrl": "https://maps.google.com/?q=36.8331946,10.2379783",
   "source": "osm"
  },
  {
   "nom": "محل وجبات سريعة",
   "lat": 36.7827261,
   "lng": 10.2288251,
   "type": "Restaurant",
   "halalConfidence": "high",
   "mapsUrl": "https://maps.google.com/?q=36.7827261,10.2288251",
   "source": "osm"
  },
  {
   "nom": "Mlewi",
   "lat": 36.7545158,
   "lng": 10.117935,
   "type": "mlewi",
   "halalConfidence": "high",
   "mapsUrl": "https://maps.google.com/?q=36.7545158,10.117935",
   "source": "osm"
  },
  {
   "nom": "Route 66 Ben Arous",
   "lat": 36.7548136,
   "lng": 10.2210304,
   "type": "pizza, regional, italian, sandwich, kebab, chicken, seafood, steak house, indian",
   "halalConfidence": "high",
   "mapsUrl": "https://maps.google.com/?q=36.7548136,10.2210304",
   "source": "osm"
  },
  {
   "nom": "Route 66 Megrine",
   "lat": 36.76777,
   "lng": 10.2423975,
   "type": "pizza, regional, sandwich, italian, chicken, kebab, seafood, indian, steak house",
   "halalConfidence": "likely",
   "mapsUrl": "https://maps.google.com/?q=36.76777,10.2423975",
   "source": "osm"
  },
  {
   "nom": "Sultana Muna restaurant",
   "lat": 36.8518414,
   "lng": 10.2583518,
   "type": "shawarma",
   "halalConfidence": "high",
   "mapsUrl": "https://maps.google.com/?q=36.8518414,10.2583518",
   "source": "osm"
  },
  {
   "nom": "Mlewi Newfel",
   "lat": 36.9021894,
   "lng": 10.1861119,
   "type": "sandwich",
   "halalConfidence": "high",
   "mapsUrl": "https://maps.google.com/?q=36.9021894,10.1861119",
   "source": "osm"
  },
  {
   "nom": "Chok Güzel Turkish Restaurant",
   "lat": 36.8477986,
   "lng": 10.2681461,
   "type": "turkish",
   "halalConfidence": "likely",
   "mapsUrl": "https://maps.google.com/?q=36.8477986,10.2681461",
   "source": "osm"
  }
 ],
 "mosquees": [],
 "hotels": [
  {
   "nom": "Résidence Inn",
   "categorie": "Hôtel",
   "priceRange": "€€",
   "mapsUrl": "https://maps.google.com/?q=36.8125221,10.1702587",
   "lat": 36.8125221,
   "lng": 10.1702587,
   "halalFriendly": false,
   "bookingUrl": "https://maps.google.com/?q=36.8125221,10.1702587",
   "source": "osm"
  },
  {
   "nom": "Bab Alkhadhra",
   "categorie": "Hôtel",
   "priceRange": "€€",
   "mapsUrl": "https://maps.google.com/?q=36.812829,10.1712785",
   "lat": 36.812829,
   "lng": 10.1712785,
   "halalFriendly": false,
   "bookingUrl": "https://maps.google.com/?q=36.812829,10.1712785",
   "source": "osm"
  },
  {
   "nom": "هوتيل الكرمل",
   "categorie": "Hôtel",
   "priceRange": "€€",
   "mapsUrl": "https://maps.google.com/?q=36.8126733,10.1717922",
   "lat": 36.8126733,
   "lng": 10.1717922,
   "halalFriendly": false,
   "bookingUrl": "https://maps.google.com/?q=36.8126733,10.1717922",
   "source": "osm"
  },
  {
   "nom": "إقامة عبير",
   "categorie": "Hôtel",
   "priceRange": "€€",
   "mapsUrl": "https://maps.google.com/?q=36.811716,10.1698189",
   "lat": 36.811716,
   "lng": 10.1698189,
   "halalFriendly": false,
   "bookingUrl": "https://maps.google.com/?q=36.811716,10.1698189",
   "source": "osm"
  },
  {
   "nom": "نزل صاحب الطابع",
   "categorie": "Hôtel",
   "priceRange": "€€",
   "mapsUrl": "https://maps.google.com/?q=36.8109094,10.1646301",
   "lat": 36.8109094,
   "lng": 10.1646301,
   "halalFriendly": false,
   "bookingUrl": "https://maps.google.com/?q=36.8109094,10.1646301",
   "source": "osm"
  },
  {
   "nom": "Golden Tulip El Mechtel",
   "categorie": "Hôtel",
   "priceRange": "€€€€",
   "score": 5,
   "mapsUrl": "https://maps.google.com/?q=36.8136439,10.173811",
   "lat": 36.8136439,
   "lng": 10.173811,
   "halalFriendly": false,
   "bookingUrl": "https://maps.google.com/?q=36.8136439,10.173811",
   "source": "osm"
  },
  {
   "nom": "GOLDEN TULIP EL MECHTEL HOTEL",
   "categorie": "Hôtel",
   "priceRange": "€€",
   "mapsUrl": "https://maps.google.com/?q=36.8135807,10.1740796",
   "lat": 36.8135807,
   "lng": 10.1740796,
   "halalFriendly": false,
   "bookingUrl": "https://maps.google.com/?q=36.8135807,10.1740796",
   "source": "osm"
  },
  {
   "nom": "Hôtel Le National",
   "categorie": "Hôtel",
   "priceRange": "€€",
   "mapsUrl": "https://maps.google.com/?q=36.813744,10.175736",
   "lat": 36.813744,
   "lng": 10.175736,
   "halalFriendly": false,
   "bookingUrl": "https://maps.google.com/?q=36.813744,10.175736",
   "source": "osm"
  },
  {
   "nom": "Hôtel Belvédère Fourati",
   "categorie": "Hôtel",
   "priceRange": "€€",
   "mapsUrl": "https://maps.google.com/?q=36.815626,10.1778215",
   "lat": 36.815626,
   "lng": 10.1778215,
   "halalFriendly": false,
   "bookingUrl": "https://www.hotelbelvederetunis.com/en/home/",
   "source": "osm"
  },
  {
   "nom": "Le Diplomat",
   "categorie": "Hôtel",
   "priceRange": "€€€€",
   "score": 4,
   "mapsUrl": "https://maps.google.com/?q=36.8134613,10.1772547",
   "lat": 36.8134613,
   "lng": 10.1772547,
   "halalFriendly": false,
   "bookingUrl": "https://maps.google.com/?q=36.8134613,10.1772547",
   "source": "osm"
  },
  {
   "nom": "نزل أريحا",
   "categorie": "Hôtel",
   "priceRange": "€€",
   "mapsUrl": "https://maps.google.com/?q=36.8191596,10.1792159",
   "lat": 36.8191596,
   "lng": 10.1792159,
   "halalFriendly": false,
   "bookingUrl": "https://maps.google.com/?q=36.8191596,10.1792159",
   "source": "osm"
  },
  {
   "nom": "القنصل",
   "categorie": "Hôtel",
   "priceRange": "€€",
   "mapsUrl": "https://maps.google.com/?q=36.8168853,10.179717",
   "lat": 36.8168853,
   "lng": 10.179717,
   "halalFriendly": false,
   "bookingUrl": "http://www.hotelleconsul.com",
   "source": "osm"
  },
  {
   "nom": "Résidence Le Consul",
   "categorie": "Hôtel",
   "priceRange": "€€",
   "mapsUrl": "https://maps.google.com/?q=36.8148763,10.1793395",
   "lat": 36.8148763,
   "lng": 10.1793395,
   "halalFriendly": false,
   "bookingUrl": "https://maps.google.com/?q=36.8148763,10.1793395",
   "source": "osm"
  },
  {
   "nom": "Complexe Zitouna Apartment",
   "categorie": "Hôtel",
   "priceRange": "€€",
   "mapsUrl": "https://maps.google.com/?q=36.8137379,10.1787685",
   "lat": 36.8137379,
   "lng": 10.1787685,
   "halalFriendly": false,
   "bookingUrl": "https://maps.google.com/?q=36.8137379,10.1787685",
   "source": "osm"
  },
  {
   "nom": "Hôtel Lafayette",
   "categorie": "Hôtel",
   "priceRange": "€€",
   "mapsUrl": "https://maps.google.com/?q=36.812573,10.17832",
   "lat": 36.812573,
   "lng": 10.17832,
   "halalFriendly": false,
   "bookingUrl": "https://maps.google.com/?q=36.812573,10.17832",
   "source": "osm"
  },
  {
   "nom": "chez Liban",
   "categorie": "Maison d'hôtes",
   "priceRange": "€€",
   "mapsUrl": "https://maps.google.com/?q=36.8099036,10.1754427",
   "lat": 36.8099036,
   "lng": 10.1754427,
   "halalFriendly": false,
   "bookingUrl": "https://maps.google.com/?q=36.8099036,10.1754427",
   "source": "osm"
  },
  {
   "nom": "مساكن خالد",
   "categorie": "Appartement",
   "priceRange": "€€",
   "mapsUrl": "https://maps.google.com/?q=36.8097868,10.1753343",
   "lat": 36.8097868,
   "lng": 10.1753343,
   "halalFriendly": false,
   "bookingUrl": "https://maps.google.com/?q=36.8097868,10.1753343",
   "source": "osm"
  },
  {
   "nom": "فندق شيراتون",
   "categorie": "Hôtel",
   "priceRange": "€€€€",
   "score": 5,
   "mapsUrl": "https://maps.google.com/?q=36.8309226,10.1606262",
   "lat": 36.8309226,
   "lng": 10.1606262,
   "halalFriendly": false,
   "bookingUrl": "https://maps.google.com/?q=36.8309226,10.1606262",
   "source": "osm"
  },
  {
   "nom": "فيلا 78",
   "categorie": "Maison d'hôtes",
   "priceRange": "€€",
   "mapsUrl": "https://maps.google.com/?q=36.8192667,10.1818126",
   "lat": 36.8192667,
   "lng": 10.1818126,
   "halalFriendly": false,
   "bookingUrl": "http://www.villa78tunis.com/",
   "source": "osm"
  },
  {
   "nom": "نزل ابن خلدون",
   "categorie": "Hôtel",
   "priceRange": "€€",
   "mapsUrl": "https://maps.google.com/?q=36.8131107,10.1805504",
   "lat": 36.8131107,
   "lng": 10.1805504,
   "halalFriendly": false,
   "bookingUrl": "https://maps.google.com/?q=36.8131107,10.1805504",
   "source": "osm"
  },
  {
   "nom": "نزل ماتوس",
   "categorie": "Hôtel",
   "priceRange": "€€",
   "mapsUrl": "https://maps.google.com/?q=36.8131963,10.1813553",
   "lat": 36.8131963,
   "lng": 10.1813553,
   "halalFriendly": false,
   "bookingUrl": "http://www.hotelmatous.com",
   "source": "osm"
  },
  {
   "nom": "فندق الباشا",
   "categorie": "Hôtel",
   "priceRange": "€€",
   "mapsUrl": "https://maps.google.com/?q=36.8187222,10.1835397",
   "lat": 36.8187222,
   "lng": 10.1835397,
   "halalFriendly": false,
   "bookingUrl": "www.lepacha.tn",
   "source": "osm"
  },
  {
   "nom": "فندق عياشي",
   "categorie": "Hôtel",
   "priceRange": "€€",
   "mapsUrl": "https://maps.google.com/?q=36.8049791,10.1696444",
   "lat": 36.8049791,
   "lng": 10.1696444,
   "halalFriendly": false,
   "bookingUrl": "https://maps.google.com/?q=36.8049791,10.1696444",
   "source": "osm"
  },
  {
   "nom": "chez manal",
   "categorie": "Maison d'hôtes",
   "priceRange": "€€",
   "mapsUrl": "https://maps.google.com/?q=36.8084393,10.1781056",
   "lat": 36.8084393,
   "lng": 10.1781056,
   "halalFriendly": false,
   "bookingUrl": "https://maps.google.com/?q=36.8084393,10.1781056",
   "source": "osm"
  },
  {
   "nom": "فندق الدار البيضاء",
   "categorie": "Hôtel",
   "priceRange": "€€",
   "mapsUrl": "https://maps.google.com/?q=36.817671,10.1838985",
   "lat": 36.817671,
   "lng": 10.1838985,
   "halalFriendly": false,
   "bookingUrl": "https://maps.google.com/?q=36.817671,10.1838985",
   "source": "osm"
  },
  {
   "nom": "فندق الأعمال",
   "categorie": "Hôtel",
   "priceRange": "€€",
   "mapsUrl": "https://maps.google.com/?q=36.8182208,10.1846641",
   "lat": 36.8182208,
   "lng": 10.1846641,
   "halalFriendly": false,
   "bookingUrl": "https://businesshoteltunis.com/",
   "source": "osm"
  },
  {
   "nom": "دار القائد نسيم شمامة",
   "categorie": "Hôtel",
   "priceRange": "€€",
   "mapsUrl": "https://maps.google.com/?q=36.8037004,10.1722625",
   "lat": 36.8037004,
   "lng": 10.1722625,
   "halalFriendly": false,
   "bookingUrl": "https://maps.google.com/?q=36.8037004,10.1722625",
   "source": "osm"
  },
  {
   "nom": "فندق إيبيس تونس",
   "categorie": "Hôtel",
   "priceRange": "€€€",
   "score": 3,
   "mapsUrl": "https://maps.google.com/?q=36.8114374,10.1838043",
   "lat": 36.8114374,
   "lng": 10.1838043,
   "halalFriendly": false,
   "bookingUrl": "https://all.accor.com/hotel/6144/index.en.shtml",
   "source": "osm"
  },
  {
   "nom": "Dar Ben-Gacem Kahia",
   "categorie": "Maison d'hôtes",
   "priceRange": "€€",
   "mapsUrl": "https://maps.google.com/?q=36.8026981,10.1672512",
   "lat": 36.8026981,
   "lng": 10.1672512,
   "halalFriendly": false,
   "bookingUrl": "https://www.darbengacem.com/dar-ben-gacem-kahia/",
   "source": "osm"
  },
  {
   "nom": "نزل الحديقة",
   "categorie": "Hôtel",
   "priceRange": "€€€",
   "score": 3,
   "mapsUrl": "https://maps.google.com/?q=36.8150505,10.1856244",
   "lat": 36.8150505,
   "lng": 10.1856244,
   "halalFriendly": false,
   "bookingUrl": "https://maps.google.com/?q=36.8150505,10.1856244",
   "source": "osm"
  },
  {
   "nom": "Hôtel Novotel Tunis Mohamed V",
   "categorie": "Hôtel",
   "priceRange": "€€€€",
   "score": 4,
   "mapsUrl": "https://maps.google.com/?q=36.8114702,10.1841104",
   "lat": 36.8114702,
   "lng": 10.1841104,
   "halalFriendly": false,
   "bookingUrl": "https://all.accor.com/hotel/6145/index.en.shtml",
   "source": "osm"
  },
  {
   "nom": "نزل الحديقة",
   "categorie": "Hôtel",
   "priceRange": "€€",
   "mapsUrl": "https://maps.google.com/?q=36.8151627,10.1858452",
   "lat": 36.8151627,
   "lng": 10.1858452,
   "halalFriendly": false,
   "bookingUrl": "https://maps.google.com/?q=36.8151627,10.1858452",
   "source": "osm"
  },
  {
   "nom": "Hôtel Le Passage",
   "categorie": "Hôtel",
   "priceRange": "€€",
   "score": 2,
   "mapsUrl": "https://maps.google.com/?q=36.8071028,10.1812852",
   "lat": 36.8071028,
   "lng": 10.1812852,
   "halalFriendly": false,
   "bookingUrl": "https://maps.google.com/?q=36.8071028,10.1812852",
   "source": "osm"
  },
  {
   "nom": "Atelier D",
   "categorie": "Hôtel",
   "priceRange": "€€",
   "mapsUrl": "https://maps.google.com/?q=36.8015628,10.1676529",
   "lat": 36.8015628,
   "lng": 10.1676529,
   "halalFriendly": false,
   "bookingUrl": "https://maps.google.com/?q=36.8015628,10.1676529",
   "source": "osm"
  },
  {
   "nom": "Hôtel Khalifa",
   "categorie": "Hôtel",
   "priceRange": "€€",
   "mapsUrl": "https://maps.google.com/?q=36.8027386,10.1739115",
   "lat": 36.8027386,
   "lng": 10.1739115,
   "halalFriendly": false,
   "bookingUrl": "https://maps.google.com/?q=36.8027386,10.1739115",
   "source": "osm"
  },
  {
   "nom": "Hôtel Naplouse",
   "categorie": "Hôtel",
   "priceRange": "€€",
   "mapsUrl": "https://maps.google.com/?q=36.807144,10.1819633",
   "lat": 36.807144,
   "lng": 10.1819633,
   "halalFriendly": false,
   "bookingUrl": "https://maps.google.com/?q=36.807144,10.1819633",
   "source": "osm"
  },
  {
   "nom": "Hôtel Olympique",
   "categorie": "Hôtel",
   "priceRange": "€€",
   "mapsUrl": "https://maps.google.com/?q=36.8081916,10.1834702",
   "lat": 36.8081916,
   "lng": 10.1834702,
   "halalFriendly": false,
   "bookingUrl": "https://maps.google.com/?q=36.8081916,10.1834702",
   "source": "osm"
  },
  {
   "nom": "Dar oussema",
   "categorie": "Auberge",
   "priceRange": "€€",
   "mapsUrl": "https://maps.google.com/?q=36.8191466,10.1433491",
   "lat": 36.8191466,
   "lng": 10.1433491,
   "halalFriendly": false,
   "bookingUrl": "https://maps.google.com/?q=36.8191466,10.1433491",
   "source": "osm"
  },
  {
   "nom": "Hôtel Ritza",
   "categorie": "Hôtel",
   "priceRange": "€€",
   "mapsUrl": "https://maps.google.com/?q=36.8050595,10.1803166",
   "lat": 36.8050595,
   "lng": 10.1803166,
   "halalFriendly": false,
   "bookingUrl": "https://maps.google.com/?q=36.8050595,10.1803166",
   "source": "osm"
  },
  {
   "nom": "دار ابن قاسم",
   "categorie": "Maison d'hôtes",
   "priceRange": "€€",
   "mapsUrl": "https://maps.google.com/?q=36.800447,10.1679646",
   "lat": 36.800447,
   "lng": 10.1679646,
   "halalFriendly": false,
   "bookingUrl": "https://www.darbengacem.com/dar-ben-gacem-pasha/",
   "source": "osm"
  },
  {
   "nom": "نزل ماجستيك",
   "categorie": "Hôtel",
   "priceRange": "€€",
   "mapsUrl": "https://maps.google.com/?q=36.8042815,10.1801798",
   "lat": 36.8042815,
   "lng": 10.1801798,
   "halalFriendly": false,
   "bookingUrl": "https://maps.google.com/?q=36.8042815,10.1801798",
   "source": "osm"
  },
  {
   "nom": "Dar Ya",
   "categorie": "Auberge",
   "priceRange": "€€",
   "mapsUrl": "https://maps.google.com/?q=36.8000972,10.1673868",
   "lat": 36.8000972,
   "lng": 10.1673868,
   "halalFriendly": false,
   "bookingUrl": "https://maps.google.com/?q=36.8000972,10.1673868",
   "source": "osm"
  },
  {
   "nom": "La Chambre bleue",
   "categorie": "Hôtel",
   "priceRange": "€€",
   "mapsUrl": "https://maps.google.com/?q=36.8001127,10.1700309",
   "lat": 36.8001127,
   "lng": 10.1700309,
   "halalFriendly": false,
   "bookingUrl": "www.lachambrebleue.net",
   "source": "osm"
  },
  {
   "nom": "Auberge de Jeunesse",
   "categorie": "Auberge",
   "priceRange": "€€",
   "mapsUrl": "https://maps.google.com/?q=36.799448,10.1699601",
   "lat": 36.799448,
   "lng": 10.1699601,
   "halalFriendly": false,
   "bookingUrl": "https://maps.google.com/?q=36.799448,10.1699601",
   "source": "osm"
  },
  {
   "nom": "فندق القدس",
   "categorie": "Hôtel",
   "priceRange": "€€",
   "mapsUrl": "https://maps.google.com/?q=36.8011216,10.176559",
   "lat": 36.8011216,
   "lng": 10.176559,
   "halalFriendly": false,
   "bookingUrl": "https://maps.google.com/?q=36.8011216,10.176559",
   "source": "osm"
  },
  {
   "nom": "YHA Tunis Auberge Medina",
   "categorie": "Auberge",
   "priceRange": "€€",
   "mapsUrl": "https://maps.google.com/?q=36.7994156,10.1700366",
   "lat": 36.7994156,
   "lng": 10.1700366,
   "halalFriendly": false,
   "bookingUrl": "https://maps.google.com/?q=36.7994156,10.1700366",
   "source": "osm"
  },
  {
   "nom": "Roma",
   "categorie": "Hôtel",
   "priceRange": "€€",
   "mapsUrl": "https://maps.google.com/?q=36.8011038,10.1767758",
   "lat": 36.8011038,
   "lng": 10.1767758,
   "halalFriendly": false,
   "bookingUrl": "https://maps.google.com/?q=36.8011038,10.1767758",
   "source": "osm"
  },
  {
   "nom": "دار المدينة",
   "categorie": "Hôtel",
   "priceRange": "€€",
   "mapsUrl": "https://maps.google.com/?q=36.7991869,10.1695242",
   "lat": 36.7991869,
   "lng": 10.1695242,
   "halalFriendly": false,
   "bookingUrl": "https://maps.google.com/?q=36.7991869,10.1695242",
   "source": "osm"
  },
  {
   "nom": "Hôtel Des Glacières",
   "categorie": "Hôtel",
   "priceRange": "€€",
   "mapsUrl": "https://maps.google.com/?q=36.799938,10.1754068",
   "lat": 36.799938,
   "lng": 10.1754068,
   "halalFriendly": false,
   "bookingUrl": "https://maps.google.com/?q=36.799938,10.1754068",
   "source": "osm"
  },
  {
   "nom": "نزل باسم",
   "categorie": "Auberge",
   "priceRange": "€€",
   "mapsUrl": "https://maps.google.com/?q=36.8372119,10.1538299",
   "lat": 36.8372119,
   "lng": 10.1538299,
   "halalFriendly": false,
   "bookingUrl": "https://maps.google.com/?q=36.8372119,10.1538299",
   "source": "osm"
  },
  {
   "nom": "Radisson Blu Hotel & Convention Center",
   "categorie": "Hôtel",
   "priceRange": "€€€€",
   "score": 5,
   "mapsUrl": "https://maps.google.com/?q=36.8075429,10.1871609",
   "lat": 36.8075429,
   "lng": 10.1871609,
   "halalFriendly": false,
   "bookingUrl": "https://www.radissonhotels.com/fr-fr/hotels/radisson-blu-hotel-convention-center-tunis",
   "source": "osm"
  },
  {
   "nom": "Hôtel Métropole Résidence",
   "categorie": "Hôtel",
   "priceRange": "€€",
   "mapsUrl": "https://maps.google.com/?q=36.8004762,10.1772128",
   "lat": 36.8004762,
   "lng": 10.1772128,
   "halalFriendly": false,
   "bookingUrl": "https://maps.google.com/?q=36.8004762,10.1772128",
   "source": "osm"
  },
  {
   "nom": "المدينة",
   "categorie": "Hôtel",
   "priceRange": "€€",
   "mapsUrl": "https://maps.google.com/?q=36.7997578,10.1757156",
   "lat": 36.7997578,
   "lng": 10.1757156,
   "halalFriendly": false,
   "bookingUrl": "https://maps.google.com/?q=36.7997578,10.1757156",
   "source": "osm"
  },
  {
   "nom": "حي الواحات . مقهى الشيخ",
   "categorie": "Appartement",
   "priceRange": "€€",
   "mapsUrl": "https://maps.google.com/?q=36.8375928,10.1538036",
   "lat": 36.8375928,
   "lng": 10.1538036,
   "halalFriendly": false,
   "bookingUrl": "https://maps.google.com/?q=36.8375928,10.1538036",
   "source": "osm"
  },
  {
   "nom": "C. chemakh",
   "categorie": "Appartement",
   "priceRange": "€€",
   "mapsUrl": "https://maps.google.com/?q=36.8256397,10.1403902",
   "lat": 36.8256397,
   "lng": 10.1403902,
   "halalFriendly": false,
   "bookingUrl": "https://maps.google.com/?q=36.8256397,10.1403902",
   "source": "osm"
  },
  {
   "nom": "Hôtel Marhaba",
   "categorie": "Hôtel",
   "priceRange": "€€",
   "mapsUrl": "https://maps.google.com/?q=36.7989103,10.1751901",
   "lat": 36.7989103,
   "lng": 10.1751901,
   "halalFriendly": false,
   "bookingUrl": "https://maps.google.com/?q=36.7989103,10.1751901",
   "source": "osm"
  },
  {
   "nom": "Hôtel Tunisia Palace",
   "categorie": "Hôtel",
   "priceRange": "€€",
   "mapsUrl": "https://maps.google.com/?q=36.7995628,10.1772188",
   "lat": 36.7995628,
   "lng": 10.1772188,
   "halalFriendly": false,
   "bookingUrl": "https://maps.google.com/?q=36.7995628,10.1772188",
   "source": "osm"
  },
  {
   "nom": "Hôtel Tiba",
   "categorie": "Hôtel",
   "priceRange": "€€",
   "mapsUrl": "https://maps.google.com/?q=36.8003109,10.1802965",
   "lat": 36.8003109,
   "lng": 10.1802965,
   "halalFriendly": false,
   "bookingUrl": "https://maps.google.com/?q=36.8003109,10.1802965",
   "source": "osm"
  },
  {
   "nom": "فندق جراند دي فرانس",
   "categorie": "Hôtel",
   "priceRange": "€€",
   "mapsUrl": "https://maps.google.com/?q=36.798475,10.1762754",
   "lat": 36.798475,
   "lng": 10.1762754,
   "halalFriendly": false,
   "bookingUrl": "https://maps.google.com/?q=36.798475,10.1762754",
   "source": "osm"
  },
  {
   "nom": "فندق الهناء تونس الدولي",
   "categorie": "Hôtel",
   "priceRange": "€€",
   "mapsUrl": "https://maps.google.com/?q=36.8000987,10.1808595",
   "lat": 36.8000987,
   "lng": 10.1808595,
   "halalFriendly": false,
   "bookingUrl": "https://maps.google.com/?q=36.8000987,10.1808595",
   "source": "osm"
  },
  {
   "nom": "Dar Ben Turkia",
   "categorie": "Hôtel",
   "priceRange": "€€",
   "mapsUrl": "https://maps.google.com/?q=36.7973457,10.1732853",
   "lat": 36.7973457,
   "lng": 10.1732853,
   "halalFriendly": false,
   "bookingUrl": "https://www.darbenturkia.com/",
   "source": "osm"
  },
  {
   "nom": "Hôtel Oscars",
   "categorie": "Hôtel",
   "priceRange": "€€",
   "mapsUrl": "https://maps.google.com/?q=36.8006372,10.1820893",
   "lat": 36.8006372,
   "lng": 10.1820893,
   "halalFriendly": false,
   "bookingUrl": "https://maps.google.com/?q=36.8006372,10.1820893",
   "source": "osm"
  },
  {
   "nom": "Splendid",
   "categorie": "Hôtel",
   "priceRange": "€€",
   "mapsUrl": "https://maps.google.com/?q=36.7980763,10.1768992",
   "lat": 36.7980763,
   "lng": 10.1768992,
   "halalFriendly": false,
   "bookingUrl": "https://maps.google.com/?q=36.7980763,10.1768992",
   "source": "osm"
  },
  {
   "nom": "كومودور",
   "categorie": "Hôtel",
   "priceRange": "€€",
   "mapsUrl": "https://maps.google.com/?q=36.7981215,10.1774286",
   "lat": 36.7981215,
   "lng": 10.1774286,
   "halalFriendly": false,
   "bookingUrl": "https://maps.google.com/?q=36.7981215,10.1774286",
   "source": "osm"
  },
  {
   "nom": "فندق كارلتون",
   "categorie": "Hôtel",
   "priceRange": "€€€",
   "score": 3,
   "mapsUrl": "https://maps.google.com/?q=36.8002879,10.1834871",
   "lat": 36.8002879,
   "lng": 10.1834871,
   "halalFriendly": false,
   "bookingUrl": "https://www.hotelcarltontunis.com/",
   "source": "osm"
  },
  {
   "nom": "Carlton",
   "categorie": "Hôtel",
   "priceRange": "€€",
   "mapsUrl": "https://maps.google.com/?q=36.8003637,10.1837145",
   "lat": 36.8003637,
   "lng": 10.1837145,
   "halalFriendly": false,
   "bookingUrl": "https://maps.google.com/?q=36.8003637,10.1837145",
   "source": "osm"
  },
  {
   "nom": "دار كنزة",
   "categorie": "Maison d'hôtes",
   "priceRange": "€€",
   "mapsUrl": "https://maps.google.com/?q=36.7958984,10.1718713",
   "lat": 36.7958984,
   "lng": 10.1718713,
   "halalFriendly": false,
   "bookingUrl": "https://maps.google.com/?q=36.7958984,10.1718713",
   "source": "osm"
  },
  {
   "nom": "قصر بيرم",
   "categorie": "Hôtel",
   "priceRange": "€€",
   "mapsUrl": "https://maps.google.com/?q=36.7956233,10.1711037",
   "lat": 36.7956233,
   "lng": 10.1711037,
   "halalFriendly": false,
   "bookingUrl": "https://maps.google.com/?q=36.7956233,10.1711037",
   "source": "osm"
  },
  {
   "nom": "Princesse",
   "categorie": "Hôtel",
   "priceRange": "€€",
   "mapsUrl": "https://maps.google.com/?q=36.8415872,10.1565176",
   "lat": 36.8415872,
   "lng": 10.1565176,
   "halalFriendly": false,
   "bookingUrl": "https://maps.google.com/?q=36.8415872,10.1565176",
   "source": "osm"
  },
  {
   "nom": "دار بيرم",
   "categorie": "Hôtel",
   "priceRange": "€€",
   "mapsUrl": "https://maps.google.com/?q=36.79558,10.1711317",
   "lat": 36.79558,
   "lng": 10.1711317,
   "halalFriendly": false,
   "bookingUrl": "https://palaisbayram.com/",
   "source": "osm"
  },
  {
   "nom": "Hôtel de Genève",
   "categorie": "Hôtel",
   "priceRange": "€€",
   "mapsUrl": "https://maps.google.com/?q=36.7976435,10.1792939",
   "lat": 36.7976435,
   "lng": 10.1792939,
   "halalFriendly": false,
   "bookingUrl": "https://maps.google.com/?q=36.7976435,10.1792939",
   "source": "osm"
  },
  {
   "nom": "Hôtel Salammbo",
   "categorie": "Hôtel",
   "priceRange": "€€",
   "mapsUrl": "https://maps.google.com/?q=36.7980954,10.1804285",
   "lat": 36.7980954,
   "lng": 10.1804285,
   "halalFriendly": false,
   "bookingUrl": "https://maps.google.com/?q=36.7980954,10.1804285",
   "source": "osm"
  },
  {
   "nom": "فندق أفريقا زوالي",
   "categorie": "Hôtel",
   "priceRange": "€€€€",
   "score": 5,
   "mapsUrl": "https://maps.google.com/?q=36.7993942,10.1831834",
   "lat": 36.7993942,
   "lng": 10.1831834,
   "halalFriendly": false,
   "bookingUrl": "https://maps.google.com/?q=36.7993942,10.1831834",
   "source": "osm"
  },
  {
   "nom": "Hôtel de Suisse",
   "categorie": "Hôtel",
   "priceRange": "€€",
   "mapsUrl": "https://maps.google.com/?q=36.7974191,10.179394",
   "lat": 36.7974191,
   "lng": 10.179394,
   "halalFriendly": false,
   "bookingUrl": "https://maps.google.com/?q=36.7974191,10.179394",
   "source": "osm"
  },
  {
   "nom": "Hôtel Transatlantique",
   "categorie": "Hôtel",
   "priceRange": "€€",
   "mapsUrl": "https://maps.google.com/?q=36.7981985,10.1813769",
   "lat": 36.7981985,
   "lng": 10.1813769,
   "halalFriendly": false,
   "bookingUrl": "https://maps.google.com/?q=36.7981985,10.1813769",
   "source": "osm"
  },
  {
   "nom": "فندق البحيرة",
   "categorie": "Hôtel",
   "priceRange": "€€",
   "mapsUrl": "https://maps.google.com/?q=36.8018966,10.187336",
   "lat": 36.8018966,
   "lng": 10.187336,
   "halalFriendly": false,
   "bookingUrl": "https://maps.google.com/?q=36.8018966,10.187336",
   "source": "osm"
  },
  {
   "nom": "Hôtel",
   "categorie": "Hôtel",
   "priceRange": "€€",
   "mapsUrl": "https://maps.google.com/?q=36.7985997,10.1827274",
   "lat": 36.7985997,
   "lng": 10.1827274,
   "halalFriendly": false,
   "bookingUrl": "https://maps.google.com/?q=36.7985997,10.1827274",
   "source": "osm"
  },
  {
   "nom": "نزل جرجيس",
   "categorie": "Hôtel",
   "priceRange": "€€",
   "mapsUrl": "https://maps.google.com/?q=36.795901,10.1768579",
   "lat": 36.795901,
   "lng": 10.1768579,
   "halalFriendly": false,
   "bookingUrl": "https://maps.google.com/?q=36.795901,10.1768579",
   "source": "osm"
  },
  {
   "nom": "Hôtel Tej Tunis",
   "categorie": "Hôtel",
   "priceRange": "€€",
   "mapsUrl": "https://maps.google.com/?q=36.7990182,10.1842787",
   "lat": 36.7990182,
   "lng": 10.1842787,
   "halalFriendly": false,
   "bookingUrl": "https://maps.google.com/?q=36.7990182,10.1842787",
   "source": "osm"
  },
  {
   "nom": "Dar Traki",
   "categorie": "Maison d'hôtes",
   "priceRange": "€€",
   "mapsUrl": "https://maps.google.com/?q=36.7946633,10.1722115",
   "lat": 36.7946633,
   "lng": 10.1722115,
   "halalFriendly": false,
   "bookingUrl": "https://maps.google.com/?q=36.7946633,10.1722115",
   "source": "osm"
  },
  {
   "nom": "فندق غولف رويال",
   "categorie": "Hôtel",
   "priceRange": "€€",
   "mapsUrl": "https://maps.google.com/?q=36.7988129,10.1839536",
   "lat": 36.7988129,
   "lng": 10.1839536,
   "halalFriendly": false,
   "bookingUrl": "www.golfroyalhotel.com.tn",
   "source": "osm"
  },
  {
   "nom": "Dar Ella Essaïda",
   "categorie": "Maison d'hôtes",
   "priceRange": "€€",
   "mapsUrl": "https://maps.google.com/?q=36.7935267,10.165849",
   "lat": 36.7935267,
   "lng": 10.165849,
   "halalFriendly": false,
   "bookingUrl": "https://maps.google.com/?q=36.7935267,10.165849",
   "source": "osm"
  },
  {
   "nom": "cirta hotel",
   "categorie": "Hôtel",
   "priceRange": "€€",
   "mapsUrl": "https://maps.google.com/?q=36.7954633,10.1782756",
   "lat": 36.7954633,
   "lng": 10.1782756,
   "halalFriendly": false,
   "bookingUrl": "https://maps.google.com/?q=36.7954633,10.1782756",
   "source": "osm"
  },
  {
   "nom": "Hôtel de l'Agriculture",
   "categorie": "Hôtel",
   "priceRange": "€€",
   "mapsUrl": "https://maps.google.com/?q=36.7953266,10.1781313",
   "lat": 36.7953266,
   "lng": 10.1781313,
   "halalFriendly": false,
   "bookingUrl": "https://maps.google.com/?q=36.7953266,10.1781313",
   "source": "osm"
  },
  {
   "nom": "Russie hotel",
   "categorie": "Hôtel",
   "priceRange": "€€",
   "mapsUrl": "https://maps.google.com/?q=36.7948512,10.176707",
   "lat": 36.7948512,
   "lng": 10.176707,
   "halalFriendly": false,
   "bookingUrl": "https://maps.google.com/?q=36.7948512,10.176707",
   "source": "osm"
  },
  {
   "nom": "Salammbo",
   "categorie": "Hôtel",
   "priceRange": "€€",
   "mapsUrl": "https://maps.google.com/?q=36.798016,10.1846741",
   "lat": 36.798016,
   "lng": 10.1846741,
   "halalFriendly": false,
   "bookingUrl": "https://maps.google.com/?q=36.798016,10.1846741",
   "source": "osm"
  },
  {
   "nom": "دار المصمودي",
   "categorie": "Hôtel",
   "priceRange": "€€",
   "mapsUrl": "https://maps.google.com/?q=36.7941784,10.1774083",
   "lat": 36.7941784,
   "lng": 10.1774083,
   "halalFriendly": false,
   "bookingUrl": "https://maps.google.com/?q=36.7941784,10.1774083",
   "source": "osm"
  },
  {
   "nom": "Dar location",
   "categorie": "Maison d'hôtes",
   "priceRange": "€€",
   "mapsUrl": "https://maps.google.com/?q=36.8452337,10.1708988",
   "lat": 36.8452337,
   "lng": 10.1708988,
   "halalFriendly": false,
   "bookingUrl": "https://maps.google.com/?q=36.8452337,10.1708988",
   "source": "osm"
  },
  {
   "nom": "Dar",
   "categorie": "Appartement",
   "priceRange": "€€",
   "mapsUrl": "https://maps.google.com/?q=36.8306698,10.1956515",
   "lat": 36.8306698,
   "lng": 10.1956515,
   "halalFriendly": false,
   "bookingUrl": "https://maps.google.com/?q=36.8306698,10.1956515",
   "source": "osm"
  },
  {
   "nom": "Hôtel El Bahy Tunis",
   "categorie": "Hôtel",
   "priceRange": "€€",
   "mapsUrl": "https://maps.google.com/?q=36.8001455,10.1896136",
   "lat": 36.8001455,
   "lng": 10.1896136,
   "halalFriendly": false,
   "bookingUrl": "https://maps.google.com/?q=36.8001455,10.1896136",
   "source": "osm"
  },
  {
   "nom": "فندق الباهي",
   "categorie": "Hôtel",
   "priceRange": "€€",
   "mapsUrl": "https://maps.google.com/?q=36.8003939,10.189955",
   "lat": 36.8003939,
   "lng": 10.189955,
   "halalFriendly": false,
   "bookingUrl": "https://maps.google.com/?q=36.8003939,10.189955",
   "source": "osm"
  },
  {
   "nom": "دار حيدر",
   "categorie": "Maison d'hôtes",
   "priceRange": "€€",
   "mapsUrl": "https://maps.google.com/?q=36.7920788,10.1659634",
   "lat": 36.7920788,
   "lng": 10.1659634,
   "halalFriendly": false,
   "bookingUrl": "https://maps.google.com/?q=36.7920788,10.1659634",
   "source": "osm"
  },
  {
   "nom": "Hôtel El Oumara",
   "categorie": "Hôtel",
   "priceRange": "€€€",
   "score": 3,
   "mapsUrl": "https://maps.google.com/?q=36.7954651,10.1825988",
   "lat": 36.7954651,
   "lng": 10.1825988,
   "halalFriendly": false,
   "bookingUrl": "https://maps.google.com/?q=36.7954651,10.1825988",
   "source": "osm"
  },
  {
   "nom": "دار الشباب عزوز الرباعي",
   "categorie": "Auberge",
   "priceRange": "€€",
   "mapsUrl": "https://maps.google.com/?q=36.8316081,10.1355991",
   "lat": 36.8316081,
   "lng": 10.1355991,
   "halalFriendly": false,
   "bookingUrl": "https://maps.google.com/?q=36.8316081,10.1355991",
   "source": "osm"
  },
  {
   "nom": "الدار",
   "categorie": "Hôtel",
   "priceRange": "€€",
   "mapsUrl": "https://maps.google.com/?q=36.8349003,10.1374397",
   "lat": 36.8349003,
   "lng": 10.1374397,
   "halalFriendly": false,
   "bookingUrl": "https://maps.google.com/?q=36.8349003,10.1374397",
   "source": "osm"
  },
  {
   "nom": "الدار",
   "categorie": "Hôtel",
   "priceRange": "€€",
   "mapsUrl": "https://maps.google.com/?q=36.8348649,10.1372003",
   "lat": 36.8348649,
   "lng": 10.1372003,
   "halalFriendly": false,
   "bookingUrl": "https://maps.google.com/?q=36.8348649,10.1372003",
   "source": "osm"
  },
  {
   "nom": "نزل باب المدينة",
   "categorie": "Auberge",
   "priceRange": "€€",
   "mapsUrl": "https://maps.google.com/?q=36.7918041,10.1735456",
   "lat": 36.7918041,
   "lng": 10.1735456,
   "halalFriendly": false,
   "bookingUrl": "https://maps.google.com/?q=36.7918041,10.1735456",
   "source": "osm"
  },
  {
   "nom": "Nomads Hostel",
   "categorie": "Auberge",
   "priceRange": "€€",
   "mapsUrl": "https://maps.google.com/?q=36.8355094,10.1946824",
   "lat": 36.8355094,
   "lng": 10.1946824,
   "halalFriendly": false,
   "bookingUrl": "https://maps.google.com/?q=36.8355094,10.1946824",
   "source": "osm"
  },
  {
   "nom": "Smiiile",
   "categorie": "Maison d'hôtes",
   "priceRange": "€€",
   "mapsUrl": "https://maps.google.com/?q=36.8205765,10.1302342",
   "lat": 36.8205765,
   "lng": 10.1302342,
   "halalFriendly": false,
   "bookingUrl": "https://maps.google.com/?q=36.8205765,10.1302342",
   "source": "osm"
  },
  {
   "nom": "El Mouna",
   "categorie": "Hôtel",
   "priceRange": "€€",
   "mapsUrl": "https://maps.google.com/?q=36.7920708,10.1794962",
   "lat": 36.7920708,
   "lng": 10.1794962,
   "halalFriendly": false,
   "bookingUrl": "https://maps.google.com/?q=36.7920708,10.1794962",
   "source": "osm"
  },
  {
   "nom": "Arij",
   "categorie": "Hôtel",
   "priceRange": "€€",
   "mapsUrl": "https://maps.google.com/?q=36.7920717,10.1803035",
   "lat": 36.7920717,
   "lng": 10.1803035,
   "halalFriendly": false,
   "bookingUrl": "https://maps.google.com/?q=36.7920717,10.1803035",
   "source": "osm"
  },
  {
   "nom": "Dar Sidi Belhassen",
   "categorie": "Hôtel",
   "priceRange": "€€",
   "mapsUrl": "https://maps.google.com/?q=36.7918455,10.1804436",
   "lat": 36.7918455,
   "lng": 10.1804436,
   "halalFriendly": false,
   "bookingUrl": "https://maps.google.com/?q=36.7918455,10.1804436",
   "source": "osm"
  },
  {
   "nom": "Le Bon Coin",
   "categorie": "Hôtel",
   "priceRange": "€€",
   "mapsUrl": "https://maps.google.com/?q=36.7911558,10.1804308",
   "lat": 36.7911558,
   "lng": 10.1804308,
   "halalFriendly": false,
   "bookingUrl": "https://maps.google.com/?q=36.7911558,10.1804308",
   "source": "osm"
  },
  {
   "nom": "Dar location lassaad",
   "categorie": "Maison d'hôtes",
   "priceRange": "€€",
   "mapsUrl": "https://maps.google.com/?q=36.8464056,10.1844646",
   "lat": 36.8464056,
   "lng": 10.1844646,
   "halalFriendly": false,
   "bookingUrl": "https://maps.google.com/?q=36.8464056,10.1844646",
   "source": "osm"
  },
  {
   "nom": "La Maison des Poètes",
   "categorie": "Hôtel",
   "priceRange": "€€",
   "mapsUrl": "https://maps.google.com/?q=36.7879899,10.172652",
   "lat": 36.7879899,
   "lng": 10.172652,
   "halalFriendly": false,
   "bookingUrl": "https://maps.google.com/?q=36.7879899,10.172652",
   "source": "osm"
  },
  {
   "nom": "NOMADS HOSTEL TUNISIA",
   "categorie": "Auberge",
   "priceRange": "€€",
   "mapsUrl": "https://maps.google.com/?q=36.7865268,10.171561",
   "lat": 36.7865268,
   "lng": 10.171561,
   "halalFriendly": false,
   "bookingUrl": "https://maps.google.com/?q=36.7865268,10.171561",
   "source": "osm"
  },
  {
   "nom": "شقة محمد",
   "categorie": "Appartement",
   "priceRange": "€€",
   "mapsUrl": "https://maps.google.com/?q=36.8512318,10.1508343",
   "lat": 36.8512318,
   "lng": 10.1508343,
   "halalFriendly": false,
   "bookingUrl": "https://maps.google.com/?q=36.8512318,10.1508343",
   "source": "osm"
  },
  {
   "nom": "Royal ASBU",
   "categorie": "Hôtel",
   "priceRange": "€€",
   "mapsUrl": "https://maps.google.com/?q=36.8418542,10.1992598",
   "lat": 36.8418542,
   "lng": 10.1992598,
   "halalFriendly": false,
   "bookingUrl": "https://maps.google.com/?q=36.8418542,10.1992598",
   "source": "osm"
  },
  {
   "nom": "yosri",
   "categorie": "Maison d'hôtes",
   "priceRange": "€€",
   "mapsUrl": "https://maps.google.com/?q=36.8339013,10.1258239",
   "lat": 36.8339013,
   "lng": 10.1258239,
   "halalFriendly": false,
   "bookingUrl": "https://maps.google.com/?q=36.8339013,10.1258239",
   "source": "osm"
  },
  {
   "nom": "Benzineb Immo Centre Urbain Nord",
   "categorie": "Hôtel",
   "priceRange": "€€",
   "mapsUrl": "https://maps.google.com/?q=36.8486219,10.1902715",
   "lat": 36.8486219,
   "lng": 10.1902715,
   "halalFriendly": false,
   "bookingUrl": "https://maps.google.com/?q=36.8486219,10.1902715",
   "source": "osm"
  },
  {
   "nom": "تونس نزل الكبير",
   "categorie": "Hôtel",
   "priceRange": "€€€€",
   "score": 5,
   "mapsUrl": "https://maps.google.com/?q=36.8550301,10.1623096",
   "lat": 36.8550301,
   "lng": 10.1623096,
   "halalFriendly": false,
   "bookingUrl": "https://www.tunis-grandhotel.com/",
   "source": "osm"
  }
 ],
 "activites": [
  {
   "nom": "قصر خزندار",
   "lat": 36.8087157,
   "lng": 10.1676883,
   "coordonnees": {
    "lat": 36.8087157,
    "lng": 10.1676883
   },
   "categorie": "Histoire",
   "mapsUrl": "https://maps.google.com/?q=36.8087157,10.1676883",
   "source": "osm"
  },
  {
   "nom": "حمام الحلفاوين",
   "lat": 36.8078716,
   "lng": 10.1659453,
   "coordonnees": {
    "lat": 36.8078716,
    "lng": 10.1659453
   },
   "categorie": "Histoire",
   "mapsUrl": "https://maps.google.com/?q=36.8078716,10.1659453",
   "source": "osm"
  },
  {
   "nom": "قصر صاحب الطابع",
   "lat": 36.8077986,
   "lng": 10.1673854,
   "coordonnees": {
    "lat": 36.8077986,
    "lng": 10.1673854
   },
   "categorie": "Histoire",
   "mapsUrl": "https://maps.google.com/?q=36.8077986,10.1673854",
   "source": "osm"
  },
  {
   "nom": "Mausolée Sidi Mohamed el Halfaoui",
   "lat": 36.8087708,
   "lng": 10.1726331,
   "coordonnees": {
    "lat": 36.8087708,
    "lng": 10.1726331
   },
   "categorie": "Histoire",
   "mapsUrl": "https://maps.google.com/?q=36.8087708,10.1726331",
   "source": "osm"
  },
  {
   "nom": "باب سعدون",
   "lat": 36.8085956,
   "lng": 10.1590082,
   "coordonnees": {
    "lat": 36.8085956,
    "lng": 10.1590082
   },
   "categorie": "Histoire",
   "mapsUrl": "https://maps.google.com/?q=36.8085956,10.1590082",
   "source": "osm"
  },
  {
   "nom": "Dar el Mestiri",
   "lat": 36.8039959,
   "lng": 10.1688848,
   "coordonnees": {
    "lat": 36.8039959,
    "lng": 10.1688848
   },
   "categorie": "Histoire",
   "mapsUrl": "https://maps.google.com/?q=36.8039959,10.1688848",
   "source": "osm"
  },
  {
   "nom": "Zaghouan Aqueduct",
   "lat": 36.8130509,
   "lng": 10.1478899,
   "coordonnees": {
    "lat": 36.8130509,
    "lng": 10.1478899
   },
   "categorie": "Histoire",
   "mapsUrl": "https://maps.google.com/?q=36.8130509,10.1478899",
   "source": "osm"
  },
  {
   "nom": "دار القائد نسيم شمامة",
   "lat": 36.8037004,
   "lng": 10.1722625,
   "coordonnees": {
    "lat": 36.8037004,
    "lng": 10.1722625
   },
   "categorie": "Histoire",
   "mapsUrl": "https://maps.google.com/?q=36.8037004,10.1722625",
   "source": "osm"
  },
  {
   "nom": "زاوية سيدي إبراهيم الرياحي",
   "lat": 36.8026813,
   "lng": 10.168005,
   "coordonnees": {
    "lat": 36.8026813,
    "lng": 10.168005
   },
   "categorie": "Histoire",
   "mapsUrl": "https://maps.google.com/?q=36.8026813,10.168005",
   "source": "osm"
  },
  {
   "nom": "متحف مدينة تونس",
   "lat": 36.8016198,
   "lng": 10.1685013,
   "coordonnees": {
    "lat": 36.8016198,
    "lng": 10.1685013
   },
   "categorie": "Culture",
   "mapsUrl": "https://maps.google.com/?q=36.8016198,10.1685013",
   "source": "osm"
  },
  {
   "nom": "دار بن عاشور",
   "lat": 36.8014359,
   "lng": 10.1671096,
   "coordonnees": {
    "lat": 36.8014359,
    "lng": 10.1671096
   },
   "categorie": "Histoire",
   "mapsUrl": "https://maps.google.com/?q=36.8014359,10.1671096",
   "source": "osm"
  },
  {
   "nom": "MACAM Tunis",
   "lat": 36.8105541,
   "lng": 10.1864568,
   "coordonnees": {
    "lat": 36.8105541,
    "lng": 10.1864568
   },
   "categorie": "Culture",
   "mapsUrl": "https://maps.google.com/?q=36.8105541,10.1864568",
   "source": "osm"
  },
  {
   "nom": "Dar Ibn Arafa",
   "lat": 36.8002585,
   "lng": 10.1695405,
   "coordonnees": {
    "lat": 36.8002585,
    "lng": 10.1695405
   },
   "categorie": "Histoire",
   "mapsUrl": "https://maps.google.com/?q=36.8002585,10.1695405",
   "source": "osm"
  },
  {
   "nom": "متحف العدل وحقوق الإنسان",
   "lat": 36.7998809,
   "lng": 10.166128,
   "coordonnees": {
    "lat": 36.7998809,
    "lng": 10.166128
   },
   "categorie": "Culture",
   "mapsUrl": "https://maps.google.com/?q=36.7998809,10.166128",
   "source": "osm"
  },
  {
   "nom": "دار الديوان",
   "lat": 36.799434,
   "lng": 10.1703761,
   "coordonnees": {
    "lat": 36.799434,
    "lng": 10.1703761
   },
   "categorie": "Histoire",
   "mapsUrl": "https://maps.google.com/?q=36.799434,10.1703761",
   "source": "osm"
  },
  {
   "nom": "دار العباسي",
   "lat": 36.7990707,
   "lng": 10.1693554,
   "coordonnees": {
    "lat": 36.7990707,
    "lng": 10.1693554
   },
   "categorie": "Histoire",
   "mapsUrl": "https://maps.google.com/?q=36.7990707,10.1693554",
   "source": "osm"
  },
  {
   "nom": "متحف المالية",
   "lat": 36.8011203,
   "lng": 10.1783091,
   "coordonnees": {
    "lat": 36.8011203,
    "lng": 10.1783091
   },
   "categorie": "Culture",
   "mapsUrl": "https://maps.google.com/?q=36.8011203,10.1783091",
   "source": "osm"
  },
  {
   "nom": "Dâr Khaznâdâr",
   "lat": 36.7991201,
   "lng": 10.1722493,
   "coordonnees": {
    "lat": 36.7991201,
    "lng": 10.1722493
   },
   "categorie": "Histoire",
   "mapsUrl": "https://maps.google.com/?q=36.7991201,10.1722493",
   "source": "osm"
  },
  {
   "nom": "Dâr Rassâ'a",
   "lat": 36.7984866,
   "lng": 10.1716055,
   "coordonnees": {
    "lat": 36.7984866,
    "lng": 10.1716055
   },
   "categorie": "Histoire",
   "mapsUrl": "https://maps.google.com/?q=36.7984866,10.1716055",
   "source": "osm"
  },
  {
   "nom": "متحف العملة",
   "lat": 36.8046603,
   "lng": 10.1850565,
   "coordonnees": {
    "lat": 36.8046603,
    "lng": 10.1850565
   },
   "categorie": "Culture",
   "mapsUrl": "https://maps.google.com/?q=36.8046603,10.1850565",
   "source": "osm"
  },
  {
   "nom": "لوحة الجمعية البريطانية التونسية",
   "lat": 36.7993354,
   "lng": 10.1753283,
   "coordonnees": {
    "lat": 36.7993354,
    "lng": 10.1753283
   },
   "categorie": "Histoire",
   "mapsUrl": "https://maps.google.com/?q=36.7993354,10.1753283",
   "source": "osm"
  },
  {
   "nom": "Zaouïa Sidi Ben Arous",
   "lat": 36.7976451,
   "lng": 10.1707705,
   "coordonnees": {
    "lat": 36.7976451,
    "lng": 10.1707705
   },
   "categorie": "Histoire",
   "mapsUrl": "https://maps.google.com/?q=36.7976451,10.1707705",
   "source": "osm"
  },
  {
   "nom": "Mausolée Sidi Ali Azouz",
   "lat": 36.7980991,
   "lng": 10.1733573,
   "coordonnees": {
    "lat": 36.7980991,
    "lng": 10.1733573
   },
   "categorie": "Histoire",
   "mapsUrl": "https://maps.google.com/?q=36.7980991,10.1733573",
   "source": "osm"
  },
  {
   "nom": "نصب ابن خلدون",
   "lat": 36.7995105,
   "lng": 10.1790193,
   "coordonnees": {
    "lat": 36.7995105,
    "lng": 10.1790193
   },
   "categorie": "À voir",
   "mapsUrl": "https://maps.google.com/?q=36.7995105,10.1790193",
   "source": "osm"
  },
  {
   "nom": "متحف السينما",
   "lat": 36.7964282,
   "lng": 10.1656017,
   "coordonnees": {
    "lat": 36.7964282,
    "lng": 10.1656017
   },
   "categorie": "Culture",
   "mapsUrl": "https://maps.google.com/?q=36.7964282,10.1656017",
   "source": "osm"
  },
  {
   "nom": "Mausolée Ali Pacha",
   "lat": 36.7968527,
   "lng": 10.1720955,
   "coordonnees": {
    "lat": 36.7968527,
    "lng": 10.1720955
   },
   "categorie": "Histoire",
   "mapsUrl": "https://maps.google.com/?q=36.7968527,10.1720955",
   "source": "osm"
  },
  {
   "nom": "قبر الجندي المجهول",
   "lat": 36.7958707,
   "lng": 10.1687699,
   "coordonnees": {
    "lat": 36.7958707,
    "lng": 10.1687699
   },
   "categorie": "Histoire",
   "mapsUrl": "https://maps.google.com/?q=36.7958707,10.1687699",
   "source": "osm"
  },
  {
   "nom": "Dar Bribech",
   "lat": 36.7961284,
   "lng": 10.1726892,
   "coordonnees": {
    "lat": 36.7961284,
    "lng": 10.1726892
   },
   "categorie": "Histoire",
   "mapsUrl": "https://maps.google.com/?q=36.7961284,10.1726892",
   "source": "osm"
  },
  {
   "nom": "المعهد الوطني للتراث بتونس",
   "lat": 36.7956662,
   "lng": 10.1705726,
   "coordonnees": {
    "lat": 36.7956662,
    "lng": 10.1705726
   },
   "categorie": "Histoire",
   "mapsUrl": "https://maps.google.com/?q=36.7956662,10.1705726",
   "source": "osm"
  },
  {
   "nom": "pârcours de santé",
   "lat": 36.8374628,
   "lng": 10.1843007,
   "coordonnees": {
    "lat": 36.8374628,
    "lng": 10.1843007
   },
   "categorie": "Nature",
   "mapsUrl": "https://maps.google.com/?q=36.8374628,10.1843007",
   "source": "osm"
  },
  {
   "nom": "Musée des Timbres",
   "lat": 36.7968968,
   "lng": 10.1786566,
   "coordonnees": {
    "lat": 36.7968968,
    "lng": 10.1786566
   },
   "categorie": "Culture",
   "mapsUrl": "https://maps.google.com/?q=36.7968968,10.1786566",
   "source": "osm"
  },
  {
   "nom": "دار ابن خلدون",
   "lat": 36.7950461,
   "lng": 10.1721843,
   "coordonnees": {
    "lat": 36.7950461,
    "lng": 10.1721843
   },
   "categorie": "Histoire",
   "mapsUrl": "https://maps.google.com/?q=36.7950461,10.1721843",
   "source": "osm"
  },
  {
   "nom": "تمثال بورقيبة",
   "lat": 36.8001937,
   "lng": 10.1855799,
   "coordonnees": {
    "lat": 36.8001937,
    "lng": 10.1855799
   },
   "categorie": "Histoire",
   "mapsUrl": "https://maps.google.com/?q=36.8001937,10.1855799",
   "source": "osm"
  },
  {
   "nom": "Torba Sidi B. Jaber",
   "lat": 36.7952779,
   "lng": 10.1742368,
   "coordonnees": {
    "lat": 36.7952779,
    "lng": 10.1742368
   },
   "categorie": "Histoire",
   "mapsUrl": "https://maps.google.com/?q=36.7952779,10.1742368",
   "source": "osm"
  },
  {
   "nom": "دار الجلولي",
   "lat": 36.7941868,
   "lng": 10.1720079,
   "coordonnees": {
    "lat": 36.7941868,
    "lng": 10.1720079
   },
   "categorie": "Histoire",
   "mapsUrl": "https://maps.google.com/?q=36.7941868,10.1720079",
   "source": "osm"
  },
  {
   "nom": "Dâr Ben Salem",
   "lat": 36.7941546,
   "lng": 10.1732551,
   "coordonnees": {
    "lat": 36.7941546,
    "lng": 10.1732551
   },
   "categorie": "Histoire",
   "mapsUrl": "https://maps.google.com/?q=36.7941546,10.1732551",
   "source": "osm"
  },
  {
   "nom": "Проспект Хабиба Бургибы",
   "lat": 36.8003559,
   "lng": 10.1877756,
   "coordonnees": {
    "lat": 36.8003559,
    "lng": 10.1877756
   },
   "categorie": "À voir",
   "mapsUrl": "https://maps.google.com/?q=36.8003559,10.1877756",
   "source": "osm"
  },
  {
   "nom": "المنجي بالي",
   "lat": 36.7953873,
   "lng": 10.1794557,
   "coordonnees": {
    "lat": 36.7953873,
    "lng": 10.1794557
   },
   "categorie": "À voir",
   "mapsUrl": "https://maps.google.com/?q=36.7953873,10.1794557",
   "source": "osm"
  },
  {
   "nom": "Espace +",
   "lat": 36.8450958,
   "lng": 10.1674433,
   "coordonnees": {
    "lat": 36.8450958,
    "lng": 10.1674433
   },
   "categorie": "À voir",
   "mapsUrl": "https://maps.google.com/?q=36.8450958,10.1674433",
   "source": "osm"
  },
  {
   "nom": "دار بن عياد",
   "lat": 36.7926939,
   "lng": 10.1736229,
   "coordonnees": {
    "lat": 36.7926939,
    "lng": 10.1736229
   },
   "categorie": "Histoire",
   "mapsUrl": "https://maps.google.com/?q=36.7926939,10.1736229",
   "source": "osm"
  }
 ],
 "road_trips": [
  {
   "id": "rt1",
   "titre": "Circuit Médinas du Nord",
   "emoji": "🏰",
   "duree": "5 jours",
   "distance_km": 600,
   "difficulte": "Facile",
   "budget_estime_eur": "200-350€",
   "etapes": [
    {
     "ville": "Tunis",
     "nuits": 2,
     "highlights": [
      "Médina UNESCO",
      "Zitouna",
      "Carthage",
      "Sidi Bou Saïd"
     ]
    },
    {
     "ville": "Bizerte",
     "nuits": 1,
     "highlights": [
      "Vieux port",
      "Lac de Bizerte",
      "Corniche"
     ]
    },
    {
     "ville": "Hammamet",
     "nuits": 2,
     "highlights": [
      "Médina de Hammamet",
      "Plages",
      "Souk jasmin"
     ]
    }
   ],
   "conseils_halal": "Toutes les médinas tunisiennes sont 100% halal. Restaurants de la médina sans alcool généralement. Cafés avec thé à la menthe partout.",
   "tags": [
    "Médinas",
    "Côte",
    "Jasmin"
   ]
  },
  {
   "id": "rt2",
   "titre": "Grand Tour Tunisie — Nord au Sud",
   "emoji": "🐪",
   "duree": "10 jours",
   "distance_km": 2000,
   "difficulte": "Modéré",
   "budget_estime_eur": "400-700€",
   "etapes": [
    {
     "ville": "Tunis",
     "nuits": 2,
     "highlights": [
      "Médina",
      "Bardo"
     ]
    },
    {
     "ville": "Kairouan",
     "nuits": 1,
     "highlights": [
      "Grande Mosquée de Kairouan (670)",
      "Aghlabide",
      "Sbeitla"
     ]
    },
    {
     "ville": "Sfax",
     "nuits": 1,
     "highlights": [
      "Médina Sfax",
      "Kerkennah"
     ]
    },
    {
     "ville": "Djerba",
     "nuits": 2,
     "highlights": [
      "El Ghriba",
      "Houmt Souk",
      "Plages"
     ]
    },
    {
     "ville": "Douz",
     "nuits": 2,
     "highlights": [
      "Porte du Sahara",
      "Chameau",
      "Coucher de soleil dunes"
     ]
    }
   ],
   "conseils_halal": "Kairouan est la 4ème ville sainte de l'Islam — 100% halal. Toute la Tunisie est halal-majority.",
   "tags": [
    "Grand tour",
    "Sahara",
    "Kairouan"
   ]
  },
  {
   "id": "rt3",
   "titre": "Côte Bleue Méditerranéenne",
   "emoji": "🌊",
   "duree": "4 jours",
   "distance_km": 400,
   "difficulte": "Facile",
   "budget_estime_eur": "150-280€",
   "etapes": [
    {
     "ville": "Tunis",
     "nuits": 1,
     "highlights": [
      "Sidi Bou Saïd",
      "La Marsa"
     ]
    },
    {
     "ville": "Nabeul",
     "nuits": 1,
     "highlights": [
      "Poterie",
      "Marché vendredi"
     ]
    },
    {
     "ville": "Hammamet",
     "nuits": 2,
     "highlights": [
      "Médina",
      "Plage",
      "Jasmin"
     ]
    }
   ],
   "conseils_halal": "La côte Cap Bon est très touristic — vérifier logo halal dans restaurants de bord de mer.",
   "tags": [
    "Côte",
    "Méditerranée",
    "Cap Bon"
   ]
  }
 ],
 "voyages_par_type": {
  "en_couple": {
   "emoji": "💑",
   "couleur": "#e91e8c",
   "intro": "Tunis pour un couple c'est Sidi Bou Saïd au coucher du soleil, un dîner dans un palais de la médina et les parfums de jasmin de la médina au printemps.",
   "top_experiences": [
    {
     "titre": "Sidi Bou Saïd coucher de soleil",
     "details": "Terrasse avec vue sur la mer",
     "prix": "5€ café"
    },
    {
     "titre": "Dîner Dar El Jeld",
     "details": "Gastronomique dans palais beylical",
     "prix": "45€/pers"
    },
    {
     "titre": "Hammam couple médina",
     "details": "Gommage à l'argan à deux",
     "prix": "25€"
    }
   ],
   "hotels_recommandes": [
    "Maison d'Hôtes Sidi Bou Saïd",
    "Dar El Medina"
   ],
   "conseils": "Printemps idéal (mars-mai) pour le jasmin en fleur et les températures parfaites."
  },
  "en_famille": {
   "emoji": "👨‍👩‍👧‍👦",
   "couleur": "#4CAF50",
   "intro": "Tunis est une destination excellente pour les familles — plages à 20 minutes, musées pour enfants, cuisine douce et prix très abordables.",
   "top_experiences": [
    {
     "titre": "Plage de La Marsa",
     "details": "Plage familiale à 20 min",
     "prix": "Gratuit"
    },
    {
     "titre": "Musée du Bardo mosaïques",
     "details": "Les enfants adorent les mosaïques colorées",
     "prix": "3€"
    },
    {
     "titre": "Médina découverte",
     "details": "Artisans et souks vivants",
     "prix": "Gratuit"
    }
   ],
   "hotels_recommandes": [
    "El Mouradi Gammarth",
    "Hôtel Africa Meridien"
   ],
   "conseils": "Juillet-Août chaud mais plages excellentes pour enfants. Éviter la médina en milieu d'après-midi (chaleur et foule)."
  },
  "entre_amis": {
   "emoji": "👫",
   "couleur": "#9C27B0",
   "intro": "Tunis entre amis c'est les cafés de l'avenue Bourguiba à minuit, les concerts de malouf dans la médina et le karting sur la côte de Gammarth.",
   "top_experiences": [
    {
     "titre": "Café Zitouna nuit",
     "details": "Chicha et thé sous les étoiles",
     "prix": "8€"
    },
    {
     "titre": "Food tour médina",
     "details": "Brik, lablabi et makroud",
     "prix": "15€"
    },
    {
     "titre": "Concert malouf médina",
     "details": "Musique andalouse en live",
     "prix": "10€"
    }
   ],
   "conseils": "La vie nocturne de Tunis est active et mixte — alcool disponible dans certains restaurants mais nombreux cafés sans alcool."
  },
  "voyage_solo": {
   "emoji": "🎒",
   "couleur": "#FF9800",
   "intro": "Tunis solo c'est la médina et ses habitants accueillants, les cafés où les étrangers sont toujours bien accueillis et les transports publics pratiques.",
   "top_experiences": [
    {
     "titre": "Se perdre dans la médina seul",
     "details": "La médina révèle ses secrets peu à peu",
     "prix": "Gratuit"
    },
    {
     "titre": "Café des Nattes Sidi Bou Saïd",
     "details": "L'endroit à photographier",
     "prix": "5€"
    },
    {
     "titre": "Musée du Bardo en solo",
     "details": "3h de mosaïques en paix",
     "prix": "3€"
    }
   ],
   "conseil_securite": "Tunis est sûre pour les voyageurs solos y compris femmes. Rester vigilant la nuit dans certains quartiers."
  },
  "voyage_spirituel": {
   "emoji": "🕌",
   "couleur": "#2196F3",
   "intro": "Tunis est une capitale islamique de la connaissance — la Zitouna millénaire, les zaouïas soufies et la tradition du malouf islamique offrent une expérience spirituelle unique.",
   "top_experiences": [
    {
     "titre": "Mosquée de la Zitouna",
     "details": "1300 ans d'enseignement islamique",
     "prix": "Gratuit"
    },
    {
     "titre": "Zaouïa soufie jeudi soir",
     "details": "Dhikr et chants de dévotion",
     "prix": "Gratuit"
    },
    {
     "titre": "Kairouan Omra du Maghreb",
     "details": "7 visites = 1 Omra (tradition locale)",
     "prix": "50 TND trajet"
    }
   ],
   "conseil_pratique": "Kairouan (160 km) est la 4ème ville sainte — excursion spirituelle indispensable depuis Tunis."
  }
 },
 "boucheries": [],
 "boulangeries": [
  {
   "id": "bo1",
   "nom": "Pâtisserie M'rabet (médina)",
   "adresse": "Souk des Chéchias, Médina",
   "quartier": "Médina",
   "description": "La plus ancienne pâtisserie de la médina — baklava de Tunis, makroudh dattes, zlabia fraîche.",
   "specialites": [
    "Baklava huile d'argan",
    "Makroudh (semoule-dattes)",
    "Kaak bil warqa"
   ],
   "prix": "1-5 TND",
   "horaires": "8h-19h",
   "note": 4.8
  },
  {
   "id": "bo2",
   "nom": "Boulangerie Nationale de Tunis",
   "adresse": "Avenue Bourguiba, Tunis",
   "quartier": "Centre-ville",
   "description": "Baguette tunisienne (la fameuse baguette du pain à 250 grammes) et pain arabe depuis 1960.",
   "specialites": [
    "Baguette tunisienne",
    "Pain de seigle",
    "Croissant au beurre"
   ],
   "prix": "0.3-1 TND",
   "horaires": "5h-20h",
   "note": 4.3
  },
  {
   "id": "bo3",
   "nom": "Samali Patisserie",
   "adresse": "Les Berges du Lac, Tunis",
   "quartier": "Berges du Lac",
   "description": "Pâtisseries tunisiennes modernes et orientales dans le quartier d'affaires.",
   "specialites": [
    "Baklava moderne",
    "Ghriba",
    "Mhalbiya rose"
   ],
   "prix": "3-15 TND",
   "horaires": "9h-22h",
   "note": 4.5
  },
  {
   "id": "bo4",
   "nom": "Msemmen de Halfaouine",
   "adresse": "Halfaouine, Tunis",
   "quartier": "Halfaouine",
   "description": "Msemmen feuilleté et ftir au beurre préparés à la main depuis le matin dans le quartier populaire.",
   "specialites": [
    "Msemmen feuilleté",
    "Ftir au beurre-miel",
    "Harcha semoule"
   ],
   "prix": "0.5-1.5 TND",
   "horaires": "6h-14h",
   "note": 4.7
  },
  {
   "id": "bo5",
   "nom": "Pain Artisan Sidi Bou Saïd",
   "adresse": "Sidi Bou Saïd village",
   "quartier": "Sidi Bou Saïd",
   "description": "Boulangerie artisanale du village bleu — pain kabyle à l'huile d'olive et kaak à l'anis.",
   "specialites": [
    "Pain à l'huile d'olive",
    "Kaak anis",
    "Macaron jasmin"
   ],
   "prix": "1-5 TND",
   "horaires": "7h-19h",
   "note": 4.6
  }
 ],
 "articles_lies": [
  "guide-halal-tunisie",
  "medina-tunis-guide",
  "cuisine-tunisienne"
 ],
 "villes_proches": [
  "alger",
  "casablanca",
  "marrakech"
 ],
 "destinations_combiner": [
  {
   "ville": "Kairouan",
   "distance_km": 160,
   "raison": "4ème ville sainte de l'Islam, Grande Mosquée de 670, Aghlabides — incontournable"
  },
  {
   "ville": "Djerba",
   "distance_km": 510,
   "raison": "Île paradisiaque, médina de Houmt Souk, synagogue El Ghriba, plages"
  },
  {
   "ville": "Hammamet",
   "distance_km": 65,
   "raison": "Station balnéaire méditerranéenne, médina fleurie, jasmin"
  }
 ],
 "conseils_halal": "La Tunisie est un pays musulman à 99% mais laïc — la nourriture est majoritairement halal mais l'alcool est légal. Dans les restaurants de la médina et les cafés populaires, tout est halal. Dans les hôtels internationaux et restaurants touristiques, vérifier. Les boucheries du marché central sont toutes halal par tradition.",
 "codeISO": "TN",
 "image": "https://images.unsplash.com/photo-1580836738558-e6c749ca8e53?w=1400&q=85",
 "continent": "Afrique",
 "metaDescription": "Restaurants halal signalés, mosquées et guide pratique pour Tunis — Halal Trust Score 4/5.",
 "mosqueesPrincipales": [
  {
   "nom": "مسجد العمران",
   "lat": 36.8184236,
   "lng": 10.167245,
   "coordonnees": {
    "lat": 36.8184236,
    "lng": 10.167245
   },
   "adresse": "تونس",
   "mapsUrl": "https://maps.google.com/?q=36.8184236,10.167245",
   "source": "osm"
  },
  {
   "nom": "جامع القدس",
   "lat": 36.8198623,
   "lng": 10.1792703,
   "coordonnees": {
    "lat": 36.8198623,
    "lng": 10.1792703
   },
   "adresse": "نهج القدس, تونس",
   "mapsUrl": "https://maps.google.com/?q=36.8198623,10.1792703",
   "source": "osm"
  },
  {
   "nom": "Larbi Kabadi",
   "lat": 36.8083281,
   "lng": 10.168021,
   "coordonnees": {
    "lat": 36.8083281,
    "lng": 10.168021
   },
   "mapsUrl": "https://maps.google.com/?q=36.8083281,10.168021",
   "source": "osm"
  },
  {
   "nom": "Masdjid",
   "lat": 36.8170152,
   "lng": 10.1809118,
   "coordonnees": {
    "lat": 36.8170152,
    "lng": 10.1809118
   },
   "adresse": "تونس",
   "mapsUrl": "https://maps.google.com/?q=36.8170152,10.1809118",
   "source": "osm"
  },
  {
   "nom": "مسجد برج زوارة",
   "lat": 36.8070742,
   "lng": 10.1549908,
   "coordonnees": {
    "lat": 36.8070742,
    "lng": 10.1549908
   },
   "adresse": "تونس",
   "mapsUrl": "https://maps.google.com/?q=36.8070742,10.1549908",
   "source": "osm"
  },
  {
   "nom": "جامع الفلاح",
   "lat": 36.8271103,
   "lng": 10.1834841,
   "coordonnees": {
    "lat": 36.8271103,
    "lng": 10.1834841
   },
   "adresse": "تونس",
   "mapsUrl": "https://maps.google.com/?q=36.8271103,10.1834841",
   "source": "osm"
  },
  {
   "nom": "Mosquée Campus El Manar",
   "lat": 36.8294048,
   "lng": 10.1476312,
   "coordonnees": {
    "lat": 36.8294048,
    "lng": 10.1476312
   },
   "mapsUrl": "https://maps.google.com/?q=36.8294048,10.1476312",
   "source": "osm"
  },
  {
   "nom": "مسجد الحفصية",
   "lat": 36.8012224,
   "lng": 10.1696886,
   "coordonnees": {
    "lat": 36.8012224,
    "lng": 10.1696886
   },
   "mapsUrl": "https://maps.google.com/?q=36.8012224,10.1696886",
   "source": "osm"
  },
  {
   "nom": "جامع نهج مرسيليا",
   "lat": 36.8052826,
   "lng": 10.181076,
   "coordonnees": {
    "lat": 36.8052826,
    "lng": 10.181076
   },
   "mapsUrl": "https://maps.google.com/?q=36.8052826,10.181076",
   "source": "osm"
  },
  {
   "nom": "Mosquée Essalah جامع الصلاح",
   "lat": 36.8084816,
   "lng": 10.1462655,
   "coordonnees": {
    "lat": 36.8084816,
    "lng": 10.1462655
   },
   "mapsUrl": "https://maps.google.com/?q=36.8084816,10.1462655",
   "source": "osm"
  },
  {
   "nom": "مسجد الطرّاز",
   "lat": 36.7989013,
   "lng": 10.1698422,
   "coordonnees": {
    "lat": 36.7989013,
    "lng": 10.1698422
   },
   "mapsUrl": "https://maps.google.com/?q=36.7989013,10.1698422",
   "source": "osm"
  },
  {
   "nom": "Mosquée Hammouda Bacha",
   "lat": 36.7982398,
   "lng": 10.1705936,
   "coordonnees": {
    "lat": 36.7982398,
    "lng": 10.1705936
   },
   "adresse": "Mosquée Hammouda Bacha, تونس",
   "mapsUrl": "https://maps.google.com/?q=36.7982398,10.1705936",
   "source": "osm"
  },
  {
   "nom": "مسجد الألطاف",
   "lat": 36.7990759,
   "lng": 10.1764752,
   "coordonnees": {
    "lat": 36.7990759,
    "lng": 10.1764752
   },
   "adresse": "شارع فرنسا, تونس",
   "mapsUrl": "https://maps.google.com/?q=36.7990759,10.1764752",
   "source": "osm"
  },
  {
   "nom": "جامع الزيتونة المعمور",
   "lat": 36.7973127,
   "lng": 10.1713123,
   "coordonnees": {
    "lat": 36.7973127,
    "lng": 10.1713123
   },
   "adresse": "نهج جامع الزيتونة, تونس",
   "mapsUrl": "https://maps.google.com/?q=36.7973127,10.1713123",
   "source": "osm"
  },
  {
   "nom": "Mosquée Youssef Dey",
   "lat": 36.7970257,
   "lng": 10.1695687,
   "coordonnees": {
    "lat": 36.7970257,
    "lng": 10.1695687
   },
   "mapsUrl": "https://maps.google.com/?q=36.7970257,10.1695687",
   "source": "osm"
  },
  {
   "nom": "جامع القصبة",
   "lat": 36.7967938,
   "lng": 10.1676454,
   "coordonnees": {
    "lat": 36.7967938,
    "lng": 10.1676454
   },
   "mapsUrl": "https://maps.google.com/?q=36.7967938,10.1676454",
   "source": "osm"
  },
  {
   "nom": "جامع الهنتاتي",
   "lat": 36.7964062,
   "lng": 10.1699584,
   "coordonnees": {
    "lat": 36.7964062,
    "lng": 10.1699584
   },
   "mapsUrl": "https://maps.google.com/?q=36.7964062,10.1699584",
   "source": "osm"
  },
  {
   "nom": "mosquée Al Salam",
   "lat": 36.807719,
   "lng": 10.1404021,
   "coordonnees": {
    "lat": 36.807719,
    "lng": 10.1404021
   },
   "mapsUrl": "https://maps.google.com/?q=36.807719,10.1404021",
   "source": "osm"
  },
  {
   "nom": "جامع القصر",
   "lat": 36.7951529,
   "lng": 10.1698473,
   "coordonnees": {
    "lat": 36.7951529,
    "lng": 10.1698473
   },
   "mapsUrl": "https://maps.google.com/?q=36.7951529,10.1698473",
   "source": "osm"
  },
  {
   "nom": "مسجد ابن خلدون",
   "lat": 36.7946482,
   "lng": 10.1723803,
   "coordonnees": {
    "lat": 36.7946482,
    "lng": 10.1723803
   },
   "mapsUrl": "https://maps.google.com/?q=36.7946482,10.1723803",
   "source": "osm"
  },
  {
   "nom": "مسجد خلوية سيدي محرز",
   "lat": 36.7926815,
   "lng": 10.1716493,
   "coordonnees": {
    "lat": 36.7926815,
    "lng": 10.1716493
   },
   "adresse": "تونس",
   "mapsUrl": "https://maps.google.com/?q=36.7926815,10.1716493",
   "source": "osm"
  },
  {
   "nom": "جامع نهج الجزائر",
   "lat": 36.7939063,
   "lng": 10.1786068,
   "coordonnees": {
    "lat": 36.7939063,
    "lng": 10.1786068
   },
   "mapsUrl": "https://maps.google.com/?q=36.7939063,10.1786068",
   "source": "osm"
  },
  {
   "nom": "جامع حرمل",
   "lat": 36.7928141,
   "lng": 10.1758831,
   "coordonnees": {
    "lat": 36.7928141,
    "lng": 10.1758831
   },
   "adresse": "تونس",
   "mapsUrl": "https://maps.google.com/?q=36.7928141,10.1758831",
   "source": "osm"
  },
  {
   "nom": "Mosquée Sidi El Bechir",
   "lat": 36.7918867,
   "lng": 10.1766488,
   "coordonnees": {
    "lat": 36.7918867,
    "lng": 10.1766488
   },
   "mapsUrl": "https://maps.google.com/?q=36.7918867,10.1766488",
   "source": "osm"
  },
  {
   "nom": "جامع الرياض",
   "lat": 36.8163172,
   "lng": 10.1295026,
   "coordonnees": {
    "lat": 36.8163172,
    "lng": 10.1295026
   },
   "mapsUrl": "https://maps.google.com/?q=36.8163172,10.1295026",
   "source": "osm"
  },
  {
   "nom": "جامع",
   "lat": 36.8249441,
   "lng": 10.1281973,
   "coordonnees": {
    "lat": 36.8249441,
    "lng": 10.1281973
   },
   "mapsUrl": "https://maps.google.com/?q=36.8249441,10.1281973",
   "source": "osm"
  },
  {
   "nom": "مسجد الحرمين",
   "lat": 36.8082738,
   "lng": 10.1281691,
   "coordonnees": {
    "lat": 36.8082738,
    "lng": 10.1281691
   },
   "adresse": "تونس",
   "mapsUrl": "https://maps.google.com/?q=36.8082738,10.1281691",
   "source": "osm"
  },
  {
   "nom": "Mosquée",
   "lat": 36.7971424,
   "lng": 10.1296386,
   "coordonnees": {
    "lat": 36.7971424,
    "lng": 10.1296386
   },
   "mapsUrl": "https://maps.google.com/?q=36.7971424,10.1296386",
   "source": "osm"
  },
  {
   "nom": "جامع ابن الجزار",
   "lat": 36.8234104,
   "lng": 10.1186695,
   "coordonnees": {
    "lat": 36.8234104,
    "lng": 10.1186695
   },
   "mapsUrl": "https://maps.google.com/?q=36.8234104,10.1186695",
   "source": "osm"
  },
  {
   "nom": "مسجد السلام",
   "lat": 36.838778,
   "lng": 10.1245732,
   "coordonnees": {
    "lat": 36.838778,
    "lng": 10.1245732
   },
   "mapsUrl": "https://maps.google.com/?q=36.838778,10.1245732",
   "source": "osm"
  },
  {
   "nom": "جامع الملك",
   "lat": 36.8574168,
   "lng": 10.1727223,
   "coordonnees": {
    "lat": 36.8574168,
    "lng": 10.1727223
   },
   "mapsUrl": "https://maps.google.com/?q=36.8574168,10.1727223",
   "source": "osm"
  },
  {
   "nom": "جامع التوبة",
   "lat": 36.86051,
   "lng": 10.1479644,
   "coordonnees": {
    "lat": 36.86051,
    "lng": 10.1479644
   },
   "mapsUrl": "https://maps.google.com/?q=36.86051,10.1479644",
   "source": "osm"
  },
  {
   "nom": "Mosquée Adel",
   "lat": 36.7760719,
   "lng": 10.1825694,
   "coordonnees": {
    "lat": 36.7760719,
    "lng": 10.1825694
   },
   "mapsUrl": "https://maps.google.com/?q=36.7760719,10.1825694",
   "source": "osm"
  },
  {
   "nom": "Mosquée Ellatif",
   "lat": 36.8548886,
   "lng": 10.1257389,
   "coordonnees": {
    "lat": 36.8548886,
    "lng": 10.1257389
   },
   "mapsUrl": "https://maps.google.com/?q=36.8548886,10.1257389",
   "source": "osm"
  },
  {
   "nom": "جامع النور",
   "lat": 36.8597397,
   "lng": 10.1992541,
   "coordonnees": {
    "lat": 36.8597397,
    "lng": 10.1992541
   },
   "adresse": "أريانة",
   "mapsUrl": "https://maps.google.com/?q=36.8597397,10.1992541",
   "source": "osm"
  },
  {
   "nom": "مسجد إبراهيم الخليل",
   "lat": 36.8581803,
   "lng": 10.1279316,
   "coordonnees": {
    "lat": 36.8581803,
    "lng": 10.1279316
   },
   "mapsUrl": "https://maps.google.com/?q=36.8581803,10.1279316",
   "source": "osm"
  },
  {
   "nom": "جامع بلال",
   "lat": 36.7698886,
   "lng": 10.186353,
   "coordonnees": {
    "lat": 36.7698886,
    "lng": 10.186353
   },
   "mapsUrl": "https://maps.google.com/?q=36.7698886,10.186353",
   "source": "osm"
  },
  {
   "nom": "علي بن أبي طالب",
   "lat": 36.8383001,
   "lng": 10.1036686,
   "coordonnees": {
    "lat": 36.8383001,
    "lng": 10.1036686
   },
   "mapsUrl": "https://maps.google.com/?q=36.8383001,10.1036686",
   "source": "osm"
  },
  {
   "nom": "Mosquée Bani Hachim",
   "lat": 36.824589,
   "lng": 10.0960898,
   "coordonnees": {
    "lat": 36.824589,
    "lng": 10.0960898
   },
   "mapsUrl": "https://maps.google.com/?q=36.824589,10.0960898",
   "source": "osm"
  },
  {
   "nom": "جمع المرابط",
   "lat": 36.7737796,
   "lng": 10.1166086,
   "coordonnees": {
    "lat": 36.7737796,
    "lng": 10.1166086
   },
   "mapsUrl": "https://maps.google.com/?q=36.7737796,10.1166086",
   "source": "osm"
  },
  {
   "nom": "Mosquée El Salema",
   "lat": 36.762033,
   "lng": 10.1910916,
   "coordonnees": {
    "lat": 36.762033,
    "lng": 10.1910916
   },
   "mapsUrl": "https://maps.google.com/?q=36.762033,10.1910916",
   "source": "osm"
  },
  {
   "nom": "al hidaya",
   "lat": 36.8365638,
   "lng": 10.0931442,
   "coordonnees": {
    "lat": 36.8365638,
    "lng": 10.0931442
   },
   "mapsUrl": "https://maps.google.com/?q=36.8365638,10.0931442",
   "source": "osm"
  },
  {
   "nom": "جامع بيت المقدس",
   "lat": 36.779548,
   "lng": 10.1076447,
   "coordonnees": {
    "lat": 36.779548,
    "lng": 10.1076447
   },
   "mapsUrl": "https://maps.google.com/?q=36.779548,10.1076447",
   "source": "osm"
  },
  {
   "nom": "مسجد الهدى",
   "lat": 36.7712472,
   "lng": 10.1110416,
   "coordonnees": {
    "lat": 36.7712472,
    "lng": 10.1110416
   },
   "adresse": "rue abdelaziz ibn moussa, سيدي حسين",
   "mapsUrl": "https://maps.google.com/?q=36.7712472,10.1110416",
   "source": "osm"
  },
  {
   "nom": "جامع حي مراد",
   "lat": 36.7722918,
   "lng": 10.1096119,
   "coordonnees": {
    "lat": 36.7722918,
    "lng": 10.1096119
   },
   "mapsUrl": "https://maps.google.com/?q=36.7722918,10.1096119",
   "source": "osm"
  },
  {
   "nom": "جامع الرحمان",
   "lat": 36.752237,
   "lng": 10.1795586,
   "coordonnees": {
    "lat": 36.752237,
    "lng": 10.1795586
   },
   "mapsUrl": "https://maps.google.com/?q=36.752237,10.1795586",
   "source": "osm"
  },
  {
   "nom": "جامع التقوى حي الفتح",
   "lat": 36.7658395,
   "lng": 10.1129539,
   "coordonnees": {
    "lat": 36.7658395,
    "lng": 10.1129539
   },
   "mapsUrl": "https://maps.google.com/?q=36.7658395,10.1129539",
   "source": "osm"
  },
  {
   "nom": "مسجد عمر بن عبد العزيز",
   "lat": 36.768691,
   "lng": 10.2255126,
   "coordonnees": {
    "lat": 36.768691,
    "lng": 10.2255126
   },
   "adresse": "بن عروس",
   "mapsUrl": "https://maps.google.com/?q=36.768691,10.2255126",
   "source": "osm"
  },
  {
   "nom": "جامع الشيخ محمد الزغواني",
   "lat": 36.8902186,
   "lng": 10.1730423,
   "coordonnees": {
    "lat": 36.8902186,
    "lng": 10.1730423
   },
   "mapsUrl": "https://maps.google.com/?q=36.8902186,10.1730423",
   "source": "osm"
  },
  {
   "nom": "جامع مقرين العليا",
   "lat": 36.7687317,
   "lng": 10.2379979,
   "coordonnees": {
    "lat": 36.7687317,
    "lng": 10.2379979
   },
   "adresse": "مقرين",
   "mapsUrl": "https://maps.google.com/?q=36.7687317,10.2379979",
   "source": "osm"
  }
 ],
 "halalScore": 8.7,
 "description_en": "Tunis, in Tunisia, is a halal-friendly destination with a Halal Trust Score of 4.3/5. Muslim travelers will find 62 halal restaurants listed, 800 mosques, real-time prayer times and the Qibla direction — a complete guide to travel with peace of mind.",
 "metaDescription_en": "Halal guide to Tunis: 62 halal restaurants listed, 800 mosques, prayer times and tips for Muslim travelers. Halal Trust Score 4.3/5.",
 "nom_en": "Tunis",
 "infos_pratiques_en": {
  "langue_officielle": "Arabic",
  "monnaie": "Dinar tunisien (TND)",
  "taux_change_eur": "1 EUR ≈ 3.40 TND",
  "meilleure_periode": "April-June and September-November",
  "fuseau_horaire": "CET (UTC+1)"
 },
 "dataPurgedAt": "2026-07-15"
}