{
  "slug": "turin",
  "nom": "Turin",
  "pays": "Italie",
  "pays_slug": "italie",
  "continent": "Europe",
  "region": "Italie",
  "coordonnees": {
    "lat": 45.0703,
    "lng": 7.6869
  },
  "codeISO": "IT",
  "score_halal": 3.2,
  "halalScore": 6.4,
  "description": "Turin, Italie. Repérez les restaurants halal et les mosquées via l'application.",
  "metaDescription": "Turin, Italie. Repérez les restaurants halal et les mosquées via l'application.",
  "image": "https://upload.wikimedia.org/wikipedia/commons/thumb/a/ae/Torino_Piazza_Castello_11.jpg/1600px-Torino_Piazza_Castello_11.jpg",
  "image_hero": "https://upload.wikimedia.org/wikipedia/commons/thumb/a/ae/Torino_Piazza_Castello_11.jpg/1600px-Torino_Piazza_Castello_11.jpg",
  "imageCredit": "Wikimedia Commons",
  "scoreIndicatif": true,
  "statistiques": {
    "restaurants_halal": 146,
    "mosquees": 10,
    "hotels": 120
  },
  "infoPratique": {
    "transport": "Accessible par avion et transports locaux.",
    "meilleureEpoque": "Selon la saison.",
    "conseilHalal": "Repérez restaurants halal et mosquées via l'application."
  },
  "tags": [
    "halal",
    "europe"
  ],
  "restaurants": [
    {
      "nom": "Sindbad",
      "type": "kebab, egyptian, pizza",
      "priceRange": "€€",
      "mapsUrl": "https://maps.google.com/?q=45.0740498,7.681945",
      "lat": 45.0740498,
      "lng": 7.681945,
      "halalConfidence": "yes",
      "source": "osm"
    },
    {
      "nom": "Ramen",
      "type": "ramen, japanese",
      "priceRange": "€€",
      "mapsUrl": "https://maps.google.com/?q=45.0650975,7.6765557",
      "lat": 45.0650975,
      "lng": 7.6765557,
      "halalConfidence": "yes",
      "source": "osm"
    },
    {
      "nom": "Bella Istanbul 2",
      "type": "kebab",
      "priceRange": "€€",
      "mapsUrl": "https://maps.google.com/?q=45.0686571,7.6897195",
      "lat": 45.0686571,
      "lng": 7.6897195,
      "halalConfidence": "likely",
      "source": "osm"
    },
    {
      "nom": "Abu",
      "type": "kebab",
      "priceRange": "€€",
      "mapsUrl": "https://maps.google.com/?q=45.0688498,7.6906244",
      "lat": 45.0688498,
      "lng": 7.6906244,
      "halalConfidence": "likely",
      "source": "osm"
    },
    {
      "nom": "Riso Zafferano",
      "type": "persian",
      "priceRange": "€€",
      "mapsUrl": "https://maps.google.com/?q=45.0670578,7.6880951",
      "lat": 45.0670578,
      "lng": 7.6880951,
      "halalConfidence": "likely",
      "source": "osm"
    },
    {
      "nom": "Kirkuk Kaffé",
      "type": "turkish",
      "priceRange": "€€",
      "mapsUrl": "https://maps.google.com/?q=45.0667185,7.6848221",
      "lat": 45.0667185,
      "lng": 7.6848221,
      "halalConfidence": "likely",
      "source": "osm"
    },
    {
      "nom": "Il Cairo",
      "type": "kebab",
      "priceRange": "€€",
      "mapsUrl": "https://maps.google.com/?q=45.0674393,7.6910764",
      "lat": 45.0674393,
      "lng": 7.6910764,
      "halalConfidence": "likely",
      "source": "osm"
    },
    {
      "nom": "Sharazad",
      "type": "persian",
      "priceRange": "€€",
      "mapsUrl": "https://maps.google.com/?q=45.072068,7.6814422",
      "lat": 45.072068,
      "lng": 7.6814422,
      "halalConfidence": "likely",
      "source": "osm"
    },
    {
      "nom": "Mesopotamia Grandoo",
      "type": "kebab",
      "priceRange": "€€",
      "mapsUrl": "https://maps.google.com/?q=45.0717949,7.6929056",
      "lat": 45.0717949,
      "lng": 7.6929056,
      "halalConfidence": "likely",
      "source": "osm"
    },
    {
      "nom": "Vinoriente",
      "type": "afghan, persian",
      "priceRange": "€€",
      "mapsUrl": "https://maps.google.com/?q=45.0706809,7.6803126",
      "lat": 45.0706809,
      "lng": 7.6803126,
      "halalConfidence": "likely",
      "source": "osm"
    },
    {
      "nom": "Kebhouze - Aldo Moro",
      "type": "kebab",
      "priceRange": "€€",
      "mapsUrl": "https://maps.google.com/?q=45.067231,7.6935195",
      "lat": 45.067231,
      "lng": 7.6935195,
      "halalConfidence": "likely",
      "source": "osm"
    },
    {
      "nom": "Istanbul Star",
      "type": "kebab",
      "priceRange": "€€",
      "mapsUrl": "https://maps.google.com/?q=45.0759067,7.6868766",
      "lat": 45.0759067,
      "lng": 7.6868766,
      "halalConfidence": "likely",
      "source": "osm"
    },
    {
      "nom": "Il Pascia",
      "type": "greek, kebab, mediterranean, pizza, sandwich",
      "priceRange": "€€",
      "mapsUrl": "https://maps.google.com/?q=45.0663213,7.6928004",
      "lat": 45.0663213,
      "lng": 7.6928004,
      "halalConfidence": "likely",
      "source": "osm"
    },
    {
      "nom": "Orgada Pizza",
      "type": "kebab",
      "priceRange": "€€",
      "mapsUrl": "https://maps.google.com/?q=45.0735863,7.6938013",
      "lat": 45.0735863,
      "lng": 7.6938013,
      "halalConfidence": "likely",
      "source": "osm"
    },
    {
      "nom": "La Perla Blu",
      "type": "moroccan",
      "priceRange": "€€",
      "mapsUrl": "https://maps.google.com/?q=45.076049,7.6847792",
      "lat": 45.076049,
      "lng": 7.6847792,
      "halalConfidence": "likely",
      "source": "osm"
    },
    {
      "nom": "Bazooka Boom",
      "type": "kebab",
      "priceRange": "€€",
      "mapsUrl": "https://maps.google.com/?q=45.0694624,7.6953699",
      "lat": 45.0694624,
      "lng": 7.6953699,
      "halalConfidence": "likely",
      "source": "osm"
    },
    {
      "nom": "MyMood",
      "type": "kebab, pizza, burger",
      "priceRange": "€€",
      "mapsUrl": "https://maps.google.com/?q=45.0734463,7.6942827",
      "lat": 45.0734463,
      "lng": 7.6942827,
      "halalConfidence": "likely",
      "source": "osm"
    },
    {
      "nom": "Feroza",
      "type": "afghan",
      "priceRange": "€€",
      "mapsUrl": "https://maps.google.com/?q=45.0722008,7.6785269",
      "lat": 45.0722008,
      "lng": 7.6785269,
      "halalConfidence": "likely",
      "source": "osm"
    },
    {
      "nom": "Al Andalus",
      "type": "moroccan, arab",
      "priceRange": "€€",
      "mapsUrl": "https://maps.google.com/?q=45.076575,7.6880676",
      "lat": 45.076575,
      "lng": 7.6880676,
      "halalConfidence": "likely",
      "source": "osm"
    },
    {
      "nom": "Shivam Indian Spicy",
      "type": "kebab, pizza",
      "priceRange": "€€",
      "mapsUrl": "https://maps.google.com/?q=45.0747869,7.6802582",
      "lat": 45.0747869,
      "lng": 7.6802582,
      "halalConfidence": "likely",
      "source": "osm"
    },
    {
      "nom": "Magno",
      "type": "kebab, sandwich, pizza",
      "priceRange": "€€",
      "mapsUrl": "https://maps.google.com/?q=45.0768441,7.6844909",
      "lat": 45.0768441,
      "lng": 7.6844909,
      "halalConfidence": "likely",
      "source": "osm"
    },
    {
      "nom": "Kebabbo",
      "type": "kebab",
      "priceRange": "€€",
      "mapsUrl": "https://maps.google.com/?q=45.0727924,7.6962887",
      "lat": 45.0727924,
      "lng": 7.6962887,
      "halalConfidence": "likely",
      "source": "osm"
    },
    {
      "nom": "Istanbul",
      "type": "kebab",
      "priceRange": "€€",
      "mapsUrl": "https://maps.google.com/?q=45.0658051,7.6959776",
      "lat": 45.0658051,
      "lng": 7.6959776,
      "halalConfidence": "likely",
      "source": "osm"
    },
    {
      "nom": "Mr. Shawarna",
      "type": "kebab",
      "priceRange": "€€",
      "mapsUrl": "https://maps.google.com/?q=45.0660592,7.6963215",
      "lat": 45.0660592,
      "lng": 7.6963215,
      "halalConfidence": "likely",
      "source": "osm"
    },
    {
      "nom": "Istanbul Pizza Kebap",
      "type": "turkish",
      "priceRange": "€€",
      "mapsUrl": "https://maps.google.com/?q=45.0756598,7.6956795",
      "lat": 45.0756598,
      "lng": 7.6956795,
      "halalConfidence": "likely",
      "source": "osm"
    },
    {
      "nom": "Capital",
      "type": "kebab",
      "priceRange": "€€",
      "mapsUrl": "https://maps.google.com/?q=45.0672285,7.6978224",
      "lat": 45.0672285,
      "lng": 7.6978224,
      "halalConfidence": "likely",
      "source": "osm"
    },
    {
      "nom": "La farfalla Da ibra",
      "type": "kebab",
      "priceRange": "€€",
      "mapsUrl": "https://maps.google.com/?q=45.0682449,7.6988888",
      "lat": 45.0682449,
      "lng": 7.6988888,
      "halalConfidence": "likely",
      "source": "osm"
    },
    {
      "nom": "Ali Baba",
      "type": "kebab",
      "priceRange": "€€",
      "mapsUrl": "https://maps.google.com/?q=45.0637192,7.6950999",
      "lat": 45.0637192,
      "lng": 7.6950999,
      "halalConfidence": "likely",
      "source": "osm"
    },
    {
      "nom": "Civico in Piazza",
      "type": "kebab",
      "priceRange": "€€",
      "mapsUrl": "https://maps.google.com/?q=45.0695389,7.6998212",
      "lat": 45.0695389,
      "lng": 7.6998212,
      "halalConfidence": "likely",
      "source": "osm"
    },
    {
      "nom": "Da Aydin",
      "type": "kebab, pizza",
      "priceRange": "€€",
      "mapsUrl": "https://maps.google.com/?q=45.0635777,7.6778904",
      "lat": 45.0635777,
      "lng": 7.6778904,
      "halalConfidence": "likely",
      "source": "osm"
    },
    {
      "nom": "Horas Kebab",
      "type": "kebab, falafel",
      "priceRange": "€€",
      "mapsUrl": "https://maps.google.com/?q=45.0610329,7.6828755",
      "lat": 45.0610329,
      "lng": 7.6828755,
      "halalConfidence": "likely",
      "source": "osm"
    },
    {
      "nom": "Al Jazira",
      "type": "moroccan",
      "priceRange": "€€",
      "mapsUrl": "https://maps.google.com/?q=45.0800356,7.6840178",
      "lat": 45.0800356,
      "lng": 7.6840178,
      "halalConfidence": "likely",
      "source": "osm"
    },
    {
      "nom": "Turkish Anatolia 2",
      "type": "kebab",
      "priceRange": "€€",
      "mapsUrl": "https://maps.google.com/?q=45.0700065,7.7013655",
      "lat": 45.0700065,
      "lng": 7.7013655,
      "halalConfidence": "likely",
      "source": "osm"
    },
    {
      "nom": "Lahori Karahi",
      "type": "kebab",
      "priceRange": "€€",
      "mapsUrl": "https://maps.google.com/?q=45.0613817,7.6796414",
      "lat": 45.0613817,
      "lng": 7.6796414,
      "halalConfidence": "likely",
      "source": "osm"
    },
    {
      "nom": "Il Mago",
      "type": "kebab, pizza",
      "priceRange": "€€",
      "mapsUrl": "https://maps.google.com/?q=45.0680252,7.7017697",
      "lat": 45.0680252,
      "lng": 7.7017697,
      "halalConfidence": "likely",
      "source": "osm"
    },
    {
      "nom": "Hanif",
      "type": "kebab, pizza",
      "priceRange": "€€",
      "mapsUrl": "https://maps.google.com/?q=45.0601294,7.6812904",
      "lat": 45.0601294,
      "lng": 7.6812904,
      "halalConfidence": "likely",
      "source": "osm"
    },
    {
      "nom": "Zoraiz Sport",
      "type": "kebab",
      "priceRange": "€€",
      "mapsUrl": "https://maps.google.com/?q=45.0707338,7.7024781",
      "lat": 45.0707338,
      "lng": 7.7024781,
      "halalConfidence": "likely",
      "source": "osm"
    },
    {
      "nom": "Ramses",
      "type": "kebab, pizza",
      "priceRange": "€€",
      "mapsUrl": "https://maps.google.com/?q=45.059505,7.6831228",
      "lat": 45.059505,
      "lng": 7.6831228,
      "halalConfidence": "likely",
      "source": "osm"
    },
    {
      "nom": "Ciccio",
      "type": "kebab, pizza",
      "priceRange": "€€",
      "mapsUrl": "https://maps.google.com/?q=45.0588142,7.6846242",
      "lat": 45.0588142,
      "lng": 7.6846242,
      "halalConfidence": "likely",
      "source": "osm"
    },
    {
      "nom": "Griglia Saif",
      "type": "kebab",
      "priceRange": "€€",
      "mapsUrl": "https://maps.google.com/?q=45.0820876,7.6859228",
      "lat": 45.0820876,
      "lng": 7.6859228,
      "halalConfidence": "likely",
      "source": "osm"
    },
    {
      "nom": "BMY",
      "type": "kebab, pizza",
      "priceRange": "€€",
      "mapsUrl": "https://maps.google.com/?q=45.0590899,7.6813702",
      "lat": 45.0590899,
      "lng": 7.6813702,
      "halalConfidence": "likely",
      "source": "osm"
    },
    {
      "nom": "Turkish Kebap",
      "type": "kebab",
      "priceRange": "€€",
      "mapsUrl": "https://maps.google.com/?q=45.0598856,7.6785976",
      "lat": 45.0598856,
      "lng": 7.6785976,
      "halalConfidence": "likely",
      "source": "osm"
    },
    {
      "nom": "Efes",
      "type": "kebab, falafel, pizza",
      "priceRange": "€€",
      "mapsUrl": "https://maps.google.com/?q=45.0817076,7.6929821",
      "lat": 45.0817076,
      "lng": 7.6929821,
      "halalConfidence": "likely",
      "source": "osm"
    },
    {
      "nom": "Horas",
      "type": "kebab, pizza, falafel",
      "priceRange": "€€",
      "mapsUrl": "https://maps.google.com/?q=45.0584374,7.6827732",
      "lat": 45.0584374,
      "lng": 7.6827732,
      "halalConfidence": "likely",
      "source": "osm"
    },
    {
      "nom": "Istanbul Santasophia",
      "type": "kebab, pizza",
      "priceRange": "€€",
      "mapsUrl": "https://maps.google.com/?q=45.0579938,7.6832269",
      "lat": 45.0579938,
      "lng": 7.6832269,
      "halalConfidence": "likely",
      "source": "osm"
    },
    {
      "nom": "Casa tua",
      "type": "grill, italian, italian pizza, shawarma",
      "priceRange": "€€",
      "mapsUrl": "https://maps.google.com/?q=45.0820703,7.6943981",
      "lat": 45.0820703,
      "lng": 7.6943981,
      "halalConfidence": "likely",
      "source": "osm"
    },
    {
      "nom": "Istambul Kebap",
      "type": "kebab",
      "priceRange": "€€",
      "mapsUrl": "https://maps.google.com/?q=45.0751109,7.6692819",
      "lat": 45.0751109,
      "lng": 7.6692819,
      "halalConfidence": "likely",
      "source": "osm"
    },
    {
      "nom": "Fame chimica",
      "type": "kebab",
      "priceRange": "€€",
      "mapsUrl": "https://maps.google.com/?q=45.0574259,7.6818571",
      "lat": 45.0574259,
      "lng": 7.6818571,
      "halalConfidence": "likely",
      "source": "osm"
    },
    {
      "nom": "Oui Baguette",
      "type": "kebab, arab, pizza",
      "priceRange": "€€",
      "mapsUrl": "https://maps.google.com/?q=45.0722578,7.7081687",
      "lat": 45.0722578,
      "lng": 7.7081687,
      "halalConfidence": "likely",
      "source": "osm"
    },
    {
      "nom": "Casablanca Kebab",
      "type": "kebab",
      "priceRange": "€€",
      "mapsUrl": "https://maps.google.com/?q=45.0722021,7.709672",
      "lat": 45.0722021,
      "lng": 7.709672,
      "halalConfidence": "likely",
      "source": "osm"
    },
    {
      "nom": "Sultan Kebap",
      "type": "kebab",
      "priceRange": "€€",
      "mapsUrl": "https://maps.google.com/?q=45.0865622,7.6937997",
      "lat": 45.0865622,
      "lng": 7.6937997,
      "halalConfidence": "likely",
      "source": "osm"
    },
    {
      "nom": "TURKISH URFA'",
      "type": "kebab, turkish",
      "priceRange": "€€",
      "mapsUrl": "https://maps.google.com/?q=45.0797125,7.6661374",
      "lat": 45.0797125,
      "lng": 7.6661374,
      "halalConfidence": "likely",
      "source": "osm"
    },
    {
      "nom": "Casa del Kebap da Zaza 1",
      "type": "kebab",
      "priceRange": "€€",
      "mapsUrl": "https://maps.google.com/?q=45.0553773,7.6714363",
      "lat": 45.0553773,
      "lng": 7.6714363,
      "halalConfidence": "likely",
      "source": "osm"
    },
    {
      "nom": "El Shesh Kebab",
      "type": "kebab, falafel, egyptian",
      "priceRange": "€€",
      "mapsUrl": "https://maps.google.com/?q=45.0526263,7.6790303",
      "lat": 45.0526263,
      "lng": 7.6790303,
      "halalConfidence": "likely",
      "source": "osm"
    },
    {
      "nom": "Anatolia",
      "type": "kebab",
      "priceRange": "€€",
      "mapsUrl": "https://maps.google.com/?q=45.0822373,7.6661591",
      "lat": 45.0822373,
      "lng": 7.6661591,
      "halalConfidence": "likely",
      "source": "osm"
    },
    {
      "nom": "Bella Istanbul",
      "type": "kebab",
      "priceRange": "€€",
      "mapsUrl": "https://maps.google.com/?q=45.0887423,7.6796592",
      "lat": 45.0887423,
      "lng": 7.6796592,
      "halalConfidence": "likely",
      "source": "osm"
    },
    {
      "nom": "Oscar",
      "type": "kebab",
      "priceRange": "€€",
      "mapsUrl": "https://maps.google.com/?q=45.0805393,7.6638028",
      "lat": 45.0805393,
      "lng": 7.6638028,
      "halalConfidence": "likely",
      "source": "osm"
    },
    {
      "nom": "Doner Box",
      "type": "kebab",
      "priceRange": "€€",
      "mapsUrl": "https://maps.google.com/?q=45.085202,7.6690023",
      "lat": 45.085202,
      "lng": 7.6690023,
      "halalConfidence": "likely",
      "source": "osm"
    },
    {
      "nom": "Re Kebab",
      "type": "kebab",
      "priceRange": "€€",
      "mapsUrl": "https://maps.google.com/?q=45.0694492,7.6592234",
      "lat": 45.0694492,
      "lng": 7.6592234,
      "halalConfidence": "likely",
      "source": "osm"
    },
    {
      "nom": "La Terra Santa",
      "type": "palestinian, kebab, falafel",
      "priceRange": "€€",
      "mapsUrl": "https://maps.google.com/?q=45.0487611,7.6759934",
      "lat": 45.0487611,
      "lng": 7.6759934,
      "halalConfidence": "likely",
      "source": "osm"
    },
    {
      "nom": "Da Demir",
      "type": "kebab",
      "priceRange": "€€",
      "mapsUrl": "https://maps.google.com/?q=45.0710963,7.6540125",
      "lat": 45.0710963,
      "lng": 7.6540125,
      "halalConfidence": "likely",
      "source": "osm"
    },
    {
      "nom": "Casa del Kebap 27",
      "type": "kebab",
      "priceRange": "€€",
      "mapsUrl": "https://maps.google.com/?q=45.0941406,7.6871306",
      "lat": 45.0941406,
      "lng": 7.6871306,
      "halalConfidence": "likely",
      "source": "osm"
    },
    {
      "nom": "Cedro del Libano",
      "type": "lebanese",
      "priceRange": "€€",
      "mapsUrl": "https://maps.google.com/?q=45.0473878,7.6768819",
      "lat": 45.0473878,
      "lng": 7.6768819,
      "halalConfidence": "likely",
      "source": "osm"
    },
    {
      "nom": "Mr Shawarma",
      "type": "kebab, lebanese",
      "priceRange": "€€",
      "mapsUrl": "https://maps.google.com/?q=45.065048,7.6534253",
      "lat": 45.065048,
      "lng": 7.6534253,
      "halalConfidence": "likely",
      "source": "osm"
    },
    {
      "nom": "KebaP TorinO",
      "type": "kebab",
      "priceRange": "€€",
      "mapsUrl": "https://maps.google.com/?q=45.0466612,7.6782937",
      "lat": 45.0466612,
      "lng": 7.6782937,
      "halalConfidence": "likely",
      "source": "osm"
    },
    {
      "nom": "Deniz",
      "type": "pizza, kebab",
      "priceRange": "€€",
      "mapsUrl": "https://maps.google.com/?q=45.0651433,7.6527485",
      "lat": 45.0651433,
      "lng": 7.6527485,
      "halalConfidence": "likely",
      "source": "osm"
    },
    {
      "nom": "TITANIC — Pizza Kebap",
      "type": "kebab",
      "priceRange": "€€",
      "mapsUrl": "https://maps.google.com/?q=45.0849068,7.6581465",
      "lat": 45.0849068,
      "lng": 7.6581465,
      "halalConfidence": "likely",
      "source": "osm"
    },
    {
      "nom": "Pizza Kebab Istanbul Ayasofya",
      "type": "pizza, kebab",
      "priceRange": "€€",
      "mapsUrl": "https://maps.google.com/?q=45.0948821,7.6956462",
      "lat": 45.0948821,
      "lng": 7.6956462,
      "halalConfidence": "likely",
      "source": "osm"
    },
    {
      "nom": "FALCO PIZZA KEBAB",
      "type": "kebab",
      "priceRange": "€€",
      "mapsUrl": "https://maps.google.com/?q=45.0834953,7.6552717",
      "lat": 45.0834953,
      "lng": 7.6552717,
      "halalConfidence": "likely",
      "source": "osm"
    },
    {
      "nom": "Apna Punjab",
      "type": "kebab",
      "priceRange": "€€",
      "mapsUrl": "https://maps.google.com/?q=45.0853081,7.6568972",
      "lat": 45.0853081,
      "lng": 7.6568972,
      "halalConfidence": "likely",
      "source": "osm"
    },
    {
      "nom": "San Giorgio",
      "type": "kebab, pizza, falafel",
      "priceRange": "€€",
      "mapsUrl": "https://maps.google.com/?q=45.0539742,7.6581653",
      "lat": 45.0539742,
      "lng": 7.6581653,
      "halalConfidence": "likely",
      "source": "osm"
    },
    {
      "nom": "Istanbul Pizza Kebab",
      "type": "kebab",
      "priceRange": "€€",
      "mapsUrl": "https://maps.google.com/?q=45.0950727,7.7018601",
      "lat": 45.0950727,
      "lng": 7.7018601,
      "halalConfidence": "likely",
      "source": "osm"
    },
    {
      "nom": "My Friend",
      "type": "falafel, kebab, pizza",
      "priceRange": "€€",
      "mapsUrl": "https://maps.google.com/?q=45.052919,7.6573499",
      "lat": 45.052919,
      "lng": 7.6573499,
      "halalConfidence": "likely",
      "source": "osm"
    },
    {
      "nom": "Svizzera",
      "type": "kebab",
      "priceRange": "€€",
      "mapsUrl": "https://maps.google.com/?q=45.0889736,7.6585947",
      "lat": 45.0889736,
      "lng": 7.6585947,
      "halalConfidence": "likely",
      "source": "osm"
    },
    {
      "nom": "O' Pizza",
      "type": "pizza, kebab, italian",
      "priceRange": "€€",
      "mapsUrl": "https://maps.google.com/?q=45.0866506,7.6544938",
      "lat": 45.0866506,
      "lng": 7.6544938,
      "halalConfidence": "likely",
      "source": "osm"
    },
    {
      "nom": "Carducci",
      "type": "kebab",
      "priceRange": "€€",
      "mapsUrl": "https://maps.google.com/?q=45.0430657,7.6717258",
      "lat": 45.0430657,
      "lng": 7.6717258,
      "halalConfidence": "likely",
      "source": "osm"
    },
    {
      "nom": "Istanbul famoso",
      "type": "kebab",
      "priceRange": "€€",
      "mapsUrl": "https://maps.google.com/?q=45.0458879,7.6615455",
      "lat": 45.0458879,
      "lng": 7.6615455,
      "halalConfidence": "likely",
      "source": "osm"
    },
    {
      "nom": "Kebap Grill Pizza",
      "type": "pizza, arab",
      "priceRange": "€€",
      "mapsUrl": "https://maps.google.com/?q=45.0914003,7.6551429",
      "lat": 45.0914003,
      "lng": 7.6551429,
      "halalConfidence": "likely",
      "source": "osm"
    },
    {
      "nom": "Pizzeria Kebab Garganica",
      "type": "kebab",
      "priceRange": "€€",
      "mapsUrl": "https://maps.google.com/?q=45.0992042,7.6711337",
      "lat": 45.0992042,
      "lng": 7.6711337,
      "halalConfidence": "likely",
      "source": "osm"
    },
    {
      "nom": "Kebab Aladino",
      "type": "kebab",
      "priceRange": "€€",
      "mapsUrl": "https://maps.google.com/?q=45.0798141,7.6442609",
      "lat": 45.0798141,
      "lng": 7.6442609,
      "halalConfidence": "likely",
      "source": "osm"
    },
    {
      "nom": "Star Pizza Kebap",
      "type": "kebab",
      "priceRange": "€€",
      "mapsUrl": "https://maps.google.com/?q=45.0761263,7.6426207",
      "lat": 45.0761263,
      "lng": 7.6426207,
      "halalConfidence": "likely",
      "source": "osm"
    },
    {
      "nom": "Paninaro di Sassi",
      "type": "sandwich, kebab",
      "priceRange": "€€",
      "mapsUrl": "https://maps.google.com/?q=45.0805267,7.7297672",
      "lat": 45.0805267,
      "lng": 7.7297672,
      "halalConfidence": "likely",
      "source": "osm"
    },
    {
      "nom": "Pizza Speedy",
      "type": "pizza, kebab",
      "priceRange": "€€",
      "mapsUrl": "https://maps.google.com/?q=45.0499589,7.6513647",
      "lat": 45.0499589,
      "lng": 7.6513647,
      "halalConfidence": "likely",
      "source": "osm"
    },
    {
      "nom": "Da Leo",
      "type": "kebab",
      "priceRange": "€€",
      "mapsUrl": "https://maps.google.com/?q=45.0794141,7.6421155",
      "lat": 45.0794141,
      "lng": 7.6421155,
      "halalConfidence": "likely",
      "source": "osm"
    },
    {
      "nom": "Turkish Pizza Kebab",
      "type": "kebab",
      "priceRange": "€€",
      "mapsUrl": "https://maps.google.com/?q=45.0812894,7.6421596",
      "lat": 45.0812894,
      "lng": 7.6421596,
      "halalConfidence": "likely",
      "source": "osm"
    },
    {
      "nom": "L'artista - Pizza Kebab",
      "type": "kebab",
      "priceRange": "€€",
      "mapsUrl": "https://maps.google.com/?q=45.0699443,7.6382722",
      "lat": 45.0699443,
      "lng": 7.6382722,
      "halalConfidence": "likely",
      "source": "osm"
    },
    {
      "nom": "Pizza Baffo",
      "type": "kebab",
      "priceRange": "€€",
      "mapsUrl": "https://maps.google.com/?q=45.0375528,7.6713384",
      "lat": 45.0375528,
      "lng": 7.6713384,
      "halalConfidence": "likely",
      "source": "osm"
    },
    {
      "nom": "Turkish Istanbul",
      "type": "kebab",
      "priceRange": "€€",
      "mapsUrl": "https://maps.google.com/?q=45.0820373,7.638322",
      "lat": 45.0820373,
      "lng": 7.638322,
      "halalConfidence": "likely",
      "source": "osm"
    },
    {
      "nom": "Istanbul M.",
      "type": "kebab",
      "priceRange": "€€",
      "mapsUrl": "https://maps.google.com/?q=45.0756417,7.6354926",
      "lat": 45.0756417,
      "lng": 7.6354926,
      "halalConfidence": "likely",
      "source": "osm"
    },
    {
      "nom": "Cibo Colbe",
      "type": "persian",
      "priceRange": "€€",
      "mapsUrl": "https://maps.google.com/?q=45.0399175,7.6548678",
      "lat": 45.0399175,
      "lng": 7.6548678,
      "halalConfidence": "likely",
      "source": "osm"
    },
    {
      "nom": "Torino steakhouse",
      "type": "kebab, pizza, burger, steak house",
      "priceRange": "€€",
      "mapsUrl": "https://maps.google.com/?q=45.0438688,7.6483321",
      "lat": 45.0438688,
      "lng": 7.6483321,
      "halalConfidence": "likely",
      "source": "osm"
    },
    {
      "nom": "Sofia pizzeria kebab",
      "type": "pizza, kebab",
      "priceRange": "€€",
      "mapsUrl": "https://maps.google.com/?q=45.0475907,7.6435488",
      "lat": 45.0475907,
      "lng": 7.6435488,
      "halalConfidence": "likely",
      "source": "osm"
    },
    {
      "nom": "Pizza Kebab Gastronomia",
      "type": "kebab, pizza",
      "priceRange": "€€",
      "mapsUrl": "https://maps.google.com/?q=45.0384118,7.6550138",
      "lat": 45.0384118,
      "lng": 7.6550138,
      "halalConfidence": "likely",
      "source": "osm"
    },
    {
      "nom": "Bintat",
      "type": "kebab",
      "priceRange": "€€",
      "mapsUrl": "https://maps.google.com/?q=45.0338125,7.6661356",
      "lat": 45.0338125,
      "lng": 7.6661356,
      "halalConfidence": "likely",
      "source": "osm"
    },
    {
      "nom": "Lingotto",
      "type": "pizza, kebab",
      "priceRange": "€€",
      "mapsUrl": "https://maps.google.com/?q=45.032626,7.6682807",
      "lat": 45.032626,
      "lng": 7.6682807,
      "halalConfidence": "likely",
      "source": "osm"
    },
    {
      "nom": "Kebab Grill",
      "type": "kebab",
      "priceRange": "€€",
      "mapsUrl": "https://maps.google.com/?q=45.0743027,7.6286529",
      "lat": 45.0743027,
      "lng": 7.6286529,
      "halalConfidence": "likely",
      "source": "osm"
    },
    {
      "nom": "Bosforo",
      "type": "kebab",
      "priceRange": "€€",
      "mapsUrl": "https://maps.google.com/?q=45.036548,7.6522571",
      "lat": 45.036548,
      "lng": 7.6522571,
      "halalConfidence": "likely",
      "source": "osm"
    },
    {
      "nom": "Da Babo Pizza & Kebab",
      "type": "pizza, kebab",
      "priceRange": "€€",
      "mapsUrl": "https://maps.google.com/?q=45.033727,7.6550329",
      "lat": 45.033727,
      "lng": 7.6550329,
      "halalConfidence": "likely",
      "source": "osm"
    },
    {
      "nom": "Romo",
      "type": "kebab, pizza",
      "priceRange": "€€",
      "mapsUrl": "https://maps.google.com/?q=45.0396782,7.6399384",
      "lat": 45.0396782,
      "lng": 7.6399384,
      "halalConfidence": "likely",
      "source": "osm"
    },
    {
      "nom": "Risto pizza Kebab EgyOne",
      "type": "pizza, arab, kebab, italian pizza, coffee shop",
      "priceRange": "€€",
      "mapsUrl": "https://maps.google.com/?q=45.0438679,7.6345008",
      "lat": 45.0438679,
      "lng": 7.6345008,
      "halalConfidence": "likely",
      "source": "osm"
    },
    {
      "nom": "Superkebabbaro",
      "type": "pizza, kebab",
      "priceRange": "€€",
      "mapsUrl": "https://maps.google.com/?q=45.0404579,7.6377119",
      "lat": 45.0404579,
      "lng": 7.6377119,
      "halalConfidence": "likely",
      "source": "osm"
    },
    {
      "nom": "Pizzeria Jasmin",
      "type": "pizza, kebab",
      "priceRange": "€€",
      "mapsUrl": "https://maps.google.com/?q=45.1147858,7.7072455",
      "lat": 45.1147858,
      "lng": 7.7072455,
      "halalConfidence": "likely",
      "source": "osm"
    },
    {
      "nom": "Arzu Kebab",
      "type": "turkish",
      "priceRange": "€€",
      "mapsUrl": "https://maps.google.com/?q=45.0742408,7.6205115",
      "lat": 45.0742408,
      "lng": 7.6205115,
      "halalConfidence": "likely",
      "source": "osm"
    },
    {
      "nom": "Marsa Alam",
      "type": "pizza, kebab, coffee shop",
      "priceRange": "€€",
      "mapsUrl": "https://maps.google.com/?q=45.0508754,7.6259993",
      "lat": 45.0508754,
      "lng": 7.6259993,
      "halalConfidence": "likely",
      "source": "osm"
    },
    {
      "nom": "Istanbul Star 2",
      "type": "kebab",
      "priceRange": "€€",
      "mapsUrl": "https://maps.google.com/?q=45.0700602,7.6183487",
      "lat": 45.0700602,
      "lng": 7.6183487,
      "halalConfidence": "likely",
      "source": "osm"
    },
    {
      "nom": "Kebab - Pizzeria Osha",
      "type": "kebab",
      "priceRange": "€€",
      "mapsUrl": "https://maps.google.com/?q=45.0405196,7.6313302",
      "lat": 45.0405196,
      "lng": 7.6313302,
      "halalConfidence": "likely",
      "source": "osm"
    },
    {
      "nom": "Asiago",
      "type": "kebab, burger, pizza",
      "priceRange": "€€",
      "mapsUrl": "https://maps.google.com/?q=45.0700418,7.6123492",
      "lat": 45.0700418,
      "lng": 7.6123492,
      "halalConfidence": "likely",
      "source": "osm"
    },
    {
      "nom": "Aliba'ba",
      "type": "kebab",
      "priceRange": "€€",
      "mapsUrl": "https://maps.google.com/?q=45.0187401,7.6595397",
      "lat": 45.0187401,
      "lng": 7.6595397,
      "halalConfidence": "likely",
      "source": "osm"
    },
    {
      "nom": "Aladin",
      "type": "kebab, pizza",
      "priceRange": "€€",
      "mapsUrl": "https://maps.google.com/?q=45.0177987,7.6611458",
      "lat": 45.0177987,
      "lng": 7.6611458,
      "halalConfidence": "likely",
      "source": "osm"
    },
    {
      "nom": "kebabbaro grill",
      "type": "kebab",
      "priceRange": "€€",
      "mapsUrl": "https://maps.google.com/?q=45.0161569,7.6615781",
      "lat": 45.0161569,
      "lng": 7.6615781,
      "halalConfidence": "likely",
      "source": "osm"
    },
    {
      "nom": "Bella Instanbul 1",
      "type": "kebab, pizza",
      "priceRange": "€€",
      "mapsUrl": "https://maps.google.com/?q=45.0239808,7.6374862",
      "lat": 45.0239808,
      "lng": 7.6374862,
      "halalConfidence": "likely",
      "source": "osm"
    },
    {
      "nom": "La Famosa Pizzeria",
      "type": "pizza, kebab",
      "priceRange": "€€",
      "mapsUrl": "https://maps.google.com/?q=45.0770002,7.6050602",
      "lat": 45.0770002,
      "lng": 7.6050602,
      "halalConfidence": "likely",
      "source": "osm"
    },
    {
      "nom": "Ayat - Pizza & Kebab",
      "type": "kebab, pizza",
      "priceRange": "€€",
      "mapsUrl": "https://maps.google.com/?q=45.0221444,7.6402976",
      "lat": 45.0221444,
      "lng": 7.6402976,
      "halalConfidence": "likely",
      "source": "osm"
    },
    {
      "nom": "Friend's Pizza Kebab",
      "type": "pizza, kebab",
      "priceRange": "€€",
      "mapsUrl": "https://maps.google.com/?q=45.0171002,7.6530071",
      "lat": 45.0171002,
      "lng": 7.6530071,
      "halalConfidence": "likely",
      "source": "osm"
    },
    {
      "nom": "Arzu Kebap",
      "type": "kebab",
      "priceRange": "€€",
      "mapsUrl": "https://maps.google.com/?q=45.0173282,7.6474363",
      "lat": 45.0173282,
      "lng": 7.6474363,
      "halalConfidence": "likely",
      "source": "osm"
    },
    {
      "nom": "Paninoteca",
      "type": "kebab",
      "priceRange": "€€",
      "mapsUrl": "https://maps.google.com/?q=45.1155642,7.7490061",
      "lat": 45.1155642,
      "lng": 7.7490061,
      "halalConfidence": "likely",
      "source": "osm"
    },
    {
      "nom": "Pizzeria Hima",
      "type": "kebab",
      "priceRange": "€€",
      "mapsUrl": "https://maps.google.com/?q=45.0195646,7.6325885",
      "lat": 45.0195646,
      "lng": 7.6325885,
      "halalConfidence": "likely",
      "source": "osm"
    },
    {
      "nom": "Miss 2",
      "type": "pizza, kebab",
      "priceRange": "€€",
      "mapsUrl": "https://maps.google.com/?q=45.0739022,7.5964172",
      "lat": 45.0739022,
      "lng": 7.5964172,
      "halalConfidence": "likely",
      "source": "osm"
    },
    {
      "nom": "Aladino",
      "type": "kebab",
      "priceRange": "€€",
      "mapsUrl": "https://maps.google.com/?q=45.0187472,7.6313006",
      "lat": 45.0187472,
      "lng": 7.6313006,
      "halalConfidence": "likely",
      "source": "osm"
    },
    {
      "nom": "Bella Napoli",
      "type": "kebab",
      "priceRange": "€€",
      "mapsUrl": "https://maps.google.com/?q=45.0145898,7.6251389",
      "lat": 45.0145898,
      "lng": 7.6251389,
      "halalConfidence": "likely",
      "source": "osm"
    },
    {
      "nom": "Pizza Pazza",
      "type": "kebab, pizza",
      "priceRange": "€€",
      "mapsUrl": "https://maps.google.com/?q=45.0633864,7.5871749",
      "lat": 45.0633864,
      "lng": 7.5871749,
      "halalConfidence": "likely",
      "source": "osm"
    },
    {
      "nom": "'O Scugnizzo",
      "type": "kebab, pizza",
      "priceRange": "€€",
      "mapsUrl": "https://maps.google.com/?q=45.0209015,7.6082974",
      "lat": 45.0209015,
      "lng": 7.6082974,
      "halalConfidence": "likely",
      "source": "osm"
    },
    {
      "nom": "Cento88",
      "type": "kebab",
      "priceRange": "€€",
      "mapsUrl": "https://maps.google.com/?q=44.9949591,7.6466969",
      "lat": 44.9949591,
      "lng": 7.6466969,
      "halalConfidence": "likely",
      "source": "osm"
    },
    {
      "nom": "da Simo",
      "type": "pizza, kebab",
      "priceRange": "€€",
      "mapsUrl": "https://maps.google.com/?q=45.0768464,7.570345",
      "lat": 45.0768464,
      "lng": 7.570345,
      "halalConfidence": "likely",
      "source": "osm"
    },
    {
      "nom": "Horus",
      "type": "kebab",
      "priceRange": "€€",
      "mapsUrl": "https://maps.google.com/?q=45.0720038,7.5627112",
      "lat": 45.0720038,
      "lng": 7.5627112,
      "halalConfidence": "likely",
      "source": "osm"
    },
    {
      "nom": "Ci voleva",
      "type": "kebab, pizza",
      "priceRange": "€€",
      "mapsUrl": "https://maps.google.com/?q=45.0070265,7.5992251",
      "lat": 45.0070265,
      "lng": 7.5992251,
      "halalConfidence": "likely",
      "source": "osm"
    },
    {
      "nom": "Sharm el Sheikh Pizza e Kebab",
      "type": "kebab, pizza",
      "priceRange": "€€",
      "mapsUrl": "https://maps.google.com/?q=45.0702034,7.5405632",
      "lat": 45.0702034,
      "lng": 7.5405632,
      "halalConfidence": "likely",
      "source": "osm"
    },
    {
      "nom": "Arzu Kebap Pizza Bar",
      "type": "kebab, pizza",
      "priceRange": "€€",
      "mapsUrl": "https://maps.google.com/?q=45.0135142,7.5624578",
      "lat": 45.0135142,
      "lng": 7.5624578,
      "halalConfidence": "likely",
      "source": "osm"
    }
  ],
  "hotels": [
    {
      "nom": "Chelsea",
      "categorie": "Hôtel",
      "priceRange": "€€€",
      "score": 3,
      "mapsUrl": "https://maps.google.com/?q=45.0725454,7.6839944",
      "lat": 45.0725454,
      "lng": 7.6839944,
      "halalFriendly": false,
      "bookingUrl": "https://maps.google.com/?q=45.0725454,7.6839944",
      "source": "osm"
    },
    {
      "nom": "NH Collection Torino Santo Stefano",
      "categorie": "Hôtel",
      "priceRange": "€€",
      "mapsUrl": "https://maps.google.com/?q=45.0741337,7.6837871",
      "lat": 45.0741337,
      "lng": 7.6837871,
      "halalFriendly": false,
      "bookingUrl": "https://www.nh-hotels.com/en/hotel/nh-collection-torino-santo-stefano?utm_campaign=local-gmb&utm_medium=organic_search&utm_source=google_gmb",
      "source": "osm"
    },
    {
      "nom": "NH Collection Piazza Carlina",
      "categorie": "Hôtel",
      "priceRange": "€€",
      "mapsUrl": "https://maps.google.com/?q=45.0658398,7.6895124",
      "lat": 45.0658398,
      "lng": 7.6895124,
      "halalFriendly": false,
      "bookingUrl": "https://www.nh-hotels.com/hotel/nh-collection-torino-piazza-carlina",
      "source": "osm"
    },
    {
      "nom": "B&B 500",
      "categorie": "Maison d'hôtes",
      "priceRange": "€€",
      "mapsUrl": "https://maps.google.com/?q=45.0723818,7.6930922",
      "lat": 45.0723818,
      "lng": 7.6930922,
      "halalFriendly": false,
      "bookingUrl": "http://bb500.org/",
      "source": "osm"
    },
    {
      "nom": "Amadeus Hotel",
      "categorie": "Hôtel",
      "priceRange": "€€€",
      "score": 3,
      "mapsUrl": "https://maps.google.com/?q=45.0662289,7.6917734",
      "lat": 45.0662289,
      "lng": 7.6917734,
      "halalFriendly": false,
      "bookingUrl": "https://maps.google.com/?q=45.0662289,7.6917734",
      "source": "osm"
    },
    {
      "nom": "Dogana Vecchia",
      "categorie": "Hôtel",
      "priceRange": "€€€",
      "score": 3,
      "mapsUrl": "https://maps.google.com/?q=45.0736959,7.6810363",
      "lat": 45.0736959,
      "lng": 7.6810363,
      "halalFriendly": false,
      "bookingUrl": "https://www.hoteldoganavecchia.com",
      "source": "osm"
    },
    {
      "nom": "Residenza dell’Opera",
      "categorie": "Hôtel",
      "priceRange": "€€",
      "mapsUrl": "https://maps.google.com/?q=45.0654893,7.6903459",
      "lat": 45.0654893,
      "lng": 7.6903459,
      "halalFriendly": false,
      "bookingUrl": "http://residenzadelllopera.com",
      "source": "osm"
    },
    {
      "nom": "Hotel Victoria Torino",
      "categorie": "Hôtel",
      "priceRange": "€",
      "score": 1,
      "mapsUrl": "https://maps.google.com/?q=45.0649946,7.6855276",
      "lat": 45.0649946,
      "lng": 7.6855276,
      "halalFriendly": false,
      "bookingUrl": "https://www.hotelvictoria-torino.com/",
      "source": "osm"
    },
    {
      "nom": "Le Petit Hotel",
      "categorie": "Hôtel",
      "priceRange": "€€",
      "mapsUrl": "https://maps.google.com/?q=45.0701053,7.679104",
      "lat": 45.0701053,
      "lng": 7.679104,
      "halalFriendly": false,
      "bookingUrl": "https://www.lepetithotel.it/",
      "source": "osm"
    },
    {
      "nom": "Grand Hotel Sitea",
      "categorie": "Hôtel",
      "priceRange": "€€€€",
      "score": 5,
      "mapsUrl": "https://maps.google.com/?q=45.0651662,7.6840024",
      "lat": 45.0651662,
      "lng": 7.6840024,
      "halalFriendly": false,
      "bookingUrl": "https://grandhotelsitea.it/",
      "source": "osm"
    },
    {
      "nom": "Hotel Serenella",
      "categorie": "Hôtel",
      "priceRange": "€€",
      "mapsUrl": "https://maps.google.com/?q=45.0704231,7.6949064",
      "lat": 45.0704231,
      "lng": 7.6949064,
      "halalFriendly": false,
      "bookingUrl": "https://www.albergoserenella.com/",
      "source": "osm"
    },
    {
      "nom": "B&B Nicosia Pelù",
      "categorie": "Maison d'hôtes",
      "priceRange": "€€",
      "mapsUrl": "https://maps.google.com/?q=45.0722634,7.6947579",
      "lat": 45.0722634,
      "lng": 7.6947579,
      "halalFriendly": false,
      "bookingUrl": "http://www.bedandbnicosia.it/index.html",
      "source": "osm"
    },
    {
      "nom": "BeMate Torino",
      "categorie": "Hôtel",
      "priceRange": "€€",
      "mapsUrl": "https://maps.google.com/?q=45.0675828,7.6794477",
      "lat": 45.0675828,
      "lng": 7.6794477,
      "halalFriendly": false,
      "bookingUrl": "https://maps.google.com/?q=45.0675828,7.6794477",
      "source": "osm"
    },
    {
      "nom": "Combo Hostel",
      "categorie": "Auberge",
      "priceRange": "€€",
      "mapsUrl": "https://maps.google.com/?q=45.0763352,7.6856945",
      "lat": 45.0763352,
      "lng": 7.6856945,
      "halalFriendly": false,
      "bookingUrl": "https://thisiscombo.com/location/combo-torino/",
      "source": "osm"
    },
    {
      "nom": "B&B Regina",
      "categorie": "Maison d'hôtes",
      "priceRange": "€€",
      "mapsUrl": "https://maps.google.com/?q=45.0726289,7.695252",
      "lat": 45.0726289,
      "lng": 7.695252,
      "halalFriendly": false,
      "bookingUrl": "https://www.bbreginatorino.com/",
      "source": "osm"
    },
    {
      "nom": "Principi di Piemonte",
      "categorie": "Hôtel",
      "priceRange": "€€€€",
      "score": 5,
      "mapsUrl": "https://maps.google.com/?q=45.0650191,7.6817398",
      "lat": 45.0650191,
      "lng": 7.6817398,
      "halalFriendly": false,
      "bookingUrl": "http://www.atahotels.it/principi-di-piemonte",
      "source": "osm"
    },
    {
      "nom": "Hilton Turin Centre",
      "categorie": "Hôtel",
      "priceRange": "€€€€",
      "score": 5,
      "mapsUrl": "https://maps.google.com/?q=45.0676767,7.6775898",
      "lat": 45.0676767,
      "lng": 7.6775898,
      "halalFriendly": false,
      "bookingUrl": "https://www.hilton.com/en/hotels/trnithi-hilton-turin-centre/",
      "source": "osm"
    },
    {
      "nom": "L'uva frola",
      "categorie": "Maison d'hôtes",
      "priceRange": "€€",
      "mapsUrl": "https://maps.google.com/?q=45.0682233,7.6965341",
      "lat": 45.0682233,
      "lng": 7.6965341,
      "halalFriendly": false,
      "bookingUrl": "https://maps.google.com/?q=45.0682233,7.6965341",
      "source": "osm"
    },
    {
      "nom": "Foresteria degli Artisti",
      "categorie": "Maison d'hôtes",
      "priceRange": "€€",
      "mapsUrl": "https://maps.google.com/?q=45.0692482,7.6968739",
      "lat": 45.0692482,
      "lng": 7.6968739,
      "halalFriendly": false,
      "bookingUrl": "https://www.foresteriadegliartisti.it/",
      "source": "osm"
    },
    {
      "nom": "Cinema loft",
      "categorie": "Appartement",
      "priceRange": "€€",
      "mapsUrl": "https://maps.google.com/?q=45.0692391,7.6971037",
      "lat": 45.0692391,
      "lng": 7.6971037,
      "halalFriendly": false,
      "bookingUrl": "https://www.booking.com/hotel/it/cinema-loft.it.html",
      "source": "osm"
    },
    {
      "nom": "Hotel dei Pittori",
      "categorie": "Hôtel",
      "priceRange": "€€",
      "mapsUrl": "https://maps.google.com/?q=45.0718011,7.697665",
      "lat": 45.0718011,
      "lng": 7.697665,
      "halalFriendly": false,
      "bookingUrl": "http://www.hoteldeipittori.it/it/",
      "source": "osm"
    },
    {
      "nom": "B&B Borgo Vanchiglia",
      "categorie": "Maison d'hôtes",
      "priceRange": "€€€",
      "score": 3,
      "mapsUrl": "https://maps.google.com/?q=45.0696688,7.6983632",
      "lat": 45.0696688,
      "lng": 7.6983632,
      "halalFriendly": false,
      "bookingUrl": "https://maps.google.com/?q=45.0696688,7.6983632",
      "source": "osm"
    },
    {
      "nom": "Best Quality Hotel Gran Mogol",
      "categorie": "Hôtel",
      "priceRange": "€€€",
      "score": 3,
      "mapsUrl": "https://maps.google.com/?q=45.0632135,7.681209",
      "lat": 45.0632135,
      "lng": 7.681209,
      "halalFriendly": false,
      "bookingUrl": "https://granmogol.bqhotel.it/",
      "source": "osm"
    },
    {
      "nom": "Attic hostel",
      "categorie": "Auberge",
      "priceRange": "€€",
      "mapsUrl": "https://maps.google.com/?q=45.0643232,7.678947",
      "lat": 45.0643232,
      "lng": 7.678947,
      "halalFriendly": false,
      "bookingUrl": "https://www.attichostel.it/",
      "source": "osm"
    },
    {
      "nom": "Hotel Adalesia",
      "categorie": "Hôtel",
      "priceRange": "€",
      "score": 1,
      "mapsUrl": "https://maps.google.com/?q=45.0645389,7.6786194",
      "lat": 45.0645389,
      "lng": 7.6786194,
      "halalFriendly": false,
      "bookingUrl": "http://www.adalesia.it/",
      "source": "osm"
    },
    {
      "nom": "Fiore - Borgna",
      "categorie": "Maison d'hôtes",
      "priceRange": "€€",
      "mapsUrl": "https://maps.google.com/?q=45.067164,7.6976605",
      "lat": 45.067164,
      "lng": 7.6976605,
      "halalFriendly": false,
      "bookingUrl": "https://maps.google.com/?q=45.067164,7.6976605",
      "source": "osm"
    },
    {
      "nom": "Loger Confort Residence",
      "categorie": "Appartement",
      "priceRange": "€€",
      "mapsUrl": "https://maps.google.com/?q=45.0644952,7.6785871",
      "lat": 45.0644952,
      "lng": 7.6785871,
      "halalFriendly": false,
      "bookingUrl": "https://maps.google.com/?q=45.0644952,7.6785871",
      "source": "osm"
    },
    {
      "nom": "Santa Giulia Art & Wine Residence",
      "categorie": "Maison d'hôtes",
      "priceRange": "€€",
      "mapsUrl": "https://maps.google.com/?q=45.0698168,7.698585",
      "lat": 45.0698168,
      "lng": 7.698585,
      "halalFriendly": false,
      "bookingUrl": "http://residence-torino.com/#sthash.TUFeumWp.dpbs",
      "source": "osm"
    },
    {
      "nom": "Hotel Napoleon",
      "categorie": "Hôtel",
      "priceRange": "€€€",
      "score": 3,
      "mapsUrl": "https://maps.google.com/?q=45.0643879,7.6785079",
      "lat": 45.0643879,
      "lng": 7.6785079,
      "halalFriendly": false,
      "bookingUrl": "http://www.hotelnapoleontorino.it/",
      "source": "osm"
    },
    {
      "nom": "San Giors",
      "categorie": "Hôtel",
      "priceRange": "€€€",
      "score": 3,
      "mapsUrl": "https://maps.google.com/?q=45.0786211,7.6840264",
      "lat": 45.0786211,
      "lng": 7.6840264,
      "halalFriendly": false,
      "bookingUrl": "https://www.hotelsangiors.it",
      "source": "osm"
    },
    {
      "nom": "Concord",
      "categorie": "Hôtel",
      "priceRange": "€€€€",
      "score": 4,
      "mapsUrl": "https://maps.google.com/?q=45.0628075,7.6806735",
      "lat": 45.0628075,
      "lng": 7.6806735,
      "halalFriendly": false,
      "bookingUrl": "http://www.atahotels.it/concord",
      "source": "osm"
    },
    {
      "nom": "B&B ai Savoia",
      "categorie": "Maison d'hôtes",
      "priceRange": "€€",
      "mapsUrl": "https://maps.google.com/?q=45.0751834,7.6766289",
      "lat": 45.0751834,
      "lng": 7.6766289,
      "halalFriendly": false,
      "bookingUrl": "https://maps.google.com/?q=45.0751834,7.6766289",
      "source": "osm"
    },
    {
      "nom": "Roma Rocca Cavour",
      "categorie": "Hôtel",
      "priceRange": "€€€",
      "score": 3,
      "mapsUrl": "https://maps.google.com/?q=45.0636048,7.6787784",
      "lat": 45.0636048,
      "lng": 7.6787784,
      "halalFriendly": false,
      "bookingUrl": "https://maps.google.com/?q=45.0636048,7.6787784",
      "source": "osm"
    },
    {
      "nom": "Artua'  & Solferino",
      "categorie": "Hôtel",
      "priceRange": "€€",
      "mapsUrl": "https://maps.google.com/?q=45.0675218,7.6750475",
      "lat": 45.0675218,
      "lng": 7.6750475,
      "halalFriendly": false,
      "bookingUrl": "https://www.hotelartuasolferino.it",
      "source": "osm"
    },
    {
      "nom": "Astoria",
      "categorie": "Hôtel",
      "priceRange": "€€€",
      "score": 3,
      "mapsUrl": "https://maps.google.com/?q=45.0637734,7.6783251",
      "lat": 45.0637734,
      "lng": 7.6783251,
      "halalFriendly": false,
      "bookingUrl": "http://www.astoriahotel.it/",
      "source": "osm"
    },
    {
      "nom": "Hotel Alpi Resort",
      "categorie": "Hôtel",
      "priceRange": "€€€",
      "score": 3,
      "mapsUrl": "https://maps.google.com/?q=45.0632921,7.6947561",
      "lat": 45.0632921,
      "lng": 7.6947561,
      "halalFriendly": false,
      "bookingUrl": "http://www.hotelalpiresort.it/",
      "source": "osm"
    },
    {
      "nom": "Vittorio 21",
      "categorie": "Maison d'hôtes",
      "priceRange": "€€",
      "mapsUrl": "https://maps.google.com/?q=45.0647657,7.6968732",
      "lat": 45.0647657,
      "lng": 7.6968732,
      "halalFriendly": false,
      "bookingUrl": "https://maps.google.com/?q=45.0647657,7.6968732",
      "source": "osm"
    },
    {
      "nom": "Starhotel Majestic",
      "categorie": "Hôtel",
      "priceRange": "€€",
      "mapsUrl": "https://maps.google.com/?q=45.062405,7.6806488",
      "lat": 45.062405,
      "lng": 7.6806488,
      "halalFriendly": false,
      "bookingUrl": "https://maps.google.com/?q=45.062405,7.6806488",
      "source": "osm"
    },
    {
      "nom": "BED and Ex",
      "categorie": "Maison d'hôtes",
      "priceRange": "€€",
      "mapsUrl": "https://maps.google.com/?q=45.0688373,7.6996265",
      "lat": 45.0688373,
      "lng": 7.6996265,
      "halalFriendly": false,
      "bookingUrl": "https://www.bedandex.it/index.html",
      "source": "osm"
    },
    {
      "nom": "Hotel Bologna",
      "categorie": "Hôtel",
      "priceRange": "€€",
      "mapsUrl": "https://maps.google.com/?q=45.0635374,7.6776964",
      "lat": 45.0635374,
      "lng": 7.6776964,
      "halalFriendly": false,
      "bookingUrl": "https://hotelbolognasrl.it",
      "source": "osm"
    },
    {
      "nom": "La Siesta",
      "categorie": "Maison d'hôtes",
      "priceRange": "€€",
      "mapsUrl": "https://maps.google.com/?q=45.060937,7.6850635",
      "lat": 45.060937,
      "lng": 7.6850635,
      "halalFriendly": false,
      "bookingUrl": "https://maps.google.com/?q=45.060937,7.6850635",
      "source": "osm"
    },
    {
      "nom": "Hotel Genio",
      "categorie": "Hôtel",
      "priceRange": "€€",
      "mapsUrl": "https://maps.google.com/?q=45.0619142,7.6804686",
      "lat": 45.0619142,
      "lng": 7.6804686,
      "halalFriendly": false,
      "bookingUrl": "https://maps.google.com/?q=45.0619142,7.6804686",
      "source": "osm"
    },
    {
      "nom": "Pio V",
      "categorie": "Hôtel",
      "priceRange": "€",
      "score": 1,
      "mapsUrl": "https://maps.google.com/?q=45.0608073,7.6817845",
      "lat": 45.0608073,
      "lng": 7.6817845,
      "halalFriendly": false,
      "bookingUrl": "https://maps.google.com/?q=45.0608073,7.6817845",
      "source": "osm"
    },
    {
      "nom": "I Due Leoni",
      "categorie": "Appartement",
      "priceRange": "€€",
      "mapsUrl": "https://maps.google.com/?q=45.0612405,7.6800497",
      "lat": 45.0612405,
      "lng": 7.6800497,
      "halalFriendly": false,
      "bookingUrl": "https://maps.google.com/?q=45.0612405,7.6800497",
      "source": "osm"
    },
    {
      "nom": "Hotel Elena",
      "categorie": "Hôtel",
      "priceRange": "€",
      "score": 1,
      "mapsUrl": "https://maps.google.com/?q=45.0607137,7.6815828",
      "lat": 45.0607137,
      "lng": 7.6815828,
      "halalFriendly": false,
      "bookingUrl": "https://maps.google.com/?q=45.0607137,7.6815828",
      "source": "osm"
    },
    {
      "nom": "B&B Riverside Drive",
      "categorie": "Maison d'hôtes",
      "priceRange": "€€",
      "mapsUrl": "https://maps.google.com/?q=45.0676827,7.7012104",
      "lat": 45.0676827,
      "lng": 7.7012104,
      "halalFriendly": false,
      "bookingUrl": "http://www.torinoriverside.altervista.org/",
      "source": "osm"
    },
    {
      "nom": "Residence Ateneo",
      "categorie": "Maison d'hôtes",
      "priceRange": "€€",
      "mapsUrl": "https://maps.google.com/?q=45.0702243,7.7016928",
      "lat": 45.0702243,
      "lng": 7.7016928,
      "halalFriendly": false,
      "bookingUrl": "https://maps.google.com/?q=45.0702243,7.7016928",
      "source": "osm"
    },
    {
      "nom": "Hotel Urbani",
      "categorie": "Hôtel",
      "priceRange": "€€€",
      "score": 3,
      "mapsUrl": "https://maps.google.com/?q=45.06079,7.6799811",
      "lat": 45.06079,
      "lng": 7.6799811,
      "halalFriendly": false,
      "bookingUrl": "https://www.hotelurbani.it",
      "source": "osm"
    },
    {
      "nom": "Albergo Antico Distretto",
      "categorie": "Hôtel",
      "priceRange": "€€",
      "mapsUrl": "https://maps.google.com/?q=45.0769744,7.6749876",
      "lat": 45.0769744,
      "lng": 7.6749876,
      "halalFriendly": false,
      "bookingUrl": "https://www.anticodistretto.it/",
      "source": "osm"
    },
    {
      "nom": "TorinoToStay",
      "categorie": "Maison d'hôtes",
      "priceRange": "€€",
      "mapsUrl": "https://maps.google.com/?q=45.0624889,7.6764585",
      "lat": 45.0624889,
      "lng": 7.6764585,
      "halalFriendly": false,
      "bookingUrl": "https://www.torinotostay.it",
      "source": "osm"
    },
    {
      "nom": "Hotel Nizza",
      "categorie": "Hôtel",
      "priceRange": "€€€",
      "score": 3,
      "mapsUrl": "https://maps.google.com/?q=45.0608989,7.6793111",
      "lat": 45.0608989,
      "lng": 7.6793111,
      "halalFriendly": false,
      "bookingUrl": "http://www.hotelnizza.to.it/",
      "source": "osm"
    },
    {
      "nom": "Turin Palace",
      "categorie": "Hôtel",
      "priceRange": "€€",
      "mapsUrl": "https://maps.google.com/?q=45.0621406,7.6767292",
      "lat": 45.0621406,
      "lng": 7.6767292,
      "halalFriendly": false,
      "bookingUrl": "https://maps.google.com/?q=45.0621406,7.6767292",
      "source": "osm"
    },
    {
      "nom": "Lux",
      "categorie": "Hôtel",
      "priceRange": "€",
      "score": 1,
      "mapsUrl": "https://maps.google.com/?q=45.0600953,7.6813869",
      "lat": 45.0600953,
      "lng": 7.6813869,
      "halalFriendly": false,
      "bookingUrl": "https://maps.google.com/?q=45.0600953,7.6813869",
      "source": "osm"
    },
    {
      "nom": "Hotel Bellavista",
      "categorie": "Hôtel",
      "priceRange": "€",
      "score": 1,
      "mapsUrl": "https://maps.google.com/?q=45.0597997,7.6823248",
      "lat": 45.0597997,
      "lng": 7.6823248,
      "halalFriendly": false,
      "bookingUrl": "http://www.bellavista-torino.it/",
      "source": "osm"
    },
    {
      "nom": "Best Western Crystal Palace Hotel",
      "categorie": "Hôtel",
      "priceRange": "€€€€",
      "score": 4,
      "mapsUrl": "https://maps.google.com/?q=45.0607222,7.6791756",
      "lat": 45.0607222,
      "lng": 7.6791756,
      "halalFriendly": false,
      "bookingUrl": "https://www.hotelcrystalpalace.it",
      "source": "osm"
    },
    {
      "nom": "Hotel Abatjour",
      "categorie": "Hôtel",
      "priceRange": "€",
      "score": 1,
      "mapsUrl": "https://maps.google.com/?q=45.0593786,7.6835194",
      "lat": 45.0593786,
      "lng": 7.6835194,
      "halalFriendly": false,
      "bookingUrl": "https://maps.google.com/?q=45.0593786,7.6835194",
      "source": "osm"
    },
    {
      "nom": "Hotel della Mole resort",
      "categorie": "Hôtel",
      "priceRange": "€",
      "score": 1,
      "mapsUrl": "https://maps.google.com/?q=45.0593594,7.6826072",
      "lat": 45.0593594,
      "lng": 7.6826072,
      "halalFriendly": false,
      "bookingUrl": "https://maps.google.com/?q=45.0593594,7.6826072",
      "source": "osm"
    },
    {
      "nom": "Genova",
      "categorie": "Hôtel",
      "priceRange": "€€€",
      "score": 3,
      "mapsUrl": "https://maps.google.com/?q=45.0617057,7.6763898",
      "lat": 45.0617057,
      "lng": 7.6763898,
      "halalFriendly": false,
      "bookingUrl": "https://www.albergogenova.it/",
      "source": "osm"
    },
    {
      "nom": "Hotel Turin City Centre",
      "categorie": "Hôtel",
      "priceRange": "€€€€",
      "score": 4,
      "mapsUrl": "https://maps.google.com/?q=45.0618551,7.6760699",
      "lat": 45.0618551,
      "lng": 7.6760699,
      "halalFriendly": false,
      "bookingUrl": "https://maps.google.com/?q=45.0618551,7.6760699",
      "source": "osm"
    },
    {
      "nom": "Hotel Centro",
      "categorie": "Hôtel",
      "priceRange": "€€€",
      "score": 3,
      "mapsUrl": "https://maps.google.com/?q=45.0592146,7.6825079",
      "lat": 45.0592146,
      "lng": 7.6825079,
      "halalFriendly": false,
      "bookingUrl": "https://maps.google.com/?q=45.0592146,7.6825079",
      "source": "osm"
    },
    {
      "nom": "Romano",
      "categorie": "Hôtel",
      "priceRange": "€€",
      "mapsUrl": "https://maps.google.com/?q=45.060132,7.678805",
      "lat": 45.060132,
      "lng": 7.678805,
      "halalFriendly": false,
      "bookingUrl": "https://maps.google.com/?q=45.060132,7.678805",
      "source": "osm"
    },
    {
      "nom": "Hotel Torinese",
      "categorie": "Hôtel",
      "priceRange": "€€€",
      "score": 3,
      "mapsUrl": "https://maps.google.com/?q=45.0589284,7.6818028",
      "lat": 45.0589284,
      "lng": 7.6818028,
      "halalFriendly": false,
      "bookingUrl": "https://maps.google.com/?q=45.0589284,7.6818028",
      "source": "osm"
    },
    {
      "nom": "Hotel Luxor",
      "categorie": "Hôtel",
      "priceRange": "€€€",
      "score": 3,
      "mapsUrl": "https://maps.google.com/?q=45.0613588,7.67431",
      "lat": 45.0613588,
      "lng": 7.67431,
      "halalFriendly": false,
      "bookingUrl": "https://www.hoteluxor.it/",
      "source": "osm"
    },
    {
      "nom": "Hotel Diplomatic",
      "categorie": "Hôtel",
      "priceRange": "€€€€",
      "score": 4,
      "mapsUrl": "https://maps.google.com/?q=45.0734243,7.6695012",
      "lat": 45.0734243,
      "lng": 7.6695012,
      "halalFriendly": false,
      "bookingUrl": "https://www.hotel-diplomatic.it/",
      "source": "osm"
    },
    {
      "nom": "Tomato backpackers hotel",
      "categorie": "Auberge",
      "priceRange": "€€",
      "score": 2,
      "mapsUrl": "https://maps.google.com/?q=45.0579233,7.682449",
      "lat": 45.0579233,
      "lng": 7.682449,
      "halalFriendly": false,
      "bookingUrl": "https://www.tomato.to.it/",
      "source": "osm"
    },
    {
      "nom": "Hotel Italia",
      "categorie": "Hôtel",
      "priceRange": "€€€",
      "score": 3,
      "mapsUrl": "https://maps.google.com/?q=45.0616179,7.6736184",
      "lat": 45.0616179,
      "lng": 7.6736184,
      "halalFriendly": false,
      "bookingUrl": "https://www.hotelitaliatorino.it",
      "source": "osm"
    },
    {
      "nom": "Dock Milano Hotel",
      "categorie": "Hôtel",
      "priceRange": "€€€",
      "score": 3,
      "mapsUrl": "https://maps.google.com/?q=45.0735814,7.6688261",
      "lat": 45.0735814,
      "lng": 7.6688261,
      "halalFriendly": false,
      "bookingUrl": "https://www.hoteldockmilano.it/",
      "source": "osm"
    },
    {
      "nom": "Hotel Torino Porta Susa",
      "categorie": "Hôtel",
      "priceRange": "€",
      "score": 1,
      "mapsUrl": "https://maps.google.com/?q=45.0752555,7.669398",
      "lat": 45.0752555,
      "lng": 7.669398,
      "halalFriendly": false,
      "bookingUrl": "https://maps.google.com/?q=45.0752555,7.669398",
      "source": "osm"
    },
    {
      "nom": "Maison Saluzzo",
      "categorie": "Maison d'hôtes",
      "priceRange": "€€",
      "mapsUrl": "https://maps.google.com/?q=45.058075,7.6784054",
      "lat": 45.058075,
      "lng": 7.6784054,
      "halalFriendly": false,
      "bookingUrl": "https://maps.google.com/?q=45.058075,7.6784054",
      "source": "osm"
    },
    {
      "nom": "Belfiore loft",
      "categorie": "Appartement",
      "priceRange": "€€",
      "mapsUrl": "https://maps.google.com/?q=45.0576853,7.679359",
      "lat": 45.0576853,
      "lng": 7.679359,
      "halalFriendly": false,
      "bookingUrl": "https://maps.google.com/?q=45.0576853,7.679359",
      "source": "osm"
    },
    {
      "nom": "Montevecchio",
      "categorie": "Hôtel",
      "priceRange": "€€",
      "mapsUrl": "https://maps.google.com/?q=45.0607202,7.6728533",
      "lat": 45.0607202,
      "lng": 7.6728533,
      "halalFriendly": false,
      "bookingUrl": "https://maps.google.com/?q=45.0607202,7.6728533",
      "source": "osm"
    },
    {
      "nom": "Residence \"Sacchi\"",
      "categorie": "Hôtel",
      "priceRange": "€€",
      "mapsUrl": "https://maps.google.com/?q=45.0587735,7.6743462",
      "lat": 45.0587735,
      "lng": 7.6743462,
      "halalFriendly": false,
      "bookingUrl": "https://maps.google.com/?q=45.0587735,7.6743462",
      "source": "osm"
    },
    {
      "nom": "Best Western Hotel Crimea",
      "categorie": "Hôtel",
      "priceRange": "€€",
      "mapsUrl": "https://maps.google.com/?q=45.0564149,7.6947972",
      "lat": 45.0564149,
      "lng": 7.6947972,
      "halalFriendly": false,
      "bookingUrl": "https://www.hotelcrimea.it/",
      "source": "osm"
    },
    {
      "nom": "Hotel Residence Torino Centro",
      "categorie": "Hôtel",
      "priceRange": "€€",
      "score": null,
      "mapsUrl": "https://maps.google.com/?q=45.0736973,7.6659936",
      "lat": 45.0736973,
      "lng": 7.6659936,
      "halalFriendly": false,
      "bookingUrl": "https://www.hoteltorinocentro.it",
      "source": "osm"
    },
    {
      "nom": "Balbis Choco Rooms",
      "categorie": "Maison d'hôtes",
      "priceRange": "€€",
      "mapsUrl": "https://maps.google.com/?q=45.0797868,7.6701539",
      "lat": 45.0797868,
      "lng": 7.6701539,
      "halalFriendly": false,
      "bookingUrl": "https://hotelsitalian.com/",
      "source": "osm"
    },
    {
      "nom": "NH Torino Centro",
      "categorie": "Hôtel",
      "priceRange": "€€",
      "mapsUrl": "https://maps.google.com/?q=45.067942,7.6653384",
      "lat": 45.067942,
      "lng": 7.6653384,
      "halalFriendly": false,
      "bookingUrl": "https://www.nh-hotels.com/hotel/nh-torino-centro",
      "source": "osm"
    },
    {
      "nom": "B&B La Casa di Born in Turin",
      "categorie": "Hôtel",
      "priceRange": "€€",
      "mapsUrl": "https://maps.google.com/?q=45.0858928,7.6902702",
      "lat": 45.0858928,
      "lng": 7.6902702,
      "halalFriendly": false,
      "bookingUrl": "https://maps.google.com/?q=45.0858928,7.6902702",
      "source": "osm"
    },
    {
      "nom": "CX",
      "categorie": "Hôtel",
      "priceRange": "€€",
      "mapsUrl": "https://maps.google.com/?q=45.0554368,7.6790027",
      "lat": 45.0554368,
      "lng": 7.6790027,
      "halalFriendly": false,
      "bookingUrl": "https://maps.google.com/?q=45.0554368,7.6790027",
      "source": "osm"
    },
    {
      "nom": "Hotel Orchidea",
      "categorie": "Hôtel",
      "priceRange": "€€€",
      "score": 3,
      "mapsUrl": "https://maps.google.com/?q=45.0735801,7.6644545",
      "lat": 45.0735801,
      "lng": 7.6644545,
      "halalFriendly": false,
      "bookingUrl": "https://maps.google.com/?q=45.0735801,7.6644545",
      "source": "osm"
    },
    {
      "nom": "Star Residence",
      "categorie": "Appartement",
      "priceRange": "€€",
      "mapsUrl": "https://maps.google.com/?q=45.0722946,7.6636761",
      "lat": 45.0722946,
      "lng": 7.6636761,
      "halalFriendly": false,
      "bookingUrl": "https://residencestar.com/ita/residence-torino.php",
      "source": "osm"
    },
    {
      "nom": "Residence Nizza",
      "categorie": "Hôtel",
      "priceRange": "€€",
      "mapsUrl": "https://maps.google.com/?q=45.0556462,7.6759784",
      "lat": 45.0556462,
      "lng": 7.6759784,
      "halalFriendly": false,
      "bookingUrl": "https://maps.google.com/?q=45.0556462,7.6759784",
      "source": "osm"
    },
    {
      "nom": "Best Western Plus Executive Hotel",
      "categorie": "Hôtel",
      "priceRange": "€€",
      "mapsUrl": "https://maps.google.com/?q=45.055358,7.6758077",
      "lat": 45.055358,
      "lng": 7.6758077,
      "halalFriendly": false,
      "bookingUrl": "https://maps.google.com/?q=45.055358,7.6758077",
      "source": "osm"
    },
    {
      "nom": "Eco Art Hotel Statuto",
      "categorie": "Hôtel",
      "priceRange": "€€",
      "mapsUrl": "https://maps.google.com/?q=45.0758029,7.6642981",
      "lat": 45.0758029,
      "lng": 7.6642981,
      "halalFriendly": false,
      "bookingUrl": "https://www.ecoarthotel.it/",
      "source": "osm"
    },
    {
      "nom": "Pacific Hotel Fortino",
      "categorie": "Hôtel",
      "priceRange": "€€",
      "mapsUrl": "https://maps.google.com/?q=45.0860175,7.677836",
      "lat": 45.0860175,
      "lng": 7.677836,
      "halalFriendly": false,
      "bookingUrl": "https://maps.google.com/?q=45.0860175,7.677836",
      "source": "osm"
    },
    {
      "nom": "Berru",
      "categorie": "Appartement",
      "priceRange": "€€",
      "mapsUrl": "https://maps.google.com/?q=45.0875142,7.6881135",
      "lat": 45.0875142,
      "lng": 7.6881135,
      "halalFriendly": false,
      "bookingUrl": "https://maps.google.com/?q=45.0875142,7.6881135",
      "source": "osm"
    },
    {
      "nom": "Hotel Principi d'Acaja",
      "categorie": "Hôtel",
      "priceRange": "€€€",
      "score": 3,
      "mapsUrl": "https://maps.google.com/?q=45.0771754,7.6643238",
      "lat": 45.0771754,
      "lng": 7.6643238,
      "halalFriendly": false,
      "bookingUrl": "https://www.hotelprincipidacaja.com/",
      "source": "osm"
    },
    {
      "nom": "Bamboo Eco Hostel",
      "categorie": "Auberge",
      "priceRange": "€€",
      "mapsUrl": "https://maps.google.com/?q=45.0871678,7.6933193",
      "lat": 45.0871678,
      "lng": 7.6933193,
      "halalFriendly": false,
      "bookingUrl": "http://www.bambooecohostel.it/",
      "source": "osm"
    },
    {
      "nom": "Rey",
      "categorie": "Hôtel",
      "priceRange": "€€",
      "score": 2,
      "mapsUrl": "https://maps.google.com/?q=45.0877586,7.6903298",
      "lat": 45.0877586,
      "lng": 7.6903298,
      "halalFriendly": false,
      "bookingUrl": "https://www.hotelreytorino.it",
      "source": "osm"
    },
    {
      "nom": "Sport residence",
      "categorie": "Hôtel",
      "priceRange": "€€",
      "mapsUrl": "https://maps.google.com/?q=45.054256,7.6759185",
      "lat": 45.054256,
      "lng": 7.6759185,
      "halalFriendly": false,
      "bookingUrl": "https://maps.google.com/?q=45.054256,7.6759185",
      "source": "osm"
    },
    {
      "nom": "Art Hotel Boston",
      "categorie": "Hôtel",
      "priceRange": "€€€€",
      "score": 4,
      "mapsUrl": "https://maps.google.com/?q=45.0561537,7.6693302",
      "lat": 45.0561537,
      "lng": 7.6693302,
      "halalFriendly": false,
      "bookingUrl": "https://www.hotelbostontorino.it",
      "source": "osm"
    },
    {
      "nom": "A Casa Romar",
      "categorie": "Hôtel",
      "priceRange": "€€",
      "mapsUrl": "https://maps.google.com/?q=45.0729453,7.7139285",
      "lat": 45.0729453,
      "lng": 7.7139285,
      "halalFriendly": false,
      "bookingUrl": "https://www.casaromar.it/",
      "source": "osm"
    },
    {
      "nom": "Lancaster",
      "categorie": "Hôtel",
      "priceRange": "€€€€",
      "score": 4,
      "mapsUrl": "https://maps.google.com/?q=45.0545271,7.6704948",
      "lat": 45.0545271,
      "lng": 7.6704948,
      "halalFriendly": false,
      "bookingUrl": "https://www.lancaster.it",
      "source": "osm"
    },
    {
      "nom": "B&B Hotel President",
      "categorie": "Hôtel",
      "priceRange": "€€",
      "mapsUrl": "https://maps.google.com/?q=45.0893127,7.6785718",
      "lat": 45.0893127,
      "lng": 7.6785718,
      "halalFriendly": false,
      "bookingUrl": "https://maps.google.com/?q=45.0893127,7.6785718",
      "source": "osm"
    },
    {
      "nom": "Principe di Torino",
      "categorie": "Hôtel",
      "priceRange": "€€",
      "mapsUrl": "https://maps.google.com/?q=45.0501315,7.6885009",
      "lat": 45.0501315,
      "lng": 7.6885009,
      "halalFriendly": false,
      "bookingUrl": "https://maps.google.com/?q=45.0501315,7.6885009",
      "source": "osm"
    },
    {
      "nom": "Eden",
      "categorie": "Hôtel",
      "priceRange": "€€",
      "score": 2,
      "mapsUrl": "https://maps.google.com/?q=45.049767,7.6779393",
      "lat": 45.049767,
      "lng": 7.6779393,
      "halalFriendly": false,
      "bookingUrl": "https://www.hoteledentorino.it/",
      "source": "osm"
    },
    {
      "nom": "Camplus Bernini",
      "categorie": "Hôtel",
      "priceRange": "€€",
      "mapsUrl": "https://maps.google.com/?q=45.0739009,7.6553623",
      "lat": 45.0739009,
      "lng": 7.6553623,
      "halalFriendly": false,
      "bookingUrl": "https://maps.google.com/?q=45.0739009,7.6553623",
      "source": "osm"
    },
    {
      "nom": "Imperial",
      "categorie": "Hôtel",
      "priceRange": "€€€",
      "score": 3,
      "mapsUrl": "https://maps.google.com/?q=45.0834443,7.6607383",
      "lat": 45.0834443,
      "lng": 7.6607383,
      "halalFriendly": false,
      "bookingUrl": "https://www.hotelimperialtorino.com",
      "source": "osm"
    },
    {
      "nom": "open 011",
      "categorie": "Auberge",
      "priceRange": "€€",
      "mapsUrl": "https://maps.google.com/?q=45.092679,7.6794252",
      "lat": 45.092679,
      "lng": 7.6794252,
      "halalFriendly": false,
      "bookingUrl": "https://keluar.it/site/gestioni/open011/",
      "source": "osm"
    },
    {
      "nom": "Duparc Suites",
      "categorie": "Appartement",
      "priceRange": "€€",
      "mapsUrl": "https://maps.google.com/?q=45.0476984,7.679902",
      "lat": 45.0476984,
      "lng": 7.679902,
      "halalFriendly": false,
      "bookingUrl": "https://www.duparcsuites.com/",
      "source": "osm"
    },
    {
      "nom": "Hotel Lo Squalo",
      "categorie": "Hôtel",
      "priceRange": "€€€",
      "score": 3,
      "mapsUrl": "https://maps.google.com/?q=45.0933672,7.6905985",
      "lat": 45.0933672,
      "lng": 7.6905985,
      "halalFriendly": false,
      "bookingUrl": "https://maps.google.com/?q=45.0933672,7.6905985",
      "source": "osm"
    },
    {
      "nom": "Hotel Ferrucci",
      "categorie": "Hôtel",
      "priceRange": "€€€",
      "score": 3,
      "mapsUrl": "https://maps.google.com/?q=45.065176,7.6545352",
      "lat": 45.065176,
      "lng": 7.6545352,
      "halalFriendly": false,
      "bookingUrl": "https://maps.google.com/?q=45.065176,7.6545352",
      "source": "osm"
    },
    {
      "nom": "Don Chisciotte",
      "categorie": "Hôtel",
      "priceRange": "€",
      "score": 1,
      "mapsUrl": "https://maps.google.com/?q=45.0937403,7.6949019",
      "lat": 45.0937403,
      "lng": 7.6949019,
      "halalFriendly": false,
      "bookingUrl": "https://maps.google.com/?q=45.0937403,7.6949019",
      "source": "osm"
    },
    {
      "nom": "Residence L'Orologio",
      "categorie": "Hôtel",
      "priceRange": "€€",
      "mapsUrl": "https://maps.google.com/?q=45.0553571,7.6594823",
      "lat": 45.0553571,
      "lng": 7.6594823,
      "halalFriendly": false,
      "bookingUrl": "https://www.orologio-residence.com/",
      "source": "osm"
    },
    {
      "nom": "Best Quality Hotel Politecnico",
      "categorie": "Hôtel",
      "priceRange": "€€",
      "mapsUrl": "https://maps.google.com/?q=45.0616826,7.6542912",
      "lat": 45.0616826,
      "lng": 7.6542912,
      "halalFriendly": false,
      "bookingUrl": "https://www.politecnico.bqhotel.it/",
      "source": "osm"
    },
    {
      "nom": "Art'Tò B&B",
      "categorie": "Maison d'hôtes",
      "priceRange": "€€",
      "mapsUrl": "https://maps.google.com/?q=45.0506094,7.6645838",
      "lat": 45.0506094,
      "lng": 7.6645838,
      "halalFriendly": false,
      "bookingUrl": "http://www.art-to.it/",
      "source": "osm"
    },
    {
      "nom": "Tourist",
      "categorie": "Hôtel",
      "priceRange": "€€€",
      "score": 3,
      "mapsUrl": "https://maps.google.com/?q=45.0762335,7.6519464",
      "lat": 45.0762335,
      "lng": 7.6519464,
      "halalFriendly": false,
      "bookingUrl": "https://maps.google.com/?q=45.0762335,7.6519464",
      "source": "osm"
    },
    {
      "nom": "Qualys Hotel Royal",
      "categorie": "Hôtel",
      "priceRange": "€€€€",
      "score": 4,
      "mapsUrl": "https://maps.google.com/?q=45.0851521,7.6572603",
      "lat": 45.0851521,
      "lng": 7.6572603,
      "halalFriendly": false,
      "bookingUrl": "https://www.hotelroyaltorino.it",
      "source": "osm"
    },
    {
      "nom": "Hotel Plaza",
      "categorie": "Hôtel",
      "priceRange": "€€€",
      "score": 3,
      "mapsUrl": "https://maps.google.com/?q=45.0462124,7.6730865",
      "lat": 45.0462124,
      "lng": 7.6730865,
      "halalFriendly": false,
      "bookingUrl": "https://maps.google.com/?q=45.0462124,7.6730865",
      "source": "osm"
    },
    {
      "nom": "Hotel Valentino du Parc",
      "categorie": "Hôtel",
      "priceRange": "€€€€",
      "score": 4,
      "mapsUrl": "https://maps.google.com/?q=45.0457005,7.6750179",
      "lat": 45.0457005,
      "lng": 7.6750179,
      "halalFriendly": false,
      "bookingUrl": "https://maps.google.com/?q=45.0457005,7.6750179",
      "source": "osm"
    },
    {
      "nom": "Hotel Universo",
      "categorie": "Hôtel",
      "priceRange": "€€",
      "mapsUrl": "https://maps.google.com/?q=45.0644424,7.6507014",
      "lat": 45.0644424,
      "lng": 7.6507014,
      "halalFriendly": false,
      "bookingUrl": "https://www.universohotel.it/",
      "source": "osm"
    },
    {
      "nom": "Casa Ex Allievi Salesiani In Famiglia",
      "categorie": "Hôtel",
      "priceRange": "€",
      "score": 1,
      "mapsUrl": "https://maps.google.com/?q=45.0684977,7.6487117",
      "lat": 45.0684977,
      "lng": 7.6487117,
      "halalFriendly": false,
      "bookingUrl": "https://maps.google.com/?q=45.0684977,7.6487117",
      "source": "osm"
    },
    {
      "nom": "Art Hotel Olympic",
      "categorie": "Hôtel",
      "priceRange": "€€",
      "mapsUrl": "https://maps.google.com/?q=45.0947801,7.6704126",
      "lat": 45.0947801,
      "lng": 7.6704126,
      "halalFriendly": false,
      "bookingUrl": "https://www.arthotelolympic.com/",
      "source": "osm"
    },
    {
      "nom": "Casa Ganci",
      "categorie": "Auberge",
      "priceRange": "€€",
      "mapsUrl": "https://maps.google.com/?q=45.0569107,7.6519338",
      "lat": 45.0569107,
      "lng": 7.6519338,
      "halalFriendly": false,
      "bookingUrl": "https://casaganci.it/",
      "source": "osm"
    },
    {
      "nom": "Torino Loft",
      "categorie": "Hôtel",
      "priceRange": "€€",
      "mapsUrl": "https://maps.google.com/?q=45.088601,7.6566943",
      "lat": 45.088601,
      "lng": 7.6566943,
      "halalFriendly": false,
      "bookingUrl": "https://www.torinoloft.com/",
      "source": "osm"
    },
    {
      "nom": "Turin Metro Young",
      "categorie": "Auberge",
      "priceRange": "€€",
      "mapsUrl": "https://maps.google.com/?q=45.0772234,7.6466296",
      "lat": 45.0772234,
      "lng": 7.6466296,
      "halalFriendly": false,
      "bookingUrl": "https://maps.google.com/?q=45.0772234,7.6466296",
      "source": "osm"
    },
    {
      "nom": "Ozanam House - Collegio Universitario e Ostello;Hostel",
      "categorie": "Auberge",
      "priceRange": "€€",
      "mapsUrl": "https://maps.google.com/?q=45.0973988,7.6696591",
      "lat": 45.0973988,
      "lng": 7.6696591,
      "halalFriendly": false,
      "bookingUrl": "https://www.meeting-service.it/ozanam-house/",
      "source": "osm"
    },
    {
      "nom": "Continental Hotel",
      "categorie": "Hôtel",
      "priceRange": "€€€",
      "score": 3,
      "mapsUrl": "https://maps.google.com/?q=45.0421168,7.6723619",
      "lat": 45.0421168,
      "lng": 7.6723619,
      "halalFriendly": false,
      "bookingUrl": "https://maps.google.com/?q=45.0421168,7.6723619",
      "source": "osm"
    },
    {
      "nom": "Parco Sassi Hotel",
      "categorie": "Hôtel",
      "priceRange": "€€€",
      "score": 3,
      "mapsUrl": "https://maps.google.com/?q=45.0787454,7.7280048",
      "lat": 45.0787454,
      "lng": 7.7280048,
      "halalFriendly": false,
      "bookingUrl": "https://maps.google.com/?q=45.0787454,7.7280048",
      "source": "osm"
    },
    {
      "nom": "Hotel Smeraldo",
      "categorie": "Hôtel",
      "priceRange": "€€",
      "mapsUrl": "https://maps.google.com/?q=45.0416413,7.6714791",
      "lat": 45.0416413,
      "lng": 7.6714791,
      "halalFriendly": false,
      "bookingUrl": "http://www.hotelsmeraldotorino.it",
      "source": "osm"
    }
  ],
  "mosqueesPrincipales": [
    {
      "id": "m179479920",
      "nom": "Cappella della Sindone",
      "type": "Mosquée",
      "adresse": "",
      "description": "Lieu de prière (OpenStreetMap).",
      "mapsUrl": "https://maps.google.com/?q=45.0731922,7.6858641",
      "lat": 45.0731922,
      "lng": 7.6858641,
      "source": "osm"
    },
    {
      "id": "m110679251",
      "nom": "Cattedrale di San Giovanni Battista",
      "type": "Mosquée",
      "adresse": "Piazza San Giovanni, Torino",
      "description": "Lieu de prière (OpenStreetMap).",
      "mapsUrl": "https://maps.google.com/?q=45.0733222,7.6854092",
      "lat": 45.0733222,
      "lng": 7.6854092,
      "source": "osm"
    },
    {
      "id": "m256484072",
      "nom": "Moschea \"As-Salam\"",
      "type": "Mosquée",
      "adresse": "Corso Giulio Cesare",
      "description": "Lieu de prière (OpenStreetMap).",
      "mapsUrl": "https://maps.google.com/?q=45.0785258,7.6855474",
      "lat": 45.0785258,
      "lng": 7.6855474,
      "source": "osm"
    },
    {
      "id": "m319283193",
      "nom": "Santuario della Consolata",
      "type": "Mosquée",
      "adresse": "Piazza della Consolata, Torino",
      "description": "Lieu de prière (OpenStreetMap).",
      "mapsUrl": "https://maps.google.com/?q=45.076715,7.6790871",
      "lat": 45.076715,
      "lng": 7.6790871,
      "source": "osm"
    },
    {
      "id": "m515714256",
      "nom": "Chiesa della Gran Madre di Dio",
      "type": "Mosquée",
      "adresse": "",
      "description": "Lieu de prière (OpenStreetMap).",
      "mapsUrl": "https://maps.google.com/?q=45.0623875,7.6991137",
      "lat": 45.0623875,
      "lng": 7.6991137,
      "source": "osm"
    },
    {
      "id": "m190824630",
      "nom": "Moschea Omar Ibn-Al Khattab",
      "type": "Mosquée",
      "adresse": "Via Saluzzo",
      "description": "Lieu de prière (OpenStreetMap).",
      "mapsUrl": "https://maps.google.com/?q=45.0595384,7.6787576",
      "lat": 45.0595384,
      "lng": 7.6787576,
      "source": "osm"
    },
    {
      "id": "m25298271",
      "nom": "Basilica di Maria Ausiliatrice",
      "type": "Mosquée",
      "adresse": "Via Maria Ausiliatrice, Torino",
      "description": "Lieu de prière (OpenStreetMap).",
      "mapsUrl": "https://maps.google.com/?q=45.0811161,7.676037",
      "lat": 45.0811161,
      "lng": 7.676037,
      "source": "osm"
    },
    {
      "id": "m6930057218",
      "nom": "Moschea La Palma",
      "type": "Mosquée",
      "adresse": "",
      "description": "Lieu de prière (OpenStreetMap).",
      "mapsUrl": "https://maps.google.com/?q=45.0862026,7.6669279",
      "lat": 45.0862026,
      "lng": 7.6669279,
      "source": "osm"
    },
    {
      "id": "m2375940698",
      "nom": "Moschea di Mohammed IV",
      "type": "Mosquée",
      "adresse": "Via Genova, Torino",
      "description": "Lieu de prière (OpenStreetMap).",
      "mapsUrl": "https://maps.google.com/?q=45.0167057,7.6628866",
      "lat": 45.0167057,
      "lng": 7.6628866,
      "source": "osm"
    },
    {
      "id": "m5910079717",
      "nom": "Moschea Al-Ikhlas",
      "type": "Mosquée",
      "adresse": "Strada delle Cacce, Torino",
      "description": "Lieu de prière (OpenStreetMap).",
      "mapsUrl": "https://maps.google.com/?q=45.0199861,7.6389918",
      "lat": 45.0199861,
      "lng": 7.6389918,
      "source": "osm"
    }
  ],
  "activites": [
    {
      "id": "a3338030292",
      "nom": "Odissea musicale",
      "categorie": "artwork",
      "description": "",
      "prix": "",
      "duree": "",
      "mapsUrl": "https://maps.google.com/?q=45.070692,7.687431",
      "lat": 45.070692,
      "lng": 7.687431,
      "source": "osm"
    },
    {
      "id": "a110680297",
      "nom": "Emanuele Filiberto Duca d'Aosta",
      "categorie": "monument",
      "description": "",
      "prix": "",
      "duree": "",
      "mapsUrl": "https://maps.google.com/?q=45.0707271,7.6864134",
      "lat": 45.0707271,
      "lng": 7.6864134,
      "source": "osm"
    },
    {
      "id": "a111499553",
      "nom": "Teatro Regio",
      "categorie": "attraction",
      "description": "",
      "prix": "",
      "duree": "",
      "mapsUrl": "https://maps.google.com/?q=45.0705843,7.6879492",
      "lat": 45.0705843,
      "lng": 7.6879492,
      "source": "osm"
    },
    {
      "id": "a110680295",
      "nom": "Ai Cavalieri d'Italia",
      "categorie": "monument",
      "description": "",
      "prix": "",
      "duree": "",
      "mapsUrl": "https://maps.google.com/?q=45.0705974,7.6856631",
      "lat": 45.0705974,
      "lng": 7.6856631,
      "source": "osm"
    },
    {
      "id": "a2177769729",
      "nom": "Museo Civico d'Arte Antica",
      "categorie": "museum",
      "description": "",
      "prix": "",
      "duree": "",
      "mapsUrl": "https://maps.google.com/?q=45.0710538,7.6856008",
      "lat": 45.0710538,
      "lng": 7.6856008,
      "source": "osm"
    },
    {
      "id": "a9081704166",
      "nom": "Federico Nietzsche",
      "categorie": "memorial",
      "description": "",
      "prix": "",
      "duree": "",
      "mapsUrl": "https://maps.google.com/?q=45.0691006,7.6865857",
      "lat": 45.0691006,
      "lng": 7.6865857,
      "source": "osm"
    },
    {
      "id": "a110680298",
      "nom": "Alfiere dell'Esercito Sardo",
      "categorie": "monument",
      "description": "",
      "prix": "",
      "duree": "",
      "mapsUrl": "https://maps.google.com/?q=45.0711534,7.6852738",
      "lat": 45.0711534,
      "lng": 7.6852738,
      "source": "osm"
    },
    {
      "id": "a6432836094",
      "nom": "Palazzo Carignano",
      "categorie": "museum",
      "description": "",
      "prix": "",
      "duree": "",
      "mapsUrl": "https://maps.google.com/?q=45.0692057,7.6854483",
      "lat": 45.0692057,
      "lng": 7.6854483,
      "source": "osm"
    },
    {
      "id": "a3256309378",
      "nom": "Lo sbarco",
      "categorie": "artwork",
      "description": "",
      "prix": "",
      "duree": "",
      "mapsUrl": "https://maps.google.com/?q=45.0694184,7.6888981",
      "lat": 45.0694184,
      "lng": 7.6888981,
      "source": "osm"
    },
    {
      "id": "a1123787857",
      "nom": "Carlo Alberto",
      "categorie": "memorial",
      "description": "",
      "prix": "",
      "duree": "",
      "mapsUrl": "https://maps.google.com/?q=45.0686725,7.6863212",
      "lat": 45.0686725,
      "lng": 7.6863212,
      "source": "osm"
    },
    {
      "id": "a246643344",
      "nom": "Museo nazionale del Risorgimento italiano",
      "categorie": "museum",
      "description": "",
      "prix": "",
      "duree": "",
      "mapsUrl": "https://maps.google.com/?q=45.0687565,7.685877",
      "lat": 45.0687565,
      "lng": 7.685877,
      "source": "osm"
    },
    {
      "id": "a3337444266",
      "nom": "Minerva",
      "categorie": "artwork",
      "description": "",
      "prix": "",
      "duree": "",
      "mapsUrl": "https://maps.google.com/?q=45.0693666,7.689048",
      "lat": 45.0693666,
      "lng": 7.689048,
      "source": "osm"
    },
    {
      "id": "a191212312",
      "nom": "Vincenzo Gioberti",
      "categorie": "monument",
      "description": "",
      "prix": "",
      "duree": "",
      "mapsUrl": "https://maps.google.com/?q=45.0692301,7.684877",
      "lat": 45.0692301,
      "lng": 7.684877,
      "source": "osm"
    },
    {
      "id": "a3337486061",
      "nom": "Polluce",
      "categorie": "artwork",
      "description": "",
      "prix": "",
      "duree": "",
      "mapsUrl": "https://maps.google.com/?q=45.0718893,7.6856939",
      "lat": 45.0718893,
      "lng": 7.6856939,
      "source": "osm"
    },
    {
      "id": "a3340114692",
      "nom": "Giardino di fiori selvatici",
      "categorie": "artwork",
      "description": "",
      "prix": "",
      "duree": "",
      "mapsUrl": "https://maps.google.com/?q=45.0708067,7.6894924",
      "lat": 45.0708067,
      "lng": 7.6894924,
      "source": "osm"
    },
    {
      "id": "a248771289",
      "nom": "Armeria Reale",
      "categorie": "museum",
      "description": "",
      "prix": "",
      "duree": "",
      "mapsUrl": "https://maps.google.com/?q=45.0721817,7.686512",
      "lat": 45.0721817,
      "lng": 7.686512,
      "source": "osm"
    },
    {
      "id": "a3340154622",
      "nom": "JVC Newport Jazz Festival",
      "categorie": "artwork",
      "description": "",
      "prix": "",
      "duree": "",
      "mapsUrl": "https://maps.google.com/?q=45.0713659,7.6891563",
      "lat": 45.0713659,
      "lng": 7.6891563,
      "source": "osm"
    },
    {
      "id": "a3337487584",
      "nom": "Castore",
      "categorie": "artwork",
      "description": "",
      "prix": "",
      "duree": "",
      "mapsUrl": "https://maps.google.com/?q=45.0719542,7.6854955",
      "lat": 45.0719542,
      "lng": 7.6854955,
      "source": "osm"
    },
    {
      "id": "a3340154634",
      "nom": "Centenario del Cinema",
      "categorie": "artwork",
      "description": "",
      "prix": "",
      "duree": "",
      "mapsUrl": "https://maps.google.com/?q=45.0713228,7.6892598",
      "lat": 45.0713228,
      "lng": 7.6892598,
      "source": "osm"
    },
    {
      "id": "a10594120594",
      "nom": "Giulio Regeni",
      "categorie": "memorial",
      "description": "",
      "prix": "",
      "duree": "",
      "mapsUrl": "https://maps.google.com/?q=45.068718,7.6845241",
      "lat": 45.068718,
      "lng": 7.6845241,
      "source": "osm"
    },
    {
      "id": "a6851298090",
      "nom": "Papiri",
      "categorie": "artwork",
      "description": "",
      "prix": "",
      "duree": "",
      "mapsUrl": "https://maps.google.com/?q=45.0687474,7.6844832",
      "lat": 45.0687474,
      "lng": 7.6844832,
      "source": "osm"
    },
    {
      "id": "a6851367487",
      "nom": "Capitello papiriforme con fiori di loto",
      "categorie": "artwork",
      "description": "",
      "prix": "",
      "duree": "",
      "mapsUrl": "https://maps.google.com/?q=45.0687004,7.6845",
      "lat": 45.0687004,
      "lng": 7.6845,
      "source": "osm"
    },
    {
      "id": "a6851298092",
      "nom": "Resti mura",
      "categorie": "artwork",
      "description": "",
      "prix": "",
      "duree": "",
      "mapsUrl": "https://maps.google.com/?q=45.0688219,7.6842855",
      "lat": 45.0688219,
      "lng": 7.6842855,
      "source": "osm"
    },
    {
      "id": "a3363502193",
      "nom": "Cavallerizza Reale",
      "categorie": "attraction",
      "description": "",
      "prix": "",
      "duree": "",
      "mapsUrl": "https://maps.google.com/?q=45.0698221,7.6902547",
      "lat": 45.0698221,
      "lng": 7.6902547,
      "source": "osm"
    },
    {
      "id": "a6851367694",
      "nom": "Statua di Seti II",
      "categorie": "artwork",
      "description": "",
      "prix": "",
      "duree": "",
      "mapsUrl": "https://maps.google.com/?q=45.0688368,7.6841405",
      "lat": 45.0688368,
      "lng": 7.6841405,
      "source": "osm"
    },
    {
      "id": "a7234869439",
      "nom": "Michele Valabrega",
      "categorie": "memorial",
      "description": "",
      "prix": "",
      "duree": "",
      "mapsUrl": "https://maps.google.com/?q=45.068668,7.6896223",
      "lat": 45.068668,
      "lng": 7.6896223,
      "source": "osm"
    },
    {
      "id": "a7234869438",
      "nom": "Stella Valabrega",
      "categorie": "memorial",
      "description": "",
      "prix": "",
      "duree": "",
      "mapsUrl": "https://maps.google.com/?q=45.0686665,7.6896242",
      "lat": 45.0686665,
      "lng": 7.6896242,
      "source": "osm"
    },
    {
      "id": "a7234869437",
      "nom": "Maria Irene Roscetti",
      "categorie": "memorial",
      "description": "",
      "prix": "",
      "duree": "",
      "mapsUrl": "https://maps.google.com/?q=45.0686652,7.6896262",
      "lat": 45.0686652,
      "lng": 7.6896262,
      "source": "osm"
    },
    {
      "id": "a246516587",
      "nom": "Museo Egizio",
      "categorie": "museum",
      "description": "",
      "prix": "",
      "duree": "",
      "mapsUrl": "https://maps.google.com/?q=45.068435,7.6843506",
      "lat": 45.068435,
      "lng": 7.6843506,
      "source": "osm"
    },
    {
      "id": "a3337835009",
      "nom": "Teofilo Rossi di Montelera",
      "categorie": "artwork",
      "description": "",
      "prix": "",
      "duree": "",
      "mapsUrl": "https://maps.google.com/?q=45.0718195,7.6899375",
      "lat": 45.0718195,
      "lng": 7.6899375,
      "source": "osm"
    },
    {
      "id": "a11611008621",
      "nom": "Targa al Canto degli Italiani",
      "categorie": "memorial",
      "description": "",
      "prix": "",
      "duree": "",
      "mapsUrl": "https://maps.google.com/?q=45.0712442,7.6833499",
      "lat": 45.0712442,
      "lng": 7.6833499,
      "source": "osm"
    },
    {
      "id": "a5171950042",
      "nom": "Museo Internazionale di Arte Applicata Oggi",
      "categorie": "museum",
      "description": "",
      "prix": "",
      "duree": "",
      "mapsUrl": "https://maps.google.com/?q=45.0678568,7.6848802",
      "lat": 45.0678568,
      "lng": 7.6848802,
      "source": "osm"
    },
    {
      "id": "a6433944342",
      "nom": "Museo Diocesano di Torino",
      "categorie": "museum",
      "description": "",
      "prix": "",
      "duree": "",
      "mapsUrl": "https://maps.google.com/?q=45.0730338,7.6856733",
      "lat": 45.0730338,
      "lng": 7.6856733,
      "source": "osm"
    },
    {
      "id": "a110678077",
      "nom": "Carabiniere Reale",
      "categorie": "monument",
      "description": "",
      "prix": "",
      "duree": "",
      "mapsUrl": "https://maps.google.com/?q=45.0723656,7.6904037",
      "lat": 45.0723656,
      "lng": 7.6904037,
      "source": "osm"
    },
    {
      "id": "a6851474518",
      "nom": "Pietre Preziose",
      "categorie": "artwork",
      "description": "",
      "prix": "",
      "duree": "",
      "mapsUrl": "https://maps.google.com/?q=45.073519,7.6879789",
      "lat": 45.073519,
      "lng": 7.6879789,
      "source": "osm"
    },
    {
      "id": "a6431480861",
      "nom": "Pinacoteca Albertina",
      "categorie": "museum",
      "description": "",
      "prix": "",
      "duree": "",
      "mapsUrl": "https://maps.google.com/?q=45.0673849,7.6895042",
      "lat": 45.0673849,
      "lng": 7.6895042,
      "source": "osm"
    },
    {
      "id": "a11952509123",
      "nom": "Il cielo stellato dentro di me, la legge morale sopra di me",
      "categorie": "artwork",
      "description": "",
      "prix": "",
      "duree": "",
      "mapsUrl": "https://maps.google.com/?q=45.0676134,7.6835522",
      "lat": 45.0676134,
      "lng": 7.6835522,
      "source": "osm"
    },
    {
      "id": "a318938052",
      "nom": "Xké? Il laboratorio della curiosità",
      "categorie": "museum",
      "description": "",
      "prix": "",
      "duree": "",
      "mapsUrl": "https://maps.google.com/?q=45.0699205,7.6920351",
      "lat": 45.0699205,
      "lng": 7.6920351,
      "source": "osm"
    },
    {
      "id": "a11101726095",
      "nom": "Albero Cardiaco",
      "categorie": "artwork",
      "description": "",
      "prix": "",
      "duree": "",
      "mapsUrl": "https://maps.google.com/?q=45.066695,7.6856722",
      "lat": 45.066695,
      "lng": 7.6856722,
      "source": "osm"
    },
    {
      "id": "a9585924917",
      "nom": "Gallerie d'Italia",
      "categorie": "museum",
      "description": "",
      "prix": "",
      "duree": "",
      "mapsUrl": "https://maps.google.com/?q=45.0684011,7.6823742",
      "lat": 45.0684011,
      "lng": 7.6823742,
      "source": "osm"
    },
    {
      "id": "a113734605",
      "nom": "Teatro Romano",
      "categorie": "archaeological site",
      "description": "",
      "prix": "",
      "duree": "",
      "mapsUrl": "https://maps.google.com/?q=45.0740021,7.6854923",
      "lat": 45.0740021,
      "lng": 7.6854923,
      "source": "osm"
    },
    {
      "id": "a113734602",
      "nom": "Manica Nuova di Palazzo Reale",
      "categorie": "attraction",
      "description": "",
      "prix": "",
      "duree": "",
      "mapsUrl": "https://maps.google.com/?q=45.0741103,7.6861293",
      "lat": 45.0741103,
      "lng": 7.6861293,
      "source": "osm"
    },
    {
      "id": "a3255257313",
      "nom": "Baci Urbani",
      "categorie": "artwork",
      "description": "",
      "prix": "",
      "duree": "",
      "mapsUrl": "https://maps.google.com/?q=45.0726176,7.6825015",
      "lat": 45.0726176,
      "lng": 7.6825015,
      "source": "osm"
    },
    {
      "id": "a2026479833",
      "nom": "Museo della Radio e della Televisione",
      "categorie": "museum",
      "description": "",
      "prix": "",
      "duree": "",
      "mapsUrl": "https://maps.google.com/?q=45.0685004,7.6917665",
      "lat": 45.0685004,
      "lng": 7.6917665,
      "source": "osm"
    },
    {
      "id": "a246516619",
      "nom": "Galleria Sabauda",
      "categorie": "museum",
      "description": "",
      "prix": "",
      "duree": "",
      "mapsUrl": "https://maps.google.com/?q=45.074149,7.6860379",
      "lat": 45.074149,
      "lng": 7.6860379,
      "source": "osm"
    },
    {
      "id": "a11217521918",
      "nom": "Museo di Antichità",
      "categorie": "museum",
      "description": "",
      "prix": "",
      "duree": "",
      "mapsUrl": "https://maps.google.com/?q=45.0741894,7.6861108",
      "lat": 45.0741894,
      "lng": 7.6861108,
      "source": "osm"
    },
    {
      "id": "a191211557",
      "nom": "Monumento a Emanuele Filiberto",
      "categorie": "artwork",
      "description": "",
      "prix": "",
      "duree": "",
      "mapsUrl": "https://maps.google.com/?q=45.0677383,7.6825849",
      "lat": 45.0677383,
      "lng": 7.6825849,
      "source": "osm"
    },
    {
      "id": "a3337874580",
      "nom": "Sinfonia",
      "categorie": "artwork",
      "description": "",
      "prix": "",
      "duree": "",
      "mapsUrl": "https://maps.google.com/?q=45.0683905,7.6920982",
      "lat": 45.0683905,
      "lng": 7.6920982,
      "source": "osm"
    },
    {
      "id": "a5415334293",
      "nom": "Camillo Benso Conte di Cavour",
      "categorie": "monument",
      "description": "",
      "prix": "",
      "duree": "",
      "mapsUrl": "https://maps.google.com/?q=45.0662979,7.688916",
      "lat": 45.0662979,
      "lng": 7.688916,
      "source": "osm"
    },
    {
      "id": "a3337478530",
      "nom": "Giovanni Battista Bottero",
      "categorie": "monument",
      "description": "",
      "prix": "",
      "duree": "",
      "mapsUrl": "https://maps.google.com/?q=45.073573,7.6828981",
      "lat": 45.073573,
      "lng": 7.6828981,
      "source": "osm"
    },
    {
      "id": "a3337569635",
      "nom": "Casimiro Teja",
      "categorie": "monument",
      "description": "",
      "prix": "",
      "duree": "",
      "mapsUrl": "https://maps.google.com/?q=45.0735366,7.6826181",
      "lat": 45.0735366,
      "lng": 7.6826181,
      "source": "osm"
    },
    {
      "id": "a2026479832",
      "nom": "Museo Nazionale del Cinema",
      "categorie": "museum",
      "description": "",
      "prix": "",
      "duree": "",
      "mapsUrl": "https://maps.google.com/?q=45.0691058,7.6929702",
      "lat": 45.0691058,
      "lng": 7.6929702,
      "source": "osm"
    },
    {
      "id": "a3337527086",
      "nom": "Alessandro Borella",
      "categorie": "monument",
      "description": "",
      "prix": "",
      "duree": "",
      "mapsUrl": "https://maps.google.com/?q=45.073681,7.6825252",
      "lat": 45.073681,
      "lng": 7.6825252,
      "source": "osm"
    },
    {
      "id": "a4083416845",
      "nom": "Toro rampante di bronzo",
      "categorie": "attraction",
      "description": "",
      "prix": "",
      "duree": "",
      "mapsUrl": "https://maps.google.com/?q=45.0674043,7.6817378",
      "lat": 45.0674043,
      "lng": 7.6817378,
      "source": "osm"
    },
    {
      "id": "a83111423",
      "nom": "Mole Antonelliana",
      "categorie": "attraction",
      "description": "",
      "prix": "",
      "duree": "",
      "mapsUrl": "https://maps.google.com/?q=45.0689861,7.6932374",
      "lat": 45.0689861,
      "lng": 7.6932374,
      "source": "osm"
    },
    {
      "id": "a83841338",
      "nom": "Conte Verde - Amedeo VI di Savoia",
      "categorie": "monument",
      "description": "",
      "prix": "",
      "duree": "",
      "mapsUrl": "https://maps.google.com/?q=45.0730284,7.6813373",
      "lat": 45.0730284,
      "lng": 7.6813373,
      "source": "osm"
    },
    {
      "id": "a4982023322",
      "nom": "Caio Giulio Cesare",
      "categorie": "artwork",
      "description": "",
      "prix": "",
      "duree": "",
      "mapsUrl": "https://maps.google.com/?q=45.0748702,7.6847632",
      "lat": 45.0748702,
      "lng": 7.6847632,
      "source": "osm"
    },
    {
      "id": "a3295107493",
      "nom": "Federico Sclopis",
      "categorie": "memorial",
      "description": "",
      "prix": "",
      "duree": "",
      "mapsUrl": "https://maps.google.com/?q=45.0728219,7.6810511",
      "lat": 45.0728219,
      "lng": 7.6810511,
      "source": "osm"
    },
    {
      "id": "a3338074501",
      "nom": "La fontanella di Venere",
      "categorie": "artwork",
      "description": "",
      "prix": "",
      "duree": "",
      "mapsUrl": "https://maps.google.com/?q=45.0653962,7.686119",
      "lat": 45.0653962,
      "lng": 7.686119,
      "source": "osm"
    },
    {
      "id": "a110678150",
      "nom": "Porta Palatina",
      "categorie": "attraction",
      "description": "",
      "prix": "",
      "duree": "",
      "mapsUrl": "https://maps.google.com/?q=45.0750119,7.6846717",
      "lat": 45.0750119,
      "lng": 7.6846717,
      "source": "osm"
    },
    {
      "id": "a3337838249",
      "nom": "Ottaviano Cesare Augusto",
      "categorie": "artwork",
      "description": "",
      "prix": "",
      "duree": "",
      "mapsUrl": "https://maps.google.com/?q=45.0749724,7.684447",
      "lat": 45.0749724,
      "lng": 7.684447,
      "source": "osm"
    },
    {
      "id": "a5414890632",
      "nom": "La Dora",
      "categorie": "artwork",
      "description": "",
      "prix": "",
      "duree": "",
      "mapsUrl": "https://maps.google.com/?q=45.0666289,7.6820053",
      "lat": 45.0666289,
      "lng": 7.6820053,
      "source": "osm"
    },
    {
      "id": "a6434268049",
      "nom": "Museo del Risparmio",
      "categorie": "museum",
      "description": "",
      "prix": "",
      "duree": "",
      "mapsUrl": "https://maps.google.com/?q=45.0719481,7.680148",
      "lat": 45.0719481,
      "lng": 7.680148,
      "source": "osm"
    },
    {
      "id": "a1489359313",
      "nom": "Portone del Diavolo",
      "categorie": "attraction",
      "description": "",
      "prix": "",
      "duree": "",
      "mapsUrl": "https://maps.google.com/?q=45.0674696,7.6809145",
      "lat": 45.0674696,
      "lng": 7.6809145,
      "source": "osm"
    },
    {
      "id": "a5415173114",
      "nom": "Il Po",
      "categorie": "artwork",
      "description": "",
      "prix": "",
      "duree": "",
      "mapsUrl": "https://maps.google.com/?q=45.066756,7.6816555",
      "lat": 45.066756,
      "lng": 7.6816555,
      "source": "osm"
    },