{
 "slug": "vientiane",
 "nom": "Vientiane",
 "pays": "Laos",
 "pays_slug": "laos",
 "continent": "Asie",
 "region": "Laos",
 "coordonnees": {
  "lat": 17.9757,
  "lng": 102.6331
 },
 "codeISO": "LA",
 "score_halal": 3.2,
 "halalScore": 6.4,
 "description": "Vientiane, Laos. Repérez les restaurants halal et les mosquées via l'application.",
 "metaDescription": "Vientiane, Laos. Repérez les restaurants halal et les mosquées via l'application.",
 "image": "https://images.unsplash.com/photo-1488646953014-85cb44e25828?w=1200&q=80",
 "image_hero": "https://images.unsplash.com/photo-1488646953014-85cb44e25828?w=1200&q=80",
 "imageAVenir": true,
 "imageCredit": "",
 "scoreIndicatif": true,
 "statistiques": {
  "restaurants_halal": 10,
  "mosquees": 3,
  "hotels": 120
 },
 "infoPratique": {
  "transport": "Accessible par avion et transports locaux.",
  "meilleureEpoque": "Selon la saison.",
  "conseilHalal": "Repérez restaurants halal et mosquées via l'application."
 },
 "tags": [
  "halal",
  "asie"
 ],
 "restaurants": [
  {
   "nom": "Chic Station (Fried Chicken Restaurant)",
   "type": "fried chicken, fast food, fries, chicken, burger",
   "priceRange": "€€",
   "mapsUrl": "https://maps.google.com/?q=17.9724685,102.6291866",
   "lat": 17.9724685,
   "lng": 102.6291866,
   "halalConfidence": "yes",
   "source": "osm"
  },
  {
   "nom": "Les Pharaons",
   "type": "egyptian",
   "priceRange": "€€",
   "mapsUrl": "https://maps.google.com/?q=17.9544437,102.6206593",
   "lat": 17.9544437,
   "lng": 102.6206593,
   "halalConfidence": "yes",
   "source": "osm"
  },
  {
   "nom": "ນາຊະມ",
   "type": "indian, indonesian",
   "priceRange": "€€",
   "mapsUrl": "https://maps.google.com/?q=17.9376794,102.6263565",
   "lat": 17.9376794,
   "lng": 102.6263565,
   "halalConfidence": "yes",
   "source": "osm"
  },
  {
   "nom": "Alex steak",
   "type": "chicken, steak house, pasta, kebab, local",
   "priceRange": "€€",
   "mapsUrl": "https://maps.google.com/?q=17.9583233,102.6112668",
   "lat": 17.9583233,
   "lng": 102.6112668,
   "halalConfidence": "likely",
   "source": "osm"
  },
  {
   "nom": "Dhaka Restaurant & Guesthouse",
   "type": "bangladeshi",
   "priceRange": "€€",
   "mapsUrl": "https://maps.google.com/?q=17.9639666,102.6051014",
   "lat": 17.9639666,
   "lng": 102.6051014,
   "halalConfidence": "likely",
   "source": "osm"
  },
  {
   "nom": "Dhaka Restaurant",
   "type": "seafood, chicken, noodles, kebab, curry, indian",
   "priceRange": "€€",
   "mapsUrl": "https://maps.google.com/?q=17.9632876,102.604978",
   "lat": 17.9632876,
   "lng": 102.604978,
   "halalConfidence": "likely",
   "source": "osm"
  },
  {
   "nom": "Pomodoro Pizzeria",
   "type": "pizza, kebab, italian",
   "priceRange": "€€",
   "mapsUrl": "https://maps.google.com/?q=17.964303,102.6042269",
   "lat": 17.964303,
   "lng": 102.6042269,
   "halalConfidence": "likely",
   "source": "osm"
  },
  {
   "nom": "Union Pizza & Shawarma",
   "type": "pizza, american, arab",
   "priceRange": "€€",
   "mapsUrl": "https://maps.google.com/?q=17.968244,102.6006877",
   "lat": 17.968244,
   "lng": 102.6006877,
   "halalConfidence": "likely",
   "source": "osm"
  },
  {
   "nom": "Easy Restaurant",
   "type": "egyptian",
   "priceRange": "€€",
   "mapsUrl": "https://maps.google.com/?q=17.9680901,102.6005145",
   "lat": 17.9680901,
   "lng": 102.6005145,
   "halalConfidence": "likely",
   "source": "osm"
  },
  {
   "nom": "Les Frenchy",
   "type": "kebab, pizza",
   "priceRange": "€€",
   "mapsUrl": "https://maps.google.com/?q=17.9092348,102.6218347",
   "lat": 17.9092348,
   "lng": 102.6218347,
   "halalConfidence": "likely",
   "source": "osm"
  }
 ],
 "hotels": [
  {
   "nom": "Yuna Hotel",
   "categorie": "Hôtel",
   "priceRange": "€€",
   "mapsUrl": "https://maps.google.com/?q=17.9736963,102.6336364",
   "lat": 17.9736963,
   "lng": 102.6336364,
   "halalFriendly": false,
   "bookingUrl": "https://maps.google.com/?q=17.9736963,102.6336364",
   "source": "osm"
  },
  {
   "nom": "Villa That Luang",
   "categorie": "Maison d'hôtes",
   "priceRange": "€€",
   "mapsUrl": "https://maps.google.com/?q=17.9748,102.63003",
   "lat": 17.9748,
   "lng": 102.63003,
   "halalFriendly": false,
   "bookingUrl": "https://maps.google.com/?q=17.9748,102.63003",
   "source": "osm"
  },
  {
   "nom": "Nhà Phúc thuê",
   "categorie": "Auberge",
   "priceRange": "€€",
   "mapsUrl": "https://maps.google.com/?q=17.972065,102.6365361",
   "lat": 17.972065,
   "lng": 102.6365361,
   "halalFriendly": false,
   "bookingUrl": "https://maps.google.com/?q=17.972065,102.6365361",
   "source": "osm"
  },
  {
   "nom": "XANADU APARTMENT",
   "categorie": "Appartement",
   "priceRange": "€€",
   "mapsUrl": "https://maps.google.com/?q=17.9806334,102.638235",
   "lat": 17.9806334,
   "lng": 102.638235,
   "halalFriendly": false,
   "bookingUrl": "https://maps.google.com/?q=17.9806334,102.638235",
   "source": "osm"
  },
  {
   "nom": "Sokxayphone Hotel",
   "categorie": "Hôtel",
   "priceRange": "€€",
   "mapsUrl": "https://maps.google.com/?q=17.9773472,102.6239393",
   "lat": 17.9773472,
   "lng": 102.6239393,
   "halalFriendly": false,
   "bookingUrl": "https://maps.google.com/?q=17.9773472,102.6239393",
   "source": "osm"
  },
  {
   "nom": "SKNホテル",
   "categorie": "Hôtel",
   "priceRange": "€€",
   "mapsUrl": "https://maps.google.com/?q=17.9773145,102.6237455",
   "lat": 17.9773145,
   "lng": 102.6237455,
   "halalFriendly": false,
   "bookingUrl": "https://maps.google.com/?q=17.9773145,102.6237455",
   "source": "osm"
  },
  {
   "nom": "Souphattra Hotel Vientiane",
   "categorie": "Hôtel",
   "priceRange": "€€",
   "mapsUrl": "https://maps.google.com/?q=17.9729725,102.622743",
   "lat": 17.9729725,
   "lng": 102.622743,
   "halalFriendly": false,
   "bookingUrl": "https://maps.google.com/?q=17.9729725,102.622743",
   "source": "osm"
  },
  {
   "nom": "ໂຮງແຮມ ເຈືອງ 2",
   "categorie": "Hôtel",
   "priceRange": "€€",
   "mapsUrl": "https://maps.google.com/?q=17.9765119,102.6218094",
   "lat": 17.9765119,
   "lng": 102.6218094,
   "halalFriendly": false,
   "bookingUrl": "https://maps.google.com/?q=17.9765119,102.6218094",
   "source": "osm"
  },
  {
   "nom": "Oulayvanh",
   "categorie": "Hôtel",
   "priceRange": "€€",
   "mapsUrl": "https://maps.google.com/?q=17.977735,102.6219449",
   "lat": 17.977735,
   "lng": 102.6219449,
   "halalFriendly": false,
   "bookingUrl": "https://maps.google.com/?q=17.977735,102.6219449",
   "source": "osm"
  },
  {
   "nom": "room for rent",
   "categorie": "Auberge",
   "priceRange": "€€",
   "mapsUrl": "https://maps.google.com/?q=17.9779206,102.6216017",
   "lat": 17.9779206,
   "lng": 102.6216017,
   "halalFriendly": false,
   "bookingUrl": "https://maps.google.com/?q=17.9779206,102.6216017",
   "source": "osm"
  },
  {
   "nom": "ຫລ້າແກ້ວ ແບລ ວິນລາ",
   "categorie": "Maison d'hôtes",
   "priceRange": "€€",
   "mapsUrl": "https://maps.google.com/?q=17.974996,102.620905",
   "lat": 17.974996,
   "lng": 102.620905,
   "halalFriendly": false,
   "bookingUrl": "http://www.lakeo.laopdr.com/",
   "source": "osm"
  },
  {
   "nom": "Muong Thanh Luxury",
   "categorie": "Hôtel",
   "priceRange": "€€",
   "mapsUrl": "https://maps.google.com/?q=17.9650946,102.6281029",
   "lat": 17.9650946,
   "lng": 102.6281029,
   "halalFriendly": false,
   "bookingUrl": "https://maps.google.com/?q=17.9650946,102.6281029",
   "source": "osm"
  },
  {
   "nom": "Cheunchaleun Guesthouse",
   "categorie": "Maison d'hôtes",
   "priceRange": "€€",
   "mapsUrl": "https://maps.google.com/?q=17.9710977,102.6217275",
   "lat": 17.9710977,
   "lng": 102.6217275,
   "halalFriendly": false,
   "bookingUrl": "https://maps.google.com/?q=17.9710977,102.6217275",
   "source": "osm"
  },
  {
   "nom": "S&B Apartments",
   "categorie": "Appartement",
   "priceRange": "€€",
   "mapsUrl": "https://maps.google.com/?q=17.9698103,102.6223931",
   "lat": 17.9698103,
   "lng": 102.6223931,
   "halalFriendly": false,
   "bookingUrl": "https://maps.google.com/?q=17.9698103,102.6223931",
   "source": "osm"
  },
  {
   "nom": "Cheuangvannavong",
   "categorie": "Hôtel",
   "priceRange": "€€",
   "mapsUrl": "https://maps.google.com/?q=17.9830682,102.6232692",
   "lat": 17.9830682,
   "lng": 102.6232692,
   "halalFriendly": false,
   "bookingUrl": "https://maps.google.com/?q=17.9830682,102.6232692",
   "source": "osm"
  },
  {
   "nom": "ບ້ານພັກໄກ່ແກ້ວ",
   "categorie": "Hôtel",
   "priceRange": "€€",
   "mapsUrl": "https://maps.google.com/?q=17.9833545,102.623422",
   "lat": 17.9833545,
   "lng": 102.623422,
   "halalFriendly": false,
   "bookingUrl": "https://maps.google.com/?q=17.9833545,102.623422",
   "source": "osm"
  },
  {
   "nom": "Urbanite",
   "categorie": "Hôtel",
   "priceRange": "€€",
   "mapsUrl": "https://maps.google.com/?q=17.9701707,102.6217475",
   "lat": 17.9701707,
   "lng": 102.6217475,
   "halalFriendly": false,
   "bookingUrl": "https://maps.google.com/?q=17.9701707,102.6217475",
   "source": "osm"
  },
  {
   "nom": "NB Residence",
   "categorie": "Maison d'hôtes",
   "priceRange": "€€",
   "mapsUrl": "https://maps.google.com/?q=17.9843044,102.6238257",
   "lat": 17.9843044,
   "lng": 102.6238257,
   "halalFriendly": false,
   "bookingUrl": "https://maps.google.com/?q=17.9843044,102.6238257",
   "source": "osm"
  },
  {
   "nom": "Khamkone Guesthouse",
   "categorie": "Maison d'hôtes",
   "priceRange": "€€",
   "mapsUrl": "https://maps.google.com/?q=17.9695138,102.621779",
   "lat": 17.9695138,
   "lng": 102.621779,
   "halalFriendly": false,
   "bookingUrl": "https://maps.google.com/?q=17.9695138,102.621779",
   "source": "osm"
  },
  {
   "nom": "Excellency",
   "categorie": "Hôtel",
   "priceRange": "€€",
   "mapsUrl": "https://maps.google.com/?q=17.9879735,102.6362849",
   "lat": 17.9879735,
   "lng": 102.6362849,
   "halalFriendly": false,
   "bookingUrl": "https://maps.google.com/?q=17.9879735,102.6362849",
   "source": "osm"
  },
  {
   "nom": "Ban Phuan",
   "categorie": "Hôtel",
   "priceRange": "€€",
   "mapsUrl": "https://maps.google.com/?q=17.9885175,102.6352195",
   "lat": 17.9885175,
   "lng": 102.6352195,
   "halalFriendly": false,
   "bookingUrl": "https://maps.google.com/?q=17.9885175,102.6352195",
   "source": "osm"
  },
  {
   "nom": "Xayathit Sichan apartments",
   "categorie": "Appartement",
   "priceRange": "€€",
   "mapsUrl": "https://maps.google.com/?q=17.9766004,102.6194184",
   "lat": 17.9766004,
   "lng": 102.6194184,
   "halalFriendly": false,
   "bookingUrl": "https://maps.google.com/?q=17.9766004,102.6194184",
   "source": "osm"
  },
  {
   "nom": "Giapo's Guest House",
   "categorie": "Maison d'hôtes",
   "priceRange": "€€",
   "mapsUrl": "https://maps.google.com/?q=17.9647639,102.6254981",
   "lat": 17.9647639,
   "lng": 102.6254981,
   "halalFriendly": false,
   "bookingUrl": "https://maps.google.com/?q=17.9647639,102.6254981",
   "source": "osm"
  },
  {
   "nom": "ບ້ານພັກລາວັນ",
   "categorie": "Maison d'hôtes",
   "priceRange": "€€",
   "mapsUrl": "https://maps.google.com/?q=17.984894,102.6230821",
   "lat": 17.984894,
   "lng": 102.6230821,
   "halalFriendly": false,
   "bookingUrl": "https://maps.google.com/?q=17.984894,102.6230821",
   "source": "osm"
  },
  {
   "nom": "недорогой гест",
   "categorie": "Auberge",
   "priceRange": "€€",
   "mapsUrl": "https://maps.google.com/?q=17.9887663,102.6359363",
   "lat": 17.9887663,
   "lng": 102.6359363,
   "halalFriendly": false,
   "bookingUrl": "https://maps.google.com/?q=17.9887663,102.6359363",
   "source": "osm"
  },
  {
   "nom": "Douang Pra Seuth Hotel",
   "categorie": "Hôtel",
   "priceRange": "€€",
   "mapsUrl": "https://maps.google.com/?q=17.9642572,102.6252411",
   "lat": 17.9642572,
   "lng": 102.6252411,
   "halalFriendly": false,
   "bookingUrl": "http://www.dps-hotel.com/",
   "source": "osm"
  },
  {
   "nom": "Douangpraseuth Hotel",
   "categorie": "Hôtel",
   "priceRange": "€€",
   "mapsUrl": "https://maps.google.com/?q=17.9642569,102.6252404",
   "lat": 17.9642569,
   "lng": 102.6252404,
   "halalFriendly": false,
   "bookingUrl": "http://dps-hotel.com",
   "source": "osm"
  },
  {
   "nom": "ວຽງວັງ",
   "categorie": "Hôtel",
   "priceRange": "€€",
   "mapsUrl": "https://maps.google.com/?q=17.9652038,102.6237324",
   "lat": 17.9652038,
   "lng": 102.6237324,
   "halalFriendly": false,
   "bookingUrl": "https://maps.google.com/?q=17.9652038,102.6237324",
   "source": "osm"
  },
  {
   "nom": "Lako Apartment",
   "categorie": "Maison d'hôtes",
   "priceRange": "€€",
   "mapsUrl": "https://maps.google.com/?q=17.9631589,102.6251882",
   "lat": 17.9631589,
   "lng": 102.6251882,
   "halalFriendly": false,
   "bookingUrl": "https://maps.google.com/?q=17.9631589,102.6251882",
   "source": "osm"
  },
  {
   "nom": "Lao Lao Café and Hostel",
   "categorie": "Auberge",
   "priceRange": "€€",
   "mapsUrl": "https://maps.google.com/?q=17.9639391,102.62359",
   "lat": 17.9639391,
   "lng": 102.62359,
   "halalFriendly": false,
   "bookingUrl": "https://www.facebook.com/laolao-hostel",
   "source": "osm"
  },
  {
   "nom": "Grand Hotel Vientiane",
   "categorie": "Hôtel",
   "priceRange": "€€",
   "mapsUrl": "https://maps.google.com/?q=17.9634549,102.6237947",
   "lat": 17.9634549,
   "lng": 102.6237947,
   "halalFriendly": false,
   "bookingUrl": "https://maps.google.com/?q=17.9634549,102.6237947",
   "source": "osm"
  },
  {
   "nom": "GCDA",
   "categorie": "Appartement",
   "priceRange": "€€",
   "mapsUrl": "https://maps.google.com/?q=17.9668361,102.6201763",
   "lat": 17.9668361,
   "lng": 102.6201763,
   "halalFriendly": false,
   "bookingUrl": "https://maps.google.com/?q=17.9668361,102.6201763",
   "source": "osm"
  },
  {
   "nom": "Phamoonsim Guesthouse",
   "categorie": "Maison d'hôtes",
   "priceRange": "€€",
   "mapsUrl": "https://maps.google.com/?q=17.9602775,102.6322962",
   "lat": 17.9602775,
   "lng": 102.6322962,
   "halalFriendly": false,
   "bookingUrl": "https://maps.google.com/?q=17.9602775,102.6322962",
   "source": "osm"
  },
  {
   "nom": "Soradith Hotel",
   "categorie": "Hôtel",
   "priceRange": "€€",
   "mapsUrl": "https://maps.google.com/?q=17.9622963,102.6241822",
   "lat": 17.9622963,
   "lng": 102.6241822,
   "halalFriendly": false,
   "bookingUrl": "https://maps.google.com/?q=17.9622963,102.6241822",
   "source": "osm"
  },
  {
   "nom": "Patuxay Place",
   "categorie": "Hôtel",
   "priceRange": "€€",
   "mapsUrl": "https://maps.google.com/?q=17.9734902,102.6163629",
   "lat": 17.9734902,
   "lng": 102.6163629,
   "halalFriendly": false,
   "bookingUrl": "https://maps.google.com/?q=17.9734902,102.6163629",
   "source": "osm"
  },
  {
   "nom": "Lao Garden Apartments",
   "categorie": "Appartement",
   "priceRange": "€€",
   "mapsUrl": "https://maps.google.com/?q=17.9636346,102.6213706",
   "lat": 17.9636346,
   "lng": 102.6213706,
   "halalFriendly": false,
   "bookingUrl": "https://maps.google.com/?q=17.9636346,102.6213706",
   "source": "osm"
  },
  {
   "nom": "Lao Golden Hotel",
   "categorie": "Hôtel",
   "priceRange": "€€",
   "mapsUrl": "https://maps.google.com/?q=17.9605148,102.6254159",
   "lat": 17.9605148,
   "lng": 102.6254159,
   "halalFriendly": false,
   "bookingUrl": "http://laogoldenvientiane.com/",
   "source": "osm"
  },
  {
   "nom": "KC Residence",
   "categorie": "Appartement",
   "priceRange": "€€",
   "mapsUrl": "https://maps.google.com/?q=17.9717234,102.6158627",
   "lat": 17.9717234,
   "lng": 102.6158627,
   "halalFriendly": false,
   "bookingUrl": "https://maps.google.com/?q=17.9717234,102.6158627",
   "source": "osm"
  },
  {
   "nom": "Bouchada Kham Hotel",
   "categorie": "Hôtel",
   "priceRange": "€€",
   "mapsUrl": "https://maps.google.com/?q=17.9621193,102.6221529",
   "lat": 17.9621193,
   "lng": 102.6221529,
   "halalFriendly": false,
   "bookingUrl": "https://maps.google.com/?q=17.9621193,102.6221529",
   "source": "osm"
  },
  {
   "nom": "Hōnghǣm Plāsā Dūangcan",
   "categorie": "Hôtel",
   "priceRange": "€€",
   "mapsUrl": "https://maps.google.com/?q=17.974297,102.6148391",
   "lat": 17.974297,
   "lng": 102.6148391,
   "halalFriendly": false,
   "bookingUrl": "https://maps.google.com/?q=17.974297,102.6148391",
   "source": "osm"
  },
  {
   "nom": "ໂຮງແຮມລະອອງດາວ 1",
   "categorie": "Hôtel",
   "priceRange": "€€",
   "mapsUrl": "https://maps.google.com/?q=17.9596938,102.6254521",
   "lat": 17.9596938,
   "lng": 102.6254521,
   "halalFriendly": false,
   "bookingUrl": "https://maps.google.com/?q=17.9596938,102.6254521",
   "source": "osm"
  },
  {
   "nom": "Ramayana Hotel",
   "categorie": "Hôtel",
   "priceRange": "€€",
   "mapsUrl": "https://maps.google.com/?q=17.9688823,102.6160613",
   "lat": 17.9688823,
   "lng": 102.6160613,
   "halalFriendly": false,
   "bookingUrl": "https://maps.google.com/?q=17.9688823,102.6160613",
   "source": "osm"
  },
  {
   "nom": "Chanthavisouk",
   "categorie": "Maison d'hôtes",
   "priceRange": "€€",
   "mapsUrl": "https://maps.google.com/?q=17.9914064,102.6246585",
   "lat": 17.9914064,
   "lng": 102.6246585,
   "halalFriendly": false,
   "bookingUrl": "https://maps.google.com/?q=17.9914064,102.6246585",
   "source": "osm"
  },
  {
   "nom": "Souvanhna",
   "categorie": "Hôtel",
   "priceRange": "€€",
   "mapsUrl": "https://maps.google.com/?q=17.9744191,102.6145888",
   "lat": 17.9744191,
   "lng": 102.6145888,
   "halalFriendly": false,
   "bookingUrl": "https://maps.google.com/?q=17.9744191,102.6145888",
   "source": "osm"
  },
  {
   "nom": "Heuangchaleun Hotel",
   "categorie": "Hôtel",
   "priceRange": "€€",
   "mapsUrl": "https://maps.google.com/?q=17.9593798,102.6259417",
   "lat": 17.9593798,
   "lng": 102.6259417,
   "halalFriendly": false,
   "bookingUrl": "http://www.hclhotel.com/",
   "source": "osm"
  },
  {
   "nom": "Salaphet Kang Hua",
   "categorie": "Hôtel",
   "priceRange": "€€",
   "mapsUrl": "https://maps.google.com/?q=17.97199,102.6149111",
   "lat": 17.97199,
   "lng": 102.6149111,
   "halalFriendly": false,
   "bookingUrl": "https://maps.google.com/?q=17.97199,102.6149111",
   "source": "osm"
  },
  {
   "nom": "Sisavath Hotel",
   "categorie": "Hôtel",
   "priceRange": "€€",
   "mapsUrl": "https://maps.google.com/?q=17.9760893,102.6142458",
   "lat": 17.9760893,
   "lng": 102.6142458,
   "halalFriendly": false,
   "bookingUrl": "https://maps.google.com/?q=17.9760893,102.6142458",
   "source": "osm"
  },
  {
   "nom": "Souvanna Hotel",
   "categorie": "Hôtel",
   "priceRange": "€€",
   "mapsUrl": "https://maps.google.com/?q=17.9743271,102.6142798",
   "lat": 17.9743271,
   "lng": 102.6142798,
   "halalFriendly": false,
   "bookingUrl": "https://maps.google.com/?q=17.9743271,102.6142798",
   "source": "osm"
  },
  {
   "nom": "ໂຮງແຮມວັນຊະນະ",
   "categorie": "Hôtel",
   "priceRange": "€€",
   "mapsUrl": "https://maps.google.com/?q=17.9588029,102.6403641",
   "lat": 17.9588029,
   "lng": 102.6403641,
   "halalFriendly": false,
   "bookingUrl": "https://maps.google.com/?q=17.9588029,102.6403641",
   "source": "osm"
  },
  {
   "nom": "Oudomphone Guest House",
   "categorie": "Maison d'hôtes",
   "priceRange": "€€",
   "mapsUrl": "https://maps.google.com/?q=17.9595751,102.6239612",
   "lat": 17.9595751,
   "lng": 102.6239612,
   "halalFriendly": false,
   "bookingUrl": "https://maps.google.com/?q=17.9595751,102.6239612",
   "source": "osm"
  },
  {
   "nom": "Villa Sisavad Guesthouse",
   "categorie": "Maison d'hôtes",
   "priceRange": "€€",
   "mapsUrl": "https://maps.google.com/?q=17.9746752,102.6138616",
   "lat": 17.9746752,
   "lng": 102.6138616,
   "halalFriendly": false,
   "bookingUrl": "https://www.villasisavad.com/",
   "source": "osm"
  },
  {
   "nom": "Sisavad",
   "categorie": "Hôtel",
   "priceRange": "€€",
   "mapsUrl": "https://maps.google.com/?q=17.9741184,102.6138661",
   "lat": 17.9741184,
   "lng": 102.6138661,
   "halalFriendly": false,
   "bookingUrl": "https://maps.google.com/?q=17.9741184,102.6138661",
   "source": "osm"
  },
  {
   "nom": "Hōnghǣm Laǭngdāo",
   "categorie": "Hôtel",
   "priceRange": "€€",
   "mapsUrl": "https://maps.google.com/?q=17.9594394,102.6236268",
   "lat": 17.9594394,
   "lng": 102.6236268,
   "halalFriendly": false,
   "bookingUrl": "https://maps.google.com/?q=17.9594394,102.6236268",
   "source": "osm"
  },
  {
   "nom": "Mina Hotel",
   "categorie": "Hôtel",
   "priceRange": "€€",
   "mapsUrl": "https://maps.google.com/?q=17.9671702,102.6156323",
   "lat": 17.9671702,
   "lng": 102.6156323,
   "halalFriendly": false,
   "bookingUrl": "https://maps.google.com/?q=17.9671702,102.6156323",
   "source": "osm"
  },
  {
   "nom": "Domon",
   "categorie": "Hôtel",
   "priceRange": "€€",
   "mapsUrl": "https://maps.google.com/?q=17.959153,102.6431433",
   "lat": 17.959153,
   "lng": 102.6431433,
   "halalFriendly": false,
   "bookingUrl": "https://maps.google.com/?q=17.959153,102.6431433",
   "source": "osm"
  },
  {
   "nom": "Vong Sam Aug",
   "categorie": "Maison d'hôtes",
   "priceRange": "€€",
   "mapsUrl": "https://maps.google.com/?q=17.9682562,102.6145389",
   "lat": 17.9682562,
   "lng": 102.6145389,
   "halalFriendly": false,
   "bookingUrl": "https://maps.google.com/?q=17.9682562,102.6145389",
   "source": "osm"
  },
  {
   "nom": "Vientiane Garden Hostel",
   "categorie": "Auberge",
   "priceRange": "€€",
   "mapsUrl": "https://maps.google.com/?q=17.9689955,102.6142233",
   "lat": 17.9689955,
   "lng": 102.6142233,
   "halalFriendly": false,
   "bookingUrl": "https://maps.google.com/?q=17.9689955,102.6142233",
   "source": "osm"
  },
  {
   "nom": "Azalea Parkview Hotel",
   "categorie": "Hôtel",
   "priceRange": "€€",
   "mapsUrl": "https://maps.google.com/?q=17.9685403,102.6139873",
   "lat": 17.9685403,
   "lng": 102.6139873,
   "halalFriendly": false,
   "bookingUrl": "https://maps.google.com/?q=17.9685403,102.6139873",
   "source": "osm"
  },
  {
   "nom": "Aroon Residence",
   "categorie": "Hôtel",
   "priceRange": "€€",
   "mapsUrl": "https://maps.google.com/?q=17.9685138,102.6136642",
   "lat": 17.9685138,
   "lng": 102.6136642,
   "halalFriendly": false,
   "bookingUrl": "https://maps.google.com/?q=17.9685138,102.6136642",
   "source": "osm"
  },
  {
   "nom": "Khamkhoun Hotel",
   "categorie": "Hôtel",
   "priceRange": "€€",
   "mapsUrl": "https://maps.google.com/?q=17.9664213,102.6145609",
   "lat": 17.9664213,
   "lng": 102.6145609,
   "halalFriendly": false,
   "bookingUrl": "https://maps.google.com/?q=17.9664213,102.6145609",
   "source": "osm"
  },
  {
   "nom": "Vientiane boutique hotel 3 étoiles piscine",
   "categorie": "Hôtel",
   "priceRange": "€€",
   "mapsUrl": "https://maps.google.com/?q=17.968384,102.6135834",
   "lat": 17.968384,
   "lng": 102.6135834,
   "halalFriendly": false,
   "bookingUrl": "https://maps.google.com/?q=17.968384,102.6135834",
   "source": "osm"
  },
  {
   "nom": "Hôtel Princesse du Lânexâng",
   "categorie": "Hôtel",
   "priceRange": "€€",
   "mapsUrl": "https://maps.google.com/?q=17.9659478,102.6146861",
   "lat": 17.9659478,
   "lng": 102.6146861,
   "halalFriendly": false,
   "bookingUrl": "https://maps.google.com/?q=17.9659478,102.6146861",
   "source": "osm"
  },
  {
   "nom": "Vientiane Boutique Villa",
   "categorie": "Hôtel",
   "priceRange": "€€",
   "mapsUrl": "https://maps.google.com/?q=17.968054,102.6135539",
   "lat": 17.968054,
   "lng": 102.6135539,
   "halalFriendly": false,
   "bookingUrl": "https://maps.google.com/?q=17.968054,102.6135539",
   "source": "osm"
  },
  {
   "nom": "Daothong Apartment",
   "categorie": "Hôtel",
   "priceRange": "€€",
   "mapsUrl": "https://maps.google.com/?q=17.9756402,102.611862",
   "lat": 17.9756402,
   "lng": 102.611862,
   "halalFriendly": false,
   "bookingUrl": "https://maps.google.com/?q=17.9756402,102.611862",
   "source": "osm"
  },
  {
   "nom": "Vientiane Life Center Hotel",
   "categorie": "Hôtel",
   "priceRange": "€€",
   "mapsUrl": "https://maps.google.com/?q=17.9626896,102.6167906",
   "lat": 17.9626896,
   "lng": 102.6167906,
   "halalFriendly": false,
   "bookingUrl": "https://ktp-group.com/",
   "source": "osm"
  },
  {
   "nom": "Athenee Hotel Vientiane",
   "categorie": "Hôtel",
   "priceRange": "€€",
   "mapsUrl": "https://maps.google.com/?q=17.9692002,102.6126599",
   "lat": 17.9692002,
   "lng": 102.6126599,
   "halalFriendly": false,
   "bookingUrl": "https://maps.google.com/?q=17.9692002,102.6126599",
   "source": "osm"
  },
  {
   "nom": "Green Park",
   "categorie": "Hôtel",
   "priceRange": "€€",
   "mapsUrl": "https://maps.google.com/?q=17.9583751,102.6212984",
   "lat": 17.9583751,
   "lng": 102.6212984,
   "halalFriendly": false,
   "bookingUrl": "https://www.greenparkvientiane.com/",
   "source": "osm"
  },
  {
   "nom": "iTel Backpacker",
   "categorie": "Auberge",
   "priceRange": "€€",
   "mapsUrl": "https://maps.google.com/?q=17.9688445,102.6124876",
   "lat": 17.9688445,
   "lng": 102.6124876,
   "halalFriendly": false,
   "bookingUrl": "https://maps.google.com/?q=17.9688445,102.6124876",
   "source": "osm"
  },
  {
   "nom": "Sailomyen Cafe & Hostel",
   "categorie": "Auberge",
   "priceRange": "€€",
   "mapsUrl": "https://maps.google.com/?q=17.9687346,102.6124804",
   "lat": 17.9687346,
   "lng": 102.6124804,
   "halalFriendly": false,
   "bookingUrl": "https://maps.google.com/?q=17.9687346,102.6124804",
   "source": "osm"
  },
  {
   "nom": "Chaleunxay Hotel",
   "categorie": "Hôtel",
   "priceRange": "€€",
   "mapsUrl": "https://maps.google.com/?q=17.9668271,102.6128008",
   "lat": 17.9668271,
   "lng": 102.6128008,
   "halalFriendly": false,
   "bookingUrl": "https://maps.google.com/?q=17.9668271,102.6128008",
   "source": "osm"
  },
  {
   "nom": "Dorkket Guest House",
   "categorie": "Maison d'hôtes",
   "priceRange": "€€",
   "mapsUrl": "https://maps.google.com/?q=17.9612681,102.6159786",
   "lat": 17.9612681,
   "lng": 102.6159786,
   "halalFriendly": false,
   "bookingUrl": "https://maps.google.com/?q=17.9612681,102.6159786",
   "source": "osm"
  },
  {
   "nom": "Xaysomboun",
   "categorie": "Hôtel",
   "priceRange": "€€",
   "mapsUrl": "https://maps.google.com/?q=17.9667586,102.6120602",
   "lat": 17.9667586,
   "lng": 102.6120602,
   "halalFriendly": false,
   "bookingUrl": "https://maps.google.com/?q=17.9667586,102.6120602",
   "source": "osm"
  },
  {
   "nom": "Vientiane Golden Sun",
   "categorie": "Hôtel",
   "priceRange": "€€",
   "mapsUrl": "https://maps.google.com/?q=17.9707819,102.6104122",
   "lat": 17.9707819,
   "lng": 102.6104122,
   "halalFriendly": false,
   "bookingUrl": "http://www.mkroyalhotel.com/",
   "source": "osm"
  },
  {
   "nom": "Moonlight Champa",
   "categorie": "Maison d'hôtes",
   "priceRange": "€€",
   "mapsUrl": "https://maps.google.com/?q=17.967967,102.6106209",
   "lat": 17.967967,
   "lng": 102.6106209,
   "halalFriendly": false,
   "bookingUrl": "https://maps.google.com/?q=17.967967,102.6106209",
   "source": "osm"
  },
  {
   "nom": "dokchampa apt building 5",
   "categorie": "Appartement",
   "priceRange": "€€",
   "mapsUrl": "https://maps.google.com/?q=17.9597886,102.6502445",
   "lat": 17.9597886,
   "lng": 102.6502445,
   "halalFriendly": false,
   "bookingUrl": "https://maps.google.com/?q=17.9597886,102.6502445",
   "source": "osm"
  },
  {
   "nom": "Dokchampa apartment gate",
   "categorie": "Appartement",
   "priceRange": "€€",
   "mapsUrl": "https://maps.google.com/?q=17.9589935,102.6494447",
   "lat": 17.9589935,
   "lng": 102.6494447,
   "halalFriendly": false,
   "bookingUrl": "https://maps.google.com/?q=17.9589935,102.6494447",
   "source": "osm"
  },
  {
   "nom": "Somphone",
   "categorie": "Maison d'hôtes",
   "priceRange": "€€",
   "mapsUrl": "https://maps.google.com/?q=17.9788283,102.609247",
   "lat": 17.9788283,
   "lng": 102.609247,
   "halalFriendly": false,
   "bookingUrl": "https://maps.google.com/?q=17.9788283,102.609247",
   "source": "osm"
  },
  {
   "nom": "Sonkxana Guesthouse",
   "categorie": "Maison d'hôtes",
   "priceRange": "€€",
   "mapsUrl": "https://maps.google.com/?q=17.9678467,102.6104462",
   "lat": 17.9678467,
   "lng": 102.6104462,
   "halalFriendly": false,
   "bookingUrl": "https://maps.google.com/?q=17.9678467,102.6104462",
   "source": "osm"
  },
  {
   "nom": "Angkham Hotel",
   "categorie": "Hôtel",
   "priceRange": "€€",
   "mapsUrl": "https://maps.google.com/?q=17.9972059,102.6414833",
   "lat": 17.9972059,
   "lng": 102.6414833,
   "halalFriendly": false,
   "bookingUrl": "https://maps.google.com/?q=17.9972059,102.6414833",
   "source": "osm"
  },
  {
   "nom": "Hua Long",
   "categorie": "Hôtel",
   "priceRange": "€€",
   "mapsUrl": "https://maps.google.com/?q=17.9724875,102.6091474",
   "lat": 17.9724875,
   "lng": 102.6091474,
   "halalFriendly": false,
   "bookingUrl": "https://maps.google.com/?q=17.9724875,102.6091474",
   "source": "osm"
  },
  {
   "nom": "Settha Palace",
   "categorie": "Hôtel",
   "priceRange": "€€",
   "mapsUrl": "https://maps.google.com/?q=17.9682438,102.6102111",
   "lat": 17.9682438,
   "lng": 102.6102111,
   "halalFriendly": false,
   "bookingUrl": "https://maps.google.com/?q=17.9682438,102.6102111",
   "source": "osm"
  },
  {
   "nom": "Phetmanyxay",
   "categorie": "Hôtel",
   "priceRange": "€€",
   "mapsUrl": "https://maps.google.com/?q=17.9615589,102.6140023",
   "lat": 17.9615589,
   "lng": 102.6140023,
   "halalFriendly": false,
   "bookingUrl": "https://maps.google.com/?q=17.9615589,102.6140023",
   "source": "osm"
  },
  {
   "nom": "Heuan Lao",
   "categorie": "Maison d'hôtes",
   "priceRange": "€€",
   "mapsUrl": "https://maps.google.com/?q=17.9572548,102.6185583",
   "lat": 17.9572548,
   "lng": 102.6185583,
   "halalFriendly": false,
   "bookingUrl": "https://maps.google.com/?q=17.9572548,102.6185583",
   "source": "osm"
  },
  {
   "nom": "Wonderland Guesthouse",
   "categorie": "Maison d'hôtes",
   "priceRange": "€€",
   "mapsUrl": "https://maps.google.com/?q=17.9539358,102.6244621",
   "lat": 17.9539358,
   "lng": 102.6244621,
   "halalFriendly": false,
   "bookingUrl": "https://maps.google.com/?q=17.9539358,102.6244621",
   "source": "osm"
  },
  {
   "nom": "QUBE Hotel",
   "categorie": "Hôtel",
   "priceRange": "€€",
   "mapsUrl": "https://maps.google.com/?q=17.9591034,102.6502456",
   "lat": 17.9591034,
   "lng": 102.6502456,
   "halalFriendly": false,
   "bookingUrl": "https://maps.google.com/?q=17.9591034,102.6502456",
   "source": "osm"
  },
  {
   "nom": "Bing House",
   "categorie": "Maison d'hôtes",
   "priceRange": "€€",
   "mapsUrl": "https://maps.google.com/?q=17.953486,102.6405102",
   "lat": 17.953486,
   "lng": 102.6405102,
   "halalFriendly": false,
   "bookingUrl": "https://maps.google.com/?q=17.953486,102.6405102",
   "source": "osm"
  },
  {
   "nom": "Ministry of Education Guesthouse",
   "categorie": "Maison d'hôtes",
   "priceRange": "€€",
   "mapsUrl": "https://maps.google.com/?q=17.9665767,102.61044",
   "lat": 17.9665767,
   "lng": 102.61044,
   "halalFriendly": false,
   "bookingUrl": "https://maps.google.com/?q=17.9665767,102.61044",
   "source": "osm"
  },
  {
   "nom": "S2 Modern Boutique",
   "categorie": "Hôtel",
   "priceRange": "€€",
   "mapsUrl": "https://maps.google.com/?q=17.9758069,102.608439",
   "lat": 17.9758069,
   "lng": 102.608439,
   "halalFriendly": false,
   "bookingUrl": "https://maps.google.com/?q=17.9758069,102.608439",
   "source": "osm"
  },
  {
   "nom": "City Inn",
   "categorie": "Hôtel",
   "priceRange": "€€",
   "mapsUrl": "https://maps.google.com/?q=17.9670963,102.6100584",
   "lat": 17.9670963,
   "lng": 102.6100584,
   "halalFriendly": false,
   "bookingUrl": "https://maps.google.com/?q=17.9670963,102.6100584",
   "source": "osm"
  },
  {
   "nom": "AV Hotel",
   "categorie": "Hôtel",
   "priceRange": "€€",
   "mapsUrl": "https://maps.google.com/?q=17.9644363,102.6113026",
   "lat": 17.9644363,
   "lng": 102.6113026,
   "halalFriendly": false,
   "bookingUrl": "https://maps.google.com/?q=17.9644363,102.6113026",
   "source": "osm"
  },
  {
   "nom": "Usouk Hotel",
   "categorie": "Hôtel",
   "priceRange": "€€",
   "mapsUrl": "https://maps.google.com/?q=17.9669481,102.6099374",
   "lat": 17.9669481,
   "lng": 102.6099374,
   "halalFriendly": false,
   "bookingUrl": "http://usoukhotel.com/",
   "source": "osm"
  },
  {
   "nom": "ເຮືອນພັກ ບົວສີ",
   "categorie": "Maison d'hôtes",
   "priceRange": "€€",
   "mapsUrl": "https://maps.google.com/?q=17.9663133,102.6100982",
   "lat": 17.9663133,
   "lng": 102.6100982,
   "halalFriendly": false,
   "bookingUrl": "https://maps.google.com/?q=17.9663133,102.6100982",
   "source": "osm"
  },
  {
   "nom": "La Gondola Guesthouse and Restaurant",
   "categorie": "Maison d'hôtes",
   "priceRange": "€€",
   "mapsUrl": "https://maps.google.com/?q=17.96569,102.6102535",
   "lat": 17.96569,
   "lng": 102.6102535,
   "halalFriendly": false,
   "bookingUrl": "https://maps.google.com/?q=17.96569,102.6102535",
   "source": "osm"
  },
  {
   "nom": "Day Inn",
   "categorie": "Hôtel",
   "priceRange": "€€",
   "mapsUrl": "https://maps.google.com/?q=17.9670474,102.6096302",
   "lat": 17.9670474,
   "lng": 102.6096302,
   "halalFriendly": false,
   "bookingUrl": "https://maps.google.com/?q=17.9670474,102.6096302",
   "source": "osm"
  },
  {
   "nom": "Sabaidee @ Lao Hotel",
   "categorie": "Hôtel",
   "priceRange": "€€",
   "mapsUrl": "https://maps.google.com/?q=17.9667175,102.6096948",
   "lat": 17.9667175,
   "lng": 102.6096948,
   "halalFriendly": false,
   "bookingUrl": "http://www.sabaideeatlaohotel.com/",
   "source": "osm"
  },
  {
   "nom": "Wonderland 2",
   "categorie": "Maison d'hôtes",
   "priceRange": "€€",
   "mapsUrl": "https://maps.google.com/?q=17.9657066,102.6101183",
   "lat": 17.9657066,
   "lng": 102.6101183,
   "halalFriendly": false,
   "bookingUrl": "https://maps.google.com/?q=17.9657066,102.6101183",
   "source": "osm"
  },
  {
   "nom": "Kesada",
   "categorie": "Maison d'hôtes",
   "priceRange": "€€",
   "mapsUrl": "https://maps.google.com/?q=17.9553876,102.619324",
   "lat": 17.9553876,
   "lng": 102.619324,
   "halalFriendly": false,
   "bookingUrl": "https://maps.google.com/?q=17.9553876,102.619324",
   "source": "osm"
  },
  {
   "nom": "Family Hotel",
   "categorie": "Hôtel",
   "priceRange": "€€",
   "mapsUrl": "https://maps.google.com/?q=17.9659624,102.6097407",
   "lat": 17.9659624,
   "lng": 102.6097407,
   "halalFriendly": false,
   "bookingUrl": "https://maps.google.com/?q=17.9659624,102.6097407",
   "source": "osm"
  },
  {
   "nom": "Green Box Hotel",
   "categorie": "Hôtel",
   "priceRange": "€€",
   "mapsUrl": "https://maps.google.com/?q=17.9652283,102.6100601",
   "lat": 17.9652283,
   "lng": 102.6100601,
   "halalFriendly": false,
   "bookingUrl": "https://maps.google.com/?q=17.9652283,102.6100601",
   "source": "osm"
  },
  {
   "nom": "Asian Pavilion Hotel",
   "categorie": "Hôtel",
   "priceRange": "€€",
   "mapsUrl": "https://maps.google.com/?q=17.9654853,102.609896",
   "lat": 17.9654853,
   "lng": 102.609896,
   "halalFriendly": false,
   "bookingUrl": "https://maps.google.com/?q=17.9654853,102.609896",
   "source": "osm"
  },
  {
   "nom": "New Rose Boutique Hotel",
   "categorie": "Hôtel",
   "priceRange": "€€",
   "mapsUrl": "https://maps.google.com/?q=17.9661268,102.6094565",
   "lat": 17.9661268,
   "lng": 102.6094565,
   "halalFriendly": false,
   "bookingUrl": "https://www.facebook.com/pages/New-Rose-Boutique-Hotel/227052564157262",
   "source": "osm"
  },
  {
   "nom": "Annivong 2",
   "categorie": "Maison d'hôtes",
   "priceRange": "€€",
   "mapsUrl": "https://maps.google.com/?q=17.9529937,102.6232524",
   "lat": 17.9529937,
   "lng": 102.6232524,
   "halalFriendly": false,
   "bookingUrl": "https://maps.google.com/?q=17.9529937,102.6232524",
   "source": "osm"
  },
  {
   "nom": "Triple Three Condo",
   "categorie": "Appartement",
   "priceRange": "€€",
   "mapsUrl": "https://maps.google.com/?q=17.965326,102.6094665",
   "lat": 17.965326,
   "lng": 102.6094665,
   "halalFriendly": false,
   "bookingUrl": "http://www.triplethreecondo.com",
   "source": "osm"
  },
  {
   "nom": "Villa Manoly",
   "categorie": "Maison d'hôtes",
   "priceRange": "€€",
   "mapsUrl": "https://maps.google.com/?q=17.9576184,102.6151095",
   "lat": 17.9576184,
   "lng": 102.6151095,
   "halalFriendly": false,
   "bookingUrl": "https://maps.google.com/?q=17.9576184,102.6151095",
   "source": "osm"
  },
  {
   "nom": "New Lao Paris Hotel",
   "categorie": "Hôtel",
   "priceRange": "€€",
   "mapsUrl": "https://maps.google.com/?q=17.9656268,102.6091324",
   "lat": 17.9656268,
   "lng": 102.6091324,
   "halalFriendly": false,
   "bookingUrl": "https://maps.google.com/?q=17.9656268,102.6091324",
   "source": "osm"
  },
  {
   "nom": "Lao Plaza Hotel",
   "categorie": "Hôtel",
   "priceRange": "€€",
   "mapsUrl": "https://maps.google.com/?q=17.9666149,102.6086385",
   "lat": 17.9666149,
   "lng": 102.6086385,
   "halalFriendly": false,
   "bookingUrl": "https://maps.google.com/?q=17.9666149,102.6086385",
   "source": "osm"
  },
  {
   "nom": "Ray's place",
   "categorie": "Appartement",
   "priceRange": "€€",
   "mapsUrl": "https://maps.google.com/?q=17.9508609,102.6300038",
   "lat": 17.9508609,
   "lng": 102.6300038,
   "halalFriendly": false,
   "bookingUrl": "https://maps.google.com/?q=17.9508609,102.6300038",
   "source": "osm"
  },
  {
   "nom": "Chinese MaoJia Hotel",
   "categorie": "Hôtel",
   "priceRange": "€€",
   "mapsUrl": "https://maps.google.com/?q=17.9737849,102.6067819",
   "lat": 17.9737849,
   "lng": 102.6067819,
   "halalFriendly": false,
   "bookingUrl": "https://maps.google.com/?q=17.9737849,102.6067819",
   "source": "osm"
  },
  {
   "nom": "Phonepaseuth",
   "categorie": "Maison d'hôtes",
   "priceRange": "€€",
   "mapsUrl": "https://maps.google.com/?q=17.9654398,102.6087452",
   "lat": 17.9654398,
   "lng": 102.6087452,
   "halalFriendly": false,
   "bookingUrl": "https://maps.google.com/?q=17.9654398,102.6087452",
   "source": "osm"
  },
  {
   "nom": "Ai-1 Apartment",
   "categorie": "Appartement",
   "priceRange": "€€",
   "mapsUrl": "https://maps.google.com/?q=17.9516322,102.6246895",
   "lat": 17.9516322,
   "lng": 102.6246895,
   "halalFriendly": false,
   "bookingUrl": "https://maps.google.com/?q=17.9516322,102.6246895",
   "source": "osm"
  },
  {
   "nom": "Pangkham",
   "categorie": "Maison d'hôtes",
   "priceRange": "€€",
   "mapsUrl": "https://maps.google.com/?q=17.9653893,102.6086974",
   "lat": 17.9653893,
   "lng": 102.6086974,
   "halalFriendly": false,
   "bookingUrl": "https://maps.google.com/?q=17.9653893,102.6086974",
   "source": "osm"
  },
  {
   "nom": "iHouse",
   "categorie": "Hôtel",
   "priceRange": "€€",
   "mapsUrl": "https://maps.google.com/?q=17.9653247,102.6086554",
   "lat": 17.9653247,
   "lng": 102.6086554,
   "halalFriendly": false,
   "bookingUrl": "https://maps.google.com/?q=17.9653247,102.6086554",
   "source": "osm"
  },
  {
   "nom": "Hōnghǣm Malinamphu",
   "categorie": "Hôtel",
   "priceRange": "€€",
   "mapsUrl": "https://maps.google.com/?q=17.9652611,102.6086063",
   "lat": 17.9652611,
   "lng": 102.6086063,
   "halalFriendly": false,
   "bookingUrl": "https://www.malinamphuhotel.com/",
   "source": "osm"
  },
  {
   "nom": "Chanthasom",
   "categorie": "Maison d'hôtes",
   "priceRange": "€€",
   "mapsUrl": "https://maps.google.com/?q=17.9568411,102.614954",
   "lat": 17.9568411,
   "lng": 102.614954,
   "halalFriendly": false,
   "bookingUrl": "https://maps.google.com/?q=17.9568411,102.614954",
   "source": "osm"
  },
  {
   "nom": "PVO",
   "categorie": "Auberge",
   "priceRange": "€€",
   "mapsUrl": "https://maps.google.com/?q=17.965149,102.6084982",
   "lat": 17.965149,
   "lng": 102.6084982,
   "halalFriendly": false,
   "bookingUrl": "https://maps.google.com/?q=17.965149,102.6084982",
   "source": "osm"
  },
  {
   "nom": "My Residence Laos",
   "categorie": "Appartement",
   "priceRange": "€€",
   "mapsUrl": "https://maps.google.com/?q=17.9511627,102.6251475",
   "lat": 17.9511627,
   "lng": 102.6251475,
   "halalFriendly": false,
   "bookingUrl": "https://www.facebook.com/myresidencelaos",
   "source": "osm"
  },
  {
   "nom": "Phisitxay",
   "categorie": "Hôtel",
   "priceRange": "€€",
   "mapsUrl": "https://maps.google.com/?q=17.9537973,102.6186836",
   "lat": 17.9537973,
   "lng": 102.6186836,
   "halalFriendly": false,
   "bookingUrl": "https://maps.google.com/?q=17.9537973,102.6186836",
   "source": "osm"
  },
  {
   "nom": "jieb",
   "categorie": "Appartement",
   "priceRange": "€€",
   "mapsUrl": "https://maps.google.com/?q=17.9785529,102.6601961",
   "lat": 17.9785529,
   "lng": 102.6601961,
   "halalFriendly": false,
   "bookingUrl": "https://maps.google.com/?q=17.9785529,102.6601961",
   "source": "osm"
  },
  {
   "nom": "Syri 1",
   "categorie": "Maison d'hôtes",
   "priceRange": "€€",
   "mapsUrl": "https://maps.google.com/?q=17.9682374,102.6068815",
   "lat": 17.9682374,
   "lng": 102.6068815,
   "halalFriendly": false,
   "bookingUrl": "https://maps.google.com/?q=17.9682374,102.6068815",
   "source": "osm"
  },
  {
   "nom": "Thavikhoun Hotel",
   "categorie": "Hôtel",
   "priceRange": "€€",
   "mapsUrl": "https://maps.google.com/?q=18.0008792,102.6260608",
   "lat": 18.0008792,
   "lng": 102.6260608,
   "halalFriendly": false,
   "bookingUrl": "https://maps.google.com/?q=18.0008792,102.6260608",
   "source": "osm"
  }
 ],
 "mosqueesPrincipales": [
  {
   "id": "m4768898151",
   "nom": "City Pillar Shrine",
   "type": "Mosquée",
   "adresse": "",
   "description": "Lieu de prière (OpenStreetMap).",
   "mapsUrl": "https://maps.google.com/?q=17.9585653,102.6156274",
   "lat": 17.9585653,
   "lng": 102.6156274,
   "source": "osm"
  },
  {
   "id": "m523575544",
   "nom": "Jamia Masjid",
   "type": "Mosquée",
   "adresse": "",
   "description": "Lieu de prière (OpenStreetMap).",
   "mapsUrl": "https://maps.google.com/?q=17.9646912,102.6089984",
   "lat": 17.9646912,
   "lng": 102.6089984,
   "source": "osm"
  },
  {
   "id": "m4995220675",
   "nom": "ມັສຢິດອາສາຮາຣ",
   "type": "Mosquée",
   "adresse": "",
   "description": "Lieu de prière (OpenStreetMap).",
   "mapsUrl": "https://maps.google.com/?q=17.9811739,102.6006119",
   "lat": 17.9811739,
   "lng": 102.6006119,
   "source": "osm"
  }
 ],
 "activites": [
  {
   "id": "a736754961",
   "nom": "ອານຸສາວະລີ ນັກຮົບນີລະນາມ",
   "categorie": "monument",
   "description": "",
   "prix": "",
   "duree": "",
   "mapsUrl": "https://maps.google.com/?q=17.9771652,102.6319571",
   "lat": 17.9771652,
   "lng": 102.6319571,
   "source": "osm"
  },
  {
   "id": "a670442290",
   "nom": "King Sai Setthathirath",
   "categorie": "memorial",
   "description": "",
   "prix": "",
   "duree": "",
   "mapsUrl": "https://maps.google.com/?q=17.9764567,102.6355844",
   "lat": 17.9764567,
   "lng": 102.6355844,
   "source": "osm"
  },
  {
   "id": "a1329348608",
   "nom": "Reclining Buddha",
   "categorie": "monument",
   "description": "",
   "prix": "",
   "duree": "",
   "mapsUrl": "https://maps.google.com/?q=17.9760443,102.6369109",
   "lat": 17.9760443,
   "lng": 102.6369109,
   "source": "osm"
  },
  {
   "id": "a3601792145",
   "nom": "People's Security Museum",
   "categorie": "museum",
   "description": "",
   "prix": "",
   "duree": "",
   "mapsUrl": "https://maps.google.com/?q=17.9797554,102.630659",
   "lat": 17.9797554,
   "lng": 102.630659,
   "source": "osm"
  },
  {
   "id": "a4193262465",
   "nom": "ອະນຸສອນສະຖານ ປະທານ ສຸພານຸວົງ",
   "categorie": "museum",
   "description": "",
   "prix": "",
   "duree": "",
   "mapsUrl": "https://maps.google.com/?q=17.9797252,102.6289422",
   "lat": 17.9797252,
   "lng": 102.6289422,
   "source": "osm"
  },
  {
   "id": "a4488073989",
   "nom": "Tattoo Artist Miguel",
   "categorie": "artwork",
   "description": "",
   "prix": "",
   "duree": "",
   "mapsUrl": "https://maps.google.com/?q=17.9691644,102.6334544",
   "lat": 17.9691644,
   "lng": 102.6334544,
   "source": "osm"
  },
  {
   "id": "a451833243",
   "nom": "Lao People's Army History Museum",
   "categorie": "museum",
   "description": "",
   "prix": "",
   "duree": "",
   "mapsUrl": "https://maps.google.com/?q=17.9826439,102.6305402",
   "lat": 17.9826439,
   "lng": 102.6305402,
   "source": "osm"
  },
  {
   "id": "a4866155221",
   "nom": "World Peace Gong",
   "categorie": "attraction",
   "description": "",
   "prix": "",
   "duree": "",
   "mapsUrl": "https://maps.google.com/?q=17.9725049,102.6207182",
   "lat": 17.9725049,
   "lng": 102.6207182,
   "source": "osm"
  },
  {
   "id": "a5810666553",
   "nom": "toskanink tattoo studio",
   "categorie": "artwork",
   "description": "",
   "prix": "",
   "duree": "",
   "mapsUrl": "https://maps.google.com/?q=17.9652297,102.6223651",
   "lat": 17.9652297,
   "lng": 102.6223651,
   "source": "osm"
  },
  {
   "id": "a41566774",
   "nom": "ປະຕູໄຊ",
   "categorie": "attraction",
   "description": "",
   "prix": "",
   "duree": "",
   "mapsUrl": "https://maps.google.com/?q=17.9706337,102.6186144",
   "lat": 17.9706337,
   "lng": 102.6186144,
   "source": "osm"
  },
  {
   "id": "a11653132069",
   "nom": "ວັດເທບນີມິດ (ວັດທາດຝຸ່ນ)",
   "categorie": "attraction",
   "description": "",
   "prix": "",
   "duree": "",
   "mapsUrl": "https://maps.google.com/?q=17.967877,102.6188986",
   "lat": 17.967877,
   "lng": 102.6188986,
   "source": "osm"
  },
  {
   "id": "a10833396005",
   "nom": "MAG visitors center",
   "categorie": "museum",
   "description": "",
   "prix": "",
   "duree": "",
   "mapsUrl": "https://maps.google.com/?q=17.977192,102.6154692",
   "lat": 17.977192,
   "lng": 102.6154692,
   "source": "osm"
  },
  {
   "id": "a4755815222",
   "nom": "KMM home",
   "categorie": "artwork",
   "description": "",
   "prix": "",
   "duree": "",
   "mapsUrl": "https://maps.google.com/?q=17.9906278,102.6246042",
   "lat": 17.9906278,
   "lng": 102.6246042,
   "source": "osm"
  },
  {
   "id": "a5579796822",
   "nom": "Lao textile handicraft",
   "categorie": "artwork",
   "description": "",
   "prix": "",
   "duree": "",
   "mapsUrl": "https://maps.google.com/?q=17.9656775,102.6145058",
   "lat": 17.9656775,
   "lng": 102.6145058,
   "source": "osm"
  },
  {
   "id": "a542448534",
   "nom": "ITECC Zoo",
   "categorie": "zoo",
   "description": "",
   "prix": "",
   "duree": "",
   "mapsUrl": "https://maps.google.com/?q=17.9600428,102.6475058",
   "lat": 17.9600428,
   "lng": 102.6475058,
   "source": "osm"
  },
  {
   "id": "a202507944",
   "nom": "COPE Visitor Centre",
   "categorie": "museum",
   "description": "",
   "prix": "",
   "duree": "",
   "mapsUrl": "https://maps.google.com/?q=17.9579516,102.6203163",
   "lat": 17.9579516,
   "lng": 102.6203163,
   "source": "osm"
  },
  {
   "id": "a6939155493",
   "nom": "Mali's house",
   "categorie": "park",
   "description": "",
   "prix": "",
   "duree": "",
   "mapsUrl": "https://maps.google.com/?q=17.9531425,102.6347713",
   "lat": 17.9531425,
   "lng": 102.6347713,
   "source": "osm"
  },
  {
   "id": "a3783026357",
   "nom": "Coffee Ah'",
   "categorie": "gallery",
   "description": "",
   "prix": "",
   "duree": "",
   "mapsUrl": "https://maps.google.com/?q=17.952698,102.6315456",
   "lat": 17.952698,
   "lng": 102.6315456,
   "source": "osm"
  },
  {
   "id": "a7047951990",
   "nom": "Vangtong Evening food market",
   "categorie": "attraction",
   "description": "",
   "prix": "",
   "duree": "",
   "mapsUrl": "https://maps.google.com/?q=17.9698876,102.6072006",
   "lat": 17.9698876,
   "lng": 102.6072006,
   "source": "osm"
  },
  {
   "id": "a4237007889",
   "nom": "Carol Cassidy Lao Textiles",
   "categorie": "artwork",
   "description": "",
   "prix": "",
   "duree": "",
   "mapsUrl": "https://maps.google.com/?q=17.9657751,102.6061494",
   "lat": 17.9657751,
   "lng": 102.6061494,
   "source": "osm"
  },
  {
   "id": "a1104321054",
   "nom": "Chao Anouvong Statue",
   "categorie": "memorial",
   "description": "",
   "prix": "",
   "duree": "",
   "mapsUrl": "https://maps.google.com/?q=17.960447,102.6084436",
   "lat": 17.960447,
   "lng": 102.6084436,
   "source": "osm"
  },
  {
   "id": "a11652932852",
   "nom": "Night food market",
   "categorie": "attraction",
   "description": "",
   "prix": "",
   "duree": "",
   "mapsUrl": "https://maps.google.com/?q=17.9671515,102.6047278",
   "lat": 17.9671515,
   "lng": 102.6047278,
   "source": "osm"
  },
  {
   "id": "a637024891",
   "nom": "Weopadith Swimming Pool",
   "categorie": "water park",
   "description": "",
   "prix": "",
   "duree": "",
   "mapsUrl": "https://maps.google.com/?q=18.0045869,102.6338279",
   "lat": 18.0045869,
   "lng": 102.6338279,
   "source": "osm"
  },
  {
   "id": "a1268872755",
   "nom": "Musée du textile laotien",
   "categorie": "museum",
   "description": "",
   "prix": "",
   "duree": "",
   "mapsUrl": "https://maps.google.com/?q=18.000683,102.6170696",
   "lat": 18.000683,
   "lng": 102.6170696,
   "source": "osm"
  },
  {
   "id": "a9200321331",
   "nom": "Chinatown",
   "categorie": "attraction",
   "description": "",
   "prix": "",
   "duree": "",
   "mapsUrl": "https://maps.google.com/?q=17.9664186,102.6034559",
   "lat": 17.9664186,
   "lng": 102.6034559,
   "source": "osm"
  },
  {
   "id": "a1126005592",
   "nom": "Lower Night Market",
   "categorie": "attraction",
   "description": "",
   "prix": "",
   "duree": "",
   "mapsUrl": "https://maps.google.com/?q=17.9617118,102.6054226",
   "lat": 17.9617118,
   "lng": 102.6054226,
   "source": "osm"
  },
  {
   "id": "a3721555003",
   "nom": "Taibān",
   "categorie": "attraction",
   "description": "",
   "prix": "",
   "duree": "",
   "mapsUrl": "https://maps.google.com/?q=17.965051,102.6030356",
   "lat": 17.965051,
   "lng": 102.6030356,
   "source": "osm"
  },
  {
   "id": "a5374066322",
   "nom": "KONGKEO",
   "categorie": "attraction",
   "description": "",
   "prix": "",
   "duree": "",
   "mapsUrl": "https://maps.google.com/?q=17.9722488,102.6011343",
   "lat": 17.9722488,
   "lng": 102.6011343,
   "source": "osm"
  },
  {
   "id": "a4078248421",
   "nom": "MAG UXO Visitors Centre",
   "categorie": "museum",
   "description": "",
   "prix": "",
   "duree": "",
   "mapsUrl": "https://maps.google.com/?q=17.964747,102.6028019",
   "lat": 17.964747,
   "lng": 102.6028019,
   "source": "osm"
  },
  {
   "id": "a5236049224",
   "nom": "Sunset Viewpoint",
   "categorie": "viewpoint",
   "description": "",
   "prix": "",
   "duree": "",
   "mapsUrl": "https://maps.google.com/?q=17.9634491,102.601495",
   "lat": 17.9634491,
   "lng": 102.601495,
   "source": "osm"
  },
  {
   "id": "a40545553",
   "nom": "ຫໍພິພິຕະພັນໄກສອນ",
   "categorie": "museum",
   "description": "",
   "prix": "",
   "duree": "",
   "mapsUrl": "https://maps.google.com/?q=18.0067554,102.6442746",
   "lat": 18.0067554,
   "lng": 102.6442746,
   "source": "osm"
  },
  {
   "id": "a549654627",
   "nom": "Lao National Museum",
   "categorie": "museum",
   "description": "",
   "prix": "",
   "duree": "",
   "mapsUrl": "https://maps.google.com/?q=18.0076802,102.6452901",
   "lat": 18.0076802,
   "lng": 102.6452901,
   "source": "osm"
  },
  {
   "id": "a7157908986",
   "nom": "Hotel",
   "categorie": "memorial",
   "description": "",
   "prix": "",
   "duree": "",
   "mapsUrl": "https://maps.google.com/?q=18.0099336,102.6285242",
   "lat": 18.0099336,
   "lng": 102.6285242,
   "source": "osm"
  },
  {
   "id": "a374198534",
   "nom": "Chao Fa Ngum Monument",
   "categorie": "memorial",
   "description": "",
   "prix": "",
   "duree": "",
   "mapsUrl": "https://maps.google.com/?q=17.9685054,102.5960177",
   "lat": 17.9685054,
   "lng": 102.5960177,
   "source": "osm"
  },
  {
   "id": "a5265118322",
   "nom": "Elephant Dish Statue",
   "categorie": "artwork",
   "description": "",
   "prix": "",
   "duree": "",
   "mapsUrl": "https://maps.google.com/?q=17.9684812,102.5945302",
   "lat": 17.9684812,
   "lng": 102.5945302,
   "source": "osm"
  },
  {
   "id": "a1131935489",
   "nom": "Naga Beach",
   "categorie": "attraction",
   "description": "",
   "prix": "",
   "duree": "",
   "mapsUrl": "https://maps.google.com/?q=17.9657091,102.5940056",
   "lat": 17.9657091,
   "lng": 102.5940056,
   "source": "osm"
  },
  {
   "id": "a4933464721",
   "nom": "Houey Hong Vocational Training Center for Women",
   "categorie": "attraction",
   "description": "",
   "prix": "",
   "duree": "",
   "mapsUrl": "https://maps.google.com/?q=18.023429,102.61651",
   "lat": 18.023429,
   "lng": 102.61651,
   "source": "osm"
  },
  {
   "id": "a8198165755",
   "nom": "S Mini-zoo",
   "categorie": "zoo",
   "description": "",
   "prix": "",
   "duree": "",
   "mapsUrl": "https://maps.google.com/?q=17.9902939,102.578541",
   "lat": 17.9902939,
   "lng": 102.578541,
   "source": "osm"
  },
  {
   "id": "a1193778640",
   "nom": "Soviet Pilots' Monument",
   "categorie": "monument",
   "description": "",
   "prix": "",
   "duree": "",
   "mapsUrl": "https://maps.google.com/?q=17.970342,102.5724584",
   "lat": 17.970342,
   "lng": 102.5724584,
   "source": "osm"
  },
  {
   "id": "a6980140145",
   "nom": "ປ່າສັກສິດປາກທ້າງ",
   "categorie": "park",
   "description": "",
   "prix": "",
   "duree": "",
   "mapsUrl": "https://maps.google.com/?q=17.986822,102.5726904",
   "lat": 17.986822,
   "lng": 102.5726904,
   "source": "osm"
  },
  {
   "id": "a13677451479",
   "nom": "An-2",
   "categorie": "monument",
   "description": "",
   "prix": "",
   "duree": "",
   "mapsUrl": "https://maps.google.com/?q=17.9711603,102.5708793",
   "lat": 17.9711603,
   "lng": 102.5708793,
   "source": "osm"
  },
  {
   "id": "a673957806",
   "nom": "Wattay Airport Gateway",
   "categorie": "artwork",
   "description": "",
   "prix": "",
   "duree": "",
   "mapsUrl": "https://maps.google.com/?q=17.9721256,102.5668721",
   "lat": 17.9721256,
   "lng": 102.5668721,
   "source": "osm"
  },
  {
   "id": "a4683035494",
   "nom": "Talat Sikai",
   "categorie": "monument",
   "description": "",
   "prix": "",
   "duree": "",
   "mapsUrl": "https://maps.google.com/?q=17.9767893,102.5564293",
   "lat": 17.9767893,
   "lng": 102.5564293,
   "source": "osm"
  }
 ],
 "villeNonMusulmane": true,
 "osmEnriched": true,
 "osmEnrichedAt": "2026-06-30"
}
