{
  "slug": "washington",
  "nom": "Washington",
  "pays": "États-Unis",
  "pays_slug": "etats-unis",
  "continent": "Amérique du Nord",
  "region": "États-Unis",
  "coordonnees": {
    "lat": 38.9072,
    "lng": -77.0369
  },
  "codeISO": "US",
  "score_halal": 3.7,
  "halalScore": 7.4,
  "villeNonMusulmane": true,
  "description": "Capitale fédérale américaine. Centre islamique historique et large offre halal, communauté internationale.",
  "metaDescription": "Capitale fédérale américaine. Centre islamique historique et large offre halal, communauté internationale.",
  "image": "https://upload.wikimedia.org/wikipedia/commons/e/e4/12-07-13-washington-by-RalfR-08.jpg",
  "image_hero": "https://upload.wikimedia.org/wikipedia/commons/e/e4/12-07-13-washington-by-RalfR-08.jpg",
  "imageCredit": "Wikimedia Commons",
  "statistiques": {
    "restaurants_halal": 90,
    "mosquees": 11,
    "hotels": 120
  },
  "infoPratique": {
    "transport": "Accessible par avion et transports en commun locaux.",
    "meilleureEpoque": "Printemps et automne (climat tempéré).",
    "conseilHalal": "Ville non-musulmane : repérez les restaurants halal certifiés et les mosquées via l'application avant votre visite."
  },
  "tags": [
    "halal",
    "ville non-musulmane",
    "amérique du nord"
  ],
  "restaurants": [
    {
      "nom": "Shah's Halal Food",
      "type": "middle eastern",
      "priceRange": "€€",
      "mapsUrl": "https://maps.google.com/?q=38.9081346,-77.042299",
      "lat": 38.9081346,
      "lng": -77.042299,
      "halalConfidence": "only",
      "source": "osm"
    },
    {
      "nom": "Safa Halal",
      "type": "middle eastern, american",
      "priceRange": "€€",
      "mapsUrl": "https://maps.google.com/?q=38.9160883,-77.0414741",
      "lat": 38.9160883,
      "lng": -77.0414741,
      "halalConfidence": "yes",
      "source": "osm"
    },
    {
      "nom": "Spice 6",
      "type": "indian",
      "priceRange": "€€",
      "mapsUrl": "https://maps.google.com/?q=38.8994228,-77.0201205",
      "lat": 38.8994228,
      "lng": -77.0201205,
      "halalConfidence": "yes",
      "source": "osm"
    },
    {
      "nom": "Busboys and Poets",
      "type": "sandwich, chicken, american, middle eastern",
      "priceRange": "€€",
      "mapsUrl": "https://maps.google.com/?q=38.9023202,-77.0179932",
      "lat": 38.9023202,
      "lng": -77.0179932,
      "halalConfidence": "yes",
      "source": "osm"
    },
    {
      "nom": "Sharbat Bakery & Café",
      "type": "sandwich, azerbaijani, middle eastern",
      "priceRange": "€€",
      "mapsUrl": "https://maps.google.com/?q=38.9223241,-77.0423621",
      "lat": 38.9223241,
      "lng": -77.0423621,
      "halalConfidence": "yes",
      "source": "osm"
    },
    {
      "nom": "Bantam King",
      "type": "noodle",
      "priceRange": "€€",
      "mapsUrl": "https://maps.google.com/?q=38.8984619,-77.0191292",
      "lat": 38.8984619,
      "lng": -77.0191292,
      "halalConfidence": "yes",
      "source": "osm"
    },
    {
      "nom": "New York Grill",
      "type": "middle eastern, american",
      "priceRange": "€€",
      "mapsUrl": "https://maps.google.com/?q=38.9235621,-77.040989",
      "lat": 38.9235621,
      "lng": -77.040989,
      "halalConfidence": "yes",
      "source": "osm"
    },
    {
      "nom": "DC Tasty Corner",
      "type": "Restaurant halal",
      "priceRange": "€€",
      "mapsUrl": "https://maps.google.com/?q=38.9077227,-77.062995",
      "lat": 38.9077227,
      "lng": -77.062995,
      "halalConfidence": "yes",
      "source": "osm"
    },
    {
      "nom": "Georgetown Pizza & Grill",
      "type": "pizza",
      "priceRange": "€€",
      "mapsUrl": "https://maps.google.com/?q=38.9077275,-77.0639035",
      "lat": 38.9077275,
      "lng": -77.0639035,
      "halalConfidence": "yes",
      "source": "osm"
    },
    {
      "nom": "Halal Wrist",
      "type": "Restaurant halal",
      "priceRange": "€€",
      "mapsUrl": "https://maps.google.com/?q=38.9287637,-77.0229743",
      "lat": 38.9287637,
      "lng": -77.0229743,
      "halalConfidence": "yes",
      "source": "osm"
    },
    {
      "nom": "The Halal Guys",
      "type": "chicken, falafel, gyros",
      "priceRange": "€€",
      "mapsUrl": "https://maps.google.com/?q=38.8975706,-77.0065491",
      "lat": 38.8975706,
      "lng": -77.0065491,
      "halalConfidence": "yes",
      "source": "osm"
    },
    {
      "nom": "Citi Pizza",
      "type": "pizza, pakistani",
      "priceRange": "€€",
      "mapsUrl": "https://maps.google.com/?q=38.900383,-76.999166",
      "lat": 38.900383,
      "lng": -76.999166,
      "halalConfidence": "yes",
      "source": "osm"
    },
    {
      "nom": "Halal Shack",
      "type": "mediterranean",
      "priceRange": "€€",
      "mapsUrl": "https://maps.google.com/?q=38.9371763,-77.0888801",
      "lat": 38.9371763,
      "lng": -77.0888801,
      "halalConfidence": "yes",
      "source": "osm"
    },
    {
      "nom": "Baba's Pizza",
      "type": "pizza",
      "priceRange": "€€",
      "mapsUrl": "https://maps.google.com/?q=38.9371492,-77.0889558",
      "lat": 38.9371492,
      "lng": -77.0889558,
      "halalConfidence": "yes",
      "source": "osm"
    },
    {
      "nom": "Wonder",
      "type": "international",
      "priceRange": "€€",
      "mapsUrl": "https://maps.google.com/?q=38.8375105,-77.0510558",
      "lat": 38.8375105,
      "lng": -77.0510558,
      "halalConfidence": "yes",
      "source": "osm"
    },
    {
      "nom": "Omar's Pitas & Platters",
      "type": "arab",
      "priceRange": "€€",
      "mapsUrl": "https://maps.google.com/?q=38.8338224,-77.0517353",
      "lat": 38.8338224,
      "lng": -77.0517353,
      "halalConfidence": "yes",
      "source": "osm"
    },
    {
      "nom": "Haifa Grill",
      "type": "shawarma, arab",
      "priceRange": "€€",
      "mapsUrl": "https://maps.google.com/?q=38.8469903,-77.1249769",
      "lat": 38.8469903,
      "lng": -77.1249769,
      "halalConfidence": "yes",
      "source": "osm"
    },
    {
      "nom": "Darvish Kitchen",
      "type": "persian",
      "priceRange": "€€",
      "mapsUrl": "https://maps.google.com/?q=38.9051588,-77.0405433",
      "lat": 38.9051588,
      "lng": -77.0405433,
      "halalConfidence": "likely",
      "source": "osm"
    },
    {
      "nom": "Agora",
      "type": "turkish, mediterranean",
      "priceRange": "€€",
      "mapsUrl": "https://maps.google.com/?q=38.9106296,-77.0382506",
      "lat": 38.9106296,
      "lng": -77.0382506,
      "halalConfidence": "likely",
      "source": "osm"
    },
    {
      "nom": "Moby Dick House of Kabob",
      "type": "kebab",
      "priceRange": "€€",
      "mapsUrl": "https://maps.google.com/?q=38.907382,-77.0428287",
      "lat": 38.907382,
      "lng": -77.0428287,
      "halalConfidence": "likely",
      "source": "osm"
    },
    {
      "nom": "ala",
      "type": "turkish",
      "priceRange": "€€",
      "mapsUrl": "https://maps.google.com/?q=38.9080838,-77.0436669",
      "lat": 38.9080838,
      "lng": -77.0436669,
      "halalConfidence": "likely",
      "source": "osm"
    },
    {
      "nom": "Grill Kabob",
      "type": "afghan",
      "priceRange": "€€",
      "mapsUrl": "https://maps.google.com/?q=38.903455,-77.0436693",
      "lat": 38.903455,
      "lng": -77.0436693,
      "halalConfidence": "likely",
      "source": "osm"
    },
    {
      "nom": "LebTav",
      "type": "lebanese",
      "priceRange": "€€",
      "mapsUrl": "https://maps.google.com/?q=38.9010451,-77.0396954",
      "lat": 38.9010451,
      "lng": -77.0396954,
      "halalConfidence": "likely",
      "source": "osm"
    },
    {
      "nom": "Capital Doner",
      "type": "turkish",
      "priceRange": "€€",
      "mapsUrl": "https://maps.google.com/?q=38.9097936,-77.0464416",
      "lat": 38.9097936,
      "lng": -77.0464416,
      "halalConfidence": "likely",
      "source": "osm"
    },
    {
      "nom": "Marrakesh",
      "type": "moroccan, mediterranean",
      "priceRange": "€€",
      "mapsUrl": "https://maps.google.com/?q=38.9003956,-77.0307147",
      "lat": 38.9003956,
      "lng": -77.0307147,
      "halalConfidence": "likely",
      "source": "osm"
    },
    {
      "nom": "Astoria's Kitchen by 54",
      "type": "moroccan, spanish",
      "priceRange": "€€",
      "mapsUrl": "https://maps.google.com/?q=38.9027672,-77.047121",
      "lat": 38.9027672,
      "lng": -77.047121,
      "halalConfidence": "likely",
      "source": "osm"
    },
    {
      "nom": "Vegz",
      "type": "pakistani, indian",
      "priceRange": "€€",
      "mapsUrl": "https://maps.google.com/?q=38.9185379,-77.0418325",
      "lat": 38.9185379,
      "lng": -77.0418325,
      "halalConfidence": "likely",
      "source": "osm"
    },
    {
      "nom": "Rumi’s Kitchen",
      "type": "persian",
      "priceRange": "€€",
      "mapsUrl": "https://maps.google.com/?q=38.9040129,-77.020809",
      "lat": 38.9040129,
      "lng": -77.020809,
      "halalConfidence": "likely",
      "source": "osm"
    },
    {
      "nom": "Meze",
      "type": "mediterranean, turkish",
      "priceRange": "€€",
      "mapsUrl": "https://maps.google.com/?q=38.9214638,-77.0419909",
      "lat": 38.9214638,
      "lng": -77.0419909,
      "halalConfidence": "likely",
      "source": "osm"
    },
    {
      "nom": "Lapis",
      "type": "afghan",
      "priceRange": "€€",
      "mapsUrl": "https://maps.google.com/?q=38.9213,-77.043828",
      "lat": 38.9213,
      "lng": -77.043828,
      "halalConfidence": "likely",
      "source": "osm"
    },
    {
      "nom": "Oh Mama Grill",
      "type": "mediterranean, kebab, falafel, shawarma",
      "priceRange": "€€",
      "mapsUrl": "https://maps.google.com/?q=38.9217237,-77.043728",
      "lat": 38.9217237,
      "lng": -77.043728,
      "halalConfidence": "likely",
      "source": "osm"
    },
    {
      "nom": "Afghania",
      "type": "afghan",
      "priceRange": "€€",
      "mapsUrl": "https://maps.google.com/?q=38.905397,-77.057421",
      "lat": 38.905397,
      "lng": -77.057421,
      "halalConfidence": "likely",
      "source": "osm"
    },
    {
      "nom": "Villa Yara",
      "type": "lebanese",
      "priceRange": "€€",
      "mapsUrl": "https://maps.google.com/?q=38.9053956,-77.0575419",
      "lat": 38.9053956,
      "lng": -77.0575419,
      "halalConfidence": "likely",
      "source": "osm"
    },
    {
      "nom": "Ottoman Taverna",
      "type": "turkish",
      "priceRange": "€€",
      "mapsUrl": "https://maps.google.com/?q=38.9016723,-77.0163471",
      "lat": 38.9016723,
      "lng": -77.0163471,
      "halalConfidence": "likely",
      "source": "osm"
    },
    {
      "nom": "Muncheez",
      "type": "lebanese",
      "priceRange": "€€",
      "mapsUrl": "https://maps.google.com/?q=38.9046202,-77.0626169",
      "lat": 38.9046202,
      "lng": -77.0626169,
      "halalConfidence": "likely",
      "source": "osm"
    },
    {
      "nom": "Sofra",
      "type": "kebab, mediterranean",
      "priceRange": "€€",
      "mapsUrl": "https://maps.google.com/?q=38.9241859,-77.0516329",
      "lat": 38.9241859,
      "lng": -77.0516329,
      "halalConfidence": "likely",
      "source": "osm"
    },
    {
      "nom": "Salt and Pepper Grill",
      "type": "indian, pakistani",
      "priceRange": "€€",
      "mapsUrl": "https://maps.google.com/?q=38.925042,-77.022882",
      "lat": 38.925042,
      "lng": -77.022882,
      "halalConfidence": "likely",
      "source": "osm"
    },
    {
      "nom": "My Little Chamomile",
      "type": "turkish",
      "priceRange": "€€",
      "mapsUrl": "https://maps.google.com/?q=38.9036755,-77.0634415",
      "lat": 38.9036755,
      "lng": -77.0634415,
      "halalConfidence": "likely",
      "source": "osm"
    },
    {
      "nom": "O'Kabul",
      "type": "turkish",
      "priceRange": "€€",
      "mapsUrl": "https://maps.google.com/?q=38.9158993,-77.0123486",
      "lat": 38.9158993,
      "lng": -77.0123486,
      "halalConfidence": "likely",
      "source": "osm"
    },
    {
      "nom": "Lebanese Taverna",
      "type": "lebanese",
      "priceRange": "€€",
      "mapsUrl": "https://maps.google.com/?q=38.9247116,-77.0519049",
      "lat": 38.9247116,
      "lng": -77.0519049,
      "halalConfidence": "likely",
      "source": "osm"
    },
    {
      "nom": "Mâmân Joon",
      "type": "persian",
      "priceRange": "€€",
      "mapsUrl": "https://maps.google.com/?q=38.9285714,-77.0335287",
      "lat": 38.9285714,
      "lng": -77.0335287,
      "halalConfidence": "likely",
      "source": "osm"
    },
    {
      "nom": "Kookoo",
      "type": "persian",
      "priceRange": "€€",
      "mapsUrl": "https://maps.google.com/?q=38.9307114,-77.0329229",
      "lat": 38.9307114,
      "lng": -77.0329229,
      "halalConfidence": "likely",
      "source": "osm"
    },
    {
      "nom": "Cafe Divan",
      "type": "turkish, sandwich, pizza",
      "priceRange": "€€",
      "mapsUrl": "https://maps.google.com/?q=38.9154749,-77.0677926",
      "lat": 38.9154749,
      "lng": -77.0677926,
      "halalConfidence": "likely",
      "source": "osm"
    },
    {
      "nom": "ilili",
      "type": "lebanese",
      "priceRange": "€€",
      "mapsUrl": "https://maps.google.com/?q=38.879792,-77.025522",
      "lat": 38.879792,
      "lng": -77.025522,
      "halalConfidence": "likely",
      "source": "osm"
    },
    {
      "nom": "La' Shukran",
      "type": "middle eastern, lebanese",
      "priceRange": "€€",
      "mapsUrl": "https://maps.google.com/?q=38.907293,-76.999504",
      "lat": 38.907293,
      "lng": -76.999504,
      "halalConfidence": "likely",
      "source": "osm"
    },
    {
      "nom": "BonJon Rumi",
      "type": "afghan",
      "priceRange": "€€",
      "mapsUrl": "https://maps.google.com/?q=38.9220317,-77.0729059",
      "lat": 38.9220317,
      "lng": -77.0729059,
      "halalConfidence": "likely",
      "source": "osm"
    },
    {
      "nom": "Dolan Uyghur",
      "type": "uyghur",
      "priceRange": "€€",
      "mapsUrl": "https://maps.google.com/?q=38.9361564,-77.0591553",
      "lat": 38.9361564,
      "lng": -77.0591553,
      "halalConfidence": "likely",
      "source": "osm"
    },
    {
      "nom": "Courthouse Kabob",
      "type": "kebab",
      "priceRange": "€€",
      "mapsUrl": "https://maps.google.com/?q=38.8919889,-77.0839876",
      "lat": 38.8919889,
      "lng": -77.0839876,
      "halalConfidence": "likely",
      "source": "osm"
    },
    {
      "nom": "Maman Joon’s Kitchen",
      "type": "persian",
      "priceRange": "€€",
      "mapsUrl": "https://maps.google.com/?q=38.8835492,-76.9947526",
      "lat": 38.8835492,
      "lng": -76.9947526,
      "halalConfidence": "likely",
      "source": "osm"
    },
    {
      "nom": "Cafe 8",
      "type": "turkish",
      "priceRange": "€€",
      "mapsUrl": "https://maps.google.com/?q=38.8830374,-76.9947482",
      "lat": 38.8830374,
      "lng": -76.9947482,
      "halalConfidence": "likely",
      "source": "osm"
    },
    {
      "nom": "Vera",
      "type": "lebanese, mexican",
      "priceRange": "€€",
      "mapsUrl": "https://maps.google.com/?q=38.9148156,-76.9849329",
      "lat": 38.9148156,
      "lng": -76.9849329,
      "halalConfidence": "likely",
      "source": "osm"
    },
    {
      "nom": "Me Jana",
      "type": "lebanese",
      "priceRange": "€€",
      "mapsUrl": "https://maps.google.com/?q=38.890297,-77.087323",
      "lat": 38.890297,
      "lng": -77.087323,
      "halalConfidence": "likely",
      "source": "osm"
    },
    {
      "nom": "Albi",
      "type": "lebanese",
      "priceRange": "€€",
      "mapsUrl": "https://maps.google.com/?q=38.8740554,-77.0003218",
      "lat": 38.8740554,
      "lng": -77.0003218,
      "halalConfidence": "likely",
      "source": "osm"
    },
    {
      "nom": "East West Grill",
      "type": "afghan",
      "priceRange": "€€",
      "mapsUrl": "https://maps.google.com/?q=38.8895494,-77.0914576",
      "lat": 38.8895494,
      "lng": -77.0914576,
      "halalConfidence": "likely",
      "source": "osm"
    },
    {
      "nom": "Shemali's Cafe",
      "type": "lebanese",
      "priceRange": "€€",
      "mapsUrl": "https://maps.google.com/?q=38.933587,-77.0853771",
      "lat": 38.933587,
      "lng": -77.0853771,
      "halalConfidence": "likely",
      "source": "osm"
    },
    {
      "nom": "The Block Oven",
      "type": "lebanese",
      "priceRange": "€€",
      "mapsUrl": "https://maps.google.com/?q=38.89575,-77.0969755",
      "lat": 38.89575,
      "lng": -77.0969755,
      "halalConfidence": "likely",
      "source": "osm"
    },
    {
      "nom": "Zazzy",
      "type": "lebanese",
      "priceRange": "€€",
      "mapsUrl": "https://maps.google.com/?q=38.885757,-77.092752",
      "lat": 38.885757,
      "lng": -77.092752,
      "halalConfidence": "likely",
      "source": "osm"
    },
    {
      "nom": "Láylí",
      "type": "lebanese, greek, turkish",
      "priceRange": "€€",
      "mapsUrl": "https://maps.google.com/?q=38.8880181,-77.0948376",
      "lat": 38.8880181,
      "lng": -77.0948376,
      "halalConfidence": "likely",
      "source": "osm"
    },
    {
      "nom": "Moby Dick House of Kebob",
      "type": "kebab",
      "priceRange": "€€",
      "mapsUrl": "https://maps.google.com/?q=38.8850514,-77.094503",
      "lat": 38.8850514,
      "lng": -77.094503,
      "halalConfidence": "likely",
      "source": "osm"
    },
    {
      "nom": "Kabob Bazaar",
      "type": "persian",
      "priceRange": "€€",
      "mapsUrl": "https://maps.google.com/?q=38.8871634,-77.09583",
      "lat": 38.8871634,
      "lng": -77.09583,
      "halalConfidence": "likely",
      "source": "osm"
    },
    {
      "nom": "Bistro Aracosia",
      "type": "afghan",
      "priceRange": "€€",
      "mapsUrl": "https://maps.google.com/?q=38.9249347,-77.1017127",
      "lat": 38.9249347,
      "lng": -77.1017127,
      "halalConfidence": "likely",
      "source": "osm"
    },
    {
      "nom": "Kabob Palace",
      "type": "kebab",
      "priceRange": "€€",
      "mapsUrl": "https://maps.google.com/?q=38.8529095,-77.0533142",
      "lat": 38.8529095,
      "lng": -77.0533142,
      "halalConfidence": "likely",
      "source": "osm"
    },
    {
      "nom": "Billy's Deli/Cafe",
      "type": "american, kebab",
      "priceRange": "€€",
      "mapsUrl": "https://maps.google.com/?q=38.8971342,-77.1074766",
      "lat": 38.8971342,
      "lng": -77.1074766,
      "halalConfidence": "likely",
      "source": "osm"
    },
    {
      "nom": "City Kabob House",
      "type": "kebab",
      "priceRange": "€€",
      "mapsUrl": "https://maps.google.com/?q=38.8628197,-77.0882822",
      "lat": 38.8628197,
      "lng": -77.0882822,
      "halalConfidence": "likely",
      "source": "osm"
    },
    {
      "nom": "Kabob Garden",
      "type": "afghan",
      "priceRange": "€€",
      "mapsUrl": "https://maps.google.com/?q=38.8818814,-77.1074979",
      "lat": 38.8818814,
      "lng": -77.1074979,
      "halalConfidence": "likely",
      "source": "osm"
    },
    {
      "nom": "Ravi Chatkhara III",
      "type": "kebab",
      "priceRange": "€€",
      "mapsUrl": "https://maps.google.com/?q=38.8741971,-77.1051297",
      "lat": 38.8741971,
      "lng": -77.1051297,
      "halalConfidence": "likely",
      "source": "osm"
    },
    {
      "nom": "Ravi Kabob I",
      "type": "kebab",
      "priceRange": "€€",
      "mapsUrl": "https://maps.google.com/?q=38.8742196,-77.1051734",
      "lat": 38.8742196,
      "lng": -77.1051734,
      "halalConfidence": "likely",
      "source": "osm"
    },
    {
      "nom": "Lebanese Taverna Market",
      "type": "lebanese",
      "priceRange": "€€",
      "mapsUrl": "https://maps.google.com/?q=38.8990565,-77.117431",
      "lat": 38.8990565,
      "lng": -77.117431,
      "halalConfidence": "likely",
      "source": "osm"
    },
    {
      "nom": "Kabobistan",
      "type": "kebab",
      "priceRange": "€€",
      "mapsUrl": "https://maps.google.com/?q=38.860916,-77.092591",
      "lat": 38.860916,
      "lng": -77.092591,
      "halalConfidence": "likely",
      "source": "osm"
    },
    {
      "nom": "Akivva Grill",
      "type": "kebab",
      "priceRange": "€€",
      "mapsUrl": "https://maps.google.com/?q=38.845561,-77.068176",
      "lat": 38.845561,
      "lng": -77.068176,
      "halalConfidence": "likely",
      "source": "osm"
    },
    {
      "nom": "Istanbull Grill",
      "type": "turkish",
      "priceRange": "€€",
      "mapsUrl": "https://maps.google.com/?q=38.8792505,-77.1176015",
      "lat": 38.8792505,
      "lng": -77.1176015,
      "halalConfidence": "likely",
      "source": "osm"
    },
    {
      "nom": "Fettoosh",
      "type": "moroccan",
      "priceRange": "€€",
      "mapsUrl": "https://maps.google.com/?q=38.877673,-77.1221293",
      "lat": 38.877673,
      "lng": -77.1221293,
      "halalConfidence": "likely",
      "source": "osm"
    },
    {
      "nom": "Arlington Kabob",
      "type": "kebab",
      "priceRange": "€€",
      "mapsUrl": "https://maps.google.com/?q=38.8961033,-77.1309158",
      "lat": 38.8961033,
      "lng": -77.1309158,
      "halalConfidence": "likely",
      "source": "osm"
    },
    {
      "nom": "Alshami Restaurant",
      "type": "syrian, mediterranean",
      "priceRange": "€€",
      "mapsUrl": "https://maps.google.com/?q=38.8771108,-77.1247256",
      "lat": 38.8771108,
      "lng": -77.1247256,
      "halalConfidence": "likely",
      "source": "osm"
    },
    {
      "nom": "Gharer Khabar",
      "type": "bangladeshi",
      "priceRange": "€€",
      "mapsUrl": "https://maps.google.com/?q=38.8966777,-77.1324731",
      "lat": 38.8966777,
      "lng": -77.1324731,
      "halalConfidence": "likely",
      "source": "osm"
    },
    {
      "nom": "Deshi Spice",
      "type": "bangladeshi",
      "priceRange": "€€",
      "mapsUrl": "https://maps.google.com/?q=38.896676,-77.132891",
      "lat": 38.896676,
      "lng": -77.132891,
      "halalConfidence": "likely",
      "source": "osm"
    },
    {
      "nom": "King of Koshary",
      "type": "egyptian, yemeni, middle eastern",
      "priceRange": "€€",
      "mapsUrl": "https://maps.google.com/?q=38.8767233,-77.1278873",
      "lat": 38.8767233,
      "lng": -77.1278873,
      "halalConfidence": "likely",
      "source": "osm"
    },
    {
      "nom": "Moby Dick",
      "type": "kebab",
      "priceRange": "€€",
      "mapsUrl": "https://maps.google.com/?q=38.8411303,-77.088061",
      "lat": 38.8411303,
      "lng": -77.088061,
      "halalConfidence": "likely",
      "source": "osm"
    },
    {
      "nom": "Z Kabob",
      "type": "kebab",
      "priceRange": "€€",
      "mapsUrl": "https://maps.google.com/?q=38.8475516,-77.117531",
      "lat": 38.8475516,
      "lng": -77.117531,
      "halalConfidence": "likely",
      "source": "osm"
    },
    {
      "nom": "Bamian Restaurant",
      "type": "afghan",
      "priceRange": "€€",
      "mapsUrl": "https://maps.google.com/?q=38.8493568,-77.1261626",
      "lat": 38.8493568,
      "lng": -77.1261626,
      "halalConfidence": "likely",
      "source": "osm"
    },
    {
      "nom": "Amoo's House of Kabob",
      "type": "kebab",
      "priceRange": "€€",
      "mapsUrl": "https://maps.google.com/?q=38.9209275,-77.1529848",
      "lat": 38.9209275,
      "lng": -77.1529848,
      "halalConfidence": "likely",
      "source": "osm"
    },
    {
      "nom": "Tasty Grills & Catering",
      "type": "afghan",
      "priceRange": "€€",
      "mapsUrl": "https://maps.google.com/?q=38.9876144,-77.0992864",
      "lat": 38.9876144,
      "lng": -77.0992864,
      "halalConfidence": "likely",
      "source": "osm"
    },
    {
      "nom": "Yayla Bistro",
      "type": "turkish",
      "priceRange": "€€",
      "mapsUrl": "https://maps.google.com/?q=38.8866594,-77.1624801",
      "lat": 38.8866594,
      "lng": -77.1624801,
      "halalConfidence": "likely",
      "source": "osm"
    },
    {
      "nom": "Layla's Lebanese Restaurant",
      "type": "lebanese",
      "priceRange": "€€",
      "mapsUrl": "https://maps.google.com/?q=38.8056204,-77.0494722",
      "lat": 38.8056204,
      "lng": -77.0494722,
      "halalConfidence": "likely",
      "source": "osm"
    },
    {
      "nom": "Pappe",
      "lat": 38.9078532,
      "lng": -77.0316893,
      "type": "indian",
      "halalConfidence": "likely",
      "mapsUrl": "https://maps.google.com/?q=38.9078532,-77.0316893",
      "source": "osm"
    },
    {
      "nom": "Sacrificial Lamb",
      "lat": 38.9124618,
      "lng": -77.0388433,
      "type": "indian",
      "halalConfidence": "likely",
      "mapsUrl": "https://maps.google.com/?q=38.9124618,-77.0388433",
      "source": "osm"
    },
    {
      "nom": "Eggoholic",
      "lat": 38.9054835,
      "lng": -77.0444119,
      "type": "indian, egg",
      "halalConfidence": "likely",
      "mapsUrl": "https://maps.google.com/?q=38.9054835,-77.0444119",
      "source": "osm"
    },
    {
      "nom": "The Bombay Club",
      "lat": 38.9006413,
      "lng": -77.0378587,
      "type": "indian",
      "halalConfidence": "likely",
      "mapsUrl": "https://maps.google.com/?q=38.9006413,-77.0378587",
      "source": "osm"
    },
    {
      "nom": "Butter Chicken Company",
      "lat": 38.8993126,
      "lng": -77.0401531,
      "type": "indian",
      "halalConfidence": "likely",
      "mapsUrl": "https://maps.google.com/?q=38.8993126,-77.0401531",
      "source": "osm"
    },
    {
      "nom": "G.O.A.T. Room",
      "lat": 38.9035781,
      "lng": -77.0268242,
      "type": "indian",
      "halalConfidence": "likely",
      "mapsUrl": "https://maps.google.com/?q=38.9035781,-77.0268242",
      "source": "osm"
    },
    {
      "nom": "Himalayan Doko",
      "lat": 38.902256,
      "lng": -77.0275428,
      "type": "indian",
      "halalConfidence": "likely",
      "mapsUrl": "https://maps.google.com/?q=38.902256,-77.0275428",
      "source": "osm"
    },
    {
      "nom": "Rasika",
      "lat": 38.9050577,
      "lng": -77.0480931,
      "type": "indian",
      "halalConfidence": "likely",
      "mapsUrl": "https://maps.google.com/?q=38.9050577,-77.0480931",
      "source": "osm"
    },
    {
      "nom": "Bindaas",
      "lat": 38.9005129,
      "lng": -77.0451591,
      "type": "indian",
      "halalConfidence": "likely",
      "mapsUrl": "https://maps.google.com/?q=38.9005129,-77.0451591",
      "source": "osm"
    },
    {
      "nom": "Chaat house",
      "lat": 38.8997947,
      "lng": -77.0474142,
      "type": "indian",
      "halalConfidence": "likely",
      "mapsUrl": "https://maps.google.com/?q=38.8997947,-77.0474142",
      "source": "osm"
    },
    {
      "nom": "Karizma Modern Indian",
      "lat": 38.9011159,
      "lng": -77.0208238,
      "type": "indian",
      "halalConfidence": "likely",
      "mapsUrl": "https://maps.google.com/?q=38.9011159,-77.0208238",
      "source": "osm"
    },
    {
      "nom": "Flavors of India",
      "lat": 38.9035909,
      "lng": -77.05418,
      "type": "indian",
      "halalConfidence": "likely",
      "mapsUrl": "https://maps.google.com/?q=38.9035909,-77.05418",
      "source": "osm"
    },
    {
      "nom": "Rania",
      "lat": 38.8956521,
      "lng": -77.0267703,
      "type": "indian",
      "halalConfidence": "likely",
      "mapsUrl": "https://maps.google.com/?q=38.8956521,-77.0267703",
      "source": "osm"
    },
    {
      "nom": "Najjaarra",
      "lat": 38.9118305,
      "lng": -77.0119674,
      "type": "indian",
      "halalConfidence": "likely",
      "mapsUrl": "https://maps.google.com/?q=38.9118305,-77.0119674",
      "source": "osm"
    },
    {
      "nom": "Herbivore",
      "lat": 38.9114397,
      "lng": -77.0652692,
      "type": "indian",
      "halalConfidence": "likely",
      "mapsUrl": "https://maps.google.com/?q=38.9114397,-77.0652692",
      "source": "osm"
    },
    {
      "nom": "Tamashaa",
      "lat": 38.9298551,
      "lng": -77.0324905,
      "type": "indian",
      "halalConfidence": "likely",
      "mapsUrl": "https://maps.google.com/?q=38.9298551,-77.0324905",
      "source": "osm"
    },
    {
      "nom": "SpiceX",
      "lat": 38.8840064,
      "lng": -77.0251643,
      "type": "indian",
      "halalConfidence": "likely",
      "mapsUrl": "https://maps.google.com/?q=38.8840064,-77.0251643",
      "source": "osm"
    },
    {
      "nom": "Indigo",
      "lat": 38.9022844,
      "lng": -77.0022229,
      "type": "indian",
      "halalConfidence": "likely",
      "mapsUrl": "https://maps.google.com/?q=38.9022844,-77.0022229",
      "source": "osm"
    },
    {
      "nom": "Butter Chicken Company 3",
      "lat": 38.8974971,
      "lng": -77.003323,
      "type": "indian",
      "halalConfidence": "likely",
      "mapsUrl": "https://maps.google.com/?q=38.8974971,-77.003323",
      "source": "osm"
    },
    {
      "nom": "Chani Pani",
      "lat": 38.9090863,
      "lng": -76.9974914,
      "type": "indian",
      "halalConfidence": "likely",
      "mapsUrl": "https://maps.google.com/?q=38.9090863,-76.9974914",
      "source": "osm"
    },
    {
      "nom": "Brain Drain",
      "lat": 38.8847223,
      "lng": -77.0056721,
      "type": "indian",
      "halalConfidence": "likely",
      "mapsUrl": "https://maps.google.com/?q=38.8847223,-77.0056721",
      "source": "osm"
    },
    {
      "nom": "City Kabob & Curry House",
      "lat": 38.929686,
      "lng": -77.004282,
      "type": "indian",
      "halalConfidence": "likely",
      "mapsUrl": "https://maps.google.com/?q=38.929686,-77.004282",
      "source": "osm"
    },
    {
      "nom": "Aatish On The Hill",
      "lat": 38.8851348,
      "lng": -76.9980082,
      "type": "indian",
      "halalConfidence": "likely",
      "mapsUrl": "https://maps.google.com/?q=38.8851348,-76.9980082",
      "source": "osm"
    },
    {
      "nom": "Heritage India",
      "lat": 38.9333039,
      "lng": -77.072729,
      "type": "indian",
      "halalConfidence": "likely",
      "mapsUrl": "https://maps.google.com/?q=38.9333039,-77.072729",
      "source": "osm"
    },
    {
      "nom": "Nanglo",
      "lat": 38.9000628,
      "lng": -76.988099,
      "type": "indian, nepalese",
      "halalConfidence": "likely",
      "mapsUrl": "https://maps.google.com/?q=38.9000628,-76.988099",
      "source": "osm"
    },
    {
      "nom": "Rasa",
      "lat": 38.8754268,
      "lng": -77.0061672,
      "type": "indian",
      "halalConfidence": "likely",
      "mapsUrl": "https://maps.google.com/?q=38.8754268,-77.0061672",
      "source": "osm"
    },
    {
      "nom": "Jab We Met Indian Kitchen",
      "lat": 38.8822302,
      "lng": -76.9952624,
      "type": "indian",
      "halalConfidence": "likely",
      "mapsUrl": "https://maps.google.com/?q=38.8822302,-76.9952624",
      "source": "osm"
    },
    {
      "nom": "Tikka",
      "lat": 38.9437072,
      "lng": -77.062948,
      "type": "indian",
      "halalConfidence": "likely",
      "mapsUrl": "https://maps.google.com/?q=38.9437072,-77.062948",
      "source": "osm"
    },
    {
      "nom": "Daru",
      "lat": 38.8996578,
      "lng": -76.983835,
      "type": "indian",
      "halalConfidence": "likely",
      "mapsUrl": "https://maps.google.com/?q=38.8996578,-76.983835",
      "source": "osm"
    },
    {
      "nom": "Masala Story",
      "lat": 38.9307298,
      "lng": -76.9906911,
      "type": "indian",
      "halalConfidence": "likely",
      "mapsUrl": "https://maps.google.com/?q=38.9307298,-76.9906911",
      "source": "osm"
    },
    {
      "nom": "Malabar",
      "lat": 38.947216,
      "lng": -77.065026,
      "type": "indian",
      "halalConfidence": "likely",
      "mapsUrl": "https://maps.google.com/?q=38.947216,-77.065026",
      "source": "osm"
    },
    {
      "nom": "Masala Express",
      "lat": 38.880317,
      "lng": -77.089542,
      "type": "indian",
      "halalConfidence": "likely",
      "mapsUrl": "https://maps.google.com/?q=38.880317,-77.089542",
      "source": "osm"
    },
    {
      "nom": "Spice Kraft",
      "lat": 38.887225,
      "lng": -77.09479,
      "type": "indian",
      "halalConfidence": "likely",
      "mapsUrl": "https://maps.google.com/?q=38.887225,-77.09479",
      "source": "osm"
    },
    {
      "nom": "Masala Art",
      "lat": 38.9475924,
      "lng": -77.0792312,
      "type": "indian",
      "halalConfidence": "likely",
      "mapsUrl": "https://maps.google.com/?q=38.9475924,-77.0792312",
      "source": "osm"
    },
    {
      "nom": "Kohinoor Dhaba",
      "lat": 38.847683,
      "lng": -77.054128,
      "type": "indian",
      "halalConfidence": "likely",
      "mapsUrl": "https://maps.google.com/?q=38.847683,-77.054128",
      "source": "osm"
    },
    {
      "nom": "Urban Tandoor",
      "lat": 38.880114,
      "lng": -77.107338,
      "type": "indian",
      "halalConfidence": "likely",
      "mapsUrl": "https://maps.google.com/?q=38.880114,-77.107338",
      "source": "osm"
    },
    {
      "nom": "Minerva Express",
      "lat": 38.8968768,
      "lng": -77.1258352,
      "type": "indian",
      "halalConfidence": "likely",
      "mapsUrl": "https://maps.google.com/?q=38.8968768,-77.1258352",
      "source": "osm"
    },
    {
      "nom": "Spice Street",
      "lat": 38.9928146,
      "lng": -77.0269762,
      "type": "indian",
      "halalConfidence": "likely",
      "mapsUrl": "https://maps.google.com/?q=38.9928146,-77.0269762",
      "source": "osm"
    },
    {
      "nom": "Chez Dior",
      "lat": 38.9522801,
      "lng": -76.9407359,
      "type": "senegalese",
      "halalConfidence": "likely",
      "mapsUrl": "https://maps.google.com/?q=38.9522801,-76.9407359",
      "source": "osm"
    },
    {
      "nom": "Shangri-la",
      "lat": 38.9832095,
      "lng": -77.0934249,
      "type": "indian",
      "halalConfidence": "likely",
      "mapsUrl": "https://maps.google.com/?q=38.9832095,-77.0934249",
      "source": "osm"
    },
    {
      "nom": "Delhi Spice",
      "lat": 38.9809879,
      "lng": -77.099394,
      "type": "indian",
      "halalConfidence": "likely",
      "mapsUrl": "https://maps.google.com/?q=38.9809879,-77.099394",
      "source": "osm"
    },
    {
      "nom": "Tikka Masala",
      "lat": 38.9822047,
      "lng": -77.0975119,
      "type": "indian",
      "halalConfidence": "likely",
      "mapsUrl": "https://maps.google.com/?q=38.9822047,-77.0975119",
      "source": "osm"
    }
  ],
  "hotels": [
    {
      "nom": "Canopy",
      "categorie": "Hôtel",
      "priceRange": "€€",
      "mapsUrl": "https://maps.google.com/?q=38.9066662,-77.0369714",
      "lat": 38.9066662,
      "lng": -77.0369714,
      "halalFriendly": false,
      "bookingUrl": "https://www.hilton.com/en/hotels/dcaempy-canopy-washington-dc-embassy-row/",
      "source": "osm"
    },
    {
      "nom": "Beacon Hotel",
      "categorie": "Hôtel",
      "priceRange": "€€",
      "mapsUrl": "https://maps.google.com/?q=38.907049,-77.0380497",
      "lat": 38.907049,
      "lng": -77.0380497,
      "halalFriendly": false,
      "bookingUrl": "https://www.beaconhotelwdc.com/",
      "source": "osm"
    },
    {
      "nom": "Kimpton Banneker Hotel by IHG",
      "categorie": "Hôtel",
      "priceRange": "€€",
      "mapsUrl": "https://maps.google.com/?q=38.908266,-77.0361302",
      "lat": 38.908266,
      "lng": -77.0361302,
      "halalFriendly": false,
      "bookingUrl": "https://www.thebanneker.com/?utm_source=kh.com&utm_medium=referral&utm_campaign=hotel-links",
      "source": "osm"
    },
    {
      "nom": "The Jefferson",
      "categorie": "Hôtel",
      "priceRange": "€€",
      "mapsUrl": "https://maps.google.com/?q=38.9059489,-77.0369364",
      "lat": 38.9059489,
      "lng": -77.0369364,
      "halalFriendly": false,
      "bookingUrl": "https://maps.google.com/?q=38.9059489,-77.0369364",
      "source": "osm"
    },
    {
      "nom": "Jefferson Hotel",
      "categorie": "Hôtel",
      "priceRange": "€€",
      "mapsUrl": "https://maps.google.com/?q=38.9059379,-77.0369558",
      "lat": 38.9059379,
      "lng": -77.0369558,
      "halalFriendly": false,
      "bookingUrl": "http://www.thejeffersonwashingtondc.com/",
      "source": "osm"
    },
    {
      "nom": "The Darcy",
      "categorie": "Hôtel",
      "priceRange": "€€",
      "mapsUrl": "https://maps.google.com/?q=38.9080583,-77.0354295",
      "lat": 38.9080583,
      "lng": -77.0354295,
      "halalFriendly": false,
      "bookingUrl": "https://www.thedarcyhotel.com/",
      "source": "osm"
    },
    {
      "nom": "Holiday Inn Washington DC - Central / White House",
      "categorie": "Hôtel",
      "priceRange": "€€",
      "mapsUrl": "https://maps.google.com/?q=38.9081157,-77.0349707",
      "lat": 38.9081157,
      "lng": -77.0349707,
      "halalFriendly": false,
      "bookingUrl": "https://www.inndc.com/",
      "source": "osm"
    },
    {
      "nom": "Courtyard Washington, DC Dupont Circle",
      "categorie": "Hôtel",
      "priceRange": "€€",
      "mapsUrl": "https://maps.google.com/?q=38.9074198,-77.0397084",
      "lat": 38.9074198,
      "lng": -77.0397084,
      "halalFriendly": false,
      "bookingUrl": "https://www.marriott.com/hotels/travel/wasnc-courtyard-washington-dc-dupont-circle/",
      "source": "osm"
    },
    {
      "nom": "Tabard Inn",
      "categorie": "Hôtel",
      "priceRange": "€€",
      "mapsUrl": "https://maps.google.com/?q=38.9075037,-77.0399539",
      "lat": 38.9075037,
      "lng": -77.0399539,
      "halalFriendly": false,
      "bookingUrl": "https://www.tabardinn.com/",
      "source": "osm"
    },
    {
      "nom": "Homewood Suites By Hilton",
      "categorie": "Hôtel",
      "priceRange": "€€",
      "mapsUrl": "https://maps.google.com/?q=38.9066076,-77.0334979",
      "lat": 38.9066076,
      "lng": -77.0334979,
      "halalFriendly": false,
      "bookingUrl": "https://maps.google.com/?q=38.9066076,-77.0334979",
      "source": "osm"
    },
    {
      "nom": "Le Méridien Washington, D.C., The Madison",
      "categorie": "Hôtel",
      "priceRange": "€€",
      "mapsUrl": "https://maps.google.com/?q=38.905369,-77.03406",
      "lat": 38.905369,
      "lng": -77.03406,
      "halalFriendly": false,
      "bookingUrl": "https://www.marriott.com/en-us/hotels/wasmm-le-meridien-washington-dc-the-madison/overview/",
      "source": "osm"
    },
    {
      "nom": "District Hotel",
      "categorie": "Hôtel",
      "priceRange": "€€",
      "mapsUrl": "https://maps.google.com/?q=38.908122,-77.033312",
      "lat": 38.908122,
      "lng": -77.033312,
      "halalFriendly": false,
      "bookingUrl": "https://www.districthotel.com/",
      "source": "osm"
    },
    {
      "nom": "Viceroy Washington DC",
      "categorie": "Hôtel",
      "priceRange": "€€",
      "mapsUrl": "https://maps.google.com/?q=38.9081758,-77.0330469",
      "lat": 38.9081758,
      "lng": -77.0330469,
      "halalFriendly": false,
      "bookingUrl": "https://www.viceroyhotelsandresorts.com/washington-dc",
      "source": "osm"
    },
    {
      "nom": "The Westin Washington, D.C City Center",
      "categorie": "Hôtel",
      "priceRange": "€€",
      "mapsUrl": "https://maps.google.com/?q=38.9053158,-77.0334359",
      "lat": 38.9053158,
      "lng": -77.0334359,
      "halalFriendly": false,
      "bookingUrl": "https://www.marriott.com/en-us/hotels/wascw-the-westin-washington-dc-city-center/overview/",
      "source": "osm"
    },
    {
      "nom": "The Mayflower Hotel",
      "categorie": "Hôtel",
      "priceRange": "€€",
      "mapsUrl": "https://maps.google.com/?q=38.9044444,-77.0394719",
      "lat": 38.9044444,
      "lng": -77.0394719,
      "halalFriendly": false,
      "bookingUrl": "http://www.renaissancehotels.com/",
      "source": "osm"
    },
    {
      "nom": "Capital Hilton",
      "categorie": "Hôtel",
      "priceRange": "€€",
      "mapsUrl": "https://maps.google.com/?q=38.9031717,-77.0359751",
      "lat": 38.9031717,
      "lng": -77.0359751,
      "halalFriendly": false,
      "bookingUrl": "https://www.hilton.com/",
      "source": "osm"
    },
    {
      "nom": "The Architect Hotel",
      "categorie": "Hôtel",
      "priceRange": "€€",
      "mapsUrl": "https://maps.google.com/?q=38.9035746,-77.0343633",
      "lat": 38.9035746,
      "lng": -77.0343633,
      "halalFriendly": false,
      "bookingUrl": "https://www.thearchitecthotel.com/",
      "source": "osm"
    },
    {
      "nom": "Residence Inn Washington, DC Downtown",
      "categorie": "Hôtel",
      "priceRange": "€€",
      "mapsUrl": "https://maps.google.com/?q=38.9044943,-77.0323451",
      "lat": 38.9044943,
      "lng": -77.0323451,
      "halalFriendly": false,
      "bookingUrl": "https://www.marriott.com/en-us/hotels/wasdc-residence-inn-washington-dc-downtown/overview/",
      "source": "osm"
    },
    {
      "nom": "Hotel Zena Washington DC",
      "categorie": "Hôtel",
      "priceRange": "€€",
      "mapsUrl": "https://maps.google.com/?q=38.9051023,-77.0315742",
      "lat": 38.9051023,
      "lng": -77.0315742,
      "halalFriendly": false,
      "bookingUrl": "https://www.viceroyhotelsandresorts.com/zena",
      "source": "osm"
    },
    {
      "nom": "Starwood Hotel",
      "categorie": "Hôtel",
      "priceRange": "€€",
      "mapsUrl": "https://maps.google.com/?q=38.9029968,-77.0342499",
      "lat": 38.9029968,
      "lng": -77.0342499,
      "halalFriendly": false,
      "bookingUrl": "https://maps.google.com/?q=38.9029968,-77.0342499",
      "source": "osm"
    },
    {
      "nom": "Washington Plaza Hotel",
      "categorie": "Hôtel",
      "priceRange": "€€",
      "mapsUrl": "https://maps.google.com/?q=38.9062426,-77.0309188",
      "lat": 38.9062426,
      "lng": -77.0309188,
      "halalFriendly": false,
      "bookingUrl": "https://www.washingtonplazahotel.com/",
      "source": "osm"
    },
    {
      "nom": "Mint House Washington, D.C. – Downtown",
      "categorie": "Hôtel",
      "priceRange": "€€",
      "mapsUrl": "https://maps.google.com/?q=38.9030333,-77.0337928",
      "lat": 38.9030333,
      "lng": -77.0337928,
      "halalFriendly": false,
      "bookingUrl": "https://minthouse.com/washingtondc/downtown/",
      "source": "osm"
    },
    {
      "nom": "Sonder at FOUND",
      "categorie": "Hôtel",
      "priceRange": "€€",
      "mapsUrl": "https://maps.google.com/?q=38.9122314,-77.03605",
      "lat": 38.9122314,
      "lng": -77.03605,
      "halalFriendly": false,
      "bookingUrl": "https://www.sonder.com/destinations/washington_dc/WDC-NW-16TH1627-404/c34358",
      "source": "osm"
    },
    {
      "nom": "Hyatt Place Washington DC/White House",
      "categorie": "Hôtel",
      "priceRange": "€€",
      "mapsUrl": "https://maps.google.com/?q=38.9021983,-77.0357112",
      "lat": 38.9021983,
      "lng": -77.0357112,
      "halalFriendly": false,
      "bookingUrl": "https://www.hyatt.com/hyatt-place/en-us/waszw-hyatt-place-washington-dc-white-house",
      "source": "osm"
    },
    {
      "nom": "The Washington Club",
      "categorie": "Hôtel",
      "priceRange": "€€",
      "mapsUrl": "https://maps.google.com/?q=38.9098921,-77.0424753",
      "lat": 38.9098921,
      "lng": -77.0424753,
      "halalFriendly": false,
      "bookingUrl": "https://maps.google.com/?q=38.9098921,-77.0424753",
      "source": "osm"
    },
    {
      "nom": "The St. Regis Washington, D.C.",
      "categorie": "Hôtel",
      "priceRange": "€€",
      "mapsUrl": "https://maps.google.com/?q=38.9021044,-77.0360883",
      "lat": 38.9021044,
      "lng": -77.0360883,
      "halalFriendly": false,
      "bookingUrl": "https://www.marriott.com/hotels/travel/wassx-the-st-regis-washington-dc/",
      "source": "osm"
    },
    {
      "nom": "Embassy Inn",
      "categorie": "Hôtel",
      "priceRange": "€€",
      "mapsUrl": "https://maps.google.com/?q=38.9121001,-77.0343325",
      "lat": 38.9121001,
      "lng": -77.0343325,
      "halalFriendly": false,
      "bookingUrl": "https://maps.google.com/?q=38.9121001,-77.0343325",
      "source": "osm"
    },
    {
      "nom": "Inn At Dupont South",
      "categorie": "Hôtel",
      "priceRange": "€€",
      "mapsUrl": "https://maps.google.com/?q=38.9077421,-77.0436943",
      "lat": 38.9077421,
      "lng": -77.0436943,
      "halalFriendly": false,
      "bookingUrl": "https://thedupontcollection.com/",
      "source": "osm"
    },
    {
      "nom": "The Quincy, Ascend Hotel Collection",
      "categorie": "Hôtel",
      "priceRange": "€€",
      "mapsUrl": "https://maps.google.com/?q=38.9039919,-77.0427061",
      "lat": 38.9039919,
      "lng": -77.0427061,
      "halalFriendly": false,
      "bookingUrl": "https://maps.google.com/?q=38.9039919,-77.0427061",
      "source": "osm"
    },
    {
      "nom": "Dupont Circle Hotel",
      "categorie": "Hôtel",
      "priceRange": "€€",
      "mapsUrl": "https://maps.google.com/?q=38.910652,-77.0430104",
      "lat": 38.910652,
      "lng": -77.0430104,
      "halalFriendly": false,
      "bookingUrl": "https://www.doylecollection.com/Washington",
      "source": "osm"
    },
    {
      "nom": "Hamilton Hotel",
      "categorie": "Hôtel",
      "priceRange": "€€",
      "mapsUrl": "https://maps.google.com/?q=38.9029257,-77.0315939",
      "lat": 38.9029257,
      "lng": -77.0315939,
      "halalFriendly": false,
      "bookingUrl": "https://www.hamiltonhoteldc.com/",
      "source": "osm"
    },
    {
      "nom": "Comfort Inn Downtown Dc/Convention Center Washington",
      "categorie": "Hôtel",
      "priceRange": "€€",
      "mapsUrl": "https://maps.google.com/?q=38.9059047,-77.0293494",
      "lat": 38.9059047,
      "lng": -77.0293494,
      "halalFriendly": false,
      "bookingUrl": "https://www.choicehotels.com/district-of-columbia/washington/comfort-inn-hotels/dc601",
      "source": "osm"
    },
    {
      "nom": "AC Hotel",
      "categorie": "Hôtel",
      "priceRange": "€€",
      "mapsUrl": "https://maps.google.com/?q=38.9043499,-77.0437624",
      "lat": 38.9043499,
      "lng": -77.0437624,
      "halalFriendly": false,
      "bookingUrl": "https://www.marriott.com/en-us/hotels/wasad-ac-hotel-washington-dc-downtown/overview",
      "source": "osm"
    },
    {
      "nom": "Club Quarters",
      "categorie": "Hôtel",
      "priceRange": "€€",
      "mapsUrl": "https://maps.google.com/?q=38.9010756,-77.0391649",
      "lat": 38.9010756,
      "lng": -77.0391649,
      "halalFriendly": false,
      "bookingUrl": "http://www.clubquarters.com/",
      "source": "osm"
    },
    {
      "nom": "Lyle Washington DC",
      "categorie": "Hôtel",
      "priceRange": "€€",
      "mapsUrl": "https://maps.google.com/?q=38.9133329,-77.0394568",
      "lat": 38.9133329,
      "lng": -77.0394568,
      "halalFriendly": false,
      "bookingUrl": "http://www.carlylesuites.com/",
      "source": "osm"
    },
    {
      "nom": "Summerfield Suites",
      "categorie": "Hôtel",
      "priceRange": "€€",
      "mapsUrl": "https://maps.google.com/?q=38.9068509,-77.0453541",
      "lat": 38.9068509,
      "lng": -77.0453541,
      "halalFriendly": false,
      "bookingUrl": "http://www.embassysuites.com/",
      "source": "osm"
    },
    {
      "nom": "Hay-Adams Hotel",
      "categorie": "Hôtel",
      "priceRange": "€€",
      "mapsUrl": "https://maps.google.com/?q=38.9005054,-77.0369485",
      "lat": 38.9005054,
      "lng": -77.0369485,
      "halalFriendly": false,
      "bookingUrl": "https://www.hayadams.com/",
      "source": "osm"
    },
    {
      "nom": "The Dupont At The Circle",
      "categorie": "Hôtel",
      "priceRange": "€€",
      "mapsUrl": "https://maps.google.com/?q=38.9113576,-77.0437252",
      "lat": 38.9113576,
      "lng": -77.0437252,
      "halalFriendly": false,
      "bookingUrl": "https://www.dupontatthecircle.com/",
      "source": "osm"
    },
    {
      "nom": "Hotel Madera",
      "categorie": "Hôtel",
      "priceRange": "€€",
      "mapsUrl": "https://maps.google.com/?q=38.9075946,-77.045695",
      "lat": 38.9075946,
      "lng": -77.045695,
      "halalFriendly": false,
      "bookingUrl": "https://www.hotelmadera.com/",
      "source": "osm"
    },
    {
      "nom": "Sofitel Lafayette Square",
      "categorie": "Hôtel",
      "priceRange": "€€",
      "mapsUrl": "https://maps.google.com/?q=38.9005074,-77.0339418",
      "lat": 38.9005074,
      "lng": -77.0339418,
      "halalFriendly": false,
      "bookingUrl": "https://www.sofitel-washington-dc.com/",
      "source": "osm"
    },
    {
      "nom": "The Mansion On O Street",
      "categorie": "Hôtel",
      "priceRange": "€€",
      "mapsUrl": "https://maps.google.com/?q=38.9083626,-77.0458741",
      "lat": 38.9083626,
      "lng": -77.0458741,
      "halalFriendly": false,
      "bookingUrl": "https://www.omansion.com/",
      "source": "osm"
    },
    {
      "nom": "Swiss Inn",
      "categorie": "Hôtel",
      "priceRange": "€€",
      "mapsUrl": "https://maps.google.com/?q=38.9041242,-77.0284279",
      "lat": 38.9041242,
      "lng": -77.0284279,
      "halalFriendly": false,
      "bookingUrl": "http://www.theswissinn.com/",
      "source": "osm"
    },
    {
      "nom": "Eurostars St Gregory Dupont Circle Georgetown",
      "categorie": "Hôtel",
      "priceRange": "€€",
      "mapsUrl": "https://maps.google.com/?q=38.905872,-77.04637",
      "lat": 38.905872,
      "lng": -77.04637,
      "halalFriendly": false,
      "bookingUrl": "https://www.eurostarshotels.us/eurostars-st-gregory-dupont-circle-georgetown.html",
      "source": "osm"
    },
    {
      "nom": "Hampton",
      "categorie": "Hôtel",
      "priceRange": "€€",
      "mapsUrl": "https://maps.google.com/?q=38.9003976,-77.0410804",
      "lat": 38.9003976,
      "lng": -77.0410804,
      "halalFriendly": false,
      "bookingUrl": "https://www.hilton.com/en/hotels/washshx-hampton-washington-dc-white-house/",
      "source": "osm"
    },
    {
      "nom": "Swann House",
      "categorie": "Maison d'hôtes",
      "priceRange": "€€",
      "mapsUrl": "https://maps.google.com/?q=38.9145584,-77.0392804",
      "lat": 38.9145584,
      "lng": -77.0392804,
      "halalFriendly": false,
      "bookingUrl": "https://www.swannhouse.com/",
      "source": "osm"
    },
    {
      "nom": "William Lewis House Bed & Breakfast",
      "categorie": "Maison d'hôtes",
      "priceRange": "€€",
      "mapsUrl": "https://maps.google.com/?q=38.9127934,-77.0301139",
      "lat": 38.9127934,
      "lng": -77.0301139,
      "halalFriendly": false,
      "bookingUrl": "https://www.wlewishouse.com",
      "source": "osm"
    },
    {
      "nom": "Hilton Garden Inn Washington DC Downtown",
      "categorie": "Hôtel",
      "priceRange": "€€",
      "mapsUrl": "https://maps.google.com/?q=38.9006663,-77.0316376",
      "lat": 38.9006663,
      "lng": -77.0316376,
      "halalFriendly": false,
      "bookingUrl": "https://www.hilton.com/en/hotels/dcachgi-hilton-garden-inn-washington-dc-downtown/",
      "source": "osm"
    },
    {
      "nom": "The Ven at Embassy Row, Washington, D.C., A Tribute Portfolio Hotel",
      "categorie": "Hôtel",
      "priceRange": "€€",
      "mapsUrl": "https://maps.google.com/?q=38.9108169,-77.0456564",
      "lat": 38.9108169,
      "lng": -77.0456564,
      "halalFriendly": false,
      "bookingUrl": "https://www.marriott.com/hotels/travel/wastx-the-ven-at-embassy-row-washington-dc-a-tribute-portfolio-hotel/",
      "source": "osm"
    },
    {
      "nom": "AKA White House",
      "categorie": "Hôtel",
      "priceRange": "€€",
      "mapsUrl": "https://maps.google.com/?q=38.899927,-77.0403545",
      "lat": 38.899927,
      "lng": -77.0403545,
      "halalFriendly": false,
      "bookingUrl": "https://www.stayaka.com/locations/washington-dc",
      "source": "osm"
    },
    {
      "nom": "Concordia",
      "categorie": "Hôtel",
      "priceRange": "€€",
      "mapsUrl": "https://maps.google.com/?q=38.9063234,-77.0468217",
      "lat": 38.9063234,
      "lng": -77.0468217,
      "halalFriendly": false,
      "bookingUrl": "https://maps.google.com/?q=38.9063234,-77.0468217",
      "source": "osm"
    },
    {
      "nom": "Eaton DC",
      "categorie": "Hôtel",
      "priceRange": "€€",
      "mapsUrl": "https://maps.google.com/?q=38.9027867,-77.028462",
      "lat": 38.9027867,
      "lng": -77.028462,
      "halalFriendly": false,
      "bookingUrl": "https://www.eatonworkshop.com/en-us/washington-dc/",
      "source": "osm"
    },
    {
      "nom": "DUO Housing",
      "categorie": "Auberge",
      "priceRange": "€€",
      "mapsUrl": "https://maps.google.com/?q=38.9064656,-77.0267318",
      "lat": 38.9064656,
      "lng": -77.0267318,
      "halalFriendly": false,
      "bookingUrl": "http://www.duohousing.com",
      "source": "osm"
    },
    {
      "nom": "Windsor Inn",
      "categorie": "Hôtel",
      "priceRange": "€€",
      "mapsUrl": "https://maps.google.com/?q=38.915287,-77.036946",
      "lat": 38.915287,
      "lng": -77.036946,
      "halalFriendly": false,
      "bookingUrl": "https://thewindsorinn.hotelsofwashington.com/en/",
      "source": "osm"
    },
    {
      "nom": "Morrison-Clark Inn",
      "categorie": "Hôtel",
      "priceRange": "€€",
      "mapsUrl": "https://maps.google.com/?q=38.9043814,-77.0267236",
      "lat": 38.9043814,
      "lng": -77.0267236,
      "halalFriendly": false,
      "bookingUrl": "https://www.morrisonclark.com/",
      "source": "osm"
    },
    {
      "nom": "Residence Inn",
      "categorie": "Hôtel",
      "priceRange": "€€",
      "mapsUrl": "https://maps.google.com/?q=38.9094589,-77.0473342",
      "lat": 38.9094589,
      "lng": -77.0473342,
      "halalFriendly": false,
      "bookingUrl": "https://maps.google.com/?q=38.9094589,-77.0473342",
      "source": "osm"
    },
    {
      "nom": "The Royal Sonesta Washington DC Dupont Circle",
      "categorie": "Hôtel",
      "priceRange": "€€",
      "mapsUrl": "https://maps.google.com/?q=38.9098133,-77.0474131",
      "lat": 38.9098133,
      "lng": -77.0474131,
      "halalFriendly": false,
      "bookingUrl": "https://www.sonesta.com/royal-sonesta/dc/washington/royal-sonesta-washington-dc-dupont-circle/",
      "source": "osm"
    },
    {
      "nom": "Yours Truly DC",
      "categorie": "Hôtel",
      "priceRange": "€€",
      "mapsUrl": "https://maps.google.com/?q=38.904757,-77.047599",
      "lat": 38.904757,
      "lng": -77.047599,
      "halalFriendly": false,
      "bookingUrl": "https://www.yourstrulydc.com/",
      "source": "osm"
    },
    {
      "nom": "Hyatt Place Washington DC/Georgetown/West End",
      "categorie": "Hôtel",
      "priceRange": "€€",
      "mapsUrl": "https://maps.google.com/?q=38.9056525,-77.0481729",
      "lat": 38.9056525,
      "lng": -77.0481729,
      "halalFriendly": false,
      "bookingUrl": "https://washingtondcgeorgetown.place.hyatt.com/en/hotel/home.html",
      "source": "osm"
    },
    {
      "nom": "Hotel Lombardy",
      "categorie": "Hôtel",
      "priceRange": "€€",
      "mapsUrl": "https://maps.google.com/?q=38.9016317,-77.0459263",
      "lat": 38.9016317,
      "lng": -77.0459263,
      "halalFriendly": false,
      "bookingUrl": "https://www.hotellombardy.com/hl/Default.htm",
      "source": "osm"
    },
    {
      "nom": "Marriott",
      "categorie": "Hôtel",
      "priceRange": "€€",
      "mapsUrl": "https://maps.google.com/?q=38.9058832,-77.0483621",
      "lat": 38.9058832,
      "lng": -77.0483621,
      "halalFriendly": false,
      "bookingUrl": "https://maps.google.com/?q=38.9058832,-77.0483621",
      "source": "osm"
    },
    {
      "nom": "West End Washington DC",
      "categorie": "Hôtel",
      "priceRange": "€€",
      "mapsUrl": "https://maps.google.com/?q=38.904299,-77.047962",
      "lat": 38.904299,
      "lng": -77.047962,
      "halalFriendly": false,
      "bookingUrl": "https://www.hilton.com/en/hotels/dcagcup-west-end-washington-dc/",
      "source": "osm"
    },
    {
      "nom": "Moxy Washington, DC Downtown",
      "categorie": "Hôtel",
      "priceRange": "€€",
      "mapsUrl": "https://maps.google.com/?q=38.9028887,-77.0265098",
      "lat": 38.9028887,
      "lng": -77.0265098,
      "halalFriendly": false,
      "bookingUrl": "https://www.marriott.com/hotels/travel/wasox-moxy-washington-dc-downtown/",
      "source": "osm"
    },
    {
      "nom": "Eldon Luxury Suites",
      "categorie": "Hôtel",
      "priceRange": "€€",
      "mapsUrl": "https://maps.google.com/?q=38.904386,-77.02541",
      "lat": 38.904386,
      "lng": -77.02541,
      "halalFriendly": false,
      "bookingUrl": "https://www.thehoteleldon.com/",
      "source": "osm"
    },
    {
      "nom": "The Baron Hotel",
      "categorie": "Hôtel",
      "priceRange": "€€",
      "mapsUrl": "https://maps.google.com/?q=38.9102953,-77.0483959",
      "lat": 38.9102953,
      "lng": -77.0483959,
      "halalFriendly": false,
      "bookingUrl": "https://maps.google.com/?q=38.9102953,-77.0483959",
      "source": "osm"
    },
    {
      "nom": "The Henley Park Hotel",
      "categorie": "Hôtel",
      "priceRange": "€€",
      "mapsUrl": "https://maps.google.com/?q=38.9031469,-77.0257082",
      "lat": 38.9031469,
      "lng": -77.0257082,
      "halalFriendly": false,
      "bookingUrl": "https://www.henleypark.com/",
      "source": "osm"
    },
    {
      "nom": "Hilton Garden Inn",
      "categorie": "Hôtel",
      "priceRange": "€€",
      "mapsUrl": "https://maps.google.com/?q=38.9054574,-77.049197",
      "lat": 38.9054574,
      "lng": -77.049197,
      "halalFriendly": false,
      "bookingUrl": "https://www.hilton.com/en/hotels/waswegi-hilton-garden-inn-washington-dc-georgetown-area/",
      "source": "osm"
    },
    {
      "nom": "Embassy Suites Downtown",
      "categorie": "Hôtel",
      "priceRange": "€€",
      "mapsUrl": "https://maps.google.com/?q=38.9068492,-77.0494454",
      "lat": 38.9068492,
      "lng": -77.0494454,
      "halalFriendly": false,
      "bookingUrl": "https://embassysuites.hilton.com/",
      "source": "osm"
    },
    {
      "nom": "Embassy Suites by Hilton Washington DC Convention Center",
      "categorie": "Hôtel",
      "priceRange": "€€",
      "mapsUrl": "https://maps.google.com/?q=38.9019412,-77.0262882",
      "lat": 38.9019412,
      "lng": -77.0262882,
      "halalFriendly": false,
      "bookingUrl": "https://www.hilton.com/en/hotels/wascces-embassy-suites-washington-dc-convention-center/",
      "source": "osm"
    },
    {
      "nom": "The Ritz-Carlton",
      "categorie": "Hôtel",
      "priceRange": "€€",
      "mapsUrl": "https://maps.google.com/?q=38.9046278,-77.0491429",
      "lat": 38.9046278,
      "lng": -77.0491429,
      "halalFriendly": false,
      "bookingUrl": "http://www.ritz-carlton.com/",
      "source": "osm"
    },
    {
      "nom": "Gallery Inn",
      "categorie": "Hôtel",
      "priceRange": "€€",
      "mapsUrl": "https://maps.google.com/?q=38.9158882,-77.0431057",
      "lat": 38.9158882,
      "lng": -77.0431057,
      "halalFriendly": false,
      "bookingUrl": "https://maps.google.com/?q=38.9158882,-77.0431057",
      "source": "osm"
    },
    {
      "nom": "Marriott Marquis",
      "categorie": "Hôtel",
      "priceRange": "€€",
      "mapsUrl": "https://maps.google.com/?q=38.9036167,-77.0249833",
      "lat": 38.9036167,
      "lng": -77.0249833,
      "halalFriendly": false,
      "bookingUrl": "https://www.marriott.com/en-us/einterface/v5/WASCO",
      "source": "osm"
    },
    {
      "nom": "Courtyard Washington Downtown/Convention Center",
      "categorie": "Hôtel",
      "priceRange": "€€",
      "mapsUrl": "https://maps.google.com/?q=38.9043172,-77.0244189",
      "lat": 38.9043172,
      "lng": -77.0244189,
      "halalFriendly": false,
      "bookingUrl": "https://www.marriott.com/en-us/hotels/wasyv-courtyard-washington-downtown-convention-center/overview",
      "source": "osm"
    },
    {
      "nom": "Hyatt",
      "categorie": "Hôtel",
      "priceRange": "€€",
      "mapsUrl": "https://maps.google.com/?q=38.9087268,-77.0237541",
      "lat": 38.9087268,
      "lng": -77.0237541,
      "halalFriendly": false,
      "bookingUrl": "https://www.hyattwashingtondcconventioncenter.com",
      "source": "osm"
    },
    {
      "nom": "Hotel Washington",
      "categorie": "Hôtel",
      "priceRange": "€€",
      "mapsUrl": "https://maps.google.com/?q=38.8969352,-77.0332251",
      "lat": 38.8969352,
      "lng": -77.0332251,
      "halalFriendly": false,
      "bookingUrl": "https://www.thehotelwashington.com/",
      "source": "osm"
    },
    {
      "nom": "Washington Marriott at Metro Center",
      "categorie": "Hôtel",
      "priceRange": "€€",
      "mapsUrl": "https://maps.google.com/?q=38.8993606,-77.0275841",
      "lat": 38.8993606,
      "lng": -77.0275841,
      "halalFriendly": false,
      "bookingUrl": "http://www.marriotthotels.com/",
      "source": "osm"
    },
    {
      "nom": "One Washington Circle DC, Tapestry by Hilton",
      "categorie": "Hôtel",
      "priceRange": "€€",
      "mapsUrl": "https://maps.google.com/?q=38.9033582,-77.049794",
      "lat": 38.9033582,
      "lng": -77.049794,
      "halalFriendly": false,
      "bookingUrl": "https://www.hilton.com/en/hotels/wasnwup-one-washington-circle-dc/",
      "source": "osm"
    },
    {
      "nom": "Willard InterContinental Hotel",
      "categorie": "Hôtel",
      "priceRange": "€€",
      "mapsUrl": "https://maps.google.com/?q=38.8970389,-77.0324131",
      "lat": 38.8970389,
      "lng": -77.0324131,
      "halalFriendly": false,
      "bookingUrl": "https://www.ihg.com/intercontinental/hotels/us/en/washington/washa/hoteldetail",
      "source": "osm"
    },
    {
      "nom": "Conrad Hotel Washington DC",
      "categorie": "Hôtel",
      "priceRange": "€€",
      "mapsUrl": "https://maps.google.com/?q=38.9012767,-77.0253663",
      "lat": 38.9012767,
      "lng": -77.0253663,
      "halalFriendly": false,
      "bookingUrl": "https://www.hilton.com/en/hotels/wascici-conrad-washington-dc/",
      "source": "osm"
    },
    {
      "nom": "Millennium Hotels & Resorts",
      "categorie": "Hôtel",
      "priceRange": "€€",
      "mapsUrl": "https://maps.google.com/?q=38.9049516,-77.050528",
      "lat": 38.9049516,
      "lng": -77.050528,
      "halalFriendly": false,
      "bookingUrl": "https://maps.google.com/?q=38.9049516,-77.050528",
      "source": "osm"
    },
    {
      "nom": "U Street Hostel",
      "categorie": "Auberge",
      "priceRange": "€€",
      "mapsUrl": "https://maps.google.com/?q=38.9166571,-77.0293509",
      "lat": 38.9166571,
      "lng": -77.0293509,
      "halalFriendly": false,
      "bookingUrl": "https://ustreethostel.com/",
      "source": "osm"
    },
    {
      "nom": "Park Hyatt Washington",
      "categorie": "Hôtel",
      "priceRange": "€€",
      "mapsUrl": "https://maps.google.com/?q=38.9057969,-77.0510924",
      "lat": 38.9057969,
      "lng": -77.0510924,
      "halalFriendly": false,
      "bookingUrl": "https://washingtondc.park.hyatt.com/",
      "source": "osm"
    },
    {
      "nom": "Washington Hilton",
      "categorie": "Hôtel",
      "priceRange": "€€",
      "mapsUrl": "https://maps.google.com/?q=38.9164565,-77.0448983",
      "lat": 38.9164565,
      "lng": -77.0448983,
      "halalFriendly": false,
      "bookingUrl": "https://www3.hilton.com/en/hotels/district-of-columbia/washington-hilton-DCAWHHH/index.html",
      "source": "osm"
    },
    {
      "nom": "The Westin",
      "categorie": "Hôtel",
      "priceRange": "€€",
      "mapsUrl": "https://maps.google.com/?q=38.9050093,-77.0510663",
      "lat": 38.9050093,
      "lng": -77.0510663,
      "halalFriendly": false,
      "bookingUrl": "http://www.westin.com/",
      "source": "osm"
    },
    {
      "nom": "Grand Hyatt Washington",
      "categorie": "Hôtel",
      "priceRange": "€€",
      "mapsUrl": "https://maps.google.com/?q=38.8993407,-77.0264883",
      "lat": 38.8993407,
      "lng": -77.0264883,
      "halalFriendly": false,
      "bookingUrl": "https://washingtondc.grand.hyatt.com/",
      "source": "osm"
    },
    {
      "nom": "JW Marriott",
      "categorie": "Hôtel",
      "priceRange": "€€",
      "mapsUrl": "https://maps.google.com/?q=38.8964082,-77.031622",
      "lat": 38.8964082,
      "lng": -77.031622,
      "halalFriendly": false,
      "bookingUrl": "https://www.marriott.com/en-us/hotels/wasjw-jw-marriott-washington-dc/overview/",
      "source": "osm"
    },
    {
      "nom": "Hotel Rendale Washington DC",
      "categorie": "Hôtel",
      "priceRange": "€€",
      "mapsUrl": "https://maps.google.com/?q=38.9160449,-77.0468105",
      "lat": 38.9160449,
      "lng": -77.0468105,
      "halalFriendly": false,
      "bookingUrl": "https://www.hotelrendaledc.com/",
      "source": "osm"
    },
    {
      "nom": "The Westin Washington, DC Downtown",
      "categorie": "Hôtel",
      "priceRange": "€€",
      "mapsUrl": "https://maps.google.com/?q=38.9015084,-77.023693",
      "lat": 38.9015084,
      "lng": -77.023693,
      "halalFriendly": false,
      "bookingUrl": "https://www.marriott.com/en-us/hotels/waswc-the-westin-washington-dc-downtown/overview/",
      "source": "osm"
    },
    {
      "nom": "The Fairmont",
      "categorie": "Hôtel",
      "priceRange": "€€",
      "mapsUrl": "https://maps.google.com/?q=38.9057516,-77.0519498",
      "lat": 38.9057516,
      "lng": -77.0519498,
      "halalFriendly": false,
      "bookingUrl": "https://www.fairmont.com/washington/",
      "source": "osm"
    },
    {
      "nom": "Churchill Hotel Near Embassy Row",
      "categorie": "Hôtel",
      "priceRange": "€€",
      "mapsUrl": "https://maps.google.com/?q=38.9163741,-77.0469605",
      "lat": 38.9163741,
      "lng": -77.0469605,
      "halalFriendly": false,
      "bookingUrl": "https://www.thechurchillhotel.com/",
      "source": "osm"
    },
    {
      "nom": "Courtyard Marriott - Foggy Bottom",
      "categorie": "Hôtel",
      "priceRange": "€€",
      "mapsUrl": "https://maps.google.com/?q=38.8965436,-77.044525",
      "lat": 38.8965436,
      "lng": -77.044525,
      "halalFriendly": false,
      "bookingUrl": "https://www.marriott.com/wasfb",
      "source": "osm"
    },
    {
      "nom": "Capitol Comfort Hostel",
      "categorie": "Auberge",
      "priceRange": "€€",
      "mapsUrl": "https://maps.google.com/?q=38.9115516,-77.022232",
      "lat": 38.9115516,
      "lng": -77.022232,
      "halalFriendly": false,
      "bookingUrl": "https://maps.google.com/?q=38.9115516,-77.022232",
      "source": "osm"
    },
    {
      "nom": "American Guest House",
      "categorie": "Hôtel",
      "priceRange": "€€",
      "mapsUrl": "https://maps.google.com/?q=38.9176566,-77.0459777",
      "lat": 38.9176566,
      "lng": -77.0459777,
      "halalFriendly": false,
      "bookingUrl": "https://www.americanguesthouse.com/",
      "source": "osm"
    },
    {
      "nom": "Melrose Georgetown Hotel",
      "categorie": "Hôtel",
      "priceRange": "€€",
      "mapsUrl": "https://maps.google.com/?q=38.9030366,-77.0523879",
      "lat": 38.9030366,
      "lng": -77.0523879,
      "halalFriendly": false,
      "bookingUrl": "https://www.melrosehoteldc.com/",
      "source": "osm"
    },
    {
      "nom": "The Normandy Hotel",
      "categorie": "Hôtel",
      "priceRange": "€€",
      "mapsUrl": "https://maps.google.com/?q=38.9174098,-77.0476207",
      "lat": 38.9174098,
      "lng": -77.0476207,
      "halalFriendly": false,
      "bookingUrl": "https://maps.google.com/?q=38.9174098,-77.0476207",
      "source": "osm"
    },
    {
      "nom": "Caravan Hostel",
      "categorie": "Auberge",
      "priceRange": "€€",
      "mapsUrl": "https://maps.google.com/?q=38.9200472,-77.0415419",
      "lat": 38.9200472,
      "lng": -77.0415419,
      "halalFriendly": false,
      "bookingUrl": "https://www.caravanhostel.com/",
      "source": "osm"
    },
    {
      "nom": "State Plaza Hotel",
      "categorie": "Hôtel",
      "priceRange": "€€",
      "mapsUrl": "https://maps.google.com/?q=38.8966843,-77.0475147",
      "lat": 38.8966843,
      "lng": -77.0475147,
      "halalFriendly": false,
      "bookingUrl": "https://www.stateplaza.com/",
      "source": "osm"
    },
    {
      "nom": "Hotel Harrington",
      "categorie": "Hôtel",
      "priceRange": "€€",
      "mapsUrl": "https://maps.google.com/?q=38.8958971,-77.0273017",
      "lat": 38.8958971,
      "lng": -77.0273017,
      "halalFriendly": false,
      "bookingUrl": "https://www.hotel-harrington.com/",
      "source": "osm"
    },
    {
      "nom": "Windsor Lodge",
      "categorie": "Hôtel",
      "priceRange": "€€",
      "mapsUrl": "https://maps.google.com/?q=38.9173936,-77.0486397",
      "lat": 38.9173936,
      "lng": -77.0486397,
      "halalFriendly": false,
      "bookingUrl": "https://maps.google.com/?q=38.9173936,-77.0486397",
      "source": "osm"
    },
    {
      "nom": "High Road Hostel DC",
      "categorie": "Auberge",
      "priceRange": "€€",
      "mapsUrl": "https://maps.google.com/?q=38.920407,-77.042278",
      "lat": 38.920407,
      "lng": -77.042278,
      "halalFriendly": false,
      "bookingUrl": "https://www.highroadhotel.com",
      "source": "osm"
    },
    {
      "nom": "Courtyard",
      "categorie": "Hôtel",
      "priceRange": "€€",
      "mapsUrl": "https://maps.google.com/?q=38.8971375,-77.0243479",
      "lat": 38.8971375,
      "lng": -77.0243479,
      "halalFriendly": false,
      "bookingUrl": "https://maps.google.com/?q=38.8971375,-77.0243479",
      "source": "osm"
    },
    {
      "nom": "Motto by Hilton Washington DC City Center",
      "categorie": "Hôtel",
      "priceRange": "€€",
      "mapsUrl": "https://maps.google.com/?q=38.9001131,-77.0212039",
      "lat": 38.9001131,
      "lng": -77.0212039,
      "halalFriendly": false,
      "bookingUrl": "https://www.hilton.com/en/hotels/wasuaua-motto-washington-dc-city-center/",
      "source": "osm"
    },
    {
      "nom": "Hotel Hive",
      "categorie": "Hôtel",
      "priceRange": "€€",
      "mapsUrl": "https://maps.google.com/?q=38.8971172,-77.0496873",
      "lat": 38.8971172,
      "lng": -77.0496873,
      "halalFriendly": false,
      "bookingUrl": "https://www.hotelhive.com/",
      "source": "osm"
    },
    {
      "nom": "The River Inn",
      "categorie": "Hôtel",
      "priceRange": "€€",
      "mapsUrl": "https://maps.google.com/?q=38.9014081,-77.0536224",
      "lat": 38.9014081,
      "lng": -77.0536224,
      "halalFriendly": false,
      "bookingUrl": "https://www.theriverinn.com/",
      "source": "osm"
    },
    {
      "nom": "Arc Hotel Washington DC",
      "categorie": "Hôtel",
      "priceRange": "€€",
      "mapsUrl": "https://maps.google.com/?q=38.9002688,-77.0528992",
      "lat": 38.9002688,
      "lng": -77.0528992,
      "halalFriendly": false,
      "bookingUrl": "https://www.archoteldc.com/",
      "source": "osm"
    },
    {
      "nom": "Homewood Suites by Hilton Washington DC Convention Center",
      "categorie": "Hôtel",
      "priceRange": "€€",
      "mapsUrl": "https://maps.google.com/?q=38.9043805,-77.0185286",
      "lat": 38.9043805,
      "lng": -77.0185286,
      "halalFriendly": false,
      "bookingUrl": "https://www.hilton.com/en/hotels/wascohw-homewood-suites-washington-dc-convention-center/",
      "source": "osm"
    },
    {
      "nom": "Waldorf Astoria Washington DC",
      "categorie": "Hôtel",
      "priceRange": "€€",
      "mapsUrl": "https://maps.google.com/?q=38.8940964,-77.0275812",
      "lat": 38.8940964,
      "lng": -77.0275812,
      "halalFriendly": false,
      "bookingUrl": "https://www.hilton.com/en/hotels/dcawawa-waldorf-astoria-washington-dc/",
      "source": "osm"
    },
    {
      "nom": "Washington International Student Center",
      "categorie": "Auberge",
      "priceRange": "€€",
      "mapsUrl": "https://maps.google.com/?q=38.9217833,-77.0421341",
      "lat": 38.9217833,
      "lng": -77.0421341,
      "halalFriendly": false,
      "bookingUrl": "https://dchostel.com/",
      "source": "osm"
    },
    {
      "nom": "Hotel Monaco",
      "categorie": "Hôtel",
      "priceRange": "€€",
      "mapsUrl": "https://maps.google.com/?q=38.8969924,-77.0224383",
      "lat": 38.8969924,
      "lng": -77.0224383,
      "halalFriendly": false,
      "bookingUrl": "https://www.monaco-dc.com/",
      "source": "osm"
    },
    {
      "nom": "Fairfield Inn",
      "categorie": "Hôtel",
      "priceRange": "€€",
      "mapsUrl": "https://maps.google.com/?q=38.8994821,-77.0191703",
      "lat": 38.8994821,
      "lng": -77.0191703,
      "halalFriendly": false,
      "bookingUrl": "https://www.marriott.com/wasfc",
      "source": "osm"
    },
    {
      "nom": "The Line",
      "categorie": "Hôtel",
      "priceRange": "€€",
      "mapsUrl": "https://maps.google.com/?q=38.9227647,-77.0417024",
      "lat": 38.9227647,
      "lng": -77.0417024,
      "halalFriendly": false,
      "bookingUrl": "https://www.thelinehotel.com/dc/",
      "source": "osm"
    },
    {
      "nom": "Four Seasons Hotel Washington, DC",
      "categorie": "Hôtel",
      "priceRange": "€€",
      "mapsUrl": "https://maps.google.com/?q=38.9044886,-77.057366",
      "lat": 38.9044886,
      "lng": -77.057366,
      "halalFriendly": false,
      "bookingUrl": "https://www.fourseasons.com/",
      "source": "osm"
    },
    {
      "nom": "Samaritan Inn",
      "categorie": "Hôtel",
      "priceRange": "€€",
      "mapsUrl": "https://maps.google.com/?q=38.9232423,-77.0316323",
      "lat": 38.9232423,
      "lng": -77.0316323,
      "halalFriendly": false,
      "bookingUrl": "https://www.samaritaninns.org/",
      "source": "osm"
    },
    {
      "nom": "The Watergate Hotel",
      "categorie": "Hôtel",
      "priceRange": "€€",
      "mapsUrl": "https://maps.google.com/?q=38.8993379,-77.0558434",
      "lat": 38.8993379,
      "lng": -77.0558434,
      "halalFriendly": false,
      "bookingUrl": "http://www.watergatehotel.com/",
      "source": "osm"
    },
    {
      "nom": "Holiday Inn Express",
      "categorie": "Hôtel",
      "priceRange": "€€",
      "mapsUrl": "https://maps.google.com/?q=38.9028289,-77.01574",
      "lat": 38.9028289,
      "lng": -77.01574,
      "halalFriendly": false,
      "bookingUrl": "https://www.ihg.com/holidayinnexpress/hotels/us/en/washington/wasnw/hoteldetail",
      "source": "osm"
    },
    {
      "nom": "Georgetown Suites Harbor Building",
      "categorie": "Hôtel",
      "priceRange": "€€",
      "mapsUrl": "https://maps.google.com/?q=38.902922,-77.0583576",
      "lat": 38.902922,
      "lng": -77.0583576,
      "halalFriendly": false,
      "bookingUrl": "https://www.georgetownsuites.com/",
      "source": "osm"
    }
  ],
  "mosqueesPrincipales": [
    {
      "id": "m66790109",
      "nom": "American Fazl Mosque",
      "type": "Mosquée",
      "adresse": "Leroy Place Northwest, Washington",
      "description": "Lieu de prière (OpenStreetMap).",
      "mapsUrl": "https://maps.google.com/?q=38.9155228,-77.0482411",
      "lat": 38.9155228,
      "lng": -77.0482411,
      "source": "osm"
    },
    {
      "id": "m67247033",
      "nom": "Masjid Muhammad",
      "type": "Mosquée",
      "adresse": "4th Street Northwest",
      "description": "Lieu de prière (OpenStreetMap).",
      "mapsUrl": "https://maps.google.com/?q=38.9103218,-77.0158875",
      "lat": 38.9103218,
      "lng": -77.0158875,
      "source": "osm"
    },
    {
      "id": "m70070852",
      "nom": "First Hijrah Muslim Community Center",
      "type": "Mosquée",
      "adresse": "Georgia Avenue Northwest, Washington",
      "description": "Lieu de prière (OpenStreetMap).",
      "mapsUrl": "https://maps.google.com/?q=38.9436358,-77.0262388",
      "lat": 38.9436358,
      "lng": -77.0262388,
      "source": "osm"
    },
    {
      "id": "m4675269753",
      "nom": "Masjid Ahlul Quran Wal Hadeeth",
      "type": "Mosquée",
      "adresse": "18th Street Northeast",
      "description": "Lieu de prière (OpenStreetMap).",
      "mapsUrl": "https://maps.google.com/?q=38.9326931,-76.979324",
      "lat": 38.9326931,
      "lng": -76.979324,
      "source": "osm"
    },
    {
      "id": "m473409352",
      "nom": "Avondale Islamic Center",
      "type": "Mosquée",
      "adresse": "Eastern Avenue, Mount Rainier",
      "description": "Lieu de prière (OpenStreetMap).",
      "mapsUrl": "https://maps.google.com/?q=38.9462957,-76.9771126",
      "lat": 38.9462957,
      "lng": -76.9771126,
      "source": "osm"
    },
    {
      "id": "m358962220",
      "nom": "Muhammed Mosque",
      "type": "Mosquée",
      "adresse": "",
      "description": "Lieu de prière (OpenStreetMap).",
      "mapsUrl": "https://maps.google.com/?q=38.869851,-76.960771",
      "lat": 38.869851,
      "lng": -76.960771,
      "source": "osm"
    },
    {
      "id": "m452437834",
      "nom": "Baitul Mukarram Masjid",
      "type": "Mosquée",
      "adresse": "South Nelson Street",
      "description": "Lieu de prière (OpenStreetMap).",
      "mapsUrl": "https://maps.google.com/?q=38.8495913,-77.0905485",
      "lat": 38.8495913,
      "lng": -77.0905485,
      "source": "osm"
    },
    {
      "id": "m358253416",
      "nom": "Saint Cecilia Chapel (ruin)",
      "type": "Mosquée",
      "adresse": "",
      "description": "Lieu de prière (OpenStreetMap).",
      "mapsUrl": "https://maps.google.com/?q=38.9714994,-76.9760867",
      "lat": 38.9714994,
      "lng": -76.9760867,
      "source": "osm"
    },
    {
      "id": "m4675301557",
      "nom": "As-Sabiqun",
      "type": "Mosquée",
      "adresse": "Benning Road, Washington",
      "description": "Lieu de prière (OpenStreetMap).",
      "mapsUrl": "https://maps.google.com/?q=38.8863361,-76.9364289",
      "lat": 38.8863361,
      "lng": -76.9364289,
      "source": "osm"
    },
    {
      "id": "m236941362",
      "nom": "Dar Al-Hijrah Islamic Center",
      "type": "Mosquée",
      "adresse": "Row Street, Falls Church",
      "description": "Lieu de prière (OpenStreetMap).",
      "mapsUrl": "https://maps.google.com/?q=38.8613725,-77.1466798",
      "lat": 38.8613725,
      "lng": -77.1466798,
      "source": "osm"
    },
    {
      "id": "m110166864",
      "nom": "IMAAM Center",
      "type": "Mosquée",
      "adresse": "Georgia Avenue, Silver Spring",
      "description": "Lieu de prière (OpenStreetMap).",
      "mapsUrl": "https://maps.google.com/?q=39.0042569,-77.0374682",
      "lat": 39.0042569,
      "lng": -77.0374682,
      "source": "osm"
    }
  ],
  "activites": [
    {
      "id": "a358955128",
      "nom": "Lieutenant General Winfield Brevet Scott Statue",
      "categorie": "artwork",
      "description": "",
      "prix": "",
      "duree": "",
      "mapsUrl": "https://maps.google.com/?q=38.9072434,-77.0365258",
      "lat": 38.9072434,
      "lng": -77.0365258,
      "source": "osm"
    },
    {
      "id": "a358955126",
      "nom": "Daniel Webster Memorial",
      "categorie": "artwork",
      "description": "",
      "prix": "",
      "duree": "",
      "mapsUrl": "https://maps.google.com/?q=38.9072469,-77.037306",
      "lat": 38.9072469,
      "lng": -77.037306,
      "source": "osm"
    },
    {
      "id": "a13018143648",
      "nom": "Old Chancery of the Embassy of the Republic of the Philippines in the United States",
      "categorie": "memorial",
      "description": "",
      "prix": "",
      "duree": "",
      "mapsUrl": "https://maps.google.com/?q=38.9077188,-77.0374574",
      "lat": 38.9077188,
      "lng": -77.0374574,
      "source": "osm"
    },
    {
      "id": "a358955131",
      "nom": "Hahnemann Monument",
      "categorie": "artwork",
      "description": "",
      "prix": "",
      "duree": "",
      "mapsUrl": "https://maps.google.com/?q=38.9072463,-77.0357017",
      "lat": 38.9072463,
      "lng": -77.0357017,
      "source": "osm"
    },
    {
      "id": "a367144492",
      "nom": "B'Nai B'Rith Klutznick Museum",
      "categorie": "museum",
      "description": "",
      "prix": "",
      "duree": "",
      "mapsUrl": "https://maps.google.com/?q=38.9062227,-77.0383102",
      "lat": 38.9062227,
      "lng": -77.0383102,
      "source": "osm"
    },
    {
      "id": "a55327098",
      "nom": "Sumner School",
      "categorie": "museum",
      "description": "",
      "prix": "",
      "duree": "",
      "mapsUrl": "https://maps.google.com/?q=38.9059393,-77.0381414",
      "lat": 38.9059393,
      "lng": -77.0381414,
      "source": "osm"
    },
    {
      "id": "a358960393",
      "nom": "Samuel D Gross Memorial",
      "categorie": "memorial",
      "description": "",
      "prix": "",
      "duree": "",
      "mapsUrl": "https://maps.google.com/?q=38.907056,-77.034699",
      "lat": 38.907056,
      "lng": -77.034699,
      "source": "osm"
    },
    {
      "id": "a55326926",
      "nom": "National Geographic Society",
      "categorie": "museum",
      "description": "",
      "prix": "",
      "duree": "",
      "mapsUrl": "https://maps.google.com/?q=38.9051501,-77.0381091",
      "lat": 38.9051501,
      "lng": -77.0381091,
      "source": "osm"
    },
    {
      "id": "a13956093325",
      "nom": "Nuns of the Battlefield",
      "categorie": "memorial",
      "description": "",
      "prix": "",
      "duree": "",
      "mapsUrl": "https://maps.google.com/?q=38.9057974,-77.0402294",
      "lat": 38.9057974,
      "lng": -77.0402294,
      "source": "osm"
    },
    {
      "id": "a358957454",
      "nom": "John Witherspoon Statue",
      "categorie": "artwork",
      "description": "",
      "prix": "",
      "duree": "",
      "mapsUrl": "https://maps.google.com/?q=38.9071654,-77.041778",
      "lat": 38.9071654,
      "lng": -77.041778,
      "source": "osm"
    },
    {
      "id": "a358958523",
      "nom": "Henry Wadsworth Longfellow Statue",
      "categorie": "artwork",
      "description": "",
      "prix": "",
      "duree": "",
      "mapsUrl": "https://maps.google.com/?q=38.9058571,-77.0415147",
      "lat": 38.9058571,
      "lng": -77.0415147,
      "source": "osm"
    },
    {
      "id": "a1422373228",
      "nom": "Shepard Fairey Mural",
      "categorie": "artwork",
      "description": "",
      "prix": "",
      "duree": "",
      "mapsUrl": "https://maps.google.com/?q=38.9093344,-77.0325883",
      "lat": 38.9093344,
      "lng": -77.0325883,
      "source": "osm"
    },
    {
      "id": "a358957984",
      "nom": "Martin Luther Statue",
      "categorie": "artwork",
      "description": "",
      "prix": "",
      "duree": "",
      "mapsUrl": "https://maps.google.com/?q=38.9065753,-77.0317038",
      "lat": 38.9065753,
      "lng": -77.0317038,
      "source": "osm"
    },
    {
      "id": "a358955138",
      "nom": "Major General George Thomas Statue",
      "categorie": "artwork",
      "description": "",
      "prix": "",
      "duree": "",
      "mapsUrl": "https://maps.google.com/?q=38.9056605,-77.031954",
      "lat": 38.9056605,
      "lng": -77.031954,
      "source": "osm"
    },
    {
      "id": "a11546654467",
      "nom": "Nijad Huseynov",
      "categorie": "memorial",
      "description": "",
      "prix": "",
      "duree": "",
      "mapsUrl": "https://maps.google.com/?q=38.9038255,-77.0400578",
      "lat": 38.9038255,
      "lng": -77.0400578,
      "source": "osm"
    },
    {
      "id": "a810438094",
      "nom": "Transformer",
      "categorie": "gallery",
      "description": "",
      "prix": "",
      "duree": "",
      "mapsUrl": "https://maps.google.com/?q=38.9095036,-77.032374",
      "lat": 38.9095036,
      "lng": -77.032374,
      "source": "osm"
    },
    {
      "id": "a6440239820",
      "nom": "Barbie Pond",
      "categorie": "artwork",
      "description": "",
      "prix": "",
      "duree": "",
      "mapsUrl": "https://maps.google.com/?q=38.9110534,-77.0342004",
      "lat": 38.9110534,
      "lng": -77.0342004,
      "source": "osm"
    },
    {
      "id": "a8044361416",
      "nom": "Branches on armature",
      "categorie": "artwork",
      "description": "",
      "prix": "",
      "duree": "",
      "mapsUrl": "https://maps.google.com/?q=38.9089369,-77.0430294",
      "lat": 38.9089369,
      "lng": -77.0430294,
      "source": "osm"
    },
    {
      "id": "a4103690694",
      "nom": "A&A Art & Frame",
      "categorie": "artwork",
      "description": "",
      "prix": "",
      "duree": "",
      "mapsUrl": "https://maps.google.com/?q=38.9049582,-77.0432043",
      "lat": 38.9049582,
      "lng": -77.0432043,
      "source": "osm"
    },
    {
      "id": "a792739245",
      "nom": "Admiral David G Farragut",
      "categorie": "artwork",
      "description": "",
      "prix": "",
      "duree": "",
      "mapsUrl": "https://maps.google.com/?q=38.9019431,-77.0389618",
      "lat": 38.9019431,
      "lng": -77.0389618,
      "source": "osm"
    },
    {
      "id": "a2316449632",
      "nom": "Major General James B. McPherson",
      "categorie": "artwork",
      "description": "",
      "prix": "",
      "duree": "",
      "mapsUrl": "https://maps.google.com/?q=38.901961,-77.0341135",
      "lat": 38.901961,
      "lng": -77.0341135,
      "source": "osm"
    },
    {
      "id": "a11141661205",
      "nom": "Jamya Williams",
      "categorie": "memorial",
      "description": "",
      "prix": "",
      "duree": "",
      "mapsUrl": "https://maps.google.com/?q=38.9027709,-77.0318267",
      "lat": 38.9027709,
      "lng": -77.0318267,
      "source": "osm"
    },
    {
      "id": "a4085826612",
      "nom": "Heurich House Museum",
      "categorie": "museum",
      "description": "",
      "prix": "",
      "duree": "",
      "mapsUrl": "https://maps.google.com/?q=38.9080298,-77.0445843",
      "lat": 38.9080298,
      "lng": -77.0445843,
      "source": "osm"
    },
    {
      "id": "a6439821537",
      "nom": "Dupont Underground Art Space",
      "categorie": "gallery",
      "description": "",
      "prix": "",
      "duree": "",
      "mapsUrl": "https://maps.google.com/?q=38.9104845,-77.0435233",
      "lat": 38.9104845,
      "lng": -77.0435233,
      "source": "osm"
    },
    {
      "id": "a358959864",
      "nom": "Major General John A. Logan Monument",
      "categorie": "artwork",
      "description": "",
      "prix": "",
      "duree": "",
      "mapsUrl": "https://maps.google.com/?q=38.9096494,-77.0296226",
      "lat": 38.9096494,
      "lng": -77.0296226,
      "source": "osm"
    },
    {
      "id": "a358959871",
      "nom": "Almas Temple",
      "categorie": "attraction",
      "description": "",
      "prix": "",
      "duree": "",
      "mapsUrl": "https://maps.google.com/?q=38.9027752,-77.0313202",
      "lat": 38.9027752,
      "lng": -77.0313202,
      "source": "osm"
    },
    {
      "id": "a358960420",
      "nom": "Sonny Bono",
      "categorie": "memorial",
      "description": "",
      "prix": "",
      "duree": "",
      "mapsUrl": "https://maps.google.com/?q=38.9084776,-77.0447189",
      "lat": 38.9084776,
      "lng": -77.0447189,
      "source": "osm"
    },
    {
      "id": "a12407271106",
      "nom": "The Observer",
      "categorie": "artwork",
      "description": "",
      "prix": "",
      "duree": "",
      "mapsUrl": "https://maps.google.com/?q=38.9031978,-77.0436066",
      "lat": 38.9031978,
      "lng": -77.0436066,
      "source": "osm"
    },
    {
      "id": "a358958185",
      "nom": "Commodore John Barry Statue",
      "categorie": "artwork",
      "description": "",
      "prix": "",
      "duree": "",
      "mapsUrl": "https://maps.google.com/?q=38.9019232,-77.0316751",
      "lat": 38.9019232,
      "lng": -77.0316751,
      "source": "osm"
    },
    {
      "id": "a66833998",
      "nom": "National Museum Of American Jewish Military History",
      "categorie": "museum",
      "description": "",
      "prix": "",
      "duree": "",
      "mapsUrl": "https://maps.google.com/?q=38.9128128,-77.0421135",
      "lat": 38.9128128,
      "lng": -77.0421135,
      "source": "osm"
    },
    {
      "id": "a358960376",
      "nom": "Kossuth Lajos",
      "categorie": "memorial",
      "description": "",
      "prix": "",
      "duree": "",
      "mapsUrl": "https://maps.google.com/?q=38.9104925,-77.0450257",
      "lat": 38.9104925,
      "lng": -77.0450257,
      "source": "osm"
    },
    {
      "id": "a257934460",
      "nom": "Major General von Steuben",
      "categorie": "artwork",
      "description": "",
      "prix": "",
      "duree": "",
      "mapsUrl": "https://maps.google.com/?q=38.9000194,-77.0377251",
      "lat": 38.9000194,
      "lng": -77.0377251,
      "source": "osm"
    },
    {
      "id": "a1341584665",
      "nom": "Decatur House",
      "categorie": "museum",
      "description": "",
      "prix": "",
      "duree": "",
      "mapsUrl": "https://maps.google.com/?q=38.9000154,-77.0383892",
      "lat": 38.9000154,
      "lng": -77.0383892,
      "source": "osm"
    },
    {
      "id": "a257934461",
      "nom": "Brigadier General Kosciuszko",
      "categorie": "artwork",
      "description": "",
      "prix": "",
      "duree": "",
      "mapsUrl": "https://maps.google.com/?q=38.9000182,-77.035382",
      "lat": 38.9000182,
      "lng": -77.035382,
      "source": "osm"
    },
    {
      "id": "a66420117",
      "nom": "Decatur Carriage House",
      "categorie": "museum",
      "description": "",
      "prix": "",
      "duree": "",
      "mapsUrl": "https://maps.google.com/?q=38.8999445,-77.0386797",
      "lat": 38.8999445,
      "lng": -77.0386797,
      "source": "osm"
    },
    {
      "id": "a12903829507",
      "nom": "Facing the Rising Sun",
      "categorie": "artwork",
      "description": "",
      "prix": "",
      "duree": "",
      "mapsUrl": "https://maps.google.com/?q=38.9138637,-77.032215",
      "lat": 38.9138637,
      "lng": -77.032215,
      "source": "osm"
    },
    {
      "id": "a792739243",
      "nom": "Andrew Jackson",
      "categorie": "artwork",
      "description": "",
      "prix": "",
      "duree": "",
      "mapsUrl": "https://maps.google.com/?q=38.8995223,-77.0365416",
      "lat": 38.8995223,
      "lng": -77.0365416,
      "source": "osm"
    },
    {
      "id": "a9998763305",
      "nom": "Planet Word",
      "categorie": "museum",
      "description": "",
      "prix": "",
      "duree": "",
      "mapsUrl": "https://maps.google.com/?q=38.9022279,-77.0293023",
      "lat": 38.9022279,
      "lng": -77.0293023,
      "source": "osm"
    },
    {
      "id": "a358957417",
      "nom": "Edmund Burke Statue",
      "categorie": "artwork",
      "description": "",
      "prix": "",
      "duree": "",
      "mapsUrl": "https://maps.google.com/?q=38.9038848,-77.0274438",
      "lat": 38.9038848,
      "lng": -77.0274438,
      "source": "osm"
    },
    {
      "id": "a9501875194",
      "nom": "Jeffrey Long",
      "categorie": "memorial",
      "description": "",
      "prix": "",
      "duree": "",
      "mapsUrl": "https://maps.google.com/?q=38.9055704,-77.0470648",
      "lat": 38.9055704,
      "lng": -77.0470648,
      "source": "osm"
    },
    {
      "id": "a6382047469",
      "nom": "The Women Who Will",
      "categorie": "artwork",
      "description": "",
      "prix": "",
      "duree": "",
      "mapsUrl": "https://maps.google.com/?q=38.9010216,-77.0436725",
      "lat": 38.9010216,
      "lng": -77.0436725,
      "source": "osm"
    },
    {
      "id": "a5355153215",
      "nom": "Cup",
      "categorie": "artwork",
      "description": "",
      "prix": "",
      "duree": "",
      "mapsUrl": "https://maps.google.com/?q=38.8990756,-77.0367199",
      "lat": 38.8990756,
      "lng": -77.0367199,
      "source": "osm"
    },
    {
      "id": "a1478681175",
      "nom": "Watermelon House",
      "categorie": "artwork",
      "description": "",
      "prix": "",
      "duree": "",
      "mapsUrl": "https://maps.google.com/?q=38.9109641,-77.027566",
      "lat": 38.9109641,
      "lng": -77.027566,
      "source": "osm"
    },
    {
      "id": "a257934463",
      "nom": "Major General Rochambeau",
      "categorie": "artwork",
      "description": "",
      "prix": "",
      "duree": "",
      "mapsUrl": "https://maps.google.com/?q=38.8990169,-77.0377256",
      "lat": 38.8990169,
      "lng": -77.0377256,
      "source": "osm"
    },
    {
      "id": "a66420114",
      "nom": "Renwick Gallery",
      "categorie": "museum",
      "description": "",
      "prix": "",
      "duree": "",
      "mapsUrl": "https://maps.google.com/?q=38.8991269,-77.0390789",
      "lat": 38.8991269,
      "lng": -77.0390789,
      "source": "osm"
    },
    {
      "id": "a257934462",
      "nom": "Major General Lafayette",
      "categorie": "artwork",
      "description": "",
      "prix": "",
      "duree": "",
      "mapsUrl": "https://maps.google.com/?q=38.8990193,-77.0353827",
      "lat": 38.8990193,
      "lng": -77.0353827,
      "source": "osm"
    },
    {
      "id": "a5377063121",
      "nom": "White House Peace Vigil",
      "categorie": "attraction",
      "description": "",
      "prix": "",
      "duree": "",
      "mapsUrl": "https://maps.google.com/?q=38.8989299,-77.0365372",
      "lat": 38.8989299,
      "lng": -77.0365372,
      "source": "osm"
    },
    {
      "id": "a8633890888",
      "nom": "Alice Swanson",
      "categorie": "memorial",
      "description": "",
      "prix": "",
      "duree": "",
      "mapsUrl": "https://maps.google.com/?q=38.912671,-77.0449722",
      "lat": 38.912671,
      "lng": -77.0449722,
      "source": "osm"
    },
    {
      "id": "a2295945027",
      "nom": "Samuel Gompers Statute",
      "categorie": "artwork",
      "description": "",
      "prix": "",
      "duree": "",
      "mapsUrl": "https://maps.google.com/?q=38.9040094,-77.0265075",
      "lat": 38.9040094,
      "lng": -77.0265075,
      "source": "osm"
    },
    {
      "id": "a1275851634",
      "nom": "Mohandas K. Gandhi Statue",
      "categorie": "memorial",
      "description": "",
      "prix": "",
      "duree": "",
      "mapsUrl": "https://maps.google.com/?q=38.9110276,-77.0469775",
      "lat": 38.9110276,
      "lng": -77.0469775,
      "source": "osm"
    },
    {
      "id": "a801383799",
      "nom": "The People’s House",
      "categorie": "museum",
      "description": "",
      "prix": "",
      "duree": "",
      "mapsUrl": "https://maps.google.com/?q=38.8985861,-77.039735",
      "lat": 38.8985861,
      "lng": -77.039735,
      "source": "osm"
    },
    {
      "id": "a1527304874",
      "nom": "The Phillips Collection",
      "categorie": "museum",
      "description": "",
      "prix": "",
      "duree": "",
      "mapsUrl": "https://maps.google.com/?q=38.9116138,-77.0469931",
      "lat": 38.9116138,
      "lng": -77.0469931,
      "source": "osm"
    },
    {
      "id": "a4348913783",
      "nom": "White Cloud Gallery",
      "categorie": "gallery",
      "description": "",
      "prix": "",
      "duree": "",
      "mapsUrl": "https://maps.google.com/?q=38.9153241,-77.0316703",
      "lat": 38.9153241,
      "lng": -77.0316703,
      "source": "osm"
    },
    {
      "id": "a66646611",
      "nom": "Anderson House",
      "categorie": "museum",
      "description": "",
      "prix": "",
      "duree": "",
      "mapsUrl": "https://maps.google.com/?q=38.9107345,-77.0477044",
      "lat": 38.9107345,
      "lng": -77.0477044,
      "source": "osm"
    },
    {
      "id": "a5752049016",
      "nom": "Around the Void, 1969",
      "categorie": "artwork",
      "description": "",
      "prix": "",
      "duree": "",
      "mapsUrl": "https://maps.google.com/?q=38.8994873,-77.0433071",
      "lat": 38.8994873,
      "lng": -77.0433071,
      "source": "osm"
    },
    {
      "id": "a367144504",
      "nom": "National Museum of Women in the Arts",
      "categorie": "museum",
      "description": "",
      "prix": "",
      "duree": "",
      "mapsUrl": "https://maps.google.com/?q=38.9000261,-77.0292709",
      "lat": 38.9000261,
      "lng": -77.0292709,
      "source": "osm"
    },
    {
      "id": "a851398804",
      "nom": "Laogai Museum",
      "categorie": "museum",
      "description": "",
      "prix": "",
      "duree": "",
      "mapsUrl": "https://maps.google.com/?q=38.9158054,-77.0414824",
      "lat": 38.9158054,
      "lng": -77.0414824,
      "source": "osm"
    },
    {
      "id": "a12091851371",
      "nom": "Museum of the Palestinian People",
      "categorie": "museum",
      "description": "",
      "prix": "",
      "duree": "",
      "mapsUrl": "https://maps.google.com/?q=38.9157198,-77.0418497",
      "lat": 38.9157198,
      "lng": -77.0418497,
      "source": "osm"
    },
    {
      "id": "a909013410",
      "nom": "AAAS Art Gallery (public)",
      "categorie": "artwork",
      "description": "",
      "prix": "",
      "duree": "",
      "mapsUrl": "https://maps.google.com/?q=38.9002759,-77.0283255",
      "lat": 38.9002759,
      "lng": -77.0283255,
      "source": "osm"
    },
    {
      "id": "a8864542817",
      "nom": "Gallery 2112",
      "categorie": "gallery",
      "description": "",
      "prix": "",
      "duree": "",
      "mapsUrl": "https://maps.google.com/?q=38.9124597,-77.0473848",
      "lat": 38.9124597,
      "lng": -77.0473848,
      "source": "osm"
    },
    {
      "id": "a8162575466",
      "nom": "Floor Frame",
      "categorie": "artwork",
      "description": "",
      "prix": "",
      "duree": "",
      "mapsUrl": "https://maps.google.com/?q=38.8974729,-77.0368871",
      "lat": 38.8974729,
      "lng": -77.0368871,
      "source": "osm"
    },
    {
      "id": "a8254222443",
      "nom": "Liberty Bell Replica",
      "categorie": "artwork",
      "description": "",
      "prix": "",
      "duree": "",
      "mapsUrl": "https://maps.google.com/?q=38.8975835,-77.0349266",
      "lat": 38.8975835,
      "lng": -77.0349266,
      "source": "osm"
    },
    {
      "id": "a6381664026",
      "nom": "GW Art Collection",
      "categorie": "gallery",
      "description": "",
      "prix": "",
      "duree": "",
      "mapsUrl": "https://maps.google.com/?q=38.9002659,-77.0457259",
      "lat": 38.9002659,
      "lng": -77.0457259,
      "source": "osm"
    },
    {
      "id": "a358957975",
      "nom": "Taras Shevchenko Statue",
      "categorie": "artwork",
      "description": "",
      "prix": "",
      "duree": "",
      "mapsUrl": "https://maps.google.com/?q=38.9100561,-77.0489596",
      "lat": 38.9100561,
      "lng": -77.0489596,
      "source": "osm"
    },
    {
      "id": "a11735101172",
      "nom": "Gagged Washington",
      "categorie": "artwork",
      "description": "",
      "prix": "",
      "duree": "",
      "mapsUrl": "https://maps.google.com/?q=38.9168828,-77.0347812",
      "lat": 38.9168828,
      "lng": -77.0347812,
      "source": "osm"
    },
    {
      "id": "a585825430",
      "nom": "Long View Gallery",
      "categorie": "gallery",
      "description": "",
      "prix": "",
      "duree": "",
      "mapsUrl": "https://maps.google.com/?q=38.9066268,-77.0241703",
      "lat": 38.9066268,
      "lng": -77.0241703,
      "source": "osm"
    },
    {
      "id": "a358960378",
      "nom": "Liberty Bell Memorial",
      "categorie": "memorial",
      "description": "",
      "prix": "",
      "duree": "",
      "mapsUrl": "https://maps.google.com/?q=38.8976118,-77.0335879",
      "lat": 38.8976118,
      "lng": -77.0335879,
      "source": "osm"
    },