{
 "slug": "washington",
 "nom": "Washington",
 "pays": "États-Unis",
 "pays_slug": "etats-unis",
 "continent": "Amérique du Nord",
 "region": "États-Unis",
 "coordonnees": {
  "lat": 38.9072,
  "lng": -77.0369
 },
 "codeISO": "US",
 "score_halal": 3.7,
 "halalScore": 7.4,
 "villeNonMusulmane": true,
 "description": "Capitale fédérale américaine. Centre islamique historique et large offre halal, communauté internationale.",
 "metaDescription": "Capitale fédérale américaine. Centre islamique historique et large offre halal, communauté internationale.",
 "image": "https://upload.wikimedia.org/wikipedia/commons/e/e4/12-07-13-washington-by-RalfR-08.jpg",
 "image_hero": "https://upload.wikimedia.org/wikipedia/commons/e/e4/12-07-13-washington-by-RalfR-08.jpg",
 "imageCredit": "Wikimedia Commons",
 "statistiques": {
  "restaurants_halal": 60,
  "mosquees": 5,
  "hotels": 40
 },
 "infoPratique": {
  "transport": "Accessible par avion et transports en commun locaux.",
  "meilleureEpoque": "Printemps et automne (climat tempéré).",
  "conseilHalal": "Ville non-musulmane : repérez les restaurants halal certifiés et les mosquées via l'application avant votre visite."
 },
 "tags": [
  "halal",
  "ville non-musulmane",
  "amérique du nord"
 ],
 "restaurants": [
  {
   "nom": "Shah's Halal Food",
   "type": "middle eastern",
   "priceRange": "€€",
   "mapsUrl": "https://maps.google.com/?q=38.9081346,-77.042299",
   "lat": 38.9081346,
   "lng": -77.042299,
   "halalConfidence": "only",
   "source": "osm"
  },
  {
   "nom": "Safa Halal",
   "type": "middle eastern, american",
   "priceRange": "€€",
   "mapsUrl": "https://maps.google.com/?q=38.9160883,-77.0414741",
   "lat": 38.9160883,
   "lng": -77.0414741,
   "halalConfidence": "yes",
   "source": "osm"
  },
  {
   "nom": "Spice 6",
   "type": "indian",
   "priceRange": "€€",
   "mapsUrl": "https://maps.google.com/?q=38.8994228,-77.0201205",
   "lat": 38.8994228,
   "lng": -77.0201205,
   "halalConfidence": "yes",
   "source": "osm"
  },
  {
   "nom": "Busboys and Poets",
   "type": "sandwich, chicken, american, middle eastern",
   "priceRange": "€€",
   "mapsUrl": "https://maps.google.com/?q=38.9023202,-77.0179932",
   "lat": 38.9023202,
   "lng": -77.0179932,
   "halalConfidence": "yes",
   "source": "osm"
  },
  {
   "nom": "Sharbat Bakery & Café",
   "type": "sandwich, azerbaijani, middle eastern",
   "priceRange": "€€",
   "mapsUrl": "https://maps.google.com/?q=38.9223241,-77.0423621",
   "lat": 38.9223241,
   "lng": -77.0423621,
   "halalConfidence": "yes",
   "source": "osm"
  },
  {
   "nom": "Bantam King",
   "type": "noodle",
   "priceRange": "€€",
   "mapsUrl": "https://maps.google.com/?q=38.8984619,-77.0191292",
   "lat": 38.8984619,
   "lng": -77.0191292,
   "halalConfidence": "yes",
   "source": "osm"
  },
  {
   "nom": "New York Grill",
   "type": "middle eastern, american",
   "priceRange": "€€",
   "mapsUrl": "https://maps.google.com/?q=38.9235621,-77.040989",
   "lat": 38.9235621,
   "lng": -77.040989,
   "halalConfidence": "yes",
   "source": "osm"
  },
  {
   "nom": "DC Tasty Corner",
   "type": "Restaurant halal",
   "priceRange": "€€",
   "mapsUrl": "https://maps.google.com/?q=38.9077227,-77.062995",
   "lat": 38.9077227,
   "lng": -77.062995,
   "halalConfidence": "yes",
   "source": "osm"
  },
  {
   "nom": "Georgetown Pizza & Grill",
   "type": "pizza",
   "priceRange": "€€",
   "mapsUrl": "https://maps.google.com/?q=38.9077275,-77.0639035",
   "lat": 38.9077275,
   "lng": -77.0639035,
   "halalConfidence": "yes",
   "source": "osm"
  },
  {
   "nom": "Halal Wrist",
   "type": "Restaurant halal",
   "priceRange": "€€",
   "mapsUrl": "https://maps.google.com/?q=38.9287637,-77.0229743",
   "lat": 38.9287637,
   "lng": -77.0229743,
   "halalConfidence": "yes",
   "source": "osm"
  },
  {
   "nom": "The Halal Guys",
   "type": "chicken, falafel, gyros",
   "priceRange": "€€",
   "mapsUrl": "https://maps.google.com/?q=38.8975706,-77.0065491",
   "lat": 38.8975706,
   "lng": -77.0065491,
   "halalConfidence": "yes",
   "source": "osm"
  },
  {
   "nom": "Citi Pizza",
   "type": "pizza, pakistani",
   "priceRange": "€€",
   "mapsUrl": "https://maps.google.com/?q=38.900383,-76.999166",
   "lat": 38.900383,
   "lng": -76.999166,
   "halalConfidence": "yes",
   "source": "osm"
  },
  {
   "nom": "Halal Shack",
   "type": "mediterranean",
   "priceRange": "€€",
   "mapsUrl": "https://maps.google.com/?q=38.9371763,-77.0888801",
   "lat": 38.9371763,
   "lng": -77.0888801,
   "halalConfidence": "yes",
   "source": "osm"
  },
  {
   "nom": "Baba's Pizza",
   "type": "pizza",
   "priceRange": "€€",
   "mapsUrl": "https://maps.google.com/?q=38.9371492,-77.0889558",
   "lat": 38.9371492,
   "lng": -77.0889558,
   "halalConfidence": "yes",
   "source": "osm"
  },
  {
   "nom": "Wonder",
   "type": "international",
   "priceRange": "€€",
   "mapsUrl": "https://maps.google.com/?q=38.8375105,-77.0510558",
   "lat": 38.8375105,
   "lng": -77.0510558,
   "halalConfidence": "yes",
   "source": "osm"
  },
  {
   "nom": "Darvish Kitchen",
   "type": "persian",
   "priceRange": "€€",
   "mapsUrl": "https://maps.google.com/?q=38.9051588,-77.0405433",
   "lat": 38.9051588,
   "lng": -77.0405433,
   "halalConfidence": "likely",
   "source": "osm"
  },
  {
   "nom": "Agora",
   "type": "turkish, mediterranean",
   "priceRange": "€€",
   "mapsUrl": "https://maps.google.com/?q=38.9106296,-77.0382506",
   "lat": 38.9106296,
   "lng": -77.0382506,
   "halalConfidence": "likely",
   "source": "osm"
  },
  {
   "nom": "Moby Dick House of Kabob",
   "type": "kebab",
   "priceRange": "€€",
   "mapsUrl": "https://maps.google.com/?q=38.907382,-77.0428287",
   "lat": 38.907382,
   "lng": -77.0428287,
   "halalConfidence": "likely",
   "source": "osm"
  },
  {
   "nom": "ala",
   "type": "turkish",
   "priceRange": "€€",
   "mapsUrl": "https://maps.google.com/?q=38.9080838,-77.0436669",
   "lat": 38.9080838,
   "lng": -77.0436669,
   "halalConfidence": "likely",
   "source": "osm"
  },
  {
   "nom": "Grill Kabob",
   "type": "afghan",
   "priceRange": "€€",
   "mapsUrl": "https://maps.google.com/?q=38.903455,-77.0436693",
   "lat": 38.903455,
   "lng": -77.0436693,
   "halalConfidence": "likely",
   "source": "osm"
  },
  {
   "nom": "LebTav",
   "type": "lebanese",
   "priceRange": "€€",
   "mapsUrl": "https://maps.google.com/?q=38.9010451,-77.0396954",
   "lat": 38.9010451,
   "lng": -77.0396954,
   "halalConfidence": "likely",
   "source": "osm"
  },
  {
   "nom": "Capital Doner",
   "type": "turkish",
   "priceRange": "€€",
   "mapsUrl": "https://maps.google.com/?q=38.9097936,-77.0464416",
   "lat": 38.9097936,
   "lng": -77.0464416,
   "halalConfidence": "likely",
   "source": "osm"
  },
  {
   "nom": "Marrakesh",
   "type": "moroccan, mediterranean",
   "priceRange": "€€",
   "mapsUrl": "https://maps.google.com/?q=38.9003956,-77.0307147",
   "lat": 38.9003956,
   "lng": -77.0307147,
   "halalConfidence": "likely",
   "source": "osm"
  },
  {
   "nom": "Astoria's Kitchen by 54",
   "type": "moroccan, spanish",
   "priceRange": "€€",
   "mapsUrl": "https://maps.google.com/?q=38.9027672,-77.047121",
   "lat": 38.9027672,
   "lng": -77.047121,
   "halalConfidence": "likely",
   "source": "osm"
  },
  {
   "nom": "Vegz",
   "type": "pakistani, indian",
   "priceRange": "€€",
   "mapsUrl": "https://maps.google.com/?q=38.9185379,-77.0418325",
   "lat": 38.9185379,
   "lng": -77.0418325,
   "halalConfidence": "likely",
   "source": "osm"
  },
  {
   "nom": "Rumi’s Kitchen",
   "type": "persian",
   "priceRange": "€€",
   "mapsUrl": "https://maps.google.com/?q=38.9040129,-77.020809",
   "lat": 38.9040129,
   "lng": -77.020809,
   "halalConfidence": "likely",
   "source": "osm"
  },
  {
   "nom": "Meze",
   "type": "mediterranean, turkish",
   "priceRange": "€€",
   "mapsUrl": "https://maps.google.com/?q=38.9214638,-77.0419909",
   "lat": 38.9214638,
   "lng": -77.0419909,
   "halalConfidence": "likely",
   "source": "osm"
  },
  {
   "nom": "Lapis",
   "type": "afghan",
   "priceRange": "€€",
   "mapsUrl": "https://maps.google.com/?q=38.9213,-77.043828",
   "lat": 38.9213,
   "lng": -77.043828,
   "halalConfidence": "likely",
   "source": "osm"
  },
  {
   "nom": "Oh Mama Grill",
   "type": "mediterranean, kebab, falafel, shawarma",
   "priceRange": "€€",
   "mapsUrl": "https://maps.google.com/?q=38.9217237,-77.043728",
   "lat": 38.9217237,
   "lng": -77.043728,
   "halalConfidence": "likely",
   "source": "osm"
  },
  {
   "nom": "Afghania",
   "type": "afghan",
   "priceRange": "€€",
   "mapsUrl": "https://maps.google.com/?q=38.905397,-77.057421",
   "lat": 38.905397,
   "lng": -77.057421,
   "halalConfidence": "likely",
   "source": "osm"
  },
  {
   "nom": "Villa Yara",
   "type": "lebanese",
   "priceRange": "€€",
   "mapsUrl": "https://maps.google.com/?q=38.9053956,-77.0575419",
   "lat": 38.9053956,
   "lng": -77.0575419,
   "halalConfidence": "likely",
   "source": "osm"
  },
  {
   "nom": "Ottoman Taverna",
   "type": "turkish",
   "priceRange": "€€",
   "mapsUrl": "https://maps.google.com/?q=38.9016723,-77.0163471",
   "lat": 38.9016723,
   "lng": -77.0163471,
   "halalConfidence": "likely",
   "source": "osm"
  },
  {
   "nom": "Muncheez",
   "type": "lebanese",
   "priceRange": "€€",
   "mapsUrl": "https://maps.google.com/?q=38.9046202,-77.0626169",
   "lat": 38.9046202,
   "lng": -77.0626169,
   "halalConfidence": "likely",
   "source": "osm"
  },
  {
   "nom": "Sofra",
   "type": "kebab, mediterranean",
   "priceRange": "€€",
   "mapsUrl": "https://maps.google.com/?q=38.9241859,-77.0516329",
   "lat": 38.9241859,
   "lng": -77.0516329,
   "halalConfidence": "likely",
   "source": "osm"
  },
  {
   "nom": "Salt and Pepper Grill",
   "type": "indian, pakistani",
   "priceRange": "€€",
   "mapsUrl": "https://maps.google.com/?q=38.925042,-77.022882",
   "lat": 38.925042,
   "lng": -77.022882,
   "halalConfidence": "likely",
   "source": "osm"
  },
  {
   "nom": "My Little Chamomile",
   "type": "turkish",
   "priceRange": "€€",
   "mapsUrl": "https://maps.google.com/?q=38.9036755,-77.0634415",
   "lat": 38.9036755,
   "lng": -77.0634415,
   "halalConfidence": "likely",
   "source": "osm"
  },
  {
   "nom": "O'Kabul",
   "type": "turkish",
   "priceRange": "€€",
   "mapsUrl": "https://maps.google.com/?q=38.9158993,-77.0123486",
   "lat": 38.9158993,
   "lng": -77.0123486,
   "halalConfidence": "likely",
   "source": "osm"
  },
  {
   "nom": "Lebanese Taverna",
   "type": "lebanese",
   "priceRange": "€€",
   "mapsUrl": "https://maps.google.com/?q=38.9247116,-77.0519049",
   "lat": 38.9247116,
   "lng": -77.0519049,
   "halalConfidence": "likely",
   "source": "osm"
  },
  {
   "nom": "Mâmân Joon",
   "type": "persian",
   "priceRange": "€€",
   "mapsUrl": "https://maps.google.com/?q=38.9285714,-77.0335287",
   "lat": 38.9285714,
   "lng": -77.0335287,
   "halalConfidence": "likely",
   "source": "osm"
  },
  {
   "nom": "Kookoo",
   "type": "persian",
   "priceRange": "€€",
   "mapsUrl": "https://maps.google.com/?q=38.9307114,-77.0329229",
   "lat": 38.9307114,
   "lng": -77.0329229,
   "halalConfidence": "likely",
   "source": "osm"
  },
  {
   "nom": "Cafe Divan",
   "type": "turkish, sandwich, pizza",
   "priceRange": "€€",
   "mapsUrl": "https://maps.google.com/?q=38.9154749,-77.0677926",
   "lat": 38.9154749,
   "lng": -77.0677926,
   "halalConfidence": "likely",
   "source": "osm"
  },
  {
   "nom": "ilili",
   "type": "lebanese",
   "priceRange": "€€",
   "mapsUrl": "https://maps.google.com/?q=38.879792,-77.025522",
   "lat": 38.879792,
   "lng": -77.025522,
   "halalConfidence": "likely",
   "source": "osm"
  },
  {
   "nom": "La' Shukran",
   "type": "middle eastern, lebanese",
   "priceRange": "€€",
   "mapsUrl": "https://maps.google.com/?q=38.907293,-76.999504",
   "lat": 38.907293,
   "lng": -76.999504,
   "halalConfidence": "likely",
   "source": "osm"
  },
  {
   "nom": "BonJon Rumi",
   "type": "afghan",
   "priceRange": "€€",
   "mapsUrl": "https://maps.google.com/?q=38.9220317,-77.0729059",
   "lat": 38.9220317,
   "lng": -77.0729059,
   "halalConfidence": "likely",
   "source": "osm"
  },
  {
   "nom": "Dolan Uyghur",
   "type": "uyghur",
   "priceRange": "€€",
   "mapsUrl": "https://maps.google.com/?q=38.9361564,-77.0591553",
   "lat": 38.9361564,
   "lng": -77.0591553,
   "halalConfidence": "likely",
   "source": "osm"
  },
  {
   "nom": "Capital Doner",
   "type": "turkish",
   "priceRange": "€€",
   "mapsUrl": "https://maps.google.com/?q=38.8941027,-77.0791018",
   "lat": 38.8941027,
   "lng": -77.0791018,
   "halalConfidence": "likely",
   "source": "osm"
  },
  {
   "nom": "Courthouse Kabob",
   "type": "kebab",
   "priceRange": "€€",
   "mapsUrl": "https://maps.google.com/?q=38.8919889,-77.0839876",
   "lat": 38.8919889,
   "lng": -77.0839876,
   "halalConfidence": "likely",
   "source": "osm"
  },
  {
   "nom": "Maman Joon’s Kitchen",
   "type": "persian",
   "priceRange": "€€",
   "mapsUrl": "https://maps.google.com/?q=38.8835492,-76.9947526",
   "lat": 38.8835492,
   "lng": -76.9947526,
   "halalConfidence": "likely",
   "source": "osm"
  },
  {
   "nom": "Cafe 8",
   "type": "turkish",
   "priceRange": "€€",
   "mapsUrl": "https://maps.google.com/?q=38.8830374,-76.9947482",
   "lat": 38.8830374,
   "lng": -76.9947482,
   "halalConfidence": "likely",
   "source": "osm"
  },
  {
   "nom": "Vera",
   "type": "lebanese, mexican",
   "priceRange": "€€",
   "mapsUrl": "https://maps.google.com/?q=38.9148156,-76.9849329",
   "lat": 38.9148156,
   "lng": -76.9849329,
   "halalConfidence": "likely",
   "source": "osm"
  },
  {
   "nom": "Me Jana",
   "type": "lebanese",
   "priceRange": "€€",
   "mapsUrl": "https://maps.google.com/?q=38.890297,-77.087323",
   "lat": 38.890297,
   "lng": -77.087323,
   "halalConfidence": "likely",
   "source": "osm"
  },
  {
   "nom": "Albi",
   "type": "lebanese",
   "priceRange": "€€",
   "mapsUrl": "https://maps.google.com/?q=38.8740554,-77.0003218",
   "lat": 38.8740554,
   "lng": -77.0003218,
   "halalConfidence": "likely",
   "source": "osm"
  },
  {
   "nom": "East West Grill",
   "type": "afghan",
   "priceRange": "€€",
   "mapsUrl": "https://maps.google.com/?q=38.8895494,-77.0914576",
   "lat": 38.8895494,
   "lng": -77.0914576,
   "halalConfidence": "likely",
   "source": "osm"
  },
  {
   "nom": "Shemali's Cafe",
   "type": "lebanese",
   "priceRange": "€€",
   "mapsUrl": "https://maps.google.com/?q=38.933587,-77.0853771",
   "lat": 38.933587,
   "lng": -77.0853771,
   "halalConfidence": "likely",
   "source": "osm"
  },
  {
   "nom": "The Block Oven",
   "type": "lebanese",
   "priceRange": "€€",
   "mapsUrl": "https://maps.google.com/?q=38.89575,-77.0969755",
   "lat": 38.89575,
   "lng": -77.0969755,
   "halalConfidence": "likely",
   "source": "osm"
  },
  {
   "nom": "Zazzy",
   "type": "lebanese",
   "priceRange": "€€",
   "mapsUrl": "https://maps.google.com/?q=38.885757,-77.092752",
   "lat": 38.885757,
   "lng": -77.092752,
   "halalConfidence": "likely",
   "source": "osm"
  },
  {
   "nom": "Láylí",
   "type": "lebanese, greek, turkish",
   "priceRange": "€€",
   "mapsUrl": "https://maps.google.com/?q=38.8880181,-77.0948376",
   "lat": 38.8880181,
   "lng": -77.0948376,
   "halalConfidence": "likely",
   "source": "osm"
  },
  {
   "nom": "Moby Dick House of Kebob",
   "type": "kebab",
   "priceRange": "€€",
   "mapsUrl": "https://maps.google.com/?q=38.8850514,-77.094503",
   "lat": 38.8850514,
   "lng": -77.094503,
   "halalConfidence": "likely",
   "source": "osm"
  },
  {
   "nom": "Kabob Bazaar",
   "type": "persian",
   "priceRange": "€€",
   "mapsUrl": "https://maps.google.com/?q=38.8871634,-77.09583",
   "lat": 38.8871634,
   "lng": -77.09583,
   "halalConfidence": "likely",
   "source": "osm"
  },
  {
   "nom": "Maman Joon",
   "type": "kebab, persian",
   "priceRange": "€€",
   "mapsUrl": "https://maps.google.com/?q=38.9488092,-77.0799083",
   "lat": 38.9488092,
   "lng": -77.0799083,
   "halalConfidence": "likely",
   "source": "osm"
  }
 ],
 "hotels": [
  {
   "nom": "Canopy",
   "categorie": "Hôtel",
   "priceRange": "€€",
   "mapsUrl": "https://maps.google.com/?q=38.9066662,-77.0369714",
   "lat": 38.9066662,
   "lng": -77.0369714,
   "halalFriendly": false,
   "bookingUrl": "https://www.hilton.com/en/hotels/dcaempy-canopy-washington-dc-embassy-row/",
   "source": "osm"
  },
  {
   "nom": "Beacon Hotel",
   "categorie": "Hôtel",
   "priceRange": "€€",
   "mapsUrl": "https://maps.google.com/?q=38.907049,-77.0380497",
   "lat": 38.907049,
   "lng": -77.0380497,
   "halalFriendly": false,
   "bookingUrl": "https://www.beaconhotelwdc.com/",
   "source": "osm"
  },
  {
   "nom": "Kimpton Banneker Hotel by IHG",
   "categorie": "Hôtel",
   "priceRange": "€€",
   "mapsUrl": "https://maps.google.com/?q=38.908266,-77.0361302",
   "lat": 38.908266,
   "lng": -77.0361302,
   "halalFriendly": false,
   "bookingUrl": "https://www.thebanneker.com/?utm_source=kh.com&utm_medium=referral&utm_campaign=hotel-links",
   "source": "osm"
  },
  {
   "nom": "The Jefferson",
   "categorie": "Hôtel",
   "priceRange": "€€",
   "mapsUrl": "https://maps.google.com/?q=38.9059489,-77.0369364",
   "lat": 38.9059489,
   "lng": -77.0369364,
   "halalFriendly": false,
   "bookingUrl": "https://maps.google.com/?q=38.9059489,-77.0369364",
   "source": "osm"
  },
  {
   "nom": "Jefferson Hotel",
   "categorie": "Hôtel",
   "priceRange": "€€",
   "mapsUrl": "https://maps.google.com/?q=38.9059379,-77.0369558",
   "lat": 38.9059379,
   "lng": -77.0369558,
   "halalFriendly": false,
   "bookingUrl": "http://www.thejeffersonwashingtondc.com/",
   "source": "osm"
  },
  {
   "nom": "The Darcy",
   "categorie": "Hôtel",
   "priceRange": "€€",
   "mapsUrl": "https://maps.google.com/?q=38.9080583,-77.0354295",
   "lat": 38.9080583,
   "lng": -77.0354295,
   "halalFriendly": false,
   "bookingUrl": "https://www.thedarcyhotel.com/",
   "source": "osm"
  },
  {
   "nom": "Holiday Inn Washington DC - Central / White House",
   "categorie": "Hôtel",
   "priceRange": "€€",
   "mapsUrl": "https://maps.google.com/?q=38.9081157,-77.0349707",
   "lat": 38.9081157,
   "lng": -77.0349707,
   "halalFriendly": false,
   "bookingUrl": "https://www.inndc.com/",
   "source": "osm"
  },
  {
   "nom": "Courtyard Washington, DC Dupont Circle",
   "categorie": "Hôtel",
   "priceRange": "€€",
   "mapsUrl": "https://maps.google.com/?q=38.9074198,-77.0397084",
   "lat": 38.9074198,
   "lng": -77.0397084,
   "halalFriendly": false,
   "bookingUrl": "https://www.marriott.com/hotels/travel/wasnc-courtyard-washington-dc-dupont-circle/",
   "source": "osm"
  },
  {
   "nom": "Tabard Inn",
   "categorie": "Hôtel",
   "priceRange": "€€",
   "mapsUrl": "https://maps.google.com/?q=38.9075037,-77.0399539",
   "lat": 38.9075037,
   "lng": -77.0399539,
   "halalFriendly": false,
   "bookingUrl": "https://www.tabardinn.com/",
   "source": "osm"
  },
  {
   "nom": "Homewood Suites By Hilton",
   "categorie": "Hôtel",
   "priceRange": "€€",
   "mapsUrl": "https://maps.google.com/?q=38.9066076,-77.0334979",
   "lat": 38.9066076,
   "lng": -77.0334979,
   "halalFriendly": false,
   "bookingUrl": "https://maps.google.com/?q=38.9066076,-77.0334979",
   "source": "osm"
  },
  {
   "nom": "Le Méridien Washington, D.C., The Madison",
   "categorie": "Hôtel",
   "priceRange": "€€",
   "mapsUrl": "https://maps.google.com/?q=38.905369,-77.03406",
   "lat": 38.905369,
   "lng": -77.03406,
   "halalFriendly": false,
   "bookingUrl": "https://www.marriott.com/en-us/hotels/wasmm-le-meridien-washington-dc-the-madison/overview/",
   "source": "osm"
  },
  {
   "nom": "District Hotel",
   "categorie": "Hôtel",
   "priceRange": "€€",
   "mapsUrl": "https://maps.google.com/?q=38.908122,-77.033312",
   "lat": 38.908122,
   "lng": -77.033312,
   "halalFriendly": false,
   "bookingUrl": "https://www.districthotel.com/",
   "source": "osm"
  },
  {
   "nom": "Viceroy Washington DC",
   "categorie": "Hôtel",
   "priceRange": "€€",
   "mapsUrl": "https://maps.google.com/?q=38.9081758,-77.0330469",
   "lat": 38.9081758,
   "lng": -77.0330469,
   "halalFriendly": false,
   "bookingUrl": "https://www.viceroyhotelsandresorts.com/washington-dc",
   "source": "osm"
  },
  {
   "nom": "The Westin Washington, D.C City Center",
   "categorie": "Hôtel",
   "priceRange": "€€",
   "mapsUrl": "https://maps.google.com/?q=38.9053158,-77.0334359",
   "lat": 38.9053158,
   "lng": -77.0334359,
   "halalFriendly": false,
   "bookingUrl": "https://www.marriott.com/en-us/hotels/wascw-the-westin-washington-dc-city-center/overview/",
   "source": "osm"
  },
  {
   "nom": "The Mayflower Hotel",
   "categorie": "Hôtel",
   "priceRange": "€€",
   "mapsUrl": "https://maps.google.com/?q=38.9044444,-77.0394719",
   "lat": 38.9044444,
   "lng": -77.0394719,
   "halalFriendly": false,
   "bookingUrl": "http://www.renaissancehotels.com/",
   "source": "osm"
  },
  {
   "nom": "Capital Hilton",
   "categorie": "Hôtel",
   "priceRange": "€€",
   "mapsUrl": "https://maps.google.com/?q=38.9031717,-77.0359751",
   "lat": 38.9031717,
   "lng": -77.0359751,
   "halalFriendly": false,
   "bookingUrl": "https://www.hilton.com/",
   "source": "osm"
  },
  {
   "nom": "The Architect Hotel",
   "categorie": "Hôtel",
   "priceRange": "€€",
   "mapsUrl": "https://maps.google.com/?q=38.9035746,-77.0343633",
   "lat": 38.9035746,
   "lng": -77.0343633,
   "halalFriendly": false,
   "bookingUrl": "https://www.thearchitecthotel.com/",
   "source": "osm"
  },
  {
   "nom": "Residence Inn Washington, DC Downtown",
   "categorie": "Hôtel",
   "priceRange": "€€",
   "mapsUrl": "https://maps.google.com/?q=38.9044943,-77.0323451",
   "lat": 38.9044943,
   "lng": -77.0323451,
   "halalFriendly": false,
   "bookingUrl": "https://www.marriott.com/en-us/hotels/wasdc-residence-inn-washington-dc-downtown/overview/",
   "source": "osm"
  },
  {
   "nom": "Hotel Zena Washington DC",
   "categorie": "Hôtel",
   "priceRange": "€€",
   "mapsUrl": "https://maps.google.com/?q=38.9051023,-77.0315742",
   "lat": 38.9051023,
   "lng": -77.0315742,
   "halalFriendly": false,
   "bookingUrl": "https://www.viceroyhotelsandresorts.com/zena",
   "source": "osm"
  },
  {
   "nom": "Starwood Hotel",
   "categorie": "Hôtel",
   "priceRange": "€€",
   "mapsUrl": "https://maps.google.com/?q=38.9029968,-77.0342499",
   "lat": 38.9029968,
   "lng": -77.0342499,
   "halalFriendly": false,
   "bookingUrl": "https://maps.google.com/?q=38.9029968,-77.0342499",
   "source": "osm"
  },
  {
   "nom": "Washington Plaza Hotel",
   "categorie": "Hôtel",
   "priceRange": "€€",
   "mapsUrl": "https://maps.google.com/?q=38.9062426,-77.0309188",
   "lat": 38.9062426,
   "lng": -77.0309188,
   "halalFriendly": false,
   "bookingUrl": "https://www.washingtonplazahotel.com/",
   "source": "osm"
  },
  {
   "nom": "Mint House Washington, D.C. – Downtown",
   "categorie": "Hôtel",
   "priceRange": "€€",
   "mapsUrl": "https://maps.google.com/?q=38.9030333,-77.0337928",
   "lat": 38.9030333,
   "lng": -77.0337928,
   "halalFriendly": false,
   "bookingUrl": "https://minthouse.com/washingtondc/downtown/",
   "source": "osm"
  },
  {
   "nom": "Sonder at FOUND",
   "categorie": "Hôtel",
   "priceRange": "€€",
   "mapsUrl": "https://maps.google.com/?q=38.9122314,-77.03605",
   "lat": 38.9122314,
   "lng": -77.03605,
   "halalFriendly": false,
   "bookingUrl": "https://www.sonder.com/destinations/washington_dc/WDC-NW-16TH1627-404/c34358",
   "source": "osm"
  },
  {
   "nom": "Hyatt Place Washington DC/White House",
   "categorie": "Hôtel",
   "priceRange": "€€",
   "mapsUrl": "https://maps.google.com/?q=38.9021983,-77.0357112",
   "lat": 38.9021983,
   "lng": -77.0357112,
   "halalFriendly": false,
   "bookingUrl": "https://www.hyatt.com/hyatt-place/en-us/waszw-hyatt-place-washington-dc-white-house",
   "source": "osm"
  },
  {
   "nom": "The Washington Club",
   "categorie": "Hôtel",
   "priceRange": "€€",
   "mapsUrl": "https://maps.google.com/?q=38.9098921,-77.0424753",
   "lat": 38.9098921,
   "lng": -77.0424753,
   "halalFriendly": false,
   "bookingUrl": "https://maps.google.com/?q=38.9098921,-77.0424753",
   "source": "osm"
  },
  {
   "nom": "The St. Regis Washington, D.C.",
   "categorie": "Hôtel",
   "priceRange": "€€",
   "mapsUrl": "https://maps.google.com/?q=38.9021044,-77.0360883",
   "lat": 38.9021044,
   "lng": -77.0360883,
   "halalFriendly": false,
   "bookingUrl": "https://www.marriott.com/hotels/travel/wassx-the-st-regis-washington-dc/",
   "source": "osm"
  },
  {
   "nom": "Embassy Inn",
   "categorie": "Hôtel",
   "priceRange": "€€",
   "mapsUrl": "https://maps.google.com/?q=38.9121001,-77.0343325",
   "lat": 38.9121001,
   "lng": -77.0343325,
   "halalFriendly": false,
   "bookingUrl": "https://maps.google.com/?q=38.9121001,-77.0343325",
   "source": "osm"
  },
  {
   "nom": "Inn At Dupont South",
   "categorie": "Hôtel",
   "priceRange": "€€",
   "mapsUrl": "https://maps.google.com/?q=38.9077421,-77.0436943",
   "lat": 38.9077421,
   "lng": -77.0436943,
   "halalFriendly": false,
   "bookingUrl": "https://thedupontcollection.com/",
   "source": "osm"
  },
  {
   "nom": "The Quincy, Ascend Hotel Collection",
   "categorie": "Hôtel",
   "priceRange": "€€",
   "mapsUrl": "https://maps.google.com/?q=38.9039919,-77.0427061",
   "lat": 38.9039919,
   "lng": -77.0427061,
   "halalFriendly": false,
   "bookingUrl": "https://maps.google.com/?q=38.9039919,-77.0427061",
   "source": "osm"
  },
  {
   "nom": "Dupont Circle Hotel",
   "categorie": "Hôtel",
   "priceRange": "€€",
   "mapsUrl": "https://maps.google.com/?q=38.910652,-77.0430104",
   "lat": 38.910652,
   "lng": -77.0430104,
   "halalFriendly": false,
   "bookingUrl": "https://www.doylecollection.com/Washington",
   "source": "osm"
  },
  {
   "nom": "Hamilton Hotel",
   "categorie": "Hôtel",
   "priceRange": "€€",
   "mapsUrl": "https://maps.google.com/?q=38.9029257,-77.0315939",
   "lat": 38.9029257,
   "lng": -77.0315939,
   "halalFriendly": false,
   "bookingUrl": "https://www.hamiltonhoteldc.com/",
   "source": "osm"
  },
  {
   "nom": "Comfort Inn Downtown Dc/Convention Center Washington",
   "categorie": "Hôtel",
   "priceRange": "€€",
   "mapsUrl": "https://maps.google.com/?q=38.9059047,-77.0293494",
   "lat": 38.9059047,
   "lng": -77.0293494,
   "halalFriendly": false,
   "bookingUrl": "https://www.choicehotels.com/district-of-columbia/washington/comfort-inn-hotels/dc601",
   "source": "osm"
  },
  {
   "nom": "AC Hotel",
   "categorie": "Hôtel",
   "priceRange": "€€",
   "mapsUrl": "https://maps.google.com/?q=38.9043499,-77.0437624",
   "lat": 38.9043499,
   "lng": -77.0437624,
   "halalFriendly": false,
   "bookingUrl": "https://www.marriott.com/en-us/hotels/wasad-ac-hotel-washington-dc-downtown/overview",
   "source": "osm"
  },
  {
   "nom": "Club Quarters",
   "categorie": "Hôtel",
   "priceRange": "€€",
   "mapsUrl": "https://maps.google.com/?q=38.9010756,-77.0391649",
   "lat": 38.9010756,
   "lng": -77.0391649,
   "halalFriendly": false,
   "bookingUrl": "http://www.clubquarters.com/",
   "source": "osm"
  },
  {
   "nom": "Lyle Washington DC",
   "categorie": "Hôtel",
   "priceRange": "€€",
   "mapsUrl": "https://maps.google.com/?q=38.9133329,-77.0394568",
   "lat": 38.9133329,
   "lng": -77.0394568,
   "halalFriendly": false,
   "bookingUrl": "http://www.carlylesuites.com/",
   "source": "osm"
  },
  {
   "nom": "Summerfield Suites",
   "categorie": "Hôtel",
   "priceRange": "€€",
   "mapsUrl": "https://maps.google.com/?q=38.9068509,-77.0453541",
   "lat": 38.9068509,
   "lng": -77.0453541,
   "halalFriendly": false,
   "bookingUrl": "http://www.embassysuites.com/",
   "source": "osm"
  },
  {
   "nom": "Hay-Adams Hotel",
   "categorie": "Hôtel",
   "priceRange": "€€",
   "mapsUrl": "https://maps.google.com/?q=38.9005054,-77.0369485",
   "lat": 38.9005054,
   "lng": -77.0369485,
   "halalFriendly": false,
   "bookingUrl": "https://www.hayadams.com/",
   "source": "osm"
  },
  {
   "nom": "The Dupont At The Circle",
   "categorie": "Hôtel",
   "priceRange": "€€",
   "mapsUrl": "https://maps.google.com/?q=38.9113576,-77.0437252",
   "lat": 38.9113576,
   "lng": -77.0437252,
   "halalFriendly": false,
   "bookingUrl": "https://www.dupontatthecircle.com/",
   "source": "osm"
  },
  {
   "nom": "Hotel Madera",
   "categorie": "Hôtel",
   "priceRange": "€€",
   "mapsUrl": "https://maps.google.com/?q=38.9075946,-77.045695",
   "lat": 38.9075946,
   "lng": -77.045695,
   "halalFriendly": false,
   "bookingUrl": "https://www.hotelmadera.com/",
   "source": "osm"
  },
  {
   "nom": "Sofitel Lafayette Square",
   "categorie": "Hôtel",
   "priceRange": "€€",
   "mapsUrl": "https://maps.google.com/?q=38.9005074,-77.0339418",
   "lat": 38.9005074,
   "lng": -77.0339418,
   "halalFriendly": false,
   "bookingUrl": "https://www.sofitel-washington-dc.com/",
   "source": "osm"
  }
 ],
 "mosqueesPrincipales": [
  {
   "id": "m66790109",
   "nom": "American Fazl Mosque",
   "type": "Mosquée",
   "adresse": "Leroy Place Northwest, Washington",
   "description": "Lieu de prière (OpenStreetMap).",
   "mapsUrl": "https://maps.google.com/?q=38.9155228,-77.0482411",
   "lat": 38.9155228,
   "lng": -77.0482411,
   "source": "osm"
  },
  {
   "id": "m67247033",
   "nom": "Masjid Muhammad",
   "type": "Mosquée",
   "adresse": "4th Street Northwest",
   "description": "Lieu de prière (OpenStreetMap).",
   "mapsUrl": "https://maps.google.com/?q=38.9103218,-77.0158875",
   "lat": 38.9103218,
   "lng": -77.0158875,
   "source": "osm"
  },
  {
   "id": "m70070852",
   "nom": "First Hijrah Muslim Community Center",
   "type": "Mosquée",
   "adresse": "Georgia Avenue Northwest, Washington",
   "description": "Lieu de prière (OpenStreetMap).",
   "mapsUrl": "https://maps.google.com/?q=38.9436358,-77.0262388",
   "lat": 38.9436358,
   "lng": -77.0262388,
   "source": "osm"
  },
  {
   "id": "m4675269753",
   "nom": "Masjid Ahlul Quran Wal Hadeeth",
   "type": "Mosquée",
   "adresse": "18th Street Northeast",
   "description": "Lieu de prière (OpenStreetMap).",
   "mapsUrl": "https://maps.google.com/?q=38.9326931,-76.979324",
   "lat": 38.9326931,
   "lng": -76.979324,
   "source": "osm"
  },
  {
   "id": "m473409352",
   "nom": "Avondale Islamic Center",
   "type": "Mosquée",
   "adresse": "Eastern Avenue, Mount Rainier",
   "description": "Lieu de prière (OpenStreetMap).",
   "mapsUrl": "https://maps.google.com/?q=38.9462957,-76.9771126",
   "lat": 38.9462957,
   "lng": -76.9771126,
   "source": "osm"
  }
 ],
 "activites": [
  {
   "id": "a13018143648",
   "nom": "Old Chancery of the Embassy of the Republic of the Philippines in the United States",
   "categorie": "memorial",
   "description": "",
   "prix": "",
   "duree": "",
   "mapsUrl": "https://maps.google.com/?q=38.9077188,-77.0374574",
   "lat": 38.9077188,
   "lng": -77.0374574,
   "source": "osm"
  },
  {
   "id": "a367144492",
   "nom": "B'Nai B'Rith Klutznick Museum",
   "categorie": "museum",
   "description": "",
   "prix": "",
   "duree": "",
   "mapsUrl": "https://maps.google.com/?q=38.9062227,-77.0383102",
   "lat": 38.9062227,
   "lng": -77.0383102,
   "source": "osm"
  },
  {
   "id": "a55327098",
   "nom": "Sumner School",
   "categorie": "museum",
   "description": "",
   "prix": "",
   "duree": "",
   "mapsUrl": "https://maps.google.com/?q=38.9059393,-77.0381414",
   "lat": 38.9059393,
   "lng": -77.0381414,
   "source": "osm"
  },
  {
   "id": "a358960393",
   "nom": "Samuel D Gross Memorial",
   "categorie": "memorial",
   "description": "",
   "prix": "",
   "duree": "",
   "mapsUrl": "https://maps.google.com/?q=38.907056,-77.034699",
   "lat": 38.907056,
   "lng": -77.034699,
   "source": "osm"
  },
  {
   "id": "a55326926",
   "nom": "National Geographic Society",
   "categorie": "museum",
   "description": "",
   "prix": "",
   "duree": "",
   "mapsUrl": "https://maps.google.com/?q=38.9051501,-77.0381091",
   "lat": 38.9051501,
   "lng": -77.0381091,
   "source": "osm"
  },
  {
   "id": "a13956093325",
   "nom": "Nuns of the Battlefield",
   "categorie": "memorial",
   "description": "",
   "prix": "",
   "duree": "",
   "mapsUrl": "https://maps.google.com/?q=38.9057974,-77.0402294",
   "lat": 38.9057974,
   "lng": -77.0402294,
   "source": "osm"
  },
  {
   "id": "a358958523",
   "nom": "Henry Wadsworth Longfellow Statue",
   "categorie": "artwork",
   "description": "",
   "prix": "",
   "duree": "",
   "mapsUrl": "https://maps.google.com/?q=38.9058571,-77.0415147",
   "lat": 38.9058571,
   "lng": -77.0415147,
   "source": "osm"
  },
  {
   "id": "a11546654467",
   "nom": "Nijad Huseynov",
   "categorie": "memorial",
   "description": "",
   "prix": "",
   "duree": "",
   "mapsUrl": "https://maps.google.com/?q=38.9038255,-77.0400578",
   "lat": 38.9038255,
   "lng": -77.0400578,
   "source": "osm"
  },
  {
   "id": "a810438094",
   "nom": "Transformer",
   "categorie": "gallery",
   "description": "",
   "prix": "",
   "duree": "",
   "mapsUrl": "https://maps.google.com/?q=38.9095036,-77.032374",
   "lat": 38.9095036,
   "lng": -77.032374,
   "source": "osm"
  },
  {
   "id": "a2316449632",
   "nom": "Major General James B. McPherson",
   "categorie": "artwork",
   "description": "",
   "prix": "",
   "duree": "",
   "mapsUrl": "https://maps.google.com/?q=38.901961,-77.0341135",
   "lat": 38.901961,
   "lng": -77.0341135,
   "source": "osm"
  },
  {
   "id": "a11141661205",
   "nom": "Jamya Williams",
   "categorie": "memorial",
   "description": "",
   "prix": "",
   "duree": "",
   "mapsUrl": "https://maps.google.com/?q=38.9027709,-77.0318267",
   "lat": 38.9027709,
   "lng": -77.0318267,
   "source": "osm"
  },
  {
   "id": "a4085826612",
   "nom": "Heurich House Museum",
   "categorie": "museum",
   "description": "",
   "prix": "",
   "duree": "",
   "mapsUrl": "https://maps.google.com/?q=38.9080298,-77.0445843",
   "lat": 38.9080298,
   "lng": -77.0445843,
   "source": "osm"
  },
  {
   "id": "a6439821537",
   "nom": "Dupont Underground Art Space",
   "categorie": "gallery",
   "description": "",
   "prix": "",
   "duree": "",
   "mapsUrl": "https://maps.google.com/?q=38.9104845,-77.0435233",
   "lat": 38.9104845,
   "lng": -77.0435233,
   "source": "osm"
  },
  {
   "id": "a358959871",
   "nom": "Almas Temple",
   "categorie": "attraction",
   "description": "",
   "prix": "",
   "duree": "",
   "mapsUrl": "https://maps.google.com/?q=38.9027752,-77.0313202",
   "lat": 38.9027752,
   "lng": -77.0313202,
   "source": "osm"
  },
  {
   "id": "a358960420",
   "nom": "Sonny Bono",
   "categorie": "memorial",
   "description": "",
   "prix": "",
   "duree": "",
   "mapsUrl": "https://maps.google.com/?q=38.9084776,-77.0447189",
   "lat": 38.9084776,
   "lng": -77.0447189,
   "source": "osm"
  },
  {
   "id": "a66833998",
   "nom": "National Museum Of American Jewish Military History",
   "categorie": "museum",
   "description": "",
   "prix": "",
   "duree": "",
   "mapsUrl": "https://maps.google.com/?q=38.9128128,-77.0421135",
   "lat": 38.9128128,
   "lng": -77.0421135,
   "source": "osm"
  },
  {
   "id": "a358960376",
   "nom": "Kossuth Lajos",
   "categorie": "memorial",
   "description": "",
   "prix": "",
   "duree": "",
   "mapsUrl": "https://maps.google.com/?q=38.9104925,-77.0450257",
   "lat": 38.9104925,
   "lng": -77.0450257,
   "source": "osm"
  },
  {
   "id": "a1341584665",
   "nom": "Decatur House",
   "categorie": "museum",
   "description": "",
   "prix": "",
   "duree": "",
   "mapsUrl": "https://maps.google.com/?q=38.9000154,-77.0383892",
   "lat": 38.9000154,
   "lng": -77.0383892,
   "source": "osm"
  },
  {
   "id": "a66420117",
   "nom": "Decatur Carriage House",
   "categorie": "museum",
   "description": "",
   "prix": "",
   "duree": "",
   "mapsUrl": "https://maps.google.com/?q=38.8999445,-77.0386797",
   "lat": 38.8999445,
   "lng": -77.0386797,
   "source": "osm"
  },
  {
   "id": "a9998763305",
   "nom": "Planet Word",
   "categorie": "museum",
   "description": "",
   "prix": "",
   "duree": "",
   "mapsUrl": "https://maps.google.com/?q=38.9022279,-77.0293023",
   "lat": 38.9022279,
   "lng": -77.0293023,
   "source": "osm"
  },
  {
   "id": "a9501875194",
   "nom": "Jeffrey Long",
   "categorie": "memorial",
   "description": "",
   "prix": "",
   "duree": "",
   "mapsUrl": "https://maps.google.com/?q=38.9055704,-77.0470648",
   "lat": 38.9055704,
   "lng": -77.0470648,
   "source": "osm"
  },
  {
   "id": "a66420114",
   "nom": "Renwick Gallery",
   "categorie": "museum",
   "description": "",
   "prix": "",
   "duree": "",
   "mapsUrl": "https://maps.google.com/?q=38.8991269,-77.0390789",
   "lat": 38.8991269,
   "lng": -77.0390789,
   "source": "osm"
  },
  {
   "id": "a5377063121",
   "nom": "White House Peace Vigil",
   "categorie": "attraction",
   "description": "",
   "prix": "",
   "duree": "",
   "mapsUrl": "https://maps.google.com/?q=38.8989299,-77.0365372",
   "lat": 38.8989299,
   "lng": -77.0365372,
   "source": "osm"
  },
  {
   "id": "a8633890888",
   "nom": "Alice Swanson",
   "categorie": "memorial",
   "description": "",
   "prix": "",
   "duree": "",
   "mapsUrl": "https://maps.google.com/?q=38.912671,-77.0449722",
   "lat": 38.912671,
   "lng": -77.0449722,
   "source": "osm"
  },
  {
   "id": "a2295945027",
   "nom": "Samuel Gompers Statute",
   "categorie": "artwork",
   "description": "",
   "prix": "",
   "duree": "",
   "mapsUrl": "https://maps.google.com/?q=38.9040094,-77.0265075",
   "lat": 38.9040094,
   "lng": -77.0265075,
   "source": "osm"
  },
  {
   "id": "a1275851634",
   "nom": "Mohandas K. Gandhi Statue",
   "categorie": "memorial",
   "description": "",
   "prix": "",
   "duree": "",
   "mapsUrl": "https://maps.google.com/?q=38.9110276,-77.0469775",
   "lat": 38.9110276,
   "lng": -77.0469775,
   "source": "osm"
  },
  {
   "id": "a801383799",
   "nom": "The People’s House",
   "categorie": "museum",
   "description": "",
   "prix": "",
   "duree": "",
   "mapsUrl": "https://maps.google.com/?q=38.8985861,-77.039735",
   "lat": 38.8985861,
   "lng": -77.039735,
   "source": "osm"
  },
  {
   "id": "a1527304874",
   "nom": "The Phillips Collection",
   "categorie": "museum",
   "description": "",
   "prix": "",
   "duree": "",
   "mapsUrl": "https://maps.google.com/?q=38.9116138,-77.0469931",
   "lat": 38.9116138,
   "lng": -77.0469931,
   "source": "osm"
  },
  {
   "id": "a4348913783",
   "nom": "White Cloud Gallery",
   "categorie": "gallery",
   "description": "",
   "prix": "",
   "duree": "",
   "mapsUrl": "https://maps.google.com/?q=38.9153241,-77.0316703",
   "lat": 38.9153241,
   "lng": -77.0316703,
   "source": "osm"
  },
  {
   "id": "a66646611",
   "nom": "Anderson House",
   "categorie": "museum",
   "description": "",
   "prix": "",
   "duree": "",
   "mapsUrl": "https://maps.google.com/?q=38.9107345,-77.0477044",
   "lat": 38.9107345,
   "lng": -77.0477044,
   "source": "osm"
  }
 ],
 "scoreIndicatif": true,
 "osmEnriched": true,
 "osmEnrichedAt": "2026-06-30"
}
