{
  "slug": "wroclaw",
  "nom": "Wrocław",
  "pays": "Pologne",
  "pays_slug": "pologne",
  "continent": "Europe",
  "region": "Pologne",
  "coordonnees": {
    "lat": 51.1079,
    "lng": 17.0385
  },
  "codeISO": "PL",
  "score_halal": 3.2,
  "halalScore": 6.4,
  "description": "Wrocław, Pologne. Repérez les restaurants halal et les mosquées via l'application.",
  "metaDescription": "Wrocław, Pologne. Repérez les restaurants halal et les mosquées via l'application.",
  "image": "https://upload.wikimedia.org/wikipedia/commons/thumb/a/a5/Wroc%C5%82aw_City_Hall.jpg/1920px-Wroc%C5%82aw_City_Hall.jpg",
  "image_hero": "https://upload.wikimedia.org/wikipedia/commons/thumb/a/a5/Wroc%C5%82aw_City_Hall.jpg/1920px-Wroc%C5%82aw_City_Hall.jpg",
  "imageCredit": "Wikimedia Commons",
  "scoreIndicatif": true,
  "statistiques": {
    "restaurants_halal": 164,
    "mosquees": 1,
    "hotels": 120
  },
  "infoPratique": {
    "transport": "Accessible par avion et transports locaux.",
    "meilleureEpoque": "Selon la saison.",
    "conseilHalal": "Repérez restaurants halal et mosquées via l'application."
  },
  "tags": [
    "halal",
    "europe"
  ],
  "restaurants": [
    {
      "nom": "Rahim Kebab",
      "type": "kebab",
      "priceRange": "€€",
      "mapsUrl": "https://maps.google.com/?q=51.1096042,17.0644376",
      "lat": 51.1096042,
      "lng": 17.0644376,
      "halalConfidence": "yes",
      "source": "osm"
    },
    {
      "nom": "Sevi Kebab",
      "type": "kebab",
      "priceRange": "€€",
      "mapsUrl": "https://maps.google.com/?q=51.1086526,17.0404115",
      "lat": 51.1086526,
      "lng": 17.0404115,
      "halalConfidence": "likely",
      "source": "osm"
    },
    {
      "nom": "Zahir Kebab",
      "type": "kebab",
      "priceRange": "€€",
      "mapsUrl": "https://maps.google.com/?q=51.1054929,17.0381722",
      "lat": 51.1054929,
      "lng": 17.0381722,
      "halalConfidence": "likely",
      "source": "osm"
    },
    {
      "nom": "Taze",
      "type": "kebab",
      "priceRange": "€€",
      "mapsUrl": "https://maps.google.com/?q=51.1103876,17.0350161",
      "lat": 51.1103876,
      "lng": 17.0350161,
      "halalConfidence": "likely",
      "source": "osm"
    },
    {
      "nom": "Berliński Gemüse Kebab",
      "type": "kebab",
      "priceRange": "€€",
      "mapsUrl": "https://maps.google.com/?q=51.1094358,17.0332",
      "lat": 51.1094358,
      "lng": 17.0332,
      "halalConfidence": "likely",
      "source": "osm"
    },
    {
      "nom": "Oyche Döner",
      "type": "kebab",
      "priceRange": "€€",
      "mapsUrl": "https://maps.google.com/?q=51.1111161,17.0351762",
      "lat": 51.1111161,
      "lng": 17.0351762,
      "halalConfidence": "likely",
      "source": "osm"
    },
    {
      "nom": "Kebab Mark",
      "type": "kebab",
      "priceRange": "€€",
      "mapsUrl": "https://maps.google.com/?q=51.1103003,17.0328918",
      "lat": 51.1103003,
      "lng": 17.0328918,
      "halalConfidence": "likely",
      "source": "osm"
    },
    {
      "nom": "Tendur",
      "type": "kebab",
      "priceRange": "€€",
      "mapsUrl": "https://maps.google.com/?q=51.1064181,17.0318896",
      "lat": 51.1064181,
      "lng": 17.0318896,
      "halalConfidence": "likely",
      "source": "osm"
    },
    {
      "nom": "Spartan Kebab",
      "type": "kebab",
      "priceRange": "€€",
      "mapsUrl": "https://maps.google.com/?q=51.1103736,17.0324424",
      "lat": 51.1103736,
      "lng": 17.0324424,
      "halalConfidence": "likely",
      "source": "osm"
    },
    {
      "nom": "Lawasz Kebab",
      "type": "kebab",
      "priceRange": "€€",
      "mapsUrl": "https://maps.google.com/?q=51.1121452,17.0357516",
      "lat": 51.1121452,
      "lng": 17.0357516,
      "halalConfidence": "likely",
      "source": "osm"
    },
    {
      "nom": "Baku Lounge",
      "type": "turkish, azeri",
      "priceRange": "€€",
      "mapsUrl": "https://maps.google.com/?q=51.1120483,17.0319406",
      "lat": 51.1120483,
      "lng": 17.0319406,
      "halalConfidence": "likely",
      "source": "osm"
    },
    {
      "nom": "Daj Mięcho",
      "type": "kebab",
      "priceRange": "€€",
      "mapsUrl": "https://maps.google.com/?q=51.1127846,17.0316765",
      "lat": 51.1127846,
      "lng": 17.0316765,
      "halalConfidence": "likely",
      "source": "osm"
    },
    {
      "nom": "Devran",
      "type": "kebab",
      "priceRange": "€€",
      "mapsUrl": "https://maps.google.com/?q=51.1099305,17.0279126",
      "lat": 51.1099305,
      "lng": 17.0279126,
      "halalConfidence": "likely",
      "source": "osm"
    },
    {
      "nom": "Bóbr Kebab",
      "type": "kebab",
      "priceRange": "€€",
      "mapsUrl": "https://maps.google.com/?q=51.1084335,17.0269831",
      "lat": 51.1084335,
      "lng": 17.0269831,
      "halalConfidence": "likely",
      "source": "osm"
    },
    {
      "nom": "Rynek Kebab",
      "type": "kebab",
      "priceRange": "€€",
      "mapsUrl": "https://maps.google.com/?q=51.1100523,17.0262074",
      "lat": 51.1100523,
      "lng": 17.0262074,
      "halalConfidence": "likely",
      "source": "osm"
    },
    {
      "nom": "Mr Kebab",
      "type": "kebab",
      "priceRange": "€€",
      "mapsUrl": "https://maps.google.com/?q=51.102179,17.0293907",
      "lat": 51.102179,
      "lng": 17.0293907,
      "halalConfidence": "likely",
      "source": "osm"
    },
    {
      "nom": "Astana Kebab",
      "type": "kebab",
      "priceRange": "€€",
      "mapsUrl": "https://maps.google.com/?q=51.0998273,17.0373725",
      "lat": 51.0998273,
      "lng": 17.0373725,
      "halalConfidence": "likely",
      "source": "osm"
    },
    {
      "nom": "Dünya Kebab",
      "type": "kebab",
      "priceRange": "€€",
      "mapsUrl": "https://maps.google.com/?q=51.109998,17.0256587",
      "lat": 51.109998,
      "lng": 17.0256587,
      "halalConfidence": "likely",
      "source": "osm"
    },
    {
      "nom": "Kebab StarMarks",
      "type": "kebab",
      "priceRange": "€€",
      "mapsUrl": "https://maps.google.com/?q=51.1005814,17.0320726",
      "lat": 51.1005814,
      "lng": 17.0320726,
      "halalConfidence": "likely",
      "source": "osm"
    },
    {
      "nom": "Faraon Kebab",
      "type": "kebab",
      "priceRange": "€€",
      "mapsUrl": "https://maps.google.com/?q=51.1006771,17.0316049",
      "lat": 51.1006771,
      "lng": 17.0316049,
      "halalConfidence": "likely",
      "source": "osm"
    },
    {
      "nom": "Botan Kebab",
      "type": "kebab",
      "priceRange": "€€",
      "mapsUrl": "https://maps.google.com/?q=51.1105047,17.0250281",
      "lat": 51.1105047,
      "lng": 17.0250281,
      "halalConfidence": "likely",
      "source": "osm"
    },
    {
      "nom": "Gyros Hot",
      "type": "kebab",
      "priceRange": "€€",
      "mapsUrl": "https://maps.google.com/?q=51.1029842,17.0503001",
      "lat": 51.1029842,
      "lng": 17.0503001,
      "halalConfidence": "likely",
      "source": "osm"
    },
    {
      "nom": "Marmaris Kebab",
      "type": "kebab",
      "priceRange": "€€",
      "mapsUrl": "https://maps.google.com/?q=51.11668,17.04214",
      "lat": 51.11668,
      "lng": 17.04214,
      "halalConfidence": "likely",
      "source": "osm"
    },
    {
      "nom": "Sindbad",
      "type": "kebab",
      "priceRange": "€€",
      "mapsUrl": "https://maps.google.com/?q=51.1170969,17.0325855",
      "lat": 51.1170969,
      "lng": 17.0325855,
      "halalConfidence": "likely",
      "source": "osm"
    },
    {
      "nom": "Talerzyki",
      "type": "arab, middle eastern",
      "priceRange": "€€",
      "mapsUrl": "https://maps.google.com/?q=51.1007001,17.0265966",
      "lat": 51.1007001,
      "lng": 17.0265966,
      "halalConfidence": "likely",
      "source": "osm"
    },
    {
      "nom": "Istambul",
      "type": "kebab",
      "priceRange": "€€",
      "mapsUrl": "https://maps.google.com/?q=51.1007948,17.0261711",
      "lat": 51.1007948,
      "lng": 17.0261711,
      "halalConfidence": "likely",
      "source": "osm"
    },
    {
      "nom": "Nanokebab Malczyńscy",
      "type": "kebab",
      "priceRange": "€€",
      "mapsUrl": "https://maps.google.com/?q=51.1184997,17.0384316",
      "lat": 51.1184997,
      "lng": 17.0384316,
      "halalConfidence": "likely",
      "source": "osm"
    },
    {
      "nom": "Spoko Kebab",
      "type": "kebab",
      "priceRange": "€€",
      "mapsUrl": "https://maps.google.com/?q=51.118683,17.0406382",
      "lat": 51.118683,
      "lng": 17.0406382,
      "halalConfidence": "likely",
      "source": "osm"
    },
    {
      "nom": "Bafra Kebab",
      "type": "kebab",
      "priceRange": "€€",
      "mapsUrl": "https://maps.google.com/?q=51.1188311,17.0423931",
      "lat": 51.1188311,
      "lng": 17.0423931,
      "halalConfidence": "likely",
      "source": "osm"
    },
    {
      "nom": "Inżynier Kebab",
      "type": "kebab",
      "priceRange": "€€",
      "mapsUrl": "https://maps.google.com/?q=51.0966973,17.0386532",
      "lat": 51.0966973,
      "lng": 17.0386532,
      "halalConfidence": "likely",
      "source": "osm"
    },
    {
      "nom": "Sultan Express Kebab",
      "type": "kebab",
      "priceRange": "€€",
      "mapsUrl": "https://maps.google.com/?q=51.119283,17.038507",
      "lat": 51.119283,
      "lng": 17.038507,
      "halalConfidence": "likely",
      "source": "osm"
    },
    {
      "nom": "Sindbad Kebab",
      "type": "kebab",
      "priceRange": "€€",
      "mapsUrl": "https://maps.google.com/?q=51.113054,17.054825",
      "lat": 51.113054,
      "lng": 17.054825,
      "halalConfidence": "likely",
      "source": "osm"
    },
    {
      "nom": "Kebab Ayat",
      "type": "kebab",
      "priceRange": "€€",
      "mapsUrl": "https://maps.google.com/?q=51.1162323,17.0515611",
      "lat": 51.1162323,
      "lng": 17.0515611,
      "halalConfidence": "likely",
      "source": "osm"
    },
    {
      "nom": "Moon Kebab",
      "type": "kebab",
      "priceRange": "€€",
      "mapsUrl": "https://maps.google.com/?q=51.112801,17.055442",
      "lat": 51.112801,
      "lng": 17.055442,
      "halalConfidence": "likely",
      "source": "osm"
    },
    {
      "nom": "Alanya",
      "type": "kebab, barbecue",
      "priceRange": "€€",
      "mapsUrl": "https://maps.google.com/?q=51.1004797,17.0240065",
      "lat": 51.1004797,
      "lng": 17.0240065,
      "halalConfidence": "likely",
      "source": "osm"
    },
    {
      "nom": "Sultan Oriental",
      "type": "kebab",
      "priceRange": "€€",
      "mapsUrl": "https://maps.google.com/?q=51.107041,17.0196862",
      "lat": 51.107041,
      "lng": 17.0196862,
      "halalConfidence": "likely",
      "source": "osm"
    },
    {
      "nom": "Ramzes Gyros",
      "type": "kebab",
      "priceRange": "€€",
      "mapsUrl": "https://maps.google.com/?q=51.1164701,17.0517688",
      "lat": 51.1164701,
      "lng": 17.0517688,
      "halalConfidence": "likely",
      "source": "osm"
    },
    {
      "nom": "Express Döner",
      "type": "kebab",
      "priceRange": "€€",
      "mapsUrl": "https://maps.google.com/?q=51.0961496,17.0339704",
      "lat": 51.0961496,
      "lng": 17.0339704,
      "halalConfidence": "likely",
      "source": "osm"
    },
    {
      "nom": "Cillox Kebab",
      "type": "kebab",
      "priceRange": "€€",
      "mapsUrl": "https://maps.google.com/?q=51.1068,17.0191129",
      "lat": 51.1068,
      "lng": 17.0191129,
      "halalConfidence": "likely",
      "source": "osm"
    },
    {
      "nom": "Pierre Dollé",
      "type": "burger, kebab",
      "priceRange": "€€",
      "mapsUrl": "https://maps.google.com/?q=51.1195624,17.0322262",
      "lat": 51.1195624,
      "lng": 17.0322262,
      "halalConfidence": "likely",
      "source": "osm"
    },
    {
      "nom": "Beast Kebab",
      "type": "kebab",
      "priceRange": "€€",
      "mapsUrl": "https://maps.google.com/?q=51.1202695,17.0404346",
      "lat": 51.1202695,
      "lng": 17.0404346,
      "halalConfidence": "likely",
      "source": "osm"
    },
    {
      "nom": "Taste of Kebab",
      "type": "kebab",
      "priceRange": "€€",
      "mapsUrl": "https://maps.google.com/?q=51.0954941,17.036505",
      "lat": 51.0954941,
      "lng": 17.036505,
      "halalConfidence": "likely",
      "source": "osm"
    },
    {
      "nom": "Fahri Döner & Kebab",
      "type": "kebab",
      "priceRange": "€€",
      "mapsUrl": "https://maps.google.com/?q=51.1197283,17.0315774",
      "lat": 51.1197283,
      "lng": 17.0315774,
      "halalConfidence": "likely",
      "source": "osm"
    },
    {
      "nom": "Kebab Tassili",
      "type": "kebab",
      "priceRange": "€€",
      "mapsUrl": "https://maps.google.com/?q=51.119758,17.028278",
      "lat": 51.119758,
      "lng": 17.028278,
      "halalConfidence": "likely",
      "source": "osm"
    },
    {
      "nom": "Berlin Döner Kebap",
      "type": "kebab",
      "priceRange": "€€",
      "mapsUrl": "https://maps.google.com/?q=51.1118078,17.0593815",
      "lat": 51.1118078,
      "lng": 17.0593815,
      "halalConfidence": "likely",
      "source": "osm"
    },
    {
      "nom": "Shaurma",
      "type": "kebab",
      "priceRange": "€€",
      "mapsUrl": "https://maps.google.com/?q=51.1224969,17.0442755",
      "lat": 51.1224969,
      "lng": 17.0442755,
      "halalConfidence": "likely",
      "source": "osm"
    },
    {
      "nom": "Hungerstation Kebab",
      "type": "kebab",
      "priceRange": "€€",
      "mapsUrl": "https://maps.google.com/?q=51.1100833,17.0623721",
      "lat": 51.1100833,
      "lng": 17.0623721,
      "halalConfidence": "likely",
      "source": "osm"
    },
    {
      "nom": "Mc Falafel",
      "type": "kebab",
      "priceRange": "€€",
      "mapsUrl": "https://maps.google.com/?q=51.1102905,17.0623287",
      "lat": 51.1102905,
      "lng": 17.0623287,
      "halalConfidence": "likely",
      "source": "osm"
    },
    {
      "nom": "Smak na Kebab & Burger",
      "type": "kebab",
      "priceRange": "€€",
      "mapsUrl": "https://maps.google.com/?q=51.0972857,17.055736",
      "lat": 51.0972857,
      "lng": 17.055736,
      "halalConfidence": "likely",
      "source": "osm"
    },
    {
      "nom": "Kebab Sunmark",
      "type": "kebab",
      "priceRange": "€€",
      "mapsUrl": "https://maps.google.com/?q=51.1123677,17.0154027",
      "lat": 51.1123677,
      "lng": 17.0154027,
      "halalConfidence": "likely",
      "source": "osm"
    },
    {
      "nom": "Çiğköftem",
      "type": "turkish",
      "priceRange": "€€",
      "mapsUrl": "https://maps.google.com/?q=51.1233568,17.0390058",
      "lat": 51.1233568,
      "lng": 17.0390058,
      "halalConfidence": "likely",
      "source": "osm"
    },
    {
      "nom": "Street Food King",
      "type": "chicken, sausage, kebab",
      "priceRange": "€€",
      "mapsUrl": "https://maps.google.com/?q=51.0923652,17.0311965",
      "lat": 51.0923652,
      "lng": 17.0311965,
      "halalConfidence": "likely",
      "source": "osm"
    },
    {
      "nom": "Nogor Kebab",
      "type": "kebab",
      "priceRange": "€€",
      "mapsUrl": "https://maps.google.com/?q=51.1240158,17.0356206",
      "lat": 51.1240158,
      "lng": 17.0356206,
      "halalConfidence": "likely",
      "source": "osm"
    },
    {
      "nom": "Anaya Kebab and Grill",
      "type": "kebab",
      "priceRange": "€€",
      "mapsUrl": "https://maps.google.com/?q=51.0917932,17.0340228",
      "lat": 51.0917932,
      "lng": 17.0340228,
      "halalConfidence": "likely",
      "source": "osm"
    },
    {
      "nom": "Amir Kebab",
      "type": "kebab",
      "priceRange": "€€",
      "mapsUrl": "https://maps.google.com/?q=51.1183506,17.0587332",
      "lat": 51.1183506,
      "lng": 17.0587332,
      "halalConfidence": "likely",
      "source": "osm"
    },
    {
      "nom": "Musaf Kebab",
      "type": "kebab",
      "priceRange": "€€",
      "mapsUrl": "https://maps.google.com/?q=51.0934607,17.0257566",
      "lat": 51.0934607,
      "lng": 17.0257566,
      "halalConfidence": "likely",
      "source": "osm"
    },
    {
      "nom": "Cheez Kebab",
      "type": "kebab",
      "priceRange": "€€",
      "mapsUrl": "https://maps.google.com/?q=51.1165886,17.0609356",
      "lat": 51.1165886,
      "lng": 17.0609356,
      "halalConfidence": "likely",
      "source": "osm"
    },
    {
      "nom": "Nano Kebab Malczyńscy",
      "type": "kebab",
      "priceRange": "€€",
      "mapsUrl": "https://maps.google.com/?q=51.1195118,17.0574822",
      "lat": 51.1195118,
      "lng": 17.0574822,
      "halalConfidence": "likely",
      "source": "osm"
    },
    {
      "nom": "Kebab Mourad King",
      "type": "kebab",
      "priceRange": "€€",
      "mapsUrl": "https://maps.google.com/?q=51.1016791,17.0128155",
      "lat": 51.1016791,
      "lng": 17.0128155,
      "halalConfidence": "likely",
      "source": "osm"
    },
    {
      "nom": "Doner House",
      "type": "kebab",
      "priceRange": "€€",
      "mapsUrl": "https://maps.google.com/?q=51.1133164,17.0122903",
      "lat": 51.1133164,
      "lng": 17.0122903,
      "halalConfidence": "likely",
      "source": "osm"
    },
    {
      "nom": "Nano Kebab",
      "type": "kebab",
      "priceRange": "€€",
      "mapsUrl": "https://maps.google.com/?q=51.0898645,17.045727",
      "lat": 51.0898645,
      "lng": 17.045727,
      "halalConfidence": "likely",
      "source": "osm"
    },
    {
      "nom": "Sim Sim",
      "type": "kebab",
      "priceRange": "€€",
      "mapsUrl": "https://maps.google.com/?q=51.126317,17.047927",
      "lat": 51.126317,
      "lng": 17.047927,
      "halalConfidence": "likely",
      "source": "osm"
    },
    {
      "nom": "Borowska Kebab",
      "type": "kebab",
      "priceRange": "€€",
      "mapsUrl": "https://maps.google.com/?q=51.0881666,17.0343335",
      "lat": 51.0881666,
      "lng": 17.0343335,
      "halalConfidence": "likely",
      "source": "osm"
    },
    {
      "nom": "Hommus Libańskie Jedzenie Gyros & Grill",
      "type": "lebanese",
      "priceRange": "€€",
      "mapsUrl": "https://maps.google.com/?q=51.0917222,17.0190694",
      "lat": 51.0917222,
      "lng": 17.0190694,
      "halalConfidence": "likely",
      "source": "osm"
    },
    {
      "nom": "Good Chef",
      "type": "burger, kebab",
      "priceRange": "€€",
      "mapsUrl": "https://maps.google.com/?q=51.1206998,17.0129241",
      "lat": 51.1206998,
      "lng": 17.0129241,
      "halalConfidence": "likely",
      "source": "osm"
    },
    {
      "nom": "K2 PK Kebab",
      "type": "kebab",
      "priceRange": "€€",
      "mapsUrl": "https://maps.google.com/?q=51.0917345,17.0163114",
      "lat": 51.0917345,
      "lng": 17.0163114,
      "halalConfidence": "likely",
      "source": "osm"
    },
    {
      "nom": "Kebab 365",
      "type": "kebab",
      "priceRange": "€€",
      "mapsUrl": "https://maps.google.com/?q=51.1151737,17.0063734",
      "lat": 51.1151737,
      "lng": 17.0063734,
      "halalConfidence": "likely",
      "source": "osm"
    },
    {
      "nom": "Paradise Kebab 24h",
      "type": "kebab",
      "priceRange": "€€",
      "mapsUrl": "https://maps.google.com/?q=51.0906036,17.0180425",
      "lat": 51.0906036,
      "lng": 17.0180425,
      "halalConfidence": "likely",
      "source": "osm"
    },
    {
      "nom": "Kebab u Pajdy",
      "type": "kebab",
      "priceRange": "€€",
      "mapsUrl": "https://maps.google.com/?q=51.1293072,17.0464994",
      "lat": 51.1293072,
      "lng": 17.0464994,
      "halalConfidence": "likely",
      "source": "osm"
    },
    {
      "nom": "Zaif Kebab",
      "type": "kebab",
      "priceRange": "€€",
      "mapsUrl": "https://maps.google.com/?q=51.0863741,17.0462572",
      "lat": 51.0863741,
      "lng": 17.0462572,
      "halalConfidence": "likely",
      "source": "osm"
    },
    {
      "nom": "Libański Kebab",
      "type": "kebab",
      "priceRange": "€€",
      "mapsUrl": "https://maps.google.com/?q=51.086163,17.0462114",
      "lat": 51.086163,
      "lng": 17.0462114,
      "halalConfidence": "likely",
      "source": "osm"
    },
    {
      "nom": "Ali Aga",
      "type": "kebab",
      "priceRange": "€€",
      "mapsUrl": "https://maps.google.com/?q=51.0856552,17.0354258",
      "lat": 51.0856552,
      "lng": 17.0354258,
      "halalConfidence": "likely",
      "source": "osm"
    },
    {
      "nom": "Family Kebab & Pizza",
      "type": "kebab, pizza",
      "priceRange": "€€",
      "mapsUrl": "https://maps.google.com/?q=51.0906297,17.0626697",
      "lat": 51.0906297,
      "lng": 17.0626697,
      "halalConfidence": "likely",
      "source": "osm"
    },
    {
      "nom": "Terra",
      "type": "kebab, pizza",
      "priceRange": "€€",
      "mapsUrl": "https://maps.google.com/?q=51.113285,17.0013924",
      "lat": 51.113285,
      "lng": 17.0013924,
      "halalConfidence": "likely",
      "source": "osm"
    },
    {
      "nom": "Baba Döner Kebap",
      "type": "kebab",
      "priceRange": "€€",
      "mapsUrl": "https://maps.google.com/?q=51.1185095,17.0041417",
      "lat": 51.1185095,
      "lng": 17.0041417,
      "halalConfidence": "likely",
      "source": "osm"
    },
    {
      "nom": "Ostry Kraft",
      "type": "kebab",
      "priceRange": "€€",
      "mapsUrl": "https://maps.google.com/?q=51.0922743,17.0086095",
      "lat": 51.0922743,
      "lng": 17.0086095,
      "halalConfidence": "likely",
      "source": "osm"
    },
    {
      "nom": "Izmir Kebab",
      "type": "kebab",
      "priceRange": "€€",
      "mapsUrl": "https://maps.google.com/?q=51.0823216,17.0411768",
      "lat": 51.0823216,
      "lng": 17.0411768,
      "halalConfidence": "likely",
      "source": "osm"
    },
    {
      "nom": "Stacyjna Kebab",
      "type": "kebab",
      "priceRange": "€€",
      "mapsUrl": "https://maps.google.com/?q=51.1166507,16.999522",
      "lat": 51.1166507,
      "lng": 16.999522,
      "halalConfidence": "likely",
      "source": "osm"
    },
    {
      "nom": "7 Days Kebab",
      "type": "kebab",
      "priceRange": "€€",
      "mapsUrl": "https://maps.google.com/?q=51.0822462,17.0455344",
      "lat": 51.0822462,
      "lng": 17.0455344,
      "halalConfidence": "likely",
      "source": "osm"
    },
    {
      "nom": "Moon",
      "type": "kebab",
      "priceRange": "€€",
      "mapsUrl": "https://maps.google.com/?q=51.0864804,17.0130483",
      "lat": 51.0864804,
      "lng": 17.0130483,
      "halalConfidence": "likely",
      "source": "osm"
    },
    {
      "nom": "Maczo Kebab",
      "type": "kebab",
      "priceRange": "€€",
      "mapsUrl": "https://maps.google.com/?q=51.1354268,17.0361033",
      "lat": 51.1354268,
      "lng": 17.0361033,
      "halalConfidence": "likely",
      "source": "osm"
    },
    {
      "nom": "Kebabge",
      "type": "kebab",
      "priceRange": "€€",
      "mapsUrl": "https://maps.google.com/?q=51.088231,17.0065614",
      "lat": 51.088231,
      "lng": 17.0065614,
      "halalConfidence": "likely",
      "source": "osm"
    },
    {
      "nom": "Paradise Kebab",
      "type": "kebab",
      "priceRange": "€€",
      "mapsUrl": "https://maps.google.com/?q=51.0794915,17.0406036",
      "lat": 51.0794915,
      "lng": 17.0406036,
      "halalConfidence": "likely",
      "source": "osm"
    },
    {
      "nom": "Kasprowicza24",
      "type": "kebab, falafel, oriental",
      "priceRange": "€€",
      "mapsUrl": "https://maps.google.com/?q=51.1365349,17.0406971",
      "lat": 51.1365349,
      "lng": 17.0406971,
      "halalConfidence": "likely",
      "source": "osm"
    },
    {
      "nom": "Bar Zbyszko",
      "type": "toast, zapiekanki, kebab, international",
      "priceRange": "€€",
      "mapsUrl": "https://maps.google.com/?q=51.1388027,17.0325489",
      "lat": 51.1388027,
      "lng": 17.0325489,
      "halalConfidence": "likely",
      "source": "osm"
    },
    {
      "nom": "Am Am Kebab",
      "type": "kebab",
      "priceRange": "€€",
      "mapsUrl": "https://maps.google.com/?q=51.0885478,16.9995363",
      "lat": 51.0885478,
      "lng": 16.9995363,
      "halalConfidence": "likely",
      "source": "osm"
    },
    {
      "nom": "Family Kebab",
      "type": "kebab",
      "priceRange": "€€",
      "mapsUrl": "https://maps.google.com/?q=51.1360957,17.0662869",
      "lat": 51.1360957,
      "lng": 17.0662869,
      "halalConfidence": "likely",
      "source": "osm"
    },
    {
      "nom": "Abu Kebab",
      "type": "kebab",
      "priceRange": "€€",
      "mapsUrl": "https://maps.google.com/?q=51.1382901,17.0596409",
      "lat": 51.1382901,
      "lng": 17.0596409,
      "halalConfidence": "likely",
      "source": "osm"
    },
    {
      "nom": "Mam's Kebab",
      "type": "kebab",
      "priceRange": "€€",
      "mapsUrl": "https://maps.google.com/?q=51.1399971,17.02205",
      "lat": 51.1399971,
      "lng": 17.02205,
      "halalConfidence": "likely",
      "source": "osm"
    },
    {
      "nom": "Czarna Cebula",
      "type": "kebab",
      "priceRange": "€€",
      "mapsUrl": "https://maps.google.com/?q=51.1081884,17.0941103",
      "lat": 51.1081884,
      "lng": 17.0941103,
      "halalConfidence": "likely",
      "source": "osm"
    },
    {
      "nom": "Maestro Kebab",
      "type": "kebab",
      "priceRange": "€€",
      "mapsUrl": "https://maps.google.com/?q=51.1233684,16.9877328",
      "lat": 51.1233684,
      "lng": 16.9877328,
      "halalConfidence": "likely",
      "source": "osm"
    },
    {
      "nom": "Samos",
      "type": "pizza, kebab, gyros",
      "priceRange": "€€",
      "mapsUrl": "https://maps.google.com/?q=51.0933684,16.9864651",
      "lat": 51.0933684,
      "lng": 16.9864651,
      "halalConfidence": "likely",
      "source": "osm"
    },
    {
      "nom": "Kebab King",
      "type": "kebab",
      "priceRange": "€€",
      "mapsUrl": "https://maps.google.com/?q=51.1296178,16.98842",
      "lat": 51.1296178,
      "lng": 16.98842,
      "halalConfidence": "likely",
      "source": "osm"
    },
    {
      "nom": "Bafra",
      "type": "kebab",
      "priceRange": "€€",
      "mapsUrl": "https://maps.google.com/?q=51.0753098,17.0065978",
      "lat": 51.0753098,
      "lng": 17.0065978,
      "halalConfidence": "likely",
      "source": "osm"
    },
    {
      "nom": "Kebab Express",
      "type": "kebab",
      "priceRange": "€€",
      "mapsUrl": "https://maps.google.com/?q=51.0749313,17.0069295",
      "lat": 51.0749313,
      "lng": 17.0069295,
      "halalConfidence": "likely",
      "source": "osm"
    },
    {
      "nom": "Ale Kurcze",
      "type": "kebab",
      "priceRange": "€€",
      "mapsUrl": "https://maps.google.com/?q=51.0943828,16.9809954",
      "lat": 51.0943828,
      "lng": 16.9809954,
      "halalConfidence": "likely",
      "source": "osm"
    },
    {
      "nom": "Istambul Kebab",
      "type": "kebab",
      "priceRange": "€€",
      "mapsUrl": "https://maps.google.com/?q=51.1249839,16.9833729",
      "lat": 51.1249839,
      "lng": 16.9833729,
      "halalConfidence": "likely",
      "source": "osm"
    },
    {
      "nom": "Projekt Döner",
      "type": "kebab",
      "priceRange": "€€",
      "mapsUrl": "https://maps.google.com/?q=51.138372,17.077501",
      "lat": 51.138372,
      "lng": 17.077501,
      "halalConfidence": "likely",
      "source": "osm"
    },
    {
      "nom": "Antalya Kebab",
      "type": "kebab",
      "priceRange": "€€",
      "mapsUrl": "https://maps.google.com/?q=51.1439113,17.0717351",
      "lat": 51.1439113,
      "lng": 17.0717351,
      "halalConfidence": "likely",
      "source": "osm"
    },
    {
      "nom": "Kebaboss",
      "type": "kebab",
      "priceRange": "€€",
      "mapsUrl": "https://maps.google.com/?q=51.1266621,16.9758041",
      "lat": 51.1266621,
      "lng": 16.9758041,
      "halalConfidence": "likely",
      "source": "osm"
    },
    {
      "nom": "Kebaya",
      "type": "kebab",
      "priceRange": "€€",
      "mapsUrl": "https://maps.google.com/?q=51.1518797,17.0273441",
      "lat": 51.1518797,
      "lng": 17.0273441,
      "halalConfidence": "likely",
      "source": "osm"
    },
    {
      "nom": "Zina",
      "type": "kebab",
      "priceRange": "€€",
      "mapsUrl": "https://maps.google.com/?q=51.1285405,16.9705115",
      "lat": 51.1285405,
      "lng": 16.9705115,
      "halalConfidence": "likely",
      "source": "osm"
    },
    {
      "nom": "Madagaskar",
      "type": "kebab",
      "priceRange": "€€",
      "mapsUrl": "https://maps.google.com/?q=51.1304962,16.9655196",
      "lat": 51.1304962,
      "lng": 16.9655196,
      "halalConfidence": "likely",
      "source": "osm"
    },
    {
      "nom": "Has Doner Kebab",
      "type": "kebab",
      "priceRange": "€€",
      "mapsUrl": "https://maps.google.com/?q=51.060227,17.0037314",
      "lat": 51.060227,
      "lng": 17.0037314,
      "halalConfidence": "likely",
      "source": "osm"
    },
    {
      "nom": "Qrnik Kebab",
      "type": "kebab",
      "priceRange": "€€",
      "mapsUrl": "https://maps.google.com/?q=51.0633309,17.0826486",
      "lat": 51.0633309,
      "lng": 17.0826486,
      "halalConfidence": "likely",
      "source": "osm"
    },
    {
      "nom": "Med Doner",
      "type": "kebab",
      "priceRange": "€€",
      "mapsUrl": "https://maps.google.com/?q=51.1129903,16.9536647",
      "lat": 51.1129903,
      "lng": 16.9536647,
      "halalConfidence": "likely",
      "source": "osm"
    },
    {
      "nom": "Casa de Kebab",
      "type": "kebab",
      "priceRange": "€€",
      "mapsUrl": "https://maps.google.com/?q=51.1398597,16.9651094",
      "lat": 51.1398597,
      "lng": 16.9651094,
      "halalConfidence": "likely",
      "source": "osm"
    },
    {
      "nom": "Kebab Tu!",
      "type": "kebab",
      "priceRange": "€€",
      "mapsUrl": "https://maps.google.com/?q=51.0640842,16.9779572",
      "lat": 51.0640842,
      "lng": 16.9779572,
      "halalConfidence": "likely",
      "source": "osm"
    },
    {
      "nom": "Piri Piri",
      "type": "kebab",
      "priceRange": "€€",
      "mapsUrl": "https://maps.google.com/?q=51.0635053,16.9773912",
      "lat": 51.0635053,
      "lng": 16.9773912,
      "halalConfidence": "likely",
      "source": "osm"
    },
    {
      "nom": "Premium Street Food Kebab",
      "type": "kebab",
      "priceRange": "€€",
      "mapsUrl": "https://maps.google.com/?q=51.1461064,17.1122748",
      "lat": 51.1461064,
      "lng": 17.1122748,
      "halalConfidence": "likely",
      "source": "osm"
    },
    {
      "nom": "Waha Gemuse Kebab",
      "type": "kebab",
      "priceRange": "€€",
      "mapsUrl": "https://maps.google.com/?q=51.0491322,17.0580928",
      "lat": 51.0491322,
      "lng": 17.0580928,
      "halalConfidence": "likely",
      "source": "osm"
    },
    {
      "nom": "Kebab",
      "type": "kebab",
      "priceRange": "€€",
      "mapsUrl": "https://maps.google.com/?q=51.1267864,16.9460919",
      "lat": 51.1267864,
      "lng": 16.9460919,
      "halalConfidence": "likely",
      "source": "osm"
    },
    {
      "nom": "Cillox",
      "type": "kebab",
      "priceRange": "€€",
      "mapsUrl": "https://maps.google.com/?q=51.1468025,17.1135031",
      "lat": 51.1468025,
      "lng": 17.1135031,
      "halalConfidence": "likely",
      "source": "osm"
    },
    {
      "nom": "Kebab & Curry",
      "type": "indian, kebab",
      "priceRange": "€€",
      "mapsUrl": "https://maps.google.com/?q=51.1431791,17.126685",
      "lat": 51.1431791,
      "lng": 17.126685,
      "halalConfidence": "likely",
      "source": "osm"
    },
    {
      "nom": "Elif Kebab",
      "type": "kebab, pizza",
      "priceRange": "€€",
      "mapsUrl": "https://maps.google.com/?q=51.0530823,16.9735582",
      "lat": 51.0530823,
      "lng": 16.9735582,
      "halalConfidence": "likely",
      "source": "osm"
    },
    {
      "nom": "Sahara Dönner",
      "type": "turkish",
      "priceRange": "€€",
      "mapsUrl": "https://maps.google.com/?q=51.1771936,17.0001875",
      "lat": 51.1771936,
      "lng": 17.0001875,
      "halalConfidence": "likely",
      "source": "osm"
    },
    {
      "nom": "Mustafa's Kebab",
      "type": "kebab",
      "priceRange": "€€",
      "mapsUrl": "https://maps.google.com/?q=51.1547156,17.1288024",
      "lat": 51.1547156,
      "lng": 17.1288024,
      "halalConfidence": "likely",
      "source": "osm"
    },
    {
      "nom": "Sultan Oriental Kebab",
      "type": "kebab",
      "priceRange": "€€",
      "mapsUrl": "https://maps.google.com/?q=51.1776447,16.9992624",
      "lat": 51.1776447,
      "lng": 16.9992624,
      "halalConfidence": "likely",
      "source": "osm"
    },
    {
      "nom": "Arados",
      "type": "kebab",
      "priceRange": "€€",
      "mapsUrl": "https://maps.google.com/?q=51.1557571,17.1292608",
      "lat": 51.1557571,
      "lng": 17.1292608,
      "halalConfidence": "likely",
      "source": "osm"
    },
    {
      "nom": "My Friend",
      "type": "kebab",
      "priceRange": "€€",
      "mapsUrl": "https://maps.google.com/?q=51.1611736,17.1242404",
      "lat": 51.1611736,
      "lng": 17.1242404,
      "halalConfidence": "likely",
      "source": "osm"
    },
    {
      "nom": "Kebab Hut",
      "type": "kebab",
      "priceRange": "€€",
      "mapsUrl": "https://maps.google.com/?q=51.0464639,16.9655599",
      "lat": 51.0464639,
      "lng": 16.9655599,
      "halalConfidence": "likely",
      "source": "osm"
    },
    {
      "nom": "Harika Kebab",
      "type": "kebab",
      "priceRange": "€€",
      "mapsUrl": "https://maps.google.com/?q=51.0487523,16.9583872",
      "lat": 51.0487523,
      "lng": 16.9583872,
      "halalConfidence": "likely",
      "source": "osm"
    },
    {
      "nom": "Po Prostu Kebab",
      "type": "kebab",
      "priceRange": "€€",
      "mapsUrl": "https://maps.google.com/?q=51.1577356,16.9349257",
      "lat": 51.1577356,
      "lng": 16.9349257,
      "halalConfidence": "likely",
      "source": "osm"
    },
    {
      "nom": "Halima Kebab",
      "type": "kebab",
      "priceRange": "€€",
      "mapsUrl": "https://maps.google.com/?q=51.036584,16.968384",
      "lat": 51.036584,
      "lng": 16.968384,
      "halalConfidence": "likely",
      "source": "osm"
    },
    {
      "nom": "Kebsik na Wypasie",
      "type": "kebab",
      "priceRange": "€€",
      "mapsUrl": "https://maps.google.com/?q=51.0332003,16.9682852",
      "lat": 51.0332003,
      "lng": 16.9682852,
      "halalConfidence": "likely",
      "source": "osm"
    },
    {
      "nom": "Döner Kebab",
      "type": "kebab",
      "priceRange": "€€",
      "mapsUrl": "https://maps.google.com/?q=51.1397377,17.17684",
      "lat": 51.1397377,
      "lng": 17.17684,
      "halalConfidence": "likely",
      "source": "osm"
    },
    {
      "nom": "Medina kebab",
      "type": "kebab",
      "priceRange": "€€",
      "mapsUrl": "https://maps.google.com/?q=51.0287722,17.1182521",
      "lat": 51.0287722,
      "lng": 17.1182521,
      "halalConfidence": "likely",
      "source": "osm"
    },
    {
      "nom": "Moon Kebab & Grill",
      "type": "kebab",
      "priceRange": "€€",
      "mapsUrl": "https://maps.google.com/?q=51.153451,16.9031063",
      "lat": 51.153451,
      "lng": 16.9031063,
      "halalConfidence": "likely",
      "source": "osm"
    },
    {
      "nom": "Kebsownia",
      "type": "kebab",
      "priceRange": "€€",
      "mapsUrl": "https://maps.google.com/?q=51.0768815,16.8926301",
      "lat": 51.0768815,
      "lng": 16.8926301,
      "halalConfidence": "likely",
      "source": "osm"
    },
    {
      "nom": "The Best Kebab",
      "type": "kebab",
      "priceRange": "€€",
      "mapsUrl": "https://maps.google.com/?q=51.1892626,17.1508688",
      "lat": 51.1892626,
      "lng": 17.1508688,
      "halalConfidence": "likely",
      "source": "osm"
    },
    {
      "nom": "Mango Mama",
      "lat": 51.1075219,
      "lng": 17.0435628,
      "type": "indian",
      "halalConfidence": "likely",
      "mapsUrl": "https://maps.google.com/?q=51.1075219,17.0435628",
      "source": "osm"
    },
    {
      "nom": "House of Spices",
      "lat": 51.1062059,
      "lng": 17.0435848,
      "type": "indian",
      "halalConfidence": "likely",
      "mapsUrl": "https://maps.google.com/?q=51.1062059,17.0435848",
      "source": "osm"
    },
    {
      "nom": "Masala",
      "lat": 51.1108094,
      "lng": 17.0337987,
      "type": "indian",
      "halalConfidence": "likely",
      "mapsUrl": "https://maps.google.com/?q=51.1108094,17.0337987",
      "source": "osm"
    },
    {
      "nom": "India Concept",
      "lat": 51.1111474,
      "lng": 17.0297286,
      "type": "indian",
      "halalConfidence": "likely",
      "mapsUrl": "https://maps.google.com/?q=51.1111474,17.0297286",
      "source": "osm"
    },
    {
      "nom": "Maharaja",
      "lat": 51.1008903,
      "lng": 17.0363838,
      "type": "indian",
      "halalConfidence": "likely",
      "mapsUrl": "https://maps.google.com/?q=51.1008903,17.0363838",
      "source": "osm"
    },
    {
      "nom": "The Indian Island",
      "lat": 51.1150286,
      "lng": 17.0407146,
      "type": "indian",
      "halalConfidence": "likely",
      "mapsUrl": "https://maps.google.com/?q=51.1150286,17.0407146",
      "source": "osm"
    },
    {
      "nom": "Kasturi",
      "lat": 51.1015806,
      "lng": 17.0468823,
      "type": "indian",
      "halalConfidence": "likely",
      "mapsUrl": "https://maps.google.com/?q=51.1015806,17.0468823",
      "source": "osm"
    },
    {
      "nom": "Thali Wrocław",
      "lat": 51.1113015,
      "lng": 17.0583717,
      "type": "indian",
      "halalConfidence": "likely",
      "mapsUrl": "https://maps.google.com/?q=51.1113015,17.0583717",
      "source": "osm"
    },
    {
      "nom": "Himalaya",
      "lat": 51.0900976,
      "lng": 17.0401397,
      "type": "indian",
      "halalConfidence": "likely",
      "mapsUrl": "https://maps.google.com/?q=51.0900976,17.0401397",
      "source": "osm"
    },
    {
      "nom": "Mr. Kebab",
      "lat": 51.0992645,
      "lng": 17.0007196,
      "type": "kebab",
      "halalConfidence": "likely",
      "mapsUrl": "https://maps.google.com/?q=51.0992645,17.0007196",
      "source": "osm"
    },
    {
      "nom": "Curry Karma",
      "lat": 51.0740955,
      "lng": 17.0419522,
      "type": "indian",
      "halalConfidence": "likely",
      "mapsUrl": "https://maps.google.com/?q=51.0740955,17.0419522",
      "source": "osm"
    },
    {
      "nom": "Namaste Nepal",
      "lat": 51.1239268,
      "lng": 16.9895246,
      "type": "nepalese, indian",
      "halalConfidence": "likely",
      "mapsUrl": "https://maps.google.com/?q=51.1239268,16.9895246",
      "source": "osm"
    },
    {
      "nom": "Namaste Gorkha",
      "lat": 51.1075923,
      "lng": 17.122097,
      "type": "nepalese, indian",
      "halalConfidence": "likely",
      "mapsUrl": "https://maps.google.com/?q=51.1075923,17.122097",
      "source": "osm"
    },
    {
      "nom": "Thali Express",
      "lat": 51.0513871,
      "lng": 17.0589291,
      "type": "indian",
      "halalConfidence": "likely",
      "mapsUrl": "https://maps.google.com/?q=51.0513871,17.0589291",
      "source": "osm"
    },
    {
      "nom": "Namaste Indie",
      "lat": 51.0437926,
      "lng": 16.9722003,
      "type": "asian, indian, thai",
      "halalConfidence": "likely",
      "mapsUrl": "https://maps.google.com/?q=51.0437926,16.9722003",
      "source": "osm"
    },
    {
      "nom": "Pan Indii",
      "lat": 51.157721,
      "lng": 16.9320202,
      "type": "indian",
      "halalConfidence": "likely",
      "mapsUrl": "https://maps.google.com/?q=51.157721,16.9320202",
      "source": "osm"
    }
  ],
  "hotels": [
    {
      "nom": "Exclusive Apartments",
      "categorie": "Hôtel",
      "priceRange": "€€",
      "mapsUrl": "https://maps.google.com/?q=51.1084181,17.0372207",
      "lat": 51.1084181,
      "lng": 17.0372207,
      "halalFriendly": false,
      "bookingUrl": "https://maps.google.com/?q=51.1084181,17.0372207",
      "source": "osm"
    },
    {
      "nom": "Mercure Wrocław Centrum",
      "categorie": "Hôtel",
      "priceRange": "€€€€",
      "score": 4,
      "mapsUrl": "https://maps.google.com/?q=51.1087047,17.0396516",
      "lat": 51.1087047,
      "lng": 17.0396516,
      "halalFriendly": false,
      "bookingUrl": "http://www.mercure.com/pl/hotel-3374-hotel-mercure-wroclaw-centrum/index.shtml",
      "source": "osm"
    },
    {
      "nom": "B&B Hotel",
      "categorie": "Hôtel",
      "priceRange": "€€",
      "mapsUrl": "https://maps.google.com/?q=51.1065022,17.0386313",
      "lat": 51.1065022,
      "lng": 17.0386313,
      "halalFriendly": false,
      "bookingUrl": "https://maps.google.com/?q=51.1065022,17.0386313",
      "source": "osm"
    },
    {
      "nom": "Lothus",
      "categorie": "Hôtel",
      "priceRange": "€€€",
      "score": 3,
      "mapsUrl": "https://maps.google.com/?q=51.109245,17.0376386",
      "lat": 51.109245,
      "lng": 17.0376386,
      "halalFriendly": false,
      "bookingUrl": "https://www.lothus.pl/",
      "source": "osm"
    },
    {
      "nom": "Apartament Duarte",
      "categorie": "Appartement",
      "priceRange": "€€",
      "mapsUrl": "https://maps.google.com/?q=51.1082365,17.0357768",
      "lat": 51.1082365,
      "lng": 17.0357768,
      "halalFriendly": false,
      "bookingUrl": "https://maps.google.com/?q=51.1082365,17.0357768",
      "source": "osm"
    },
    {
      "nom": "ApartHostel",
      "categorie": "Auberge",
      "priceRange": "€€",
      "mapsUrl": "https://maps.google.com/?q=51.1088726,17.0351397",
      "lat": 51.1088726,
      "lng": 17.0351397,
      "halalFriendly": false,
      "bookingUrl": "https://citycentralhostel.pl/hostel-ul-laciarska-59a-wroclaw/",
      "source": "osm"
    },
    {
      "nom": "Hotel Qubus",
      "categorie": "Hôtel",
      "priceRange": "€€€€",
      "score": 4,
      "mapsUrl": "https://maps.google.com/?q=51.1090924,17.0352276",
      "lat": 51.1090924,
      "lng": 17.0352276,
      "halalFriendly": false,
      "bookingUrl": "https://www.qubushotel.com/pl/hotel-wroclaw",
      "source": "osm"
    },
    {
      "nom": "Krasnal",
      "categorie": "Auberge",
      "priceRange": "€€",
      "mapsUrl": "https://maps.google.com/?q=51.109861,17.0361163",
      "lat": 51.109861,
      "lng": 17.0361163,
      "halalFriendly": false,
      "bookingUrl": "https://krasnalhostel.pl",
      "source": "osm"
    },
    {
      "nom": "Cinnamon Hostel",
      "categorie": "Auberge",
      "priceRange": "€€",
      "mapsUrl": "https://maps.google.com/?q=51.1067621,17.03486",
      "lat": 51.1067621,
      "lng": 17.03486,
      "halalFriendly": false,
      "bookingUrl": "https://www.cinnamonhostel.com/",
      "source": "osm"
    },
    {
      "nom": "Salvador Apartment",
      "categorie": "Appartement",
      "priceRange": "€€",
      "mapsUrl": "https://maps.google.com/?q=51.105205,17.0371927",
      "lat": 51.105205,
      "lng": 17.0371927,
      "halalFriendly": false,
      "bookingUrl": "https://wa.wroclaw.pl/pl/salvador_apartment.html",
      "source": "osm"
    },
    {
      "nom": "The Granary",
      "categorie": "Hôtel",
      "priceRange": "€€",
      "mapsUrl": "https://maps.google.com/?q=51.1062477,17.0348097",
      "lat": 51.1062477,
      "lng": 17.0348097,
      "halalFriendly": false,
      "bookingUrl": "https://www.thegranaryhotel.com/",
      "source": "osm"
    },
    {
      "nom": "DoubleTree by Hilton Hotel Wroclaw",
      "categorie": "Hôtel",
      "priceRange": "€€€€",
      "score": 5,
      "mapsUrl": "https://maps.google.com/?q=51.1083087,17.0434234",
      "lat": 51.1083087,
      "lng": 17.0434234,
      "halalFriendly": false,
      "bookingUrl": "https://www.hilton.com/en/hotels/wrodtdi-doubletree-wroclaw/",
      "source": "osm"
    },
    {
      "nom": "Hotel Altus Palace",
      "categorie": "Hôtel",
      "priceRange": "€€€€",
      "score": 5,
      "mapsUrl": "https://maps.google.com/?q=51.105044,17.036238",
      "lat": 51.105044,
      "lng": 17.036238,
      "halalFriendly": false,
      "bookingUrl": "https://www.hotelaltuspalace.pl",
      "source": "osm"
    },
    {
      "nom": "Korona",
      "categorie": "Hôtel",
      "priceRange": "€€",
      "mapsUrl": "https://maps.google.com/?q=51.109074,17.0337439",
      "lat": 51.109074,
      "lng": 17.0337439,
      "halalFriendly": false,
      "bookingUrl": "https://koronahotel.com.pl/",
      "source": "osm"
    },
    {
      "nom": "The One Hostel",
      "categorie": "Auberge",
      "priceRange": "€€",
      "mapsUrl": "https://maps.google.com/?q=51.1092868,17.0334233",
      "lat": 51.1092868,
      "lng": 17.0334233,
      "halalFriendly": false,
      "bookingUrl": "https://maps.google.com/?q=51.1092868,17.0334233",
      "source": "osm"
    },
    {
      "nom": "City Central Apartments",
      "categorie": "Appartement",
      "priceRange": "€€",
      "mapsUrl": "https://maps.google.com/?q=51.1078654,17.032908",
      "lat": 51.1078654,
      "lng": 17.032908,
      "halalFriendly": false,
      "bookingUrl": "https://tanieapartamentywroclaw.pl/",
      "source": "osm"
    },
    {
      "nom": "Samba Apartment",
      "categorie": "Appartement",
      "priceRange": "€€",
      "mapsUrl": "https://maps.google.com/?q=51.1107752,17.0351252",
      "lat": 51.1107752,
      "lng": 17.0351252,
      "halalFriendly": false,
      "bookingUrl": "https://wa.wroclaw.pl/en/samba_apartment.html",
      "source": "osm"
    },
    {
      "nom": "U Szermierzy",
      "categorie": "Auberge",
      "priceRange": "€€",
      "mapsUrl": "https://maps.google.com/?q=51.1063379,17.0436605",
      "lat": 51.1063379,
      "lng": 17.0436605,
      "halalFriendly": false,
      "bookingUrl": "http://www.noclegwewroclawiu.pl/",
      "source": "osm"
    },
    {
      "nom": "Corner Hostel",
      "categorie": "Auberge",
      "priceRange": "€€",
      "mapsUrl": "https://maps.google.com/?q=51.1076563,17.0318846",
      "lat": 51.1076563,
      "lng": 17.0318846,
      "halalFriendly": false,
      "bookingUrl": "http://hostel-centrum.wroclaw.pl/",
      "source": "osm"
    },
    {
      "nom": "Kombinat",
      "categorie": "Auberge",
      "priceRange": "€€",
      "mapsUrl": "https://maps.google.com/?q=51.1064851,17.0319564",
      "lat": 51.1064851,
      "lng": 17.0319564,
      "halalFriendly": false,
      "bookingUrl": "https://maps.google.com/?q=51.1064851,17.0319564",
      "source": "osm"
    },
    {
      "nom": "Hotel Traffic",
      "categorie": "Hôtel",
      "priceRange": "€€",
      "score": 2,
      "mapsUrl": "https://maps.google.com/?q=51.1062352,17.0320247",
      "lat": 51.1062352,
      "lng": 17.0320247,
      "halalFriendly": false,
      "bookingUrl": "https://www.hoteltraffic.pl/wroclaw/",
      "source": "osm"
    },
    {
      "nom": "Radisson Blu Hotel",
      "categorie": "Hôtel",
      "priceRange": "€€€€",
      "score": 5,
      "mapsUrl": "https://maps.google.com/?q=51.1109515,17.0439234",
      "lat": 51.1109515,
      "lng": 17.0439234,
      "halalFriendly": false,
      "bookingUrl": "https://maps.google.com/?q=51.1109515,17.0439234",
      "source": "osm"
    },
    {
      "nom": "Q19 Apartments",
      "categorie": "Hôtel",
      "priceRange": "€€",
      "mapsUrl": "https://maps.google.com/?q=51.1117811,17.0342304",
      "lat": 51.1117811,
      "lng": 17.0342304,
      "halalFriendly": false,
      "bookingUrl": "https://q19apartments.com",
      "source": "osm"
    },
    {
      "nom": "Sukiennice Aparthotel",
      "categorie": "Hôtel",
      "priceRange": "€€",
      "mapsUrl": "https://maps.google.com/?q=51.110107,17.03185",
      "lat": 51.110107,
      "lng": 17.03185,
      "halalFriendly": false,
      "bookingUrl": "https://maps.google.com/?q=51.110107,17.03185",
      "source": "osm"
    },
    {
      "nom": "City Central",
      "categorie": "Auberge",
      "priceRange": "€€",
      "mapsUrl": "https://maps.google.com/?q=51.1115504,17.0334929",
      "lat": 51.1115504,
      "lng": 17.0334929,
      "halalFriendly": false,
      "bookingUrl": "https://citycentralhostel.pl/hostel-igielna-40-wroclaw/",
      "source": "osm"
    },
    {
      "nom": "Q17 Apartments",
      "categorie": "Hôtel",
      "priceRange": "€€",
      "mapsUrl": "https://maps.google.com/?q=51.1119699,17.0343177",
      "lat": 51.1119699,
      "lng": 17.0343177,
      "halalFriendly": false,
      "bookingUrl": "https://www.q17apartments.com",
      "source": "osm"
    },
    {
      "nom": "Haston Old Town",
      "categorie": "Hôtel",
      "priceRange": "€€",
      "mapsUrl": "https://maps.google.com/?q=51.1126882,17.036055",
      "lat": 51.1126882,
      "lng": 17.036055,
      "halalFriendly": false,
      "bookingUrl": "https://www.hastonoldtown.pl",
      "source": "osm"
    },
    {
      "nom": "Vanilla Hostel",
      "categorie": "Auberge",
      "priceRange": "€€",
      "mapsUrl": "https://maps.google.com/?q=51.1059878,17.0462115",
      "lat": 51.1059878,
      "lng": 17.0462115,
      "halalFriendly": false,
      "bookingUrl": "https://www.vanillahostel.pl/",
      "source": "osm"
    },
    {
      "nom": "Hotel Monopol",
      "categorie": "Hôtel",
      "priceRange": "€€€€",
      "score": 5,
      "mapsUrl": "https://maps.google.com/?q=51.106234,17.030561",
      "lat": 51.106234,
      "lng": 17.030561,
      "halalFriendly": false,
      "bookingUrl": "https://monopolwroclaw.hotel.com.pl/",
      "source": "osm"
    },
    {
      "nom": "Bemma Apart",
      "categorie": "Auberge",
      "priceRange": "€€",
      "mapsUrl": "https://maps.google.com/?q=51.1130046,17.0354103",
      "lat": 51.1130046,
      "lng": 17.0354103,
      "halalFriendly": false,
      "bookingUrl": "https://maps.google.com/?q=51.1130046,17.0354103",
      "source": "osm"
    },
    {
      "nom": "B&B Hotels",
      "categorie": "Hôtel",
      "priceRange": "€€",
      "mapsUrl": "https://maps.google.com/?q=51.1099483,17.0300848",
      "lat": 51.1099483,
      "lng": 17.0300848,
      "halalFriendly": false,
      "bookingUrl": "https://maps.google.com/?q=51.1099483,17.0300848",
      "source": "osm"
    },
    {
      "nom": "Dwór Polski",
      "categorie": "Hôtel",
      "priceRange": "€€€€",
      "score": 4,
      "mapsUrl": "https://maps.google.com/?q=51.1102495,17.0294852",
      "lat": 51.1102495,
      "lng": 17.0294852,
      "halalFriendly": false,
      "bookingUrl": "https://dworpolski.wroclaw.pl/hotel/",
      "source": "osm"
    },
    {
      "nom": "Kamienica pod Aniołami",
      "categorie": "Hôtel",
      "priceRange": "€€",
      "mapsUrl": "https://maps.google.com/?q=51.1078554,17.0285881",
      "lat": 51.1078554,
      "lng": 17.0285881,
      "halalFriendly": false,
      "bookingUrl": "https://kamienicapodaniolami.pl/",
      "source": "osm"
    },
    {
      "nom": "Odrzańska Residence",
      "categorie": "Appartement",
      "priceRange": "€€",
      "mapsUrl": "https://maps.google.com/?q=51.1124541,17.0315246",
      "lat": 51.1124541,
      "lng": 17.0315246,
      "halalFriendly": false,
      "bookingUrl": "https://odrzanskaresidence.pl",
      "source": "osm"
    },
    {
      "nom": "Hostel Wratislavia",
      "categorie": "Auberge",
      "priceRange": "€€",
      "mapsUrl": "https://maps.google.com/?q=51.1025633,17.0440306",
      "lat": 51.1025633,
      "lng": 17.0440306,
      "halalFriendly": false,
      "bookingUrl": "https://maps.google.com/?q=51.1025633,17.0440306",
      "source": "osm"
    },
    {
      "nom": "Bike 'Up Aparthotel Wrocław",
      "categorie": "Hôtel",
      "priceRange": "€€",
      "mapsUrl": "https://maps.google.com/?q=51.101697,17.0353302",
      "lat": 51.101697,
      "lng": 17.0353302,
      "halalFriendly": false,
      "bookingUrl": "https://www.bikeup.com.pl/",
      "source": "osm"
    },
    {
      "nom": "Hostel Incepcja",
      "categorie": "Auberge",
      "priceRange": "€€",
      "mapsUrl": "https://maps.google.com/?q=51.1042304,17.0295537",
      "lat": 51.1042304,
      "lng": 17.0295537,
      "halalFriendly": false,
      "bookingUrl": "https://maps.google.com/?q=51.1042304,17.0295537",
      "source": "osm"
    },
    {
      "nom": "Europeum Hotel",
      "categorie": "Hôtel",
      "priceRange": "€€€",
      "score": 3,
      "mapsUrl": "https://maps.google.com/?q=51.108112,17.0277839",
      "lat": 51.108112,
      "lng": 17.0277839,
      "halalFriendly": false,
      "bookingUrl": "https://europeum.pl/",
      "source": "osm"
    },
    {
      "nom": "Hotel Patio",
      "categorie": "Hôtel",
      "priceRange": "€€€",
      "score": 3,
      "mapsUrl": "https://maps.google.com/?q=51.1118422,17.0296718",
      "lat": 51.1118422,
      "lng": 17.0296718,
      "halalFriendly": false,
      "bookingUrl": "https://maps.google.com/?q=51.1118422,17.0296718",
      "source": "osm"
    },
    {
      "nom": "Art Hotel",
      "categorie": "Hôtel",
      "priceRange": "€€€€",
      "score": 4,
      "mapsUrl": "https://maps.google.com/?q=51.112182,17.0299191",
      "lat": 51.112182,
      "lng": 17.0299191,
      "halalFriendly": false,
      "bookingUrl": "https://www.arthotel.pl/",
      "source": "osm"
    },
    {
      "nom": "Wyndham",
      "categorie": "Hôtel",
      "priceRange": "€€",
      "mapsUrl": "https://maps.google.com/?q=51.1111955,17.0288751",
      "lat": 51.1111955,
      "lng": 17.0288751,
      "halalFriendly": false,
      "bookingUrl": "https://maps.google.com/?q=51.1111955,17.0288751",
      "source": "osm"
    },
    {
      "nom": "Academus",
      "categorie": "Hôtel",
      "priceRange": "€€",
      "mapsUrl": "https://maps.google.com/?q=51.1119447,17.029605",
      "lat": 51.1119447,
      "lng": 17.029605,
      "halalFriendly": false,
      "bookingUrl": "https://academus.pl/?page_id=39",
      "source": "osm"
    },
    {
      "nom": "Grand City Hotel",
      "categorie": "Hôtel",
      "priceRange": "€€€€",
      "score": 4,
      "mapsUrl": "https://maps.google.com/?q=51.1102914,17.0280976",
      "lat": 51.1102914,
      "lng": 17.0280976,
      "halalFriendly": false,
      "bookingUrl": "https://www.grandcityhotel.pl/",
      "source": "osm"
    },
    {
      "nom": "Royal Hostel",
      "categorie": "Auberge",
      "priceRange": "€€",
      "mapsUrl": "https://maps.google.com/?q=51.1081822,17.0274047",
      "lat": 51.1081822,
      "lng": 17.0274047,
      "halalFriendly": false,
      "bookingUrl": "https://rh-hostel.pl/",
      "source": "osm"
    },
    {
      "nom": "Boogie ApartHouse",
      "categorie": "Auberge",
      "priceRange": "€€",
      "mapsUrl": "https://maps.google.com/?q=51.1129449,17.0306938",
      "lat": 51.1129449,
      "lng": 17.0306938,
      "halalFriendly": false,
      "bookingUrl": "https://boogieapart.pl/boogie-aparthouse/",
      "source": "osm"
    },
    {
      "nom": "Wrocław Hotel",
      "categorie": "Hôtel",
      "priceRange": "€€",
      "mapsUrl": "https://maps.google.com/?q=51.1127113,17.0301094",
      "lat": 51.1127113,
      "lng": 17.0301094,
      "halalFriendly": false,
      "bookingUrl": "https://wroclawhotel.pl",
      "source": "osm"
    },
    {
      "nom": "Savoy",
      "categorie": "Hôtel",
      "priceRange": "€€",
      "mapsUrl": "https://maps.google.com/?q=51.1023193,17.0310868",
      "lat": 51.1023193,
      "lng": 17.0310868,
      "halalFriendly": false,
      "bookingUrl": "https://savoy.cul.com.pl/",
      "source": "osm"
    },
    {
      "nom": "Moon Hostel",
      "categorie": "Auberge",
      "priceRange": "€€",
      "mapsUrl": "https://maps.google.com/?q=51.107919,17.0269098",
      "lat": 51.107919,
      "lng": 17.0269098,
      "halalFriendly": false,
      "bookingUrl": "https://www.moonhostel.pl/pl/wroclaw",
      "source": "osm"
    },
    {
      "nom": "Hotel Jazz",
      "categorie": "Hôtel",
      "priceRange": "€€",
      "mapsUrl": "https://maps.google.com/?q=51.1124371,17.0291288",
      "lat": 51.1124371,
      "lng": 17.0291288,
      "halalFriendly": false,
      "bookingUrl": "https://hoteljazz.pl",
      "source": "osm"
    },
    {
      "nom": "AC Hotel by Marriott Wrocław",
      "categorie": "Hôtel",
      "priceRange": "€€€€",
      "score": 4,
      "mapsUrl": "https://maps.google.com/?q=51.1075312,17.0266113",
      "lat": 51.1075312,
      "lng": 17.0266113,
      "halalFriendly": false,
      "bookingUrl": "https://www.marriott.com/hotels/travel/wroar-ac-hotel-wroclaw/",
      "source": "osm"
    },
    {
      "nom": "Cyrus",
      "categorie": "Hôtel",
      "priceRange": "€€",
      "mapsUrl": "https://maps.google.com/?q=51.1123463,17.0287392",
      "lat": 51.1123463,
      "lng": 17.0287392,
      "halalFriendly": false,
      "bookingUrl": "https://www.cyrushotel.pl",
      "source": "osm"
    },
    {
      "nom": "Szkolne Schronisko Młodzieżowe",
      "categorie": "Auberge",
      "priceRange": "€€",
      "mapsUrl": "https://maps.google.com/?q=51.1004469,17.0363342",
      "lat": 51.1004469,
      "lng": 17.0363342,
      "halalFriendly": false,
      "bookingUrl": "http://www.mdk.wroclaw.pl/o_schronisku/index.html",
      "source": "osm"
    },
    {
      "nom": "Best Western Premier City Centre",
      "categorie": "Hôtel",
      "priceRange": "€€€€",
      "score": 4,
      "mapsUrl": "https://maps.google.com/?q=51.100277,17.0374868",
      "lat": 51.100277,
      "lng": 17.0374868,
      "halalFriendly": false,
      "bookingUrl": "https://www.bwpremiercitycenter.pl",
      "source": "osm"
    },
    {
      "nom": "Boogie Hostel Deluxe",
      "categorie": "Auberge",
      "priceRange": "€€",
      "mapsUrl": "https://maps.google.com/?q=51.1112294,17.0274753",
      "lat": 51.1112294,
      "lng": 17.0274753,
      "halalFriendly": false,
      "bookingUrl": "https://boogieapart.pl/boogie-deluxe/",
      "source": "osm"
    },
    {
      "nom": "Focus Hotel",
      "categorie": "Hôtel",
      "priceRange": "€€€€",
      "score": 4,
      "mapsUrl": "https://maps.google.com/?q=51.1091036,17.026327",
      "lat": 51.1091036,
      "lng": 17.026327,
      "halalFriendly": false,
      "bookingUrl": "https://www.focushotels.pl/focus-hotel-premium-wroclaw",
      "source": "osm"
    },
    {
      "nom": "Centrum Hostel",
      "categorie": "Auberge",
      "priceRange": "€€",
      "mapsUrl": "https://maps.google.com/?q=51.1117159,17.0277612",
      "lat": 51.1117159,
      "lng": 17.0277612,
      "halalFriendly": false,
      "bookingUrl": "https://maps.google.com/?q=51.1117159,17.0277612",
      "source": "osm"
    },
    {
      "nom": "Babel Hostel",
      "categorie": "Auberge",
      "priceRange": "€€",
      "mapsUrl": "https://maps.google.com/?q=51.1003223,17.0357354",
      "lat": 51.1003223,
      "lng": 17.0357354,
      "halalFriendly": false,
      "bookingUrl": "http://www.babelhostel.com.pl",
      "source": "osm"
    },
    {
      "nom": "Marina",
      "categorie": "Appartement",
      "priceRange": "€€",
      "mapsUrl": "https://maps.google.com/?q=51.1147596,17.0323969",
      "lat": 51.1147596,
      "lng": 17.0323969,
      "halalFriendly": false,
      "bookingUrl": "https://inqse.com",
      "source": "osm"
    },
    {
      "nom": "WenderEDU Business Center",
      "categorie": "Hôtel",
      "priceRange": "€€",
      "mapsUrl": "https://maps.google.com/?q=51.11283,17.048274",
      "lat": 51.11283,
      "lng": 17.048274,
      "halalFriendly": false,
      "bookingUrl": "https://maps.google.com/?q=51.11283,17.048274",
      "source": "osm"
    },
    {
      "nom": "Hotel Europejski",
      "categorie": "Hôtel",
      "priceRange": "€€€",
      "score": 3,
      "mapsUrl": "https://maps.google.com/?q=51.1004561,17.0343042",
      "lat": 51.1004561,
      "lng": 17.0343042,
      "halalFriendly": false,
      "bookingUrl": "https://www.europejskiwroclaw.pl/",
      "source": "osm"
    },
    {
      "nom": "Vice City Hostel",
      "categorie": "Auberge",
      "priceRange": "€€",
      "mapsUrl": "https://maps.google.com/?q=51.109603,17.0261893",
      "lat": 51.109603,
      "lng": 17.0261893,
      "halalFriendly": false,
      "bookingUrl": "https://maps.google.com/?q=51.109603,17.0261893",
      "source": "osm"
    },
    {
      "nom": "Bemma Hostel",
      "categorie": "Auberge",
      "priceRange": "€€",
      "mapsUrl": "https://maps.google.com/?q=51.1097756,17.0262304",
      "lat": 51.1097756,
      "lng": 17.0262304,
      "halalFriendly": false,
      "bookingUrl": "https://maps.google.com/?q=51.1097756,17.0262304",
      "source": "osm"
    },
    {
      "nom": "Piast",
      "categorie": "Hôtel",
      "priceRange": "€€",
      "score": 2,
      "mapsUrl": "https://maps.google.com/?q=51.1001298,17.0356866",
      "lat": 51.1001298,
      "lng": 17.0356866,
      "halalFriendly": false,
      "bookingUrl": "https://piastwroclaw.pl/",
      "source": "osm"
    },
    {
      "nom": "Hostel Kościuszko",
      "categorie": "Auberge",
      "priceRange": "€€",
      "mapsUrl": "https://maps.google.com/?q=51.1033681,17.0280304",
      "lat": 51.1033681,
      "lng": 17.0280304,
      "halalFriendly": false,
      "bookingUrl": "www.hostelhosiuszko.pl",
      "source": "osm"
    },
    {
      "nom": "Hotel Sofia",
      "categorie": "Hôtel",
      "priceRange": "€€€",
      "score": 3,
      "mapsUrl": "https://maps.google.com/?q=51.0999825,17.0368506",
      "lat": 51.0999825,
      "lng": 17.0368506,
      "halalFriendly": false,
      "bookingUrl": "https://www.hotelsofia.pl",
      "source": "osm"
    },
    {
      "nom": "Grand Hotel",
      "categorie": "Hôtel",
      "priceRange": "€€€€",
      "score": 4,
      "mapsUrl": "https://maps.google.com/?q=51.0999992,17.0364517",
      "lat": 51.0999992,
      "lng": 17.0364517,
      "halalFriendly": false,
      "bookingUrl": "https://maps.google.com/?q=51.0999992,17.0364517",
      "source": "osm"
    },
    {
      "nom": "Absynt Apartamenty Dąbrowskiego",
      "categorie": "Hôtel",
      "priceRange": "€€",
      "mapsUrl": "https://maps.google.com/?q=51.1000778,17.0413411",
      "lat": 51.1000778,
      "lng": 17.0413411,
      "halalFriendly": false,
      "bookingUrl": "https://www.absyntapartments.pl/",
      "source": "osm"
    },
    {
      "nom": "Hotel im. Jana Pawła II",
      "categorie": "Hôtel",
      "priceRange": "€€€€",
      "score": 4,
      "mapsUrl": "https://maps.google.com/?q=51.1150356,17.0449961",
      "lat": 51.1150356,
      "lng": 17.0449961,
      "halalFriendly": false,
      "bookingUrl": "https://www.hotel-jp2.pl/",
      "source": "osm"
    },
    {
      "nom": "Ibis Styles",
      "categorie": "Hôtel",
      "priceRange": "€€€",
      "score": 3,
      "mapsUrl": "https://maps.google.com/?q=51.0997134,17.0397547",
      "lat": 51.0997134,
      "lng": 17.0397547,
      "halalFriendly": false,
      "bookingUrl": "http://www.ibis.com/pl/hotel-9347-ibis-styles-wroclaw-centrum/",
      "source": "osm"
    },
    {
      "nom": "Hotel Tumski",
      "categorie": "Hôtel",
      "priceRange": "€€€",
      "score": 3,
      "mapsUrl": "https://maps.google.com/?q=51.116093,17.0406435",
      "lat": 51.116093,
      "lng": 17.0406435,
      "halalFriendly": false,
      "bookingUrl": "https://www.hotel-tumski.com.pl/",
      "source": "osm"
    },
    {
      "nom": "Schronisko Na Wyspie",
      "categorie": "Auberge",
      "priceRange": "€€",
      "mapsUrl": "https://maps.google.com/?q=51.1161245,17.0404602",
      "lat": 51.1161245,
      "lng": 17.0404602,
      "halalFriendly": false,
      "bookingUrl": "https://www.hotel-tumski.com.pl/schronisko/",
      "source": "osm"
    },
    {
      "nom": "Hotel Polonia",
      "categorie": "Hôtel",
      "priceRange": "€€",
      "score": 2,
      "mapsUrl": "https://maps.google.com/?q=51.1011187,17.0307984",
      "lat": 51.1011187,
      "lng": 17.0307984,
      "halalFriendly": false,
      "bookingUrl": "https://www.poloniawroclaw.pl/",
      "source": "osm"
    },
    {
      "nom": "Mleczarnia",
      "categorie": "Auberge",
      "priceRange": "€€",
      "mapsUrl": "https://maps.google.com/?q=51.1081564,17.0251856",
      "lat": 51.1081564,
      "lng": 17.0251856,
      "halalFriendly": false,
      "bookingUrl": "http://mleczarniahostel.pl",
      "source": "osm"
    },
    {
      "nom": "The Bridge Wroclaw MGallery",
      "categorie": "Hôtel",
      "priceRange": "€€€€",
      "score": 5,
      "mapsUrl": "https://maps.google.com/?q=51.1137407,17.0481112",
      "lat": 51.1137407,
      "lng": 17.0481112,
      "halalFriendly": false,
      "bookingUrl": "https://maps.google.com/?q=51.1137407,17.0481112",
      "source": "osm"
    },
    {
      "nom": "Absynt",
      "categorie": "Auberge",
      "priceRange": "€€",
      "mapsUrl": "https://maps.google.com/?q=51.1093411,17.0252878",
      "lat": 51.1093411,
      "lng": 17.0252878,
      "halalFriendly": false,
      "bookingUrl": "https://maps.google.com/?q=51.1093411,17.0252878",
      "source": "osm"
    },
    {
      "nom": "SleepWalker Boutique Suites",
      "categorie": "Hôtel",
      "priceRange": "€€€€",
      "score": 4,
      "mapsUrl": "https://maps.google.com/?q=51.1113872,17.0260334",
      "lat": 51.1113872,
      "lng": 17.0260334,
      "halalFriendly": false,
      "bookingUrl": "https://sleepwalker.pl/",
      "source": "osm"
    },
    {
      "nom": "Dom Notre Dame",
      "categorie": "Maison d'hôtes",
      "priceRange": "€€",
      "mapsUrl": "https://maps.google.com/?q=51.1159185,17.0435263",
      "lat": 51.1159185,
      "lng": 17.0435263,
      "halalFriendly": false,
      "bookingUrl": "http://www.ndwroclaw.com/#!usugi1/chss",
      "source": "osm"
    },
    {
      "nom": "Hotel Brassel",
      "categorie": "Hôtel",
      "priceRange": "€€",
      "mapsUrl": "https://maps.google.com/?q=51.1004655,17.0313512",
      "lat": 51.1004655,
      "lng": 17.0313512,
      "halalFriendly": false,
      "bookingUrl": "https://brassel.pl/",
      "source": "osm"
    },
    {
      "nom": "Sunny Hostel",
      "categorie": "Auberge",
      "priceRange": "€€",
      "mapsUrl": "https://maps.google.com/?q=51.1104393,17.0252463",
      "lat": 51.1104393,
      "lng": 17.0252463,
      "halalFriendly": false,
      "bookingUrl": "https://maps.google.com/?q=51.1104393,17.0252463",
      "source": "osm"
    },
    {
      "nom": "PURO Hotel",
      "categorie": "Hôtel",
      "priceRange": "€€",
      "mapsUrl": "https://maps.google.com/?q=51.1079476,17.0245472",
      "lat": 51.1079476,
      "lng": 17.0245472,
      "halalFriendly": false,
      "bookingUrl": "https://purohotel.pl/wroclaw/",
      "source": "osm"
    },
    {
      "nom": "Dikul Hotel",
      "categorie": "Hôtel",
      "priceRange": "€€€",
      "score": 3,
      "mapsUrl": "https://maps.google.com/?q=51.1125685,17.0265126",
      "lat": 51.1125685,
      "lng": 17.0265126,
      "halalFriendly": false,
      "bookingUrl": "https://www.dikul.pl/",
      "source": "osm"
    },
    {
      "nom": "Herbal Hotel",
      "categorie": "Hôtel",
      "priceRange": "€€",
      "mapsUrl": "https://maps.google.com/?q=51.1089141,17.0238724",
      "lat": 51.1089141,
      "lng": 17.0238724,
      "halalFriendly": false,
      "bookingUrl": "https://herbalhotel.pl",
      "source": "osm"
    },
    {
      "nom": "Scandic",
      "categorie": "Hôtel",
      "priceRange": "€€",
      "mapsUrl": "https://maps.google.com/?q=51.1012267,17.0281432",
      "lat": 51.1012267,
      "lng": 17.0281432,
      "halalFriendly": false,
      "bookingUrl": "https://www.scandichotels.com/scandic-polska/scandic-wroclaw",
      "source": "osm"
    },
    {
      "nom": "Klimt Apartment",
      "categorie": "Appartement",
      "priceRange": "€€",
      "mapsUrl": "https://maps.google.com/?q=51.1098693,17.0237325",
      "lat": 51.1098693,
      "lng": 17.0237325,
      "halalFriendly": false,
      "bookingUrl": "https://wa.wroclaw.pl/en/klimt_apartment.html",
      "source": "osm"
    },
    {
      "nom": "Glow Hostel",
      "categorie": "Auberge",
      "priceRange": "€€",
      "mapsUrl": "https://maps.google.com/?q=51.111077,17.024179",
      "lat": 51.111077,
      "lng": 17.024179,
      "halalFriendly": false,
      "bookingUrl": "https://maps.google.com/?q=51.111077,17.024179",
      "source": "osm"
    },
    {
      "nom": "Duet",
      "categorie": "Hôtel",
      "priceRange": "€€€",
      "score": 3,
      "mapsUrl": "https://maps.google.com/?q=51.1111954,17.0242333",
      "lat": 51.1111954,
      "lng": 17.0242333,
      "halalFriendly": false,
      "bookingUrl": "https://maps.google.com/?q=51.1111954,17.0242333",
      "source": "osm"
    },
    {
      "nom": "Hotel HP Park Plaza",
      "categorie": "Hôtel",
      "priceRange": "€€€€",
      "score": 4,
      "mapsUrl": "https://maps.google.com/?q=51.1173396,17.0356983",
      "lat": 51.1173396,
      "lng": 17.0356983,
      "halalFriendly": false,
      "bookingUrl": "https://hotelepark.pl/hotel-wroclaw",
      "source": "osm"
    },
    {
      "nom": "5 Stars Luxury Hostel",
      "categorie": "Auberge",
      "priceRange": "€€",
      "mapsUrl": "https://maps.google.com/?q=51.1109804,17.0239492",
      "lat": 51.1109804,
      "lng": 17.0239492,
      "halalFriendly": false,
      "bookingUrl": "https://fivestarsbb.com/kontakt/",
      "source": "osm"
    },
    {
      "nom": "Joyinn",
      "categorie": "Hôtel",
      "priceRange": "€€",
      "mapsUrl": "https://maps.google.com/?q=51.1088794,17.023145",
      "lat": 51.1088794,
      "lng": 17.023145,
      "halalFriendly": false,
      "bookingUrl": "https://www.joyinn.pl",
      "source": "osm"
    },
    {
      "nom": "Boutique Brajt Hotel",
      "categorie": "Hôtel",
      "priceRange": "€€",
      "mapsUrl": "https://maps.google.com/?q=51.1090573,17.0230775",
      "lat": 51.1090573,
      "lng": 17.0230775,
      "halalFriendly": false,
      "bookingUrl": "https://maps.google.com/?q=51.1090573,17.0230775",
      "source": "osm"
    },
    {
      "nom": "Chilli Hostel",
      "categorie": "Auberge",
      "priceRange": "€€",
      "mapsUrl": "https://maps.google.com/?q=51.1015566,17.0266706",
      "lat": 51.1015566,
      "lng": 17.0266706,
      "halalFriendly": false,
      "bookingUrl": "https://chilli-hostel.com",
      "source": "osm"
    },
    {
      "nom": "Neon Apartment",
      "categorie": "Appartement",
      "priceRange": "€€",
      "mapsUrl": "https://maps.google.com/?q=51.1180055,17.0424691",
      "lat": 51.1180055,
      "lng": 17.0424691,
      "halalFriendly": false,
      "bookingUrl": "https://wa.wroclaw.pl/pl/neon_apartment.html",
      "source": "osm"
    },
    {
      "nom": "Hostel Wigwam",
      "categorie": "Auberge",
      "priceRange": "€€",
      "mapsUrl": "https://maps.google.com/?q=51.1029599,17.0537359",
      "lat": 51.1029599,
      "lng": 17.0537359,
      "halalFriendly": false,
      "bookingUrl": "https://maps.google.com/?q=51.1029599,17.0537359",
      "source": "osm"
    },
    {
      "nom": "Colourful Hostel",
      "categorie": "Auberge",
      "priceRange": "€€",
      "mapsUrl": "https://maps.google.com/?q=51.1176957,17.0306994",
      "lat": 51.1176957,
      "lng": 17.0306994,
      "halalFriendly": false,
      "bookingUrl": "https://maps.google.com/?q=51.1176957,17.0306994",
      "source": "osm"
    },
    {
      "nom": "Grampa’s",
      "categorie": "Auberge",
      "priceRange": "€€",
      "mapsUrl": "https://maps.google.com/?q=51.1191058,17.0364287",
      "lat": 51.1191058,
      "lng": 17.0364287,
      "halalFriendly": false,
      "bookingUrl": "http://www.grampahostel.pl/",
      "source": "osm"
    },
    {
      "nom": "City Apartments & Gym",
      "categorie": "Hôtel",
      "priceRange": "€€",
      "mapsUrl": "https://maps.google.com/?q=51.1175744,17.0288361",
      "lat": 51.1175744,
      "lng": 17.0288361,
      "halalFriendly": false,
      "bookingUrl": "https://maps.google.com/?q=51.1175744,17.0288361",
      "source": "osm"
    },
    {
      "nom": "Hostel Świebodzki",
      "categorie": "Auberge",
      "priceRange": "€€",
      "mapsUrl": "https://maps.google.com/?q=51.1082098,17.0197738",
      "lat": 51.1082098,
      "lng": 17.0197738,
      "halalFriendly": false,
      "bookingUrl": "https://swiebodzki.com/",
      "source": "osm"
    },
    {
      "nom": "Campanile",
      "categorie": "Hôtel",
      "priceRange": "€€",
      "mapsUrl": "https://maps.google.com/?q=51.1166481,17.0258608",
      "lat": 51.1166481,
      "lng": 17.0258608,
      "halalFriendly": false,
      "bookingUrl": "https://maps.google.com/?q=51.1166481,17.0258608",
      "source": "osm"
    },
    {
      "nom": "Hart Hostel and Art",
      "categorie": "Auberge",
      "priceRange": "€€",
      "mapsUrl": "https://maps.google.com/?q=51.1193322,17.0334992",
      "lat": 51.1193322,
      "lng": 17.0334992,
      "halalFriendly": false,
      "bookingUrl": "https://hart-hostel-amp-art-wroclaw.wintega.pl/",
      "source": "osm"
    },
    {
      "nom": "Hostel Fraszka",
      "categorie": "Auberge",
      "priceRange": "€€",
      "mapsUrl": "https://maps.google.com/?q=51.1026449,17.0213574",
      "lat": 51.1026449,
      "lng": 17.0213574,
      "halalFriendly": false,
      "bookingUrl": "https://sites.google.com/site/hostelfraszka/",
      "source": "osm"
    },
    {
      "nom": "Max Berg Hostel",
      "categorie": "Auberge",
      "priceRange": "€€",
      "mapsUrl": "https://maps.google.com/?q=51.1122433,17.0564438",
      "lat": 51.1122433,
      "lng": 17.0564438,
      "halalFriendly": false,
      "bookingUrl": "https://maxberghostel.eu",
      "source": "osm"
    },
    {
      "nom": "Wąska 5 Apartamenty",
      "categorie": "Appartement",
      "priceRange": "€€",
      "mapsUrl": "https://maps.google.com/?q=51.1196375,17.0322336",
      "lat": 51.1196375,
      "lng": 17.0322336,
      "halalFriendly": false,
      "bookingUrl": "https://maps.google.com/?q=51.1196375,17.0322336",
      "source": "osm"
    },
    {
      "nom": "Locomotive Hostel",
      "categorie": "Auberge",
      "priceRange": "€€",
      "mapsUrl": "https://maps.google.com/?q=51.108145,17.0184608",
      "lat": 51.108145,
      "lng": 17.0184608,
      "halalFriendly": false,
      "bookingUrl": "https://maps.google.com/?q=51.108145,17.0184608",
      "source": "osm"
    },
    {
      "nom": "Moho M Hostel",
      "categorie": "Hôtel",
      "priceRange": "€€",
      "mapsUrl": "https://maps.google.com/?q=51.1207039,17.0362482",
      "lat": 51.1207039,
      "lng": 17.0362482,
      "halalFriendly": false,
      "bookingUrl": "https://maps.google.com/?q=51.1207039,17.0362482",
      "source": "osm"
    },
    {
      "nom": "Milestone",
      "categorie": "Appartement",
      "priceRange": "€€",
      "mapsUrl": "https://maps.google.com/?q=51.1193784,17.0478853",
      "lat": 51.1193784,
      "lng": 17.0478853,
      "halalFriendly": false,
      "bookingUrl": "https://www.milestone.net/location/milestone-wroclaw-olbin/",
      "source": "osm"
    },
    {
      "nom": "Moho L Hostel",
      "categorie": "Hôtel",
      "priceRange": "€€",
      "mapsUrl": "https://maps.google.com/?q=51.1207559,17.0366989",
      "lat": 51.1207559,
      "lng": 17.0366989,
      "halalFriendly": false,
      "bookingUrl": "https://maps.google.com/?q=51.1207559,17.0366989",
      "source": "osm"
    },
    {
      "nom": "Novotel Wrocław Centrum",
      "categorie": "Hôtel",
      "priceRange": "€€€€",
      "score": 4,
      "mapsUrl": "https://maps.google.com/?q=51.0983026,17.0245684",
      "lat": 51.0983026,
      "lng": 17.0245684,
      "halalFriendly": false,
      "bookingUrl": "http://www.novotel.com/pl/hotel-A073-novotel-wroclaw-centrum/index.shtml",
      "source": "osm"
    },
    {
      "nom": "Modern Hostel",
      "categorie": "Auberge",
      "priceRange": "€€",
      "mapsUrl": "https://maps.google.com/?q=51.1142576,17.020429",
      "lat": 51.1142576,
      "lng": 17.020429,
      "halalFriendly": false,
      "bookingUrl": "https://maps.google.com/?q=51.1142576,17.020429",
      "source": "osm"
    },
    {
      "nom": "Ibis Wrocław Centrum",
      "categorie": "Hôtel",
      "priceRange": "€€€",
      "score": 3,
      "mapsUrl": "https://maps.google.com/?q=51.0985367,17.0240654",
      "lat": 51.0985367,
      "lng": 17.0240654,
      "halalFriendly": false,
      "bookingUrl": "http://www.ibis.com/pl/hotel-A074-ibis-wroclaw-centrum/index.shtml",
      "source": "osm"
    },
    {
      "nom": "Villa Art Novis",
      "categorie": "Hôtel",
      "priceRange": "€€",
      "mapsUrl": "https://maps.google.com/?q=51.1206029,17.0432216",
      "lat": 51.1206029,
      "lng": 17.0432216,
      "halalFriendly": false,
      "bookingUrl": "https://villaartnovis.com",
      "source": "osm"
    },
    {
      "nom": "Cilantro",
      "categorie": "Hôtel",
      "priceRange": "€€",
      "mapsUrl": "https://maps.google.com/?q=51.1201684,17.0302838",
      "lat": 51.1201684,
      "lng": 17.0302838,
      "halalFriendly": false,
      "bookingUrl": "https://www.cilantro.pl/",
      "source": "osm"
    },
    {
      "nom": "Q Hotel Plus",
      "categorie": "Hôtel",
      "priceRange": "€€",
      "mapsUrl": "https://maps.google.com/?q=51.0973097,17.0254396",
      "lat": 51.0973097,
      "lng": 17.0254396,
      "halalFriendly": false,
      "bookingUrl": "https://www.qhotels.pl/hotel-wroclaw-centrum",
      "source": "osm"
    },
    {
      "nom": "Hostel Deja Vu",
      "categorie": "Auberge",
      "priceRange": "€€",
      "mapsUrl": "https://maps.google.com/?q=51.0969684,17.0255999",
      "lat": 51.0969684,
      "lng": 17.0255999,
      "halalFriendly": false,
      "bookingUrl": "https://www.deja-vu.com.pl/",
      "source": "osm"
    },
    {
      "nom": "Foka",
      "categorie": "Auberge",
      "priceRange": "€€",
      "mapsUrl": "https://maps.google.com/?q=51.1057004,17.0159806",
      "lat": 51.1057004,
      "lng": 17.0159806,
      "halalFriendly": false,
      "bookingUrl": "https://maps.google.com/?q=51.1057004,17.0159806",
      "source": "osm"
    },
    {
      "nom": "Campanile Wrocław Centrum",
      "categorie": "Hôtel",
      "priceRange": "€€",
      "mapsUrl": "https://maps.google.com/?q=51.0940296,17.0314951",
      "lat": 51.0940296,
      "lng": 17.0314951,
      "halalFriendly": false,
      "bookingUrl": "https://maps.google.com/?q=51.0940296,17.0314951",
      "source": "osm"
    },
    {
      "nom": "Premiere Classe",
      "categorie": "Hôtel",
      "priceRange": "€€",
      "mapsUrl": "https://maps.google.com/?q=51.0936974,17.0311209",
      "lat": 51.0936974,
      "lng": 17.0311209,
      "halalFriendly": false,
      "bookingUrl": "https://maps.google.com/?q=51.0936974,17.0311209",
      "source": "osm"
    }
  ],
  "mosqueesPrincipales": [
    {
      "id": "m101592713",
      "nom": "Muzułmańskie Centrum Kulturalno-Oświatowe",
      "type": "Mosquée",
      "adresse": "aleja Jana Kasprowicza, Wrocław",
      "description": "Lieu de prière (OpenStreetMap).",
      "mapsUrl": "https://maps.google.com/?q=51.1365708,17.0404397",
      "lat": 51.1365708,
      "lng": 17.0404397,
      "source": "osm"
    }
  ],
  "activites": [
    {
      "id": "a4969170205",
      "nom": "BEAnka II",
      "categorie": "artwork",
      "description": "",
      "prix": "",
      "duree": "",
      "mapsUrl": "https://maps.google.com/?q=51.108164,17.038106",
      "lat": 51.108164,
      "lng": 17.038106,
      "source": "osm"
    },
    {
      "id": "a8873325321",
      "nom": "Elementek",
      "categorie": "artwork",
      "description": "",
      "prix": "",
      "duree": "",
      "mapsUrl": "https://maps.google.com/?q=51.1075356,17.0381875",
      "lat": 51.1075356,
      "lng": 17.0381875,
      "source": "osm"
    },
    {
      "id": "a1920801814",
      "nom": "Pomnik ku czci Chińczyków z Tian’anmen",
      "categorie": "memorial",
      "description": "",
      "prix": "",
      "duree": "",
      "mapsUrl": "https://maps.google.com/?q=51.107628,17.0390432",
      "lat": 51.107628,
      "lng": 17.0390432,
      "source": "osm"
    },
    {
      "id": "a6606624219",
      "nom": "Lunetyk",
      "categorie": "artwork",
      "description": "",
      "prix": "",
      "duree": "",
      "mapsUrl": "https://maps.google.com/?q=51.1074197,17.038386",
      "lat": 51.1074197,
      "lng": 17.038386,
      "source": "osm"
    },
    {
      "id": "a7300110790",
      "nom": "Dominik i Anka",
      "categorie": "artwork",
      "description": "",
      "prix": "",
      "duree": "",
      "mapsUrl": "https://maps.google.com/?q=51.1080358,17.0393703",
      "lat": 51.1080358,
      "lng": 17.0393703,
      "source": "osm"
    },
    {
      "id": "a8968422763",
      "nom": "Leprokonus",
      "categorie": "artwork",
      "description": "",
      "prix": "",
      "duree": "",
      "mapsUrl": "https://maps.google.com/?q=51.1084691,17.0382133",
      "lat": 51.1084691,
      "lng": 17.0382133,
      "source": "osm"
    },
    {
      "id": "a6606624220",
      "nom": "Epamek",
      "categorie": "artwork",
      "description": "",
      "prix": "",
      "duree": "",
      "mapsUrl": "https://maps.google.com/?q=51.107448,17.0378328",
      "lat": 51.107448,
      "lng": 17.0378328,
      "source": "osm"
    },
    {
      "id": "a12882310028",
      "nom": "Juliusz IX",
      "categorie": "artwork",
      "description": "",
      "prix": "",
      "duree": "",
      "mapsUrl": "https://maps.google.com/?q=51.107289,17.0388008",
      "lat": 51.107289,
      "lng": 17.0388008,
      "source": "osm"
    },
    {
      "id": "a13448343645",
      "nom": "Błyskotka, Gwarancjusz, Asystek i Tradycjusz",
      "categorie": "artwork",
      "description": "",
      "prix": "",
      "duree": "",
      "mapsUrl": "https://maps.google.com/?q=51.1073537,17.0393579",
      "lat": 51.1073537,
      "lng": 17.0393579,
      "source": "osm"
    },
    {
      "id": "a8990412112",
      "nom": "Hania i Antoś",
      "categorie": "artwork",
      "description": "",
      "prix": "",
      "duree": "",
      "mapsUrl": "https://maps.google.com/?q=51.1080493,17.0368936",
      "lat": 51.1080493,
      "lng": 17.0368936,
      "source": "osm"
    },
    {
      "id": "a5685984327",
      "nom": "Rzeżba Bios",
      "categorie": "artwork",
      "description": "",
      "prix": "",
      "duree": "",
      "mapsUrl": "https://maps.google.com/?q=51.1069794,17.0377594",
      "lat": 51.1069794,
      "lng": 17.0377594,
      "source": "osm"
    },
    {
      "id": "a9128016929",
      "nom": "Mur miejski, XIIIw.",
      "categorie": "memorial",
      "description": "",
      "prix": "",
      "duree": "",
      "mapsUrl": "https://maps.google.com/?q=51.1081741,17.0368385",
      "lat": 51.1081741,
      "lng": 17.0368385,
      "source": "osm"
    },
    {
      "id": "a9128016928",
      "nom": "Brama Oławska wewnętrzna, XIIIw.",
      "categorie": "memorial",
      "description": "",
      "prix": "",
      "duree": "",
      "mapsUrl": "https://maps.google.com/?q=51.1081156,17.0368146",
      "lat": 51.1081156,
      "lng": 17.0368146,
      "source": "osm"
    },
    {
      "id": "a101144452",
      "nom": "Pałac Oppersdorfów",
      "categorie": "castle",
      "description": "",
      "prix": "",
      "duree": "",
      "mapsUrl": "https://maps.google.com/?q=51.1070153,17.0374598",
      "lat": 51.1070153,
      "lng": 17.0374598,
      "source": "osm"
    },
    {
      "id": "a9117825942",
      "nom": "Statystyk",
      "categorie": "artwork",
      "description": "",
      "prix": "",
      "duree": "",
      "mapsUrl": "https://maps.google.com/?q=51.1080702,17.036683",
      "lat": 51.1080702,
      "lng": 17.036683,
      "source": "osm"
    },
    {
      "id": "a12996037584",
      "nom": "Makuś i Sezamka",
      "categorie": "artwork",
      "description": "",
      "prix": "",
      "duree": "",
      "mapsUrl": "https://maps.google.com/?q=51.1082413,17.0366864",
      "lat": 51.1082413,
      "lng": 17.0366864,
      "source": "osm"
    },
    {
      "id": "a602737553",
      "nom": "Wrocławianka",
      "categorie": "artwork",
      "description": "",
      "prix": "",
      "duree": "",
      "mapsUrl": "https://maps.google.com/?q=51.1078293,17.0406395",
      "lat": 51.1078293,
      "lng": 17.0406395,
      "source": "osm"
    },
    {
      "id": "a480016662",
      "nom": "Kaplica Błogosławionego Czesława",
      "categorie": "attraction",
      "description": "",
      "prix": "",
      "duree": "",
      "mapsUrl": "https://maps.google.com/?q=51.1092047,17.0391918",
      "lat": 51.1092047,
      "lng": 17.0391918,
      "source": "osm"
    },
    {
      "id": "a4969197076",
      "nom": "Bamboszek",
      "categorie": "artwork",
      "description": "",
      "prix": "",
      "duree": "",
      "mapsUrl": "https://maps.google.com/?q=51.1064622,17.0385309",
      "lat": 51.1064622,
      "lng": 17.0385309,
      "source": "osm"
    },
    {
      "id": "a10020829866",
      "nom": "Błogosławiony Czesław",
      "categorie": "memorial",
      "description": "",
      "prix": "",
      "duree": "",
      "mapsUrl": "https://maps.google.com/?q=51.1092884,17.0391587",
      "lat": 51.1092884,
      "lng": 17.0391587,
      "source": "osm"
    },
    {
      "id": "a1420902689",
      "nom": "Brama Olawska",
      "categorie": "attraction",
      "description": "",
      "prix": "",
      "duree": "",
      "mapsUrl": "https://maps.google.com/?q=51.1071952,17.0405766",
      "lat": 51.1071952,
      "lng": 17.0405766,
      "source": "osm"
    },
    {
      "id": "a9707072483",
      "nom": "Księgarka",
      "categorie": "artwork",
      "description": "",
      "prix": "",
      "duree": "",
      "mapsUrl": "https://maps.google.com/?q=51.1083647,17.036134",
      "lat": 51.1083647,
      "lng": 17.036134,
      "source": "osm"
    },
    {
      "id": "a3699723557",
      "nom": "chaczkar",
      "categorie": "memorial",
      "description": "",
      "prix": "",
      "duree": "",
      "mapsUrl": "https://maps.google.com/?q=51.1092193,17.0404863",
      "lat": 51.1092193,
      "lng": 17.0404863,
      "source": "osm"
    },
    {
      "id": "a6310575270",
      "nom": "Binio",
      "categorie": "artwork",
      "description": "",
      "prix": "",
      "duree": "",
      "mapsUrl": "https://maps.google.com/?q=51.1060577,17.0391143",
      "lat": 51.1060577,
      "lng": 17.0391143,
      "source": "osm"
    },
    {
      "id": "a9481632143",
      "nom": "Fryderykowi Chopinowi – Wrocławianie",
      "categorie": "memorial",
      "description": "",
      "prix": "",
      "duree": "",
      "mapsUrl": "https://maps.google.com/?q=51.1084427,17.0354177",
      "lat": 51.1084427,
      "lng": 17.0354177,
      "source": "osm"
    },
    {
      "id": "a12709269475",
      "nom": "Szczepania",
      "categorie": "artwork",
      "description": "",
      "prix": "",
      "duree": "",
      "mapsUrl": "https://maps.google.com/?q=51.1091463,17.0410641",
      "lat": 51.1091463,
      "lng": 17.0410641,
      "source": "osm"
    },
    {
      "id": "a4977051491",
      "nom": "Słupnik",
      "categorie": "artwork",
      "description": "",
      "prix": "",
      "duree": "",
      "mapsUrl": "https://maps.google.com/?q=51.108536,17.035347",
      "lat": 51.108536,
      "lng": 17.035347,
      "source": "osm"
    },
    {
      "id": "a13205426291",
      "nom": "Arkopek",
      "categorie": "artwork",
      "description": "",
      "prix": "",
      "duree": "",
      "mapsUrl": "https://maps.google.com/?q=51.1094083,17.0408415",
      "lat": 51.1094083,
      "lng": 17.0408415,
      "source": "osm"
    },
    {
      "id": "a10229283475",
      "nom": "Atlasik",
      "categorie": "artwork",
      "description": "",
      "prix": "",
      "duree": "",
      "mapsUrl": "https://maps.google.com/?q=51.108345,17.035176",
      "lat": 51.108345,
      "lng": 17.035176,
      "source": "osm"
    },
    {
      "id": "a13894950423",
      "nom": "Lappek II",
      "categorie": "artwork",
      "description": "",
      "prix": "",
      "duree": "",
      "mapsUrl": "https://maps.google.com/?q=51.1101042,17.0387651",
      "lat": 51.1101042,
      "lng": 17.0387651,
      "source": "osm"
    },
    {
      "id": "a8176853900",
      "nom": "Neptunek",
      "categorie": "artwork",
      "description": "",
      "prix": "",
      "duree": "",
      "mapsUrl": "https://maps.google.com/?q=51.1101147,17.0391739",
      "lat": 51.1101147,
      "lng": 17.0391739,
      "source": "osm"
    },
    {
      "id": "a1074167704",
      "nom": "Basteja Hioba",
      "categorie": "fort",
      "description": "",
      "prix": "",
      "duree": "",
      "mapsUrl": "https://maps.google.com/?q=51.1088107,17.0418277",
      "lat": 51.1088107,
      "lng": 17.0418277,
      "source": "osm"
    },
    {
      "id": "a309274944",
      "nom": "Grajek i Meloman",
      "categorie": "artwork",
      "description": "",
      "prix": "",
      "duree": "",
      "mapsUrl": "https://maps.google.com/?q=51.1086276,17.0350331",
      "lat": 51.1086276,
      "lng": 17.0350331,
      "source": "osm"
    },
    {
      "id": "a13043417785",
      "nom": "Aukcjoner",
      "categorie": "artwork",
      "description": "",
      "prix": "",
      "duree": "",
      "mapsUrl": "https://maps.google.com/?q=51.1096669,17.0408722",
      "lat": 51.1096669,
      "lng": 17.0408722,
      "source": "osm"
    },
    {
      "id": "a4970197863",
      "nom": "Harcerz",
      "categorie": "artwork",
      "description": "",
      "prix": "",
      "duree": "",
      "mapsUrl": "https://maps.google.com/?q=51.105583,17.0394366",
      "lat": 51.105583,
      "lng": 17.0394366,
      "source": "osm"
    },
    {
      "id": "a11933316714",
      "nom": "Niewidzialny Dom",
      "categorie": "attraction",
      "description": "",
      "prix": "",
      "duree": "",
      "mapsUrl": "https://maps.google.com/?q=51.1096038,17.0358083",
      "lat": 51.1096038,
      "lng": 17.0358083,
      "source": "osm"
    },
    {
      "id": "a13390637437",
      "nom": "Niewidzialny Krasnal",
      "categorie": "artwork",
      "description": "",
      "prix": "",
      "duree": "",
      "mapsUrl": "https://maps.google.com/?q=51.1095984,17.0357746",
      "lat": 51.1095984,
      "lng": 17.0357746,
      "source": "osm"
    },
    {
      "id": "a12860943668",
      "nom": "Qubusiak",
      "categorie": "artwork",
      "description": "",
      "prix": "",
      "duree": "",
      "mapsUrl": "https://maps.google.com/?q=51.109155,17.0351768",
      "lat": 51.109155,
      "lng": 17.0351768,
      "source": "osm"
    },
    {
      "id": "a4977596989",
      "nom": "Żaczek",
      "categorie": "artwork",
      "description": "",
      "prix": "",
      "duree": "",
      "mapsUrl": "https://maps.google.com/?q=51.1061288,17.0358388",
      "lat": 51.1061288,
      "lng": 17.0358388,
      "source": "osm"
    },
    {
      "id": "a4975863766",
      "nom": "Polonek i Germanek",
      "categorie": "artwork",
      "description": "",
      "prix": "",
      "duree": "",
      "mapsUrl": "https://maps.google.com/?q=51.106406,17.041631",
      "lat": 51.106406,
      "lng": 17.041631,
      "source": "osm"
    },
    {
      "id": "a11160737532",
      "nom": "Gaugan",
      "categorie": "artwork",
      "description": "",
      "prix": "",
      "duree": "",
      "mapsUrl": "https://maps.google.com/?q=51.1086086,17.0346018",
      "lat": 51.1086086,
      "lng": 17.0346018,
      "source": "osm"
    },
    {
      "id": "a7357108396",
      "nom": "Niespodzianek",
      "categorie": "artwork",
      "description": "",
      "prix": "",
      "duree": "",
      "mapsUrl": "https://maps.google.com/?q=51.1087402,17.0345568",
      "lat": 51.1087402,
      "lng": 17.0345568,
      "source": "osm"
    },
    {
      "id": "a8949388159",
      "nom": "Czimnejek",
      "categorie": "artwork",
      "description": "",
      "prix": "",
      "duree": "",
      "mapsUrl": "https://maps.google.com/?q=51.1087534,17.034519",
      "lat": 51.1087534,
      "lng": 17.034519,
      "source": "osm"
    },
    {
      "id": "a12860943666",
      "nom": "Salonek",
      "categorie": "artwork",
      "description": "",
      "prix": "",
      "duree": "",
      "mapsUrl": "https://maps.google.com/?q=51.1104922,17.0393467",
      "lat": 51.1104922,
      "lng": 17.0393467,
      "source": "osm"
    },
    {
      "id": "a10020829878",
      "nom": "Adolf Benjamin (Friedrich) Hesse",
      "categorie": "memorial",
      "description": "",
      "prix": "",
      "duree": "",
      "mapsUrl": "https://maps.google.com/?q=51.1095084,17.0418709",
      "lat": 51.1095084,
      "lng": 17.0418709,
      "source": "osm"
    },
    {
      "id": "a12301480436",
      "nom": "Niedźwiedź Wrocław Berlin",
      "categorie": "artwork",
      "description": "",
      "prix": "",
      "duree": "",
      "mapsUrl": "https://maps.google.com/?q=51.1061076,17.0416727",
      "lat": 51.1061076,
      "lng": 17.0416727,
      "source": "osm"
    },
    {
      "id": "a10020829879",
      "nom": "Samuel Besler",
      "categorie": "memorial",
      "description": "",
      "prix": "",
      "duree": "",
      "mapsUrl": "https://maps.google.com/?q=51.1094969,17.0419352",
      "lat": 51.1094969,
      "lng": 17.0419352,
      "source": "osm"
    },
    {
      "id": "a8907817456",
      "nom": "Witek",
      "categorie": "artwork",
      "description": "",
      "prix": "",
      "duree": "",
      "mapsUrl": "https://maps.google.com/?q=51.1101235,17.0358574",
      "lat": 51.1101235,
      "lng": 17.0358574,
      "source": "osm"
    },
    {
      "id": "a8589923071",
      "nom": "Pomnik Rozstrzelanych Zakładników z Nowego Sącza",
      "categorie": "artwork",
      "description": "",
      "prix": "",
      "duree": "",
      "mapsUrl": "https://maps.google.com/?q=51.1091183,17.0425964",
      "lat": 51.1091183,
      "lng": 17.0425964,
      "source": "osm"
    },
    {
      "id": "a369150748",
      "nom": "Mostek Pokutnic",
      "categorie": "attraction",
      "description": "",
      "prix": "",
      "duree": "",
      "mapsUrl": "https://maps.google.com/?q=51.109562,17.0346629",
      "lat": 51.109562,
      "lng": 17.0346629,
      "source": "osm"
    },
    {
      "id": "a7475747242",
      "nom": "Czarownice Tekla i Martynka",
      "categorie": "artwork",
      "description": "",
      "prix": "",
      "duree": "",
      "mapsUrl": "https://maps.google.com/?q=51.1095712,17.0346509",
      "lat": 51.1095712,
      "lng": 17.0346509,
      "source": "osm"
    },
    {
      "id": "a8590130818",
      "nom": "Kapliczka Dompniga",
      "categorie": "memorial",
      "description": "",
      "prix": "",
      "duree": "",
      "mapsUrl": "https://maps.google.com/?q=51.1096953,17.0347206",
      "lat": 51.1096953,
      "lng": 17.0347206,
      "source": "osm"
    },
    {
      "id": "a2447618913",
      "nom": "Motocyklista",
      "categorie": "artwork",
      "description": "",
      "prix": "",
      "duree": "",
      "mapsUrl": "https://maps.google.com/?q=51.1095582,17.0345633",
      "lat": 51.1095582,
      "lng": 17.0345633,
      "source": "osm"
    },
    {
      "id": "a1072395904",
      "nom": "Muzeum Architektury",
      "categorie": "museum",
      "description": "",
      "prix": "",
      "duree": "",
      "mapsUrl": "https://maps.google.com/?q=51.1096192,17.042402",
      "lat": 51.1096192,
      "lng": 17.042402,
      "source": "osm"
    },
    {
      "id": "a1301353315",
      "nom": "Koło",
      "categorie": "artwork",
      "description": "",
      "prix": "",
      "duree": "",
      "mapsUrl": "https://maps.google.com/?q=51.1108714,17.0376922",
      "lat": 51.1108714,
      "lng": 17.0376922,
      "source": "osm"
    },
    {
      "id": "a315946289",
      "nom": "Klucznik",
      "categorie": "artwork",
      "description": "",
      "prix": "",
      "duree": "",
      "mapsUrl": "https://maps.google.com/?q=51.1095944,17.0342937",
      "lat": 51.1095944,
      "lng": 17.0342937,
      "source": "osm"
    },
    {
      "id": "a6632170460",
      "nom": "Kantorki",
      "categorie": "artwork",
      "description": "",
      "prix": "",
      "duree": "",
      "mapsUrl": "https://maps.google.com/?q=51.1088339,17.0337062",
      "lat": 51.1088339,
      "lng": 17.0337062,
      "source": "osm"
    },
    {
      "id": "a285384515",
      "nom": "Bastion Sakwowy",
      "categorie": "fort",
      "description": "",
      "prix": "",
      "duree": "",
      "mapsUrl": "https://maps.google.com/?q=51.1047488,17.0390268",
      "lat": 51.1047488,
      "lng": 17.0390268,
      "source": "osm"
    },
    {
      "id": "a6632170459",
      "nom": "Koronuś",
      "categorie": "artwork",
      "description": "",
      "prix": "",
      "duree": "",
      "mapsUrl": "https://maps.google.com/?q=51.1089998,17.0336891",
      "lat": 51.1089998,
      "lng": 17.0336891,
      "source": "osm"
    },
    {
      "id": "a12064898780",
      "nom": "Młoda rzeżba",
      "categorie": "artwork",
      "description": "",
      "prix": "",
      "duree": "",
      "mapsUrl": "https://maps.google.com/?q=51.1111265,17.0387325",
      "lat": 51.1111265,
      "lng": 17.0387325,
      "source": "osm"
    },
    {
      "id": "a10716174781",
      "nom": "Rzemieślnik",
      "categorie": "artwork",
      "description": "",
      "prix": "",
      "duree": "",
      "mapsUrl": "https://maps.google.com/?q=51.1109185,17.0366428",
      "lat": 51.1109185,
      "lng": 17.0366428,
      "source": "osm"
    },
    {
      "id": "a269595304",
      "nom": "Mikołaj Kopernik",
      "categorie": "memorial",
      "description": "",
      "prix": "",
      "duree": "",
      "mapsUrl": "https://maps.google.com/?q=51.1047981,17.0370172",
      "lat": 51.1047981,
      "lng": 17.0370172,
      "source": "osm"
    },
    {
      "id": "a3518909828",
      "nom": "Muzeum Farmacji Uniwersytetu Medycznego",
      "categorie": "museum",
      "description": "",
      "prix": "",
      "duree": "",
      "mapsUrl": "https://maps.google.com/?q=51.1097389,17.0340548",
      "lat": 51.1097389,
      "lng": 17.0340548,
      "source": "osm"
    },
    {
      "id": "a12662898766",
      "nom": "Złotek",
      "categorie": "artwork",
      "description": "",
      "prix": "",
      "duree": "",
      "mapsUrl": "https://maps.google.com/?q=51.109586,17.0338859",
      "lat": 51.109586,
      "lng": 17.0338859,
      "source": "osm"
    },
    {
      "id": "a4970916959",
      "nom": "Marysia Pięknisia",
      "categorie": "artwork",
      "description": "",
      "prix": "",
      "duree": "",
      "mapsUrl": "https://maps.google.com/?q=51.106614,17.033544",
      "lat": 51.106614,
      "lng": 17.033544,
      "source": "osm"
    },
    {
      "id": "a9212879902",
      "nom": "Glamour",
      "categorie": "artwork",
      "description": "",
      "prix": "",
      "duree": "",
      "mapsUrl": "https://maps.google.com/?q=51.107426,17.033116",
      "lat": 51.107426,
      "lng": 17.033116,
      "source": "osm"
    },
    {
      "id": "a2364033718",
      "nom": "Ratuś, Bulbulek, Helpik, Plumplumek",
      "categorie": "artwork",
      "description": "",
      "prix": "",
      "duree": "",
      "mapsUrl": "https://maps.google.com/?q=51.105569,17.034528",
      "lat": 51.105569,
      "lng": 17.034528,
      "source": "osm"
    },