{
 "slug": "xian",
 "nom": "Xi'an",
 "pays": "Chine",
 "pays_slug": "chine",
 "continent": "Asie",
 "region": "Chine",
 "coordonnees": {
  "lat": 34.3416,
  "lng": 108.9398
 },
 "codeISO": "CN",
 "score_halal": 3.2,
 "halalScore": 6.4,
 "description": "Xi'an, Chine. Repérez les restaurants halal et les mosquées via l'application.",
 "metaDescription": "Xi'an, Chine. Repérez les restaurants halal et les mosquées via l'application.",
 "image": "https://upload.wikimedia.org/wikipedia/commons/e/ef/Xi%27an_montage.png",
 "image_hero": "https://upload.wikimedia.org/wikipedia/commons/e/ef/Xi%27an_montage.png",
 "imageCredit": "Wikimedia Commons",
 "scoreIndicatif": true,
 "statistiques": {
  "restaurants_halal": 1,
  "mosquees": 13,
  "hotels": 114
 },
 "infoPratique": {
  "transport": "Accessible par avion et transports locaux.",
  "meilleureEpoque": "Selon la saison.",
  "conseilHalal": "Repérez restaurants halal et mosquées via l'application."
 },
 "tags": [
  "halal",
  "asie"
 ],
 "restaurants": [
  {
   "nom": "同盛祥",
   "type": "mutton",
   "priceRange": "€€",
   "mapsUrl": "https://maps.google.com/?q=34.261859,108.9405276",
   "lat": 34.261859,
   "lng": 108.9405276,
   "halalConfidence": "yes",
   "source": "osm"
  }
 ],
 "hotels": [
  {
   "nom": "西安经开洲际酒店",
   "categorie": "Hôtel",
   "priceRange": "€€",
   "mapsUrl": "https://maps.google.com/?q=34.3411557,108.9403753",
   "lat": 34.3411557,
   "lng": 108.9403753,
   "halalFriendly": false,
   "bookingUrl": "https://maps.google.com/?q=34.3411557,108.9403753",
   "source": "osm"
  },
  {
   "nom": "智选假日酒店(西安经开店)",
   "categorie": "Hôtel",
   "priceRange": "€€",
   "mapsUrl": "https://maps.google.com/?q=34.3394106,108.9398788",
   "lat": 34.3394106,
   "lng": 108.9398788,
   "halalFriendly": false,
   "bookingUrl": "https://maps.google.com/?q=34.3394106,108.9398788",
   "source": "osm"
  },
  {
   "nom": "你好酒店(西安北客站行政中心地铁站店)",
   "categorie": "Hôtel",
   "priceRange": "€€",
   "mapsUrl": "https://maps.google.com/?q=34.338607,108.9367309",
   "lat": 34.338607,
   "lng": 108.9367309,
   "halalFriendly": false,
   "bookingUrl": "https://maps.google.com/?q=34.338607,108.9367309",
   "source": "osm"
  },
  {
   "nom": "7天酒店(文景路地铁站店)",
   "categorie": "Hôtel",
   "priceRange": "€€",
   "mapsUrl": "https://maps.google.com/?q=34.3371615,108.9335416",
   "lat": 34.3371615,
   "lng": 108.9335416,
   "halalFriendly": false,
   "bookingUrl": "https://maps.google.com/?q=34.3371615,108.9335416",
   "source": "osm"
  },
  {
   "nom": "voco Xian ETDZ By IHG",
   "categorie": "Hôtel",
   "priceRange": "€€",
   "mapsUrl": "https://maps.google.com/?q=34.3501442,108.9433615",
   "lat": 34.3501442,
   "lng": 108.9433615,
   "halalFriendly": false,
   "bookingUrl": "https://maps.google.com/?q=34.3501442,108.9433615",
   "source": "osm"
  },
  {
   "nom": "怡鑫宾馆(西安未央店)",
   "categorie": "Hôtel",
   "priceRange": "€€",
   "mapsUrl": "https://maps.google.com/?q=34.3308634,108.9393379",
   "lat": 34.3308634,
   "lng": 108.9393379,
   "halalFriendly": false,
   "bookingUrl": "https://maps.google.com/?q=34.3308634,108.9393379",
   "source": "osm"
  },
  {
   "nom": "居家宾馆(西安凤城五路店)",
   "categorie": "Hôtel",
   "priceRange": "€€",
   "mapsUrl": "https://maps.google.com/?q=34.3308359,108.9388652",
   "lat": 34.3308359,
   "lng": 108.9388652,
   "halalFriendly": false,
   "bookingUrl": "https://maps.google.com/?q=34.3308359,108.9388652",
   "source": "osm"
  },
  {
   "nom": "西安市未央温新家庭公寓",
   "categorie": "Hôtel",
   "priceRange": "€€",
   "mapsUrl": "https://maps.google.com/?q=34.3308293,108.9362677",
   "lat": 34.3308293,
   "lng": 108.9362677,
   "halalFriendly": false,
   "bookingUrl": "https://maps.google.com/?q=34.3308293,108.9362677",
   "source": "osm"
  },
  {
   "nom": "锦江之星(凤城五路地铁站店)",
   "categorie": "Hôtel",
   "priceRange": "€€",
   "mapsUrl": "https://maps.google.com/?q=34.3317852,108.9466364",
   "lat": 34.3317852,
   "lng": 108.9466364,
   "halalFriendly": false,
   "bookingUrl": "https://maps.google.com/?q=34.3317852,108.9466364",
   "source": "osm"
  },
  {
   "nom": "汉庭酒店(西安北站凤城十路店)",
   "categorie": "Hôtel",
   "priceRange": "€€",
   "mapsUrl": "https://maps.google.com/?q=34.3527223,108.9370408",
   "lat": 34.3527223,
   "lng": 108.9370408,
   "halalFriendly": false,
   "bookingUrl": "https://maps.google.com/?q=34.3527223,108.9370408",
   "source": "osm"
  },
  {
   "nom": "凤城宾馆(凤五店)",
   "categorie": "Hôtel",
   "priceRange": "€€",
   "mapsUrl": "https://maps.google.com/?q=34.3308552,108.9337069",
   "lat": 34.3308552,
   "lng": 108.9337069,
   "halalFriendly": false,
   "bookingUrl": "https://maps.google.com/?q=34.3308552,108.9337069",
   "source": "osm"
  },
  {
   "nom": "全季酒店(西安市政府店)",
   "categorie": "Hôtel",
   "priceRange": "€€",
   "mapsUrl": "https://maps.google.com/?q=34.3371314,108.9243957",
   "lat": 34.3371314,
   "lng": 108.9243957,
   "halalFriendly": false,
   "bookingUrl": "https://maps.google.com/?q=34.3371314,108.9243957",
   "source": "osm"
  },
  {
   "nom": "西安本地人的家普通公寓",
   "categorie": "Hôtel",
   "priceRange": "€€",
   "mapsUrl": "https://maps.google.com/?q=34.3285549,108.9356219",
   "lat": 34.3285549,
   "lng": 108.9356219,
   "halalFriendly": false,
   "bookingUrl": "https://maps.google.com/?q=34.3285549,108.9356219",
   "source": "osm"
  },
  {
   "nom": "长庆宾馆",
   "categorie": "Hôtel",
   "priceRange": "€€",
   "mapsUrl": "https://maps.google.com/?q=34.3287819,108.9451586",
   "lat": 34.3287819,
   "lng": 108.9451586,
   "halalFriendly": false,
   "bookingUrl": "https://maps.google.com/?q=34.3287819,108.9451586",
   "source": "osm"
  },
  {
   "nom": "天潮酒店",
   "categorie": "Hôtel",
   "priceRange": "€€",
   "mapsUrl": "https://maps.google.com/?q=34.3322773,108.9254772",
   "lat": 34.3322773,
   "lng": 108.9254772,
   "halalFriendly": false,
   "bookingUrl": "https://maps.google.com/?q=34.3322773,108.9254772",
   "source": "osm"
  },
  {
   "nom": "星程酒店(西安北站凤城五路店)",
   "categorie": "Hôtel",
   "priceRange": "€€",
   "mapsUrl": "https://maps.google.com/?q=34.3317655,108.9230653",
   "lat": 34.3317655,
   "lng": 108.9230653,
   "halalFriendly": false,
   "bookingUrl": "https://maps.google.com/?q=34.3317655,108.9230653",
   "source": "osm"
  },
  {
   "nom": "Vimoon Hotel",
   "categorie": "Hôtel",
   "priceRange": "€€",
   "mapsUrl": "https://maps.google.com/?q=34.3576625,108.9328448",
   "lat": 34.3576625,
   "lng": 108.9328448,
   "halalFriendly": false,
   "bookingUrl": "https://maps.google.com/?q=34.3576625,108.9328448",
   "source": "osm"
  },
  {
   "nom": "美豪丽致酒店(未央路店)",
   "categorie": "Hôtel",
   "priceRange": "€€",
   "mapsUrl": "https://maps.google.com/?q=34.3242758,108.9431762",
   "lat": 34.3242758,
   "lng": 108.9431762,
   "halalFriendly": false,
   "bookingUrl": "https://maps.google.com/?q=34.3242758,108.9431762",
   "source": "osm"
  },
  {
   "nom": "金铭酒店(凤城五路店)",
   "categorie": "Hôtel",
   "priceRange": "€€",
   "mapsUrl": "https://maps.google.com/?q=34.3310517,108.9226801",
   "lat": 34.3310517,
   "lng": 108.9226801,
   "halalFriendly": false,
   "bookingUrl": "https://maps.google.com/?q=34.3310517,108.9226801",
   "source": "osm"
  },
  {
   "nom": "西岳商务酒店",
   "categorie": "Hôtel",
   "priceRange": "€€",
   "mapsUrl": "https://maps.google.com/?q=34.3379618,108.9188587",
   "lat": 34.3379618,
   "lng": 108.9188587,
   "halalFriendly": false,
   "bookingUrl": "https://maps.google.com/?q=34.3379618,108.9188587",
   "source": "osm"
  },
  {
   "nom": "途客中国酒店(西安高铁北客站明光路店)",
   "categorie": "Hôtel",
   "priceRange": "€€",
   "mapsUrl": "https://maps.google.com/?q=34.3281025,108.9259061",
   "lat": 34.3281025,
   "lng": 108.9259061,
   "halalFriendly": false,
   "bookingUrl": "https://maps.google.com/?q=34.3281025,108.9259061",
   "source": "osm"
  },
  {
   "nom": "亚朵酒店(西安凤城五路经开中心店)",
   "categorie": "Hôtel",
   "priceRange": "€€",
   "mapsUrl": "https://maps.google.com/?q=34.3318921,108.9216379",
   "lat": 34.3318921,
   "lng": 108.9216379,
   "halalFriendly": false,
   "bookingUrl": "https://maps.google.com/?q=34.3318921,108.9216379",
   "source": "osm"
  },
  {
   "nom": "如家联盟·华驿易居酒店(西安凤城四路店)",
   "categorie": "Hôtel",
   "priceRange": "€€",
   "mapsUrl": "https://maps.google.com/?q=34.3276952,108.9546293",
   "lat": 34.3276952,
   "lng": 108.9546293,
   "halalFriendly": false,
   "bookingUrl": "https://maps.google.com/?q=34.3276952,108.9546293",
   "source": "osm"
  },
  {
   "nom": "星程酒店(西安经开区明光路店)",
   "categorie": "Hôtel",
   "priceRange": "€€",
   "mapsUrl": "https://maps.google.com/?q=34.3258682,108.9276974",
   "lat": 34.3258682,
   "lng": 108.9276974,
   "halalFriendly": false,
   "bookingUrl": "https://maps.google.com/?q=34.3258682,108.9276974",
   "source": "osm"
  },
  {
   "nom": "西安四季华庭酒店",
   "categorie": "Hôtel",
   "priceRange": "€€",
   "mapsUrl": "https://maps.google.com/?q=34.327408,108.9550299",
   "lat": 34.327408,
   "lng": 108.9550299,
   "halalFriendly": false,
   "bookingUrl": "https://maps.google.com/?q=34.327408,108.9550299",
   "source": "osm"
  },
  {
   "nom": "锦江之星(西安明光路店)",
   "categorie": "Hôtel",
   "priceRange": "€€",
   "mapsUrl": "https://maps.google.com/?q=34.3265525,108.9256516",
   "lat": 34.3265525,
   "lng": 108.9256516,
   "halalFriendly": false,
   "bookingUrl": "https://maps.google.com/?q=34.3265525,108.9256516",
   "source": "osm"
  },
  {
   "nom": "维也纳3好酒店(西安凤城五路店)",
   "categorie": "Hôtel",
   "priceRange": "€€",
   "mapsUrl": "https://maps.google.com/?q=34.3310095,108.9194345",
   "lat": 34.3310095,
   "lng": 108.9194345,
   "halalFriendly": false,
   "bookingUrl": "https://maps.google.com/?q=34.3310095,108.9194345",
   "source": "osm"
  },
  {
   "nom": "西安嘉轩精品酒店",
   "categorie": "Hôtel",
   "priceRange": "€€",
   "mapsUrl": "https://maps.google.com/?q=34.3290629,108.9210322",
   "lat": 34.3290629,
   "lng": 108.9210322,
   "halalFriendly": false,
   "bookingUrl": "https://maps.google.com/?q=34.3290629,108.9210322",
   "source": "osm"
  },
  {
   "nom": "西安亚黎酒店",
   "categorie": "Hôtel",
   "priceRange": "€€",
   "mapsUrl": "https://maps.google.com/?q=34.3308302,108.9194451",
   "lat": 34.3308302,
   "lng": 108.9194451,
   "halalFriendly": false,
   "bookingUrl": "https://maps.google.com/?q=34.3308302,108.9194451",
   "source": "osm"
  },
  {
   "nom": "西安唐朝酒店(凤城三路店)",
   "categorie": "Hôtel",
   "priceRange": "€€",
   "mapsUrl": "https://maps.google.com/?q=34.323396,108.9518338",
   "lat": 34.323396,
   "lng": 108.9518338,
   "halalFriendly": false,
   "bookingUrl": "https://maps.google.com/?q=34.323396,108.9518338",
   "source": "osm"
  },
  {
   "nom": "西安悦庭酒店(西安凤城二路市图书馆店)",
   "categorie": "Hôtel",
   "priceRange": "€€",
   "mapsUrl": "https://maps.google.com/?q=34.3207016,108.9432409",
   "lat": 34.3207016,
   "lng": 108.9432409,
   "halalFriendly": false,
   "bookingUrl": "https://maps.google.com/?q=34.3207016,108.9432409",
   "source": "osm"
  },
  {
   "nom": "如家·neo(西安凤城二路市图书馆地铁站店)",
   "categorie": "Hôtel",
   "priceRange": "€€",
   "mapsUrl": "https://maps.google.com/?q=34.3198871,108.9366861",
   "lat": 34.3198871,
   "lng": 108.9366861,
   "halalFriendly": false,
   "bookingUrl": "https://maps.google.com/?q=34.3198871,108.9366861",
   "source": "osm"
  },
  {
   "nom": "西安加利利连锁酒店(经开店)",
   "categorie": "Hôtel",
   "priceRange": "€€",
   "mapsUrl": "https://maps.google.com/?q=34.3191737,108.9394694",
   "lat": 34.3191737,
   "lng": 108.9394694,
   "halalFriendly": false,
   "bookingUrl": "https://maps.google.com/?q=34.3191737,108.9394694",
   "source": "osm"
  },
  {
   "nom": "亚朵酒店(西安高铁北站店)",
   "categorie": "Hôtel",
   "priceRange": "€€",
   "mapsUrl": "https://maps.google.com/?q=34.3636321,108.933389",
   "lat": 34.3636321,
   "lng": 108.933389,
   "halalFriendly": false,
   "bookingUrl": "https://maps.google.com/?q=34.3636321,108.933389",
   "source": "osm"
  },
  {
   "nom": "希岸酒店(西安凤城二路地铁站店)",
   "categorie": "Hôtel",
   "priceRange": "€€",
   "mapsUrl": "https://maps.google.com/?q=34.3189481,108.9339985",
   "lat": 34.3189481,
   "lng": 108.9339985,
   "halalFriendly": false,
   "bookingUrl": "https://maps.google.com/?q=34.3189481,108.9339985",
   "source": "osm"
  },
  {
   "nom": "西安蓝海风万怡酒店",
   "categorie": "Hôtel",
   "priceRange": "€€",
   "mapsUrl": "https://maps.google.com/?q=34.3200052,108.9289411",
   "lat": 34.3200052,
   "lng": 108.9289411,
   "halalFriendly": false,
   "bookingUrl": "https://maps.google.com/?q=34.3200052,108.9289411",
   "source": "osm"
  },
  {
   "nom": "速8酒店(凤城二路店)",
   "categorie": "Hôtel",
   "priceRange": "€€",
   "mapsUrl": "https://maps.google.com/?q=34.3184198,108.9337598",
   "lat": 34.3184198,
   "lng": 108.9337598,
   "halalFriendly": false,
   "bookingUrl": "https://maps.google.com/?q=34.3184198,108.9337598",
   "source": "osm"
  },
  {
   "nom": "万枫酒店(西安北站店)",
   "categorie": "Hôtel",
   "priceRange": "€€",
   "mapsUrl": "https://maps.google.com/?q=34.3648752,108.9334846",
   "lat": 34.3648752,
   "lng": 108.9334846,
   "halalFriendly": false,
   "bookingUrl": "https://maps.google.com/?q=34.3648752,108.9334846",
   "source": "osm"
  },
  {
   "nom": "西安北站万枫酒店",
   "categorie": "Hôtel",
   "priceRange": "€€",
   "mapsUrl": "https://maps.google.com/?q=34.3650665,108.9333234",
   "lat": 34.3650665,
   "lng": 108.9333234,
   "halalFriendly": false,
   "bookingUrl": "https://maps.google.com/?q=34.3650665,108.9333234",
   "source": "osm"
  },
  {
   "nom": "天悦酒店(凤城二路店)",
   "categorie": "Hôtel",
   "priceRange": "€€",
   "mapsUrl": "https://maps.google.com/?q=34.3196823,108.9263247",
   "lat": 34.3196823,
   "lng": 108.9263247,
   "halalFriendly": false,
   "bookingUrl": "https://maps.google.com/?q=34.3196823,108.9263247",
   "source": "osm"
  },
  {
   "nom": "华坤时尚酒店(市图书馆地铁站店)",
   "categorie": "Hôtel",
   "priceRange": "€€",
   "mapsUrl": "https://maps.google.com/?q=34.3164428,108.9431316",
   "lat": 34.3164428,
   "lng": 108.9431316,
   "halalFriendly": false,
   "bookingUrl": "https://maps.google.com/?q=34.3164428,108.9431316",
   "source": "osm"
  },
  {
   "nom": "全季酒店(贞观路店)",
   "categorie": "Hôtel",
   "priceRange": "€€",
   "mapsUrl": "https://maps.google.com/?q=34.3190353,108.9547096",
   "lat": 34.3190353,
   "lng": 108.9547096,
   "halalFriendly": false,
   "bookingUrl": "https://maps.google.com/?q=34.3190353,108.9547096",
   "source": "osm"
  },
  {
   "nom": "丽枫酒店(西安凤城一路店)",
   "categorie": "Hôtel",
   "priceRange": "€€",
   "mapsUrl": "https://maps.google.com/?q=34.3155784,108.934502",
   "lat": 34.3155784,
   "lng": 108.934502,
   "halalFriendly": false,
   "bookingUrl": "https://maps.google.com/?q=34.3155784,108.934502",
   "source": "osm"
  },
  {
   "nom": "君华假日酒店(原圣林酒店)",
   "categorie": "Hôtel",
   "priceRange": "€€",
   "mapsUrl": "https://maps.google.com/?q=34.3123081,108.9366595",
   "lat": 34.3123081,
   "lng": 108.9366595,
   "halalFriendly": false,
   "bookingUrl": "https://maps.google.com/?q=34.3123081,108.9366595",
   "source": "osm"
  },
  {
   "nom": "ChaoLin Hotel",
   "categorie": "Hôtel",
   "priceRange": "€€",
   "mapsUrl": "https://maps.google.com/?q=34.3306141,108.9740341",
   "lat": 34.3306141,
   "lng": 108.9740341,
   "halalFriendly": false,
   "bookingUrl": "https://maps.google.com/?q=34.3306141,108.9740341",
   "source": "osm"
  },
  {
   "nom": "君临温泉大酒店",
   "categorie": "Hôtel",
   "priceRange": "€€",
   "mapsUrl": "https://maps.google.com/?q=34.3121092,108.9279657",
   "lat": 34.3121092,
   "lng": 108.9279657,
   "halalFriendly": false,
   "bookingUrl": "https://maps.google.com/?q=34.3121092,108.9279657",
   "source": "osm"
  },
  {
   "nom": "宜必思酒店(大明宫西地铁站店)",
   "categorie": "Hôtel",
   "priceRange": "€€",
   "mapsUrl": "https://maps.google.com/?q=34.3105819,108.9438432",
   "lat": 34.3105819,
   "lng": 108.9438432,
   "halalFriendly": false,
   "bookingUrl": "https://maps.google.com/?q=34.3105819,108.9438432",
   "source": "osm"
  },
  {
   "nom": "铂金丽宫酒店(未央店)",
   "categorie": "Hôtel",
   "priceRange": "€€",
   "mapsUrl": "https://maps.google.com/?q=34.3106732,108.9448933",
   "lat": 34.3106732,
   "lng": 108.9448933,
   "halalFriendly": false,
   "bookingUrl": "https://maps.google.com/?q=34.3106732,108.9448933",
   "source": "osm"
  },
  {
   "nom": "如家酒店",
   "categorie": "Hôtel",
   "priceRange": "€€",
   "mapsUrl": "https://maps.google.com/?q=34.3121119,108.9531973",
   "lat": 34.3121119,
   "lng": 108.9531973,
   "halalFriendly": false,
   "bookingUrl": "https://maps.google.com/?q=34.3121119,108.9531973",
   "source": "osm"
  },
  {
   "nom": "西安唐安酒店",
   "categorie": "Hôtel",
   "priceRange": "€€",
   "mapsUrl": "https://maps.google.com/?q=34.3096195,108.933644",
   "lat": 34.3096195,
   "lng": 108.933644,
   "halalFriendly": false,
   "bookingUrl": "https://maps.google.com/?q=34.3096195,108.933644",
   "source": "osm"
  },
  {
   "nom": "城市便捷酒店(西安大明宫西地铁站店)",
   "categorie": "Hôtel",
   "priceRange": "€€",
   "mapsUrl": "https://maps.google.com/?q=34.3092428,108.9337799",
   "lat": 34.3092428,
   "lng": 108.9337799,
   "halalFriendly": false,
   "bookingUrl": "https://maps.google.com/?q=34.3092428,108.9337799",
   "source": "osm"
  },
  {
   "nom": "锦园酒店",
   "categorie": "Hôtel",
   "priceRange": "€€",
   "mapsUrl": "https://maps.google.com/?q=34.3110533,108.9588966",
   "lat": 34.3110533,
   "lng": 108.9588966,
   "halalFriendly": false,
   "bookingUrl": "https://maps.google.com/?q=34.3110533,108.9588966",
   "source": "osm"
  },
  {
   "nom": "汉庭优佳酒店(大明宫西地铁站店)",
   "categorie": "Hôtel",
   "priceRange": "€€",
   "mapsUrl": "https://maps.google.com/?q=34.3067739,108.9431901",
   "lat": 34.3067739,
   "lng": 108.9431901,
   "halalFriendly": false,
   "bookingUrl": "https://maps.google.com/?q=34.3067739,108.9431901",
   "source": "osm"
  },
  {
   "nom": "西安印力诺富特酒店",
   "categorie": "Hôtel",
   "priceRange": "€€",
   "mapsUrl": "https://maps.google.com/?q=34.2958622,108.9431426",
   "lat": 34.2958622,
   "lng": 108.9431426,
   "halalFriendly": false,
   "bookingUrl": "https://maps.google.com/?q=34.2958622,108.9431426",
   "source": "osm"
  },
  {
   "nom": "西安赛瑞喜来登大酒店",
   "categorie": "Hôtel",
   "priceRange": "€€",
   "mapsUrl": "https://maps.google.com/?q=34.2923038,108.9419459",
   "lat": 34.2923038,
   "lng": 108.9419459,
   "halalFriendly": false,
   "bookingUrl": "https://maps.google.com/?q=34.2923038,108.9419459",
   "source": "osm"
  },
  {
   "nom": "Ji Hotel",
   "categorie": "Hôtel",
   "priceRange": "€€",
   "mapsUrl": "https://maps.google.com/?q=34.2955727,108.9173767",
   "lat": 34.2955727,
   "lng": 108.9173767,
   "halalFriendly": false,
   "bookingUrl": "https://maps.google.com/?q=34.2955727,108.9173767",
   "source": "osm"
  },
  {
   "nom": "格林豪泰商务酒店(龙首原地铁站店)",
   "categorie": "Hôtel",
   "priceRange": "€€",
   "mapsUrl": "https://maps.google.com/?q=34.2893628,108.942053",
   "lat": 34.2893628,
   "lng": 108.942053,
   "halalFriendly": false,
   "bookingUrl": "https://maps.google.com/?q=34.2893628,108.942053",
   "source": "osm"
  },
  {
   "nom": "Xi'An Hometown Hostel",
   "categorie": "Auberge",
   "priceRange": "€€",
   "mapsUrl": "https://maps.google.com/?q=34.2846951,108.9259588",
   "lat": 34.2846951,
   "lng": 108.9259588,
   "halalFriendly": false,
   "bookingUrl": "https://maps.google.com/?q=34.2846951,108.9259588",
   "source": "osm"
  },
  {
   "nom": "西安浐灞艾美酒店",
   "categorie": "Hôtel",
   "priceRange": "€€",
   "mapsUrl": "https://maps.google.com/?q=34.3406337,109.0105762",
   "lat": 34.3406337,
   "lng": 109.0105762,
   "halalFriendly": false,
   "bookingUrl": "https://maps.google.com/?q=34.3406337,109.0105762",
   "source": "osm"
  },
  {
   "nom": "美豪R酒店(西安钟楼北安远门地铁站店)",
   "categorie": "Hôtel",
   "priceRange": "€€",
   "mapsUrl": "https://maps.google.com/?q=34.2807467,108.9421835",
   "lat": 34.2807467,
   "lng": 108.9421835,
   "halalFriendly": false,
   "bookingUrl": "https://maps.google.com/?q=34.2807467,108.9421835",
   "source": "osm"
  },
  {
   "nom": "凯宾斯基酒店",
   "categorie": "Hôtel",
   "priceRange": "€€",
   "mapsUrl": "https://maps.google.com/?q=34.337412,109.0137107",
   "lat": 34.337412,
   "lng": 109.0137107,
   "halalFriendly": false,
   "bookingUrl": "https://maps.google.com/?q=34.337412,109.0137107",
   "source": "osm"
  },
  {
   "nom": "Jingyu Smart Hotel",
   "categorie": "Hôtel",
   "priceRange": "€€",
   "mapsUrl": "https://maps.google.com/?q=34.2757799,108.942164",
   "lat": 34.2757799,
   "lng": 108.942164,
   "halalFriendly": false,
   "bookingUrl": "https://maps.google.com/?q=34.2757799,108.942164",
   "source": "osm"
  },
  {
   "nom": "天桥旅社",
   "categorie": "Hôtel",
   "priceRange": "€€",
   "mapsUrl": "https://maps.google.com/?q=34.2788694,108.9645353",
   "lat": 34.2788694,
   "lng": 108.9645353,
   "halalFriendly": false,
   "bookingUrl": "https://maps.google.com/?q=34.2788694,108.9645353",
   "source": "osm"
  },
  {
   "nom": "富润大饭店",
   "categorie": "Hôtel",
   "priceRange": "€€",
   "mapsUrl": "https://maps.google.com/?q=34.2756163,108.9419376",
   "lat": 34.2756163,
   "lng": 108.9419376,
   "halalFriendly": false,
   "bookingUrl": "https://maps.google.com/?q=34.2756163,108.9419376",
   "source": "osm"
  },
  {
   "nom": "华山国际酒店",
   "categorie": "Hôtel",
   "priceRange": "€€",
   "mapsUrl": "https://maps.google.com/?q=34.2754964,108.9432006",
   "lat": 34.2754964,
   "lng": 108.9432006,
   "halalFriendly": false,
   "bookingUrl": "https://maps.google.com/?q=34.2754964,108.9432006",
   "source": "osm"
  },
  {
   "nom": "解放饭店",
   "categorie": "Hôtel",
   "priceRange": "€€",
   "mapsUrl": "https://maps.google.com/?q=34.2767489,108.9587335",
   "lat": 34.2767489,
   "lng": 108.9587335,
   "halalFriendly": false,
   "bookingUrl": "https://maps.google.com/?q=34.2767489,108.9587335",
   "source": "osm"
  },
  {
   "nom": "Xian Quixian (7 Sages)",
   "categorie": "Hôtel",
   "priceRange": "€€",
   "mapsUrl": "https://maps.google.com/?q=34.2752069,108.9499019",
   "lat": 34.2752069,
   "lng": 108.9499019,
   "halalFriendly": false,
   "bookingUrl": "https://maps.google.com/?q=34.2752069,108.9499019",
   "source": "osm"
  },
  {
   "nom": "西安北大街钟楼希尔顿欢朋酒店",
   "categorie": "Hôtel",
   "priceRange": "€€",
   "mapsUrl": "https://maps.google.com/?q=34.2746625,108.9422001",
   "lat": 34.2746625,
   "lng": 108.9422001,
   "halalFriendly": false,
   "bookingUrl": "https://maps.google.com/?q=34.2746625,108.9422001",
   "source": "osm"
  },
  {
   "nom": "Tang shen ge hotel",
   "categorie": "Hôtel",
   "priceRange": "€€",
   "mapsUrl": "https://maps.google.com/?q=34.2750385,108.9268082",
   "lat": 34.2750385,
   "lng": 108.9268082,
   "halalFriendly": false,
   "bookingUrl": "https://maps.google.com/?q=34.2750385,108.9268082",
   "source": "osm"
  },
  {
   "nom": "止园饭店",
   "categorie": "Hôtel",
   "priceRange": "€€",
   "mapsUrl": "https://maps.google.com/?q=34.2737697,108.9351363",
   "lat": 34.2737697,
   "lng": 108.9351363,
   "halalFriendly": false,
   "bookingUrl": "https://maps.google.com/?q=34.2737697,108.9351363",
   "source": "osm"
  },
  {
   "nom": "莫泰酒店(北大街地铁站店)",
   "categorie": "Hôtel",
   "priceRange": "€€",
   "mapsUrl": "https://maps.google.com/?q=34.2724355,108.940186",
   "lat": 34.2724355,
   "lng": 108.940186,
   "halalFriendly": false,
   "bookingUrl": "https://maps.google.com/?q=34.2724355,108.940186",
   "source": "osm"
  },
  {
   "nom": "布丁酒店(莲湖路店)",
   "categorie": "Hôtel",
   "priceRange": "€€",
   "mapsUrl": "https://maps.google.com/?q=34.2720462,108.9382963",
   "lat": 34.2720462,
   "lng": 108.9382963,
   "halalFriendly": false,
   "bookingUrl": "https://maps.google.com/?q=34.2720462,108.9382963",
   "source": "osm"
  },
  {
   "nom": "西安钟楼回民街亚朵酒店",
   "categorie": "Hôtel",
   "priceRange": "€€",
   "mapsUrl": "https://maps.google.com/?q=34.2718163,108.9397508",
   "lat": 34.2718163,
   "lng": 108.9397508,
   "halalFriendly": false,
   "bookingUrl": "https://maps.google.com/?q=34.2718163,108.9397508",
   "source": "osm"
  },
  {
   "nom": "西安商务宾馆",
   "categorie": "Hôtel",
   "priceRange": "€€",
   "mapsUrl": "https://maps.google.com/?q=34.2717177,108.9384179",
   "lat": 34.2717177,
   "lng": 108.9384179,
   "halalFriendly": false,
   "bookingUrl": "https://maps.google.com/?q=34.2717177,108.9384179",
   "source": "osm"
  },
  {
   "nom": "雅夫酒店",
   "categorie": "Hôtel",
   "priceRange": "€€",
   "mapsUrl": "https://maps.google.com/?q=34.2717858,108.951104",
   "lat": 34.2717858,
   "lng": 108.951104,
   "halalFriendly": false,
   "bookingUrl": "https://maps.google.com/?q=34.2717858,108.951104",
   "source": "osm"
  },
  {
   "nom": "汉庭酒店",
   "categorie": "Hôtel",
   "priceRange": "€€",
   "mapsUrl": "https://maps.google.com/?q=34.271156,108.9407655",
   "lat": 34.271156,
   "lng": 108.9407655,
   "halalFriendly": false,
   "bookingUrl": "https://maps.google.com/?q=34.271156,108.9407655",
   "source": "osm"
  },
  {
   "nom": "Tooyo Hotel",
   "categorie": "Hôtel",
   "priceRange": "€€",
   "mapsUrl": "https://maps.google.com/?q=34.2711389,108.941441",
   "lat": 34.2711389,
   "lng": 108.941441,
   "halalFriendly": false,
   "bookingUrl": "https://maps.google.com/?q=34.2711389,108.941441",
   "source": "osm"
  },
  {
   "nom": "金海大酒店(回民街店)",
   "categorie": "Hôtel",
   "priceRange": "€€",
   "mapsUrl": "https://maps.google.com/?q=34.2711132,108.9389314",
   "lat": 34.2711132,
   "lng": 108.9389314,
   "halalFriendly": false,
   "bookingUrl": "https://maps.google.com/?q=34.2711132,108.9389314",
   "source": "osm"
  },
  {
   "nom": "惠源锦江国际酒店",
   "categorie": "Hôtel",
   "priceRange": "€€",
   "mapsUrl": "https://maps.google.com/?q=34.2712421,108.945188",
   "lat": 34.2712421,
   "lng": 108.945188,
   "halalFriendly": false,
   "bookingUrl": "https://maps.google.com/?q=34.2712421,108.945188",
   "source": "osm"
  },
  {
   "nom": "西安钟楼回民街美居酒店",
   "categorie": "Hôtel",
   "priceRange": "€€",
   "mapsUrl": "https://maps.google.com/?q=34.2710991,108.9395603",
   "lat": 34.2710991,
   "lng": 108.9395603,
   "halalFriendly": false,
   "bookingUrl": "https://www.mehoodhotels.com/",
   "source": "osm"
  },
  {
   "nom": "西安陇海大酒店",
   "categorie": "Hôtel",
   "priceRange": "€€",
   "mapsUrl": "https://maps.google.com/?q=34.2726025,108.9577139",
   "lat": 34.2726025,
   "lng": 108.9577139,
   "halalFriendly": false,
   "bookingUrl": "https://maps.google.com/?q=34.2726025,108.9577139",
   "source": "osm"
  },
  {
   "nom": "世家快捷酒店",
   "categorie": "Hôtel",
   "priceRange": "€€",
   "mapsUrl": "https://maps.google.com/?q=34.2709621,108.9380791",
   "lat": 34.2709621,
   "lng": 108.9380791,
   "halalFriendly": false,
   "bookingUrl": "https://maps.google.com/?q=34.2709621,108.9380791",
   "source": "osm"
  },
  {
   "nom": "古城国际青年旅舍",
   "categorie": "Auberge",
   "priceRange": "€€",
   "mapsUrl": "https://maps.google.com/?q=34.27094,108.9413696",
   "lat": 34.27094,
   "lng": 108.9413696,
   "halalFriendly": false,
   "bookingUrl": "https://maps.google.com/?q=34.27094,108.9413696",
   "source": "osm"
  },
  {
   "nom": "住宿",
   "categorie": "Auberge",
   "priceRange": "€€",
   "mapsUrl": "https://maps.google.com/?q=34.2710127,108.9334323",
   "lat": 34.2710127,
   "lng": 108.9334323,
   "halalFriendly": false,
   "bookingUrl": "https://maps.google.com/?q=34.2710127,108.9334323",
   "source": "osm"
  },
  {
   "nom": "好家园宾馆",
   "categorie": "Auberge",
   "priceRange": "€€",
   "mapsUrl": "https://maps.google.com/?q=34.270857,108.9330898",
   "lat": 34.270857,
   "lng": 108.9330898,
   "halalFriendly": false,
   "bookingUrl": "https://maps.google.com/?q=34.270857,108.9330898",
   "source": "osm"
  },
  {
   "nom": "好世界酒店",
   "categorie": "Hôtel",
   "priceRange": "€€",
   "mapsUrl": "https://maps.google.com/?q=34.2708834,108.9326689",
   "lat": 34.2708834,
   "lng": 108.9326689,
   "halalFriendly": false,
   "bookingUrl": "https://maps.google.com/?q=34.2708834,108.9326689",
   "source": "osm"
  },
  {
   "nom": "公园招待所",
   "categorie": "Maison d'hôtes",
   "priceRange": "€€",
   "mapsUrl": "https://maps.google.com/?q=34.2706363,108.9330852",
   "lat": 34.2706363,
   "lng": 108.9330852,
   "halalFriendly": false,
   "bookingUrl": "https://maps.google.com/?q=34.2706363,108.9330852",
   "source": "osm"
  },
  {
   "nom": "汉庭优佳酒店(北大街店)",
   "categorie": "Hôtel",
   "priceRange": "€€",
   "mapsUrl": "https://maps.google.com/?q=34.2701005,108.9428119",
   "lat": 34.2701005,
   "lng": 108.9428119,
   "halalFriendly": false,
   "bookingUrl": "https://maps.google.com/?q=34.2701005,108.9428119",
   "source": "osm"
  },
  {
   "nom": "Zuoyouke Theme Hotel",
   "categorie": "Hôtel",
   "priceRange": "€€",
   "mapsUrl": "https://maps.google.com/?q=34.2709105,108.9252073",
   "lat": 34.2709105,
   "lng": 108.9252073,
   "halalFriendly": false,
   "bookingUrl": "https://maps.google.com/?q=34.2709105,108.9252073",
   "source": "osm"
  },
  {
   "nom": "古都新世界大酒店",
   "categorie": "Hôtel",
   "priceRange": "€€",
   "mapsUrl": "https://maps.google.com/?q=34.2704662,108.9272285",
   "lat": 34.2704662,
   "lng": 108.9272285,
   "halalFriendly": false,
   "bookingUrl": "https://maps.google.com/?q=34.2704662,108.9272285",
   "source": "osm"
  },
  {
   "nom": "PAPA Capsule Hostel",
   "categorie": "Auberge",
   "priceRange": "€€",
   "mapsUrl": "https://maps.google.com/?q=34.2741271,108.9083538",
   "lat": 34.2741271,
   "lng": 108.9083538,
   "halalFriendly": false,
   "bookingUrl": "https://maps.google.com/?q=34.2741271,108.9083538",
   "source": "osm"
  },
  {
   "nom": "芒果酒店西安玉祥门店",
   "categorie": "Hôtel",
   "priceRange": "€€",
   "mapsUrl": "https://maps.google.com/?q=34.2708391,108.9214228",
   "lat": 34.2708391,
   "lng": 108.9214228,
   "halalFriendly": false,
   "bookingUrl": "https://maps.google.com/?q=34.2708391,108.9214228",
   "source": "osm"
  },
  {
   "nom": "吉祥招待所",
   "categorie": "Maison d'hôtes",
   "priceRange": "€€",
   "mapsUrl": "https://maps.google.com/?q=34.2689299,108.9331542",
   "lat": 34.2689299,
   "lng": 108.9331542,
   "halalFriendly": false,
   "bookingUrl": "https://maps.google.com/?q=34.2689299,108.9331542",
   "source": "osm"
  },
  {
   "nom": "中心戴斯酒店",
   "categorie": "Hôtel",
   "priceRange": "€€",
   "mapsUrl": "https://maps.google.com/?q=34.2683006,108.9429006",
   "lat": 34.2683006,
   "lng": 108.9429006,
   "halalFriendly": false,
   "bookingUrl": "https://maps.google.com/?q=34.2683006,108.9429006",
   "source": "osm"
  },
  {
   "nom": "Xi'an Warriors Hostel",
   "categorie": "Auberge",
   "priceRange": "€€",
   "mapsUrl": "https://maps.google.com/?q=34.2687646,108.921184",
   "lat": 34.2687646,
   "lng": 108.921184,
   "halalFriendly": false,
   "bookingUrl": "https://maps.google.com/?q=34.2687646,108.921184",
   "source": "osm"
  },
  {
   "nom": "美仑酒店(西安钟楼回民街店)",
   "categorie": "Hôtel",
   "priceRange": "€€",
   "mapsUrl": "https://maps.google.com/?q=34.2670535,108.9429192",
   "lat": 34.2670535,
   "lng": 108.9429192,
   "halalFriendly": false,
   "bookingUrl": "https://maps.google.com/?q=34.2670535,108.9429192",
   "source": "osm"
  },
  {
   "nom": "华美达酒店(西安兆瑞店)",
   "categorie": "Hôtel",
   "priceRange": "€€",
   "mapsUrl": "https://maps.google.com/?q=34.2670301,108.9430737",
   "lat": 34.2670301,
   "lng": 108.9430737,
   "halalFriendly": false,
   "bookingUrl": "https://maps.google.com/?q=34.2670301,108.9430737",
   "source": "osm"
  },
  {
   "nom": "Lizhi (Lychee) Xiyue Hotel",
   "categorie": "Hôtel",
   "priceRange": "€€",
   "mapsUrl": "https://maps.google.com/?q=34.2674277,108.9283397",
   "lat": 34.2674277,
   "lng": 108.9283397,
   "halalFriendly": false,
   "bookingUrl": "https://maps.google.com/?q=34.2674277,108.9283397",
   "source": "osm"
  },
  {
   "nom": "西安豪华美居人民大厦",
   "categorie": "Hôtel",
   "priceRange": "€€",
   "mapsUrl": "https://maps.google.com/?q=34.2670338,108.9541256",
   "lat": 34.2670338,
   "lng": 108.9541256,
   "halalFriendly": false,
   "bookingUrl": "https://maps.google.com/?q=34.2670338,108.9541256",
   "source": "osm"
  },
  {
   "nom": "Real Location of Qingxiaoshe Backpacker Hostel Xi'an",
   "categorie": "Auberge",
   "priceRange": "€€",
   "mapsUrl": "https://maps.google.com/?q=34.2659925,108.9388477",
   "lat": 34.2659925,
   "lng": 108.9388477,
   "halalFriendly": false,
   "bookingUrl": "https://maps.google.com/?q=34.2659925,108.9388477",
   "source": "osm"
  },
  {
   "nom": "丽呈酒店(西安钟楼店)",
   "categorie": "Hôtel",
   "priceRange": "€€",
   "mapsUrl": "https://maps.google.com/?q=34.2677681,108.9595821",
   "lat": 34.2677681,
   "lng": 108.9595821,
   "halalFriendly": false,
   "bookingUrl": "https://maps.google.com/?q=34.2677681,108.9595821",
   "source": "osm"
  },
  {
   "nom": "Guihua Zaijiu Youth Hostel (Zhonggulou Huimin Street Branch)",
   "categorie": "Auberge",
   "priceRange": "€€",
   "mapsUrl": "https://maps.google.com/?q=34.2657664,108.9356408",
   "lat": 34.2657664,
   "lng": 108.9356408,
   "halalFriendly": false,
   "bookingUrl": "https://maps.google.com/?q=34.2657664,108.9356408",
   "source": "osm"
  },
  {
   "nom": "Sofitel on Renmin Square",
   "categorie": "Hôtel",
   "priceRange": "€€",
   "mapsUrl": "https://maps.google.com/?q=34.2664175,108.9549975",
   "lat": 34.2664175,
   "lng": 108.9549975,
   "halalFriendly": false,
   "bookingUrl": "https://maps.google.com/?q=34.2664175,108.9549975",
   "source": "osm"
  },
  {
   "nom": "万顺园",
   "categorie": "Hôtel",
   "priceRange": "€€",
   "mapsUrl": "https://maps.google.com/?q=34.2652343,108.9391879",
   "lat": 34.2652343,
   "lng": 108.9391879,
   "halalFriendly": false,
   "bookingUrl": "https://maps.google.com/?q=34.2652343,108.9391879",
   "source": "osm"
  },
  {
   "nom": "智选假日酒店(古城西店)",
   "categorie": "Hôtel",
   "priceRange": "€€",
   "mapsUrl": "https://maps.google.com/?q=34.2674595,108.9172551",
   "lat": 34.2674595,
   "lng": 108.9172551,
   "halalFriendly": false,
   "bookingUrl": "https://maps.google.com/?q=34.2674595,108.9172551",
   "source": "osm"
  },
  {
   "nom": "百合快揵酒店",
   "categorie": "Hôtel",
   "priceRange": "€€",
   "mapsUrl": "https://maps.google.com/?q=34.2655007,108.9304598",
   "lat": 34.2655007,
   "lng": 108.9304598,
   "halalFriendly": false,
   "bookingUrl": "https://maps.google.com/?q=34.2655007,108.9304598",
   "source": "osm"
  },
  {
   "nom": "Alley Youth Hostel",
   "categorie": "Auberge",
   "priceRange": "€€",
   "mapsUrl": "https://maps.google.com/?q=34.2653528,108.9304668",
   "lat": 34.2653528,
   "lng": 108.9304668,
   "halalFriendly": false,
   "bookingUrl": "https://maps.google.com/?q=34.2653528,108.9304668",
   "source": "osm"
  },
  {
   "nom": "HNA Business Hotel",
   "categorie": "Hôtel",
   "priceRange": "€€",
   "mapsUrl": "https://maps.google.com/?q=34.265149,108.9512995",
   "lat": 34.265149,
   "lng": 108.9512995,
   "halalFriendly": false,
   "bookingUrl": "http://hnahotel.com",
   "source": "osm"
  },
  {
   "nom": "Warriors International Hostel",
   "categorie": "Hôtel",
   "priceRange": "€€",
   "mapsUrl": "https://maps.google.com/?q=34.2658969,108.9215923",
   "lat": 34.2658969,
   "lng": 108.9215923,
   "halalFriendly": false,
   "bookingUrl": "https://maps.google.com/?q=34.2658969,108.9215923",
   "source": "osm"
  },
  {
   "nom": "西安富力希尔顿酒店",
   "categorie": "Hôtel",
   "priceRange": "€€",
   "mapsUrl": "https://maps.google.com/?q=34.2665468,108.9616791",
   "lat": 34.2665468,
   "lng": 108.9616791,
   "halalFriendly": false,
   "bookingUrl": "https://www.hilton.com/en/hotels/xiyhihi-hilton-xian/",
   "source": "osm"
  },
  {
   "nom": "快捷宾馆",
   "categorie": "Hôtel",
   "priceRange": "€€",
   "mapsUrl": "https://maps.google.com/?q=34.2641109,108.9389513",
   "lat": 34.2641109,
   "lng": 108.9389513,
   "halalFriendly": false,
   "bookingUrl": "https://maps.google.com/?q=34.2641109,108.9389513",
   "source": "osm"
  },
  {
   "nom": "悦顺民宿",
   "categorie": "Hôtel",
   "priceRange": "€€",
   "mapsUrl": "https://maps.google.com/?q=34.2639794,108.9344384",
   "lat": 34.2639794,
   "lng": 108.9344384,
   "halalFriendly": false,
   "bookingUrl": "https://maps.google.com/?q=34.2639794,108.9344384",
   "source": "osm"
  },
  {
   "nom": "陕西奥罗国际大酒店",
   "categorie": "Hôtel",
   "priceRange": "€€",
   "mapsUrl": "https://maps.google.com/?q=34.2642291,108.9491015",
   "lat": 34.2642291,
   "lng": 108.9491015,
   "halalFriendly": false,
   "bookingUrl": "https://maps.google.com/?q=34.2642291,108.9491015",
   "source": "osm"
  },
  {
   "nom": "Silk Road Youth Hostel",
   "categorie": "Auberge",
   "priceRange": "€€",
   "mapsUrl": "https://maps.google.com/?q=34.2636503,108.9388702",
   "lat": 34.2636503,
   "lng": 108.9388702,
   "halalFriendly": false,
   "bookingUrl": "https://maps.google.com/?q=34.2636503,108.9388702",
   "source": "osm"
  }
 ],
 "mosqueesPrincipales": [
  {
   "id": "m474628594",
   "nom": "清真新寺",
   "type": "Mosquée",
   "adresse": "",
   "description": "Lieu de prière (OpenStreetMap).",
   "mapsUrl": "https://maps.google.com/?q=34.268024,108.9346816",
   "lat": 34.268024,
   "lng": 108.9346816,
   "source": "osm"
  },
  {
   "id": "m607049839",
   "nom": "西仓清真寺",
   "type": "Mosquée",
   "adresse": "",
   "description": "Lieu de prière (OpenStreetMap).",
   "mapsUrl": "https://maps.google.com/?q=34.267585,108.9320227",
   "lat": 34.267585,
   "lng": 108.9320227,
   "source": "osm"
  },
  {
   "id": "m607049843",
   "nom": "小皮院清真北大寺",
   "type": "Mosquée",
   "adresse": "",
   "description": "Lieu de prière (OpenStreetMap).",
   "mapsUrl": "https://maps.google.com/?q=34.267009,108.936839",
   "lat": 34.267009,
   "lng": 108.936839,
   "source": "osm"
  },
  {
   "id": "m5753949350",
   "nom": "大皮院清真寺北院",
   "type": "Mosquée",
   "adresse": "",
   "description": "Lieu de prière (OpenStreetMap).",
   "mapsUrl": "https://maps.google.com/?q=34.2662109,108.935122",
   "lat": 34.2662109,
   "lng": 108.935122,
   "source": "osm"
  },
  {
   "id": "m607049838",
   "nom": "大皮院清真寺",
   "type": "Mosquée",
   "adresse": "",
   "description": "Lieu de prière (OpenStreetMap).",
   "mapsUrl": "https://maps.google.com/?q=34.2658232,108.9348902",
   "lat": 34.2658232,
   "lng": 108.9348902,
   "source": "osm"
  },
  {
   "id": "m456638542",
   "nom": "清真古寺",
   "type": "Mosquée",
   "adresse": "",
   "description": "Lieu de prière (OpenStreetMap).",
   "mapsUrl": "https://maps.google.com/?q=34.2662632,108.9272907",
   "lat": 34.2662632,
   "lng": 108.9272907,
   "source": "osm"
  },
  {
   "id": "m607049845",
   "nom": "清真西寺",
   "type": "Mosquée",
   "adresse": "",
   "description": "Lieu de prière (OpenStreetMap).",
   "mapsUrl": "https://maps.google.com/?q=34.2648382,108.9275157",
   "lat": 34.2648382,
   "lng": 108.9275157,
   "source": "osm"
  },
  {
   "id": "m5753949366",
   "nom": "小学习巷清真中寺",
   "type": "Mosquée",
   "adresse": "",
   "description": "Lieu de prière (OpenStreetMap).",
   "mapsUrl": "https://maps.google.com/?q=34.2644784,108.9302165",
   "lat": 34.2644784,
   "lng": 108.9302165,
   "source": "osm"
  },
  {
   "id": "m607049841",
   "nom": "大学习巷清真寺",
   "type": "Mosquée",
   "adresse": "",
   "description": "Lieu de prière (OpenStreetMap).",
   "mapsUrl": "https://maps.google.com/?q=34.2637356,108.9311083",
   "lat": 34.2637356,
   "lng": 108.9311083,
   "source": "osm"
  },
  {
   "id": "m445010012",
   "nom": "清真大寺",
   "type": "Mosquée",
   "adresse": "庙后街, 西安",
   "description": "Lieu de prière (OpenStreetMap).",
   "mapsUrl": "https://maps.google.com/?q=34.2633742,108.9365243",
   "lat": 34.2633742,
   "lng": 108.9365243,
   "source": "osm"
  },
  {
   "id": "m607049842",
   "nom": "清真中寺",
   "type": "Mosquée",
   "adresse": "",
   "description": "Lieu de prière (OpenStreetMap).",
   "mapsUrl": "https://maps.google.com/?q=34.2636351,108.9295573",
   "lat": 34.2636351,
   "lng": 108.9295573,
   "source": "osm"
  },
  {
   "id": "m607049840",
   "nom": "清真寺文化中心",
   "type": "Mosquée",
   "adresse": "",
   "description": "Lieu de prière (OpenStreetMap).",
   "mapsUrl": "https://maps.google.com/?q=34.2626178,108.9346182",
   "lat": 34.2626178,
   "lng": 108.9346182,
   "source": "osm"
  },
  {
   "id": "m607051722",
   "nom": "清真寺",
   "type": "Mosquée",
   "adresse": "",
   "description": "Lieu de prière (OpenStreetMap).",
   "mapsUrl": "https://maps.google.com/?q=34.2623131,108.9289632",
   "lat": 34.2623131,
   "lng": 108.9289632,
   "source": "osm"
  }
 ],
 "activites": [
  {
   "id": "a12540927745",
   "nom": "红旗铁路公园·红旗驿",
   "categorie": "park",
   "description": "",
   "prix": "",
   "duree": "",
   "mapsUrl": "https://maps.google.com/?q=34.3518285,108.9716729",
   "lat": 34.3518285,
   "lng": 108.9716729,
   "source": "osm"
  },
  {
   "id": "a12540927746",
   "nom": "红旗铁路公园·团结里",
   "categorie": "park",
   "description": "",
   "prix": "",
   "duree": "",
   "mapsUrl": "https://maps.google.com/?q=34.3430652,108.9749767",
   "lat": 34.3430652,
   "lng": 108.9749767,
   "source": "osm"
  },
  {
   "id": "a12540927747",
   "nom": "红旗铁路公园·永信园",
   "categorie": "park",
   "description": "",
   "prix": "",
   "duree": "",
   "mapsUrl": "https://maps.google.com/?q=34.3338515,108.9762134",
   "lat": 34.3338515,
   "lng": 108.9762134,
   "source": "osm"
  },
  {
   "id": "a12540927748",
   "nom": "红旗铁路公园·云庆坊",
   "categorie": "park",
   "description": "",
   "prix": "",
   "duree": "",
   "mapsUrl": "https://maps.google.com/?q=34.3238501,108.9757028",
   "lat": 34.3238501,
   "lng": 108.9757028,
   "source": "osm"
  },
  {
   "id": "a1227509657",
   "nom": "西安市档案馆",
   "categorie": "museum",
   "description": "",
   "prix": "",
   "duree": "",
   "mapsUrl": "https://maps.google.com/?q=34.305967,108.9434244",
   "lat": 34.305967,
   "lng": 108.9434244,
   "source": "osm"
  },
  {
   "id": "a12540927749",
   "nom": "红旗铁路公园·永明驿",
   "categorie": "park",
   "description": "",
   "prix": "",
   "duree": "",
   "mapsUrl": "https://maps.google.com/?q=34.3151176,108.9749109",
   "lat": 34.3151176,
   "lng": 108.9749109,
   "source": "osm"
  },
  {
   "id": "a393548970",
   "nom": "建筑馆",
   "categorie": "museum",
   "description": "",
   "prix": "",
   "duree": "",
   "mapsUrl": "https://maps.google.com/?q=34.3725991,108.9074087",
   "lat": 34.3725991,
   "lng": 108.9074087,
   "source": "osm"
  },
  {
   "id": "a255892814",
   "nom": "交通馆",
   "categorie": "museum",
   "description": "",
   "prix": "",
   "duree": "",
   "mapsUrl": "https://maps.google.com/?q=34.3730894,108.9075457",
   "lat": 34.3730894,
   "lng": 108.9075457,
   "source": "osm"
  },
  {
   "id": "a12540927750",
   "nom": "红旗铁路公园·太祥里",
   "categorie": "park",
   "description": "",
   "prix": "",
   "duree": "",
   "mapsUrl": "https://maps.google.com/?q=34.3071795,108.9743654",
   "lat": 34.3071795,
   "lng": 108.9743654,
   "source": "osm"
  },
  {
   "id": "a152429838",
   "nom": "大明宫国家遗址公园",
   "categorie": "attraction",
   "description": "",
   "prix": "",
   "duree": "",
   "mapsUrl": "https://maps.google.com/?q=34.2940921,108.9587136",
   "lat": 34.2940921,
   "lng": 108.9587136,
   "source": "osm"
  },
  {
   "id": "a12540927751",
   "nom": "红旗铁路公园·啤酒街",
   "categorie": "park",
   "description": "",
   "prix": "",
   "duree": "",
   "mapsUrl": "https://maps.google.com/?q=34.2976974,108.973977",
   "lat": 34.2976974,
   "lng": 108.973977,
   "source": "osm"
  },
  {
   "id": "a1228204773",
   "nom": "西安市城建档案馆",
   "categorie": "museum",
   "description": "",
   "prix": "",
   "duree": "",
   "mapsUrl": "https://maps.google.com/?q=34.3557924,109.0024417",
   "lat": 34.3557924,
   "lng": 109.0024417,
   "source": "osm"
  },
  {
   "id": "a4128226895",
   "nom": "大明宫遗址博物馆展览厅",
   "categorie": "museum",
   "description": "",
   "prix": "",
   "duree": "",
   "mapsUrl": "https://maps.google.com/?q=34.2903731,108.9597315",
   "lat": 34.2903731,
   "lng": 108.9597315,
   "source": "osm"
  },
  {
   "id": "a13625081282",
   "nom": "\"唐代梨园遗址\" 碑",
   "categorie": "artwork",
   "description": "",
   "prix": "",
   "duree": "",
   "mapsUrl": "https://maps.google.com/?q=34.2977223,108.8998858",
   "lat": 34.2977223,
   "lng": 108.8998858,
   "source": "osm"
  },
  {
   "id": "a4128226894",
   "nom": "考古探索中心",
   "categorie": "museum",
   "description": "",
   "prix": "",
   "duree": "",
   "mapsUrl": "https://maps.google.com/?q=34.286537,108.9568966",
   "lat": 34.286537,
   "lng": 108.9568966,
   "source": "osm"
  },
  {
   "id": "a12243837755",
   "nom": "太极宫玄武门遗址",
   "categorie": "archaeological site",
   "description": "",
   "prix": "",
   "duree": "",
   "mapsUrl": "https://maps.google.com/?q=34.2831571,108.9312911",
   "lat": 34.2831571,
   "lng": 108.9312911,
   "source": "osm"
  },
  {
   "id": "a4128226893",
   "nom": "唐都新碑林艺术博物馆",
   "categorie": "museum",
   "description": "",
   "prix": "",
   "duree": "",
   "mapsUrl": "https://maps.google.com/?q=34.2829055,108.9539295",
   "lat": 34.2829055,
   "lng": 108.9539295,
   "source": "osm"
  },
  {
   "id": "a12540927752",
   "nom": "红旗铁路公园·桦林坊",
   "categorie": "park",
   "description": "",
   "prix": "",
   "duree": "",
   "mapsUrl": "https://maps.google.com/?q=34.2885563,108.9741083",
   "lat": 34.2885563,
   "lng": 108.9741083,
   "source": "osm"
  },
  {
   "id": "a4128221389",
   "nom": "Danfeng Gate Heritage Museum",
   "categorie": "museum",
   "description": "",
   "prix": "",
   "duree": "",
   "mapsUrl": "https://maps.google.com/?q=34.2828295,108.9605835",
   "lat": 34.2828295,
   "lng": 108.9605835,
   "source": "osm"
  },
  {
   "id": "a13357513699",
   "nom": "斡尔垛遗址",
   "categorie": "archaeological site",
   "description": "",
   "prix": "",
   "duree": "",
   "mapsUrl": "https://maps.google.com/?q=34.2988556,108.9945864",
   "lat": 34.2988556,
   "lng": 108.9945864,
   "source": "osm"
  },
  {
   "id": "a289555473",
   "nom": "华夏文旅西安度假区",
   "categorie": "theme park",
   "description": "",
   "prix": "",
   "duree": "",
   "mapsUrl": "https://maps.google.com/?q=34.3514895,109.0146819",
   "lat": 34.3514895,
   "lng": 109.0146819,
   "source": "osm"
  },
  {
   "id": "a4644974091",
   "nom": "西安城墙",
   "categorie": "memorial",
   "description": "",
   "prix": "",
   "duree": "",
   "mapsUrl": "https://maps.google.com/?q=34.2782313,108.9425864",
   "lat": 34.2782313,
   "lng": 108.9425864,
   "source": "osm"
  },
  {
   "id": "a1212560875",
   "nom": "八路军西安办事处纪念馆",
   "categorie": "museum",
   "description": "",
   "prix": "",
   "duree": "",
   "mapsUrl": "https://maps.google.com/?q=34.2746365,108.950575",
   "lat": 34.2746365,
   "lng": 108.950575,
   "source": "osm"
  },
  {
   "id": "a13371265873",
   "nom": "西安事变旧址杨虎城别墅",
   "categorie": "memorial",
   "description": "",
   "prix": "",
   "duree": "",
   "mapsUrl": "https://maps.google.com/?q=34.2728014,108.9352013",
   "lat": 34.2728014,
   "lng": 108.9352013,
   "source": "osm"
  },
  {
   "id": "a4829598383",
   "nom": "璞太和中医馆",
   "categorie": "museum",
   "description": "",
   "prix": "",
   "duree": "",
   "mapsUrl": "https://maps.google.com/?q=34.2711957,108.9409091",
   "lat": 34.2711957,
   "lng": 108.9409091,
   "source": "osm"
  },
  {
   "id": "a11986529728",
   "nom": "隋大兴唐长安城宫城南墙遗址",
   "categorie": "archaeological site",
   "description": "",
   "prix": "",
   "duree": "",
   "mapsUrl": "https://maps.google.com/?q=34.2699058,108.9259849",
   "lat": 34.2699058,
   "lng": 108.9259849,
   "source": "osm"
  },
  {
   "id": "a1147854308",
   "nom": "张骞塑像",
   "categorie": "artwork",
   "description": "",
   "prix": "",
   "duree": "",
   "mapsUrl": "https://maps.google.com/?q=34.2712356,108.9178004",
   "lat": 34.2712356,
   "lng": 108.9178004,
   "source": "osm"
  },
  {
   "id": "a13174755901",
   "nom": "西安科技馆",
   "categorie": "museum",
   "description": "",
   "prix": "",
   "duree": "",
   "mapsUrl": "https://maps.google.com/?q=34.3833035,109.0126855",
   "lat": 34.3833035,
   "lng": 109.0126855,
   "source": "osm"
  },
  {
   "id": "a13174789301",
   "nom": "Xi'an Urban Planning Exhibition Hall",
   "categorie": "museum",
   "description": "",
   "prix": "",
   "duree": "",
   "mapsUrl": "https://maps.google.com/?q=34.3856536,109.0125781",
   "lat": 34.3856536,
   "lng": 109.0125781,
   "source": "osm"
  },
  {
   "id": "a821525312",
   "nom": "Jiaofang Hall",
   "categorie": "attraction",
   "description": "",
   "prix": "",
   "duree": "",
   "mapsUrl": "https://maps.google.com/?q=34.308675,108.8579601",
   "lat": 34.308675,
   "lng": 108.8579601,
   "source": "osm"
  },
  {
   "id": "a5753949375",
   "nom": "清真古寺",
   "categorie": "attraction",
   "description": "",
   "prix": "",
   "duree": "",
   "mapsUrl": "https://maps.google.com/?q=34.2662678,108.9278353",
   "lat": 34.2662678,
   "lng": 108.9278353,
   "source": "osm"
  },
  {
   "id": "a821525295",
   "nom": "Front Hall",
   "categorie": "attraction",
   "description": "",
   "prix": "",
   "duree": "",
   "mapsUrl": "https://maps.google.com/?q=34.3042414,108.8586759",
   "lat": 34.3042414,
   "lng": 108.8586759,
   "source": "osm"
  },
  {
   "id": "a1465146493",
   "nom": "陕西科技馆",
   "categorie": "museum",
   "description": "",
   "prix": "",
   "duree": "",
   "mapsUrl": "https://maps.google.com/?q=34.265433,108.9515926",
   "lat": 34.265433,
   "lng": 108.9515926,
   "source": "osm"
  },
  {
   "id": "a40541072",
   "nom": "西羊市",
   "categorie": "attraction",
   "description": "",
   "prix": "",
   "duree": "",
   "mapsUrl": "https://maps.google.com/?q=34.2647215,108.936625",
   "lat": 34.2647215,
   "lng": 108.936625,
   "source": "osm"
  },
  {
   "id": "a1395170517",
   "nom": "西羊市",
   "categorie": "attraction",
   "description": "",
   "prix": "",
   "duree": "",
   "mapsUrl": "https://maps.google.com/?q=34.2647409,108.9339954",
   "lat": 34.2647409,
   "lng": 108.9339954,
   "source": "osm"
  },
  {
   "id": "a4516332396",
   "nom": "高岳菘宅 UNESCO",
   "categorie": "attraction",
   "description": "",
   "prix": "",
   "duree": "",
   "mapsUrl": "https://maps.google.com/?q=34.2644723,108.9389146",
   "lat": 34.2644723,
   "lng": 108.9389146,
   "source": "osm"
  },
  {
   "id": "a4247010389",
   "nom": "古董市场",
   "categorie": "attraction",
   "description": "",
   "prix": "",
   "duree": "",
   "mapsUrl": "https://maps.google.com/?q=34.2670263,108.9654066",
   "lat": 34.2670263,
   "lng": 108.9654066,
   "source": "osm"
  },
  {
   "id": "a376248518",
   "nom": "永兴坊",
   "categorie": "attraction",
   "description": "",
   "prix": "",
   "duree": "",
   "mapsUrl": "https://maps.google.com/?q=34.2664169,108.9654278",
   "lat": 34.2664169,
   "lng": 108.9654278,
   "source": "osm"
  },
  {
   "id": "a1265896607",
   "nom": "Shiquge Ruins",
   "categorie": "attraction",
   "description": "",
   "prix": "",
   "duree": "",
   "mapsUrl": "https://maps.google.com/?q=34.3128211,108.8518135",
   "lat": 34.3128211,
   "lng": 108.8518135,
   "source": "osm"
  },
  {
   "id": "a12899380069",
   "nom": "明石牌楼",
   "categorie": "memorial",
   "description": "",
   "prix": "",
   "duree": "",
   "mapsUrl": "https://maps.google.com/?q=34.2633527,108.9372078",
   "lat": 34.2633527,
   "lng": 108.9372078,
   "source": "osm"
  },
  {
   "id": "a1393543173",
   "nom": "木牌楼",
   "categorie": "memorial",
   "description": "",
   "prix": "",
   "duree": "",
   "mapsUrl": "https://maps.google.com/?q=34.2633315,108.9376965",
   "lat": 34.2633315,
   "lng": 108.9376965,
   "source": "osm"
  },
  {
   "id": "a1263116152",
   "nom": "照壁",
   "categorie": "memorial",
   "description": "",
   "prix": "",
   "duree": "",
   "mapsUrl": "https://maps.google.com/?q=34.2633226,108.9378171",
   "lat": 34.2633226,
   "lng": 108.9378171,
   "source": "osm"
  },
  {
   "id": "a9993534399",
   "nom": "Chin Olympic flag",
   "categorie": "artwork",
   "description": "",
   "prix": "",
   "duree": "",
   "mapsUrl": "https://maps.google.com/?q=34.3785847,109.0234579",
   "lat": 34.3785847,
   "lng": 109.0234579,
   "source": "osm"
  },
  {
   "id": "a821525311",
   "nom": "Mansion of the Government Official Shaofu",
   "categorie": "attraction",
   "description": "",
   "prix": "",
   "duree": "",
   "mapsUrl": "https://maps.google.com/?q=34.3084781,108.8536522",
   "lat": 34.3084781,
   "lng": 108.8536522,
   "source": "osm"
  },
  {
   "id": "a13625089814",
   "nom": "易俗社百年博物馆",
   "categorie": "museum",
   "description": "",
   "prix": "",
   "duree": "",
   "mapsUrl": "https://maps.google.com/?q=34.2630961,108.9439461",
   "lat": 34.2630961,
   "lng": 108.9439461,
   "source": "osm"
  },
  {
   "id": "a821525318",
   "nom": "未央宫国家考古遗址公园",
   "categorie": "attraction",
   "description": "",
   "prix": "",
   "duree": "",
   "mapsUrl": "https://maps.google.com/?q=34.302479,108.8571576",
   "lat": 34.302479,
   "lng": 108.8571576,
   "source": "osm"
  },
  {
   "id": "a7671349812",
   "nom": "South Gate",
   "categorie": "attraction",
   "description": "",
   "prix": "",
   "duree": "",
   "mapsUrl": "https://maps.google.com/?q=34.2962802,108.8615486",
   "lat": 34.2962802,
   "lng": 108.8615486,
   "source": "osm"
  },
  {
   "id": "a13625089821",
   "nom": "中国秦腔艺术博物馆",
   "categorie": "museum",
   "description": "",
   "prix": "",
   "duree": "",
   "mapsUrl": "https://maps.google.com/?q=34.2624664,108.9443559",
   "lat": 34.2624664,
   "lng": 108.9443559,
   "source": "osm"
  },
  {
   "id": "a5197417321",
   "nom": "Muslim Street Food Market",
   "categorie": "attraction",
   "description": "",
   "prix": "",
   "duree": "",
   "mapsUrl": "https://maps.google.com/?q=34.2622138,108.9388636",
   "lat": 34.2622138,
   "lng": 108.9388636,
   "source": "osm"
  },
  {
   "id": "a1227580362",
   "nom": "易俗历史文化街区",
   "categorie": "theme park",
   "description": "",
   "prix": "",
   "duree": "",
   "mapsUrl": "https://maps.google.com/?q=34.2622845,108.9442621",
   "lat": 34.2622845,
   "lng": 108.9442621,
   "source": "osm"
  },
  {
   "id": "a7671349827",
   "nom": "Xian Gate",
   "categorie": "attraction",
   "description": "",
   "prix": "",
   "duree": "",
   "mapsUrl": "https://maps.google.com/?q=34.2949951,108.8615763",
   "lat": 34.2949951,
   "lng": 108.8615763,
   "source": "osm"
  },
  {
   "id": "a254488437",
   "nom": "鼓楼",
   "categorie": "monument",
   "description": "",
   "prix": "",
   "duree": "",
   "mapsUrl": "https://maps.google.com/?q=34.2617601,108.9388419",
   "lat": 34.2617601,
   "lng": 108.9388419,
   "source": "osm"
  },
  {
   "id": "a2958170395",
   "nom": "西安鼓楼博物馆",
   "categorie": "museum",
   "description": "",
   "prix": "",
   "duree": "",
   "mapsUrl": "https://maps.google.com/?q=34.2617508,108.938964",
   "lat": 34.2617508,
   "lng": 108.938964,
   "source": "osm"
  },
  {
   "id": "a6827396585",
   "nom": "Musical water fountain",
   "categorie": "attraction",
   "description": "",
   "prix": "",
   "duree": "",
   "mapsUrl": "https://maps.google.com/?q=34.2613235,108.9378281",
   "lat": 34.2613235,
   "lng": 108.9378281,
   "source": "osm"
  },
  {
   "id": "a5753956804",
   "nom": "牌坊",
   "categorie": "attraction",
   "description": "",
   "prix": "",
   "duree": "",
   "mapsUrl": "https://maps.google.com/?q=34.2612856,108.9327335",
   "lat": 34.2612856,
   "lng": 108.9327335,
   "source": "osm"
  },
  {
   "id": "a254488435",
   "nom": "钟楼",
   "categorie": "museum",
   "description": "",
   "prix": "",
   "duree": "",
   "mapsUrl": "https://maps.google.com/?q=34.2610119,108.9423419",
   "lat": 34.2610119,
   "lng": 108.9423419,
   "source": "osm"
  },
  {
   "id": "a1265896606",
   "nom": "Cangchi Ruins",
   "categorie": "attraction",
   "description": "",
   "prix": "",
   "duree": "",
   "mapsUrl": "https://maps.google.com/?q=34.2981216,108.8516647",
   "lat": 34.2981216,
   "lng": 108.8516647,
   "source": "osm"
  }
 ],
 "villeNonMusulmane": true,
 "osmEnriched": true,
 "osmEnrichedAt": "2026-06-30",
 "description_en": "Xi'an may not be a Muslim-majority destination, but it welcomes Muslim travelers with real halal options. You'll find 1 halal restaurants and 13 mosques nearby, plus real-time prayer times and the Qibla direction — everything to explore Xi'an, China, with peace of mind.",
 "metaDescription_en": "Halal guide to Xi'an: 1 halal restaurants listed, 13 mosques, prayer times and tips for Muslim travelers. Halal Trust Score 3.2/5.",
 "nom_en": "Xi'an",
 "boucheries": [],
 "dataPurgedAt": "2026-07-15"
}