{
 "slug": "yokohama",
 "nom": "Yokohama",
 "pays": "Japon",
 "pays_slug": "japon",
 "continent": "Asie",
 "region": "Japon",
 "coordonnees": {
  "lat": 35.4437,
  "lng": 139.638
 },
 "codeISO": "JP",
 "score_halal": 3.2,
 "halalScore": 6.4,
 "description": "Yokohama, Japon. Repérez les restaurants halal et les mosquées via l'application.",
 "metaDescription": "Yokohama, Japon. Repérez les restaurants halal et les mosquées via l'application.",
 "image": "https://upload.wikimedia.org/wikipedia/commons/thumb/7/7e/Minato_Mirai.jpg/1600px-Minato_Mirai.jpg",
 "image_hero": "https://upload.wikimedia.org/wikipedia/commons/thumb/7/7e/Minato_Mirai.jpg/1600px-Minato_Mirai.jpg",
 "imageCredit": "Wikimedia Commons",
 "scoreIndicatif": true,
 "statistiques": {
  "restaurants_halal": 40,
  "mosquees": 1,
  "hotels": 119
 },
 "infoPratique": {
  "transport": "Accessible par avion et transports locaux.",
  "meilleureEpoque": "Selon la saison.",
  "conseilHalal": "Repérez restaurants halal et mosquées via l'application."
 },
 "tags": [
  "halal",
  "asie"
 ],
 "restaurants": [
  {
   "nom": "Ceyhan",
   "type": "turkish",
   "priceRange": "€€",
   "mapsUrl": "https://maps.google.com/?q=35.437773,139.6427606",
   "lat": 35.437773,
   "lng": 139.6427606,
   "halalConfidence": "likely",
   "source": "osm"
  },
  {
   "nom": "Ai Ain",
   "type": "arab",
   "priceRange": "€€",
   "mapsUrl": "https://maps.google.com/?q=35.4403584,139.630231",
   "lat": 35.4403584,
   "lng": 139.630231,
   "halalConfidence": "likely",
   "source": "osm"
  },
  {
   "nom": "キッチン ローズ",
   "type": "persian",
   "priceRange": "€€",
   "mapsUrl": "https://maps.google.com/?q=35.4650501,139.5889498",
   "lat": 35.4650501,
   "lng": 139.5889498,
   "halalConfidence": "likely",
   "source": "osm"
  },
  {
   "nom": "横濱KAN",
   "lat": 35.4473923,
   "lng": 139.6401725,
   "type": "indian",
   "halalConfidence": "likely",
   "mapsUrl": "https://maps.google.com/?q=35.4473923,139.6401725",
   "source": "osm"
  },
  {
   "nom": "カレーハウスCoCo壱番屋中区本町店",
   "lat": 35.4485671,
   "lng": 139.6396513,
   "type": "indian",
   "halalConfidence": "likely",
   "mapsUrl": "https://maps.google.com/?q=35.4485671,139.6396513",
   "source": "osm"
  },
  {
   "nom": "36 SPICES",
   "lat": 35.4486213,
   "lng": 139.62859,
   "type": "indian",
   "halalConfidence": "likely",
   "mapsUrl": "https://maps.google.com/?q=35.4486213,139.62859",
   "source": "osm"
  },
  {
   "nom": "カザーナ",
   "lat": 35.4568578,
   "lng": 139.6338746,
   "type": "indian",
   "halalConfidence": "likely",
   "mapsUrl": "https://maps.google.com/?q=35.4568578,139.6338746",
   "source": "osm"
  },
  {
   "nom": "Sandesh",
   "lat": 35.4308452,
   "lng": 139.6481752,
   "type": "indian",
   "halalConfidence": "likely",
   "mapsUrl": "https://maps.google.com/?q=35.4308452,139.6481752",
   "source": "osm"
  },
  {
   "nom": "ネパールインドレストラン アンナプルナ",
   "lat": 35.4293561,
   "lng": 139.6103712,
   "type": "indian, ネパール料理",
   "halalConfidence": "likely",
   "mapsUrl": "https://maps.google.com/?q=35.4293561,139.6103712",
   "source": "osm"
  },
  {
   "nom": "インド料理店 チャイ",
   "lat": 35.4296401,
   "lng": 139.6093643,
   "type": "indian",
   "halalConfidence": "likely",
   "mapsUrl": "https://maps.google.com/?q=35.4296401,139.6093643",
   "source": "osm"
  },
  {
   "nom": "エビン",
   "lat": 35.4707558,
   "lng": 139.6272165,
   "type": "indian",
   "halalConfidence": "likely",
   "mapsUrl": "https://maps.google.com/?q=35.4707558,139.6272165",
   "source": "osm"
  },
  {
   "nom": "欧風カレー ア・ラ・ブッフ・シュン",
   "lat": 35.453645,
   "lng": 139.6023866,
   "type": "indian",
   "halalConfidence": "likely",
   "mapsUrl": "https://maps.google.com/?q=35.453645,139.6023866",
   "source": "osm"
  },
  {
   "nom": "Amrapali",
   "lat": 35.4691135,
   "lng": 139.6168628,
   "type": "indian",
   "halalConfidence": "likely",
   "mapsUrl": "https://maps.google.com/?q=35.4691135,139.6168628",
   "source": "osm"
  },
  {
   "nom": "エベレスト・キッチン",
   "lat": 35.4464579,
   "lng": 139.6000364,
   "type": "indian",
   "halalConfidence": "likely",
   "mapsUrl": "https://maps.google.com/?q=35.4464579,139.6000364",
   "source": "osm"
  },
  {
   "nom": "シリーエベレストキッチン",
   "lat": 35.4744907,
   "lng": 139.6251049,
   "type": "indian",
   "halalConfidence": "likely",
   "mapsUrl": "https://maps.google.com/?q=35.4744907,139.6251049",
   "source": "osm"
  },
  {
   "nom": "EVEREST KITCHEN",
   "lat": 35.4466495,
   "lng": 139.5977093,
   "type": "thai, vietnamese, indian, nepalese",
   "halalConfidence": "likely",
   "mapsUrl": "https://maps.google.com/?q=35.4466495,139.5977093",
   "source": "osm"
  },
  {
   "nom": "セ・ララ",
   "lat": 35.479879,
   "lng": 139.6318596,
   "type": "indian",
   "halalConfidence": "likely",
   "mapsUrl": "https://maps.google.com/?q=35.479879,139.6318596",
   "source": "osm"
  },
  {
   "nom": "スンガバ",
   "lat": 35.4598469,
   "lng": 139.5969248,
   "type": "indian",
   "halalConfidence": "likely",
   "mapsUrl": "https://maps.google.com/?q=35.4598469,139.5969248",
   "source": "osm"
  },
  {
   "nom": "インド・アジアン料理 ヤク＆イエティ ダイニングバー",
   "lat": 35.4564888,
   "lng": 139.5941842,
   "type": "indian",
   "halalConfidence": "likely",
   "mapsUrl": "https://maps.google.com/?q=35.4564888,139.5941842",
   "source": "osm"
  },
  {
   "nom": "ヒマール キッチン 神奈川新町店",
   "lat": 35.4819908,
   "lng": 139.6417893,
   "type": "indian, mexican, ネパール料理",
   "halalConfidence": "likely",
   "mapsUrl": "https://maps.google.com/?q=35.4819908,139.6417893",
   "source": "osm"
  },
  {
   "nom": "ラリグラス",
   "lat": 35.4766424,
   "lng": 139.6117082,
   "type": "indian",
   "halalConfidence": "likely",
   "mapsUrl": "https://maps.google.com/?q=35.4766424,139.6117082",
   "source": "osm"
  },
  {
   "nom": "ヒルビュウ",
   "lat": 35.462174,
   "lng": 139.594457,
   "type": "indian",
   "halalConfidence": "likely",
   "mapsUrl": "https://maps.google.com/?q=35.462174,139.594457",
   "source": "osm"
  },
  {
   "nom": "ミトチャ",
   "lat": 35.4702406,
   "lng": 139.5920124,
   "type": "nepalese, indian",
   "halalConfidence": "likely",
   "mapsUrl": "https://maps.google.com/?q=35.4702406,139.5920124",
   "source": "osm"
  },
  {
   "nom": "神奈川カレーハウス",
   "lat": 35.4869857,
   "lng": 139.6166122,
   "type": "indian",
   "halalConfidence": "likely",
   "mapsUrl": "https://maps.google.com/?q=35.4869857,139.6166122",
   "source": "osm"
  },
  {
   "nom": "Ganesha Ghar",
   "lat": 35.4910328,
   "lng": 139.6289617,
   "type": "indian",
   "halalConfidence": "likely",
   "mapsUrl": "https://maps.google.com/?q=35.4910328,139.6289617",
   "source": "osm"
  },
  {
   "nom": "カレーハウスリオ",
   "lat": 35.4083107,
   "lng": 139.5962925,
   "type": "indian, カレー",
   "halalConfidence": "likely",
   "mapsUrl": "https://maps.google.com/?q=35.4083107,139.5962925",
   "source": "osm"
  },
  {
   "nom": "インド・アジアン料理 家帝YETI",
   "lat": 35.397278,
   "lng": 139.61521,
   "type": "indian",
   "halalConfidence": "likely",
   "mapsUrl": "https://maps.google.com/?q=35.397278,139.61521",
   "source": "osm"
  },
  {
   "nom": "プージヤ・マハール",
   "lat": 35.4677936,
   "lng": 139.5805288,
   "type": "indian",
   "halalConfidence": "likely",
   "mapsUrl": "https://maps.google.com/?q=35.4677936,139.5805288",
   "source": "osm"
  },
  {
   "nom": "Dwarika's",
   "lat": 35.498646,
   "lng": 139.6319769,
   "type": "indian",
   "halalConfidence": "likely",
   "mapsUrl": "https://maps.google.com/?q=35.498646,139.6319769",
   "source": "osm"
  },
  {
   "nom": "Salbi",
   "lat": 35.4277302,
   "lng": 139.5588596,
   "type": "indian",
   "halalConfidence": "likely",
   "mapsUrl": "https://maps.google.com/?q=35.4277302,139.5588596",
   "source": "osm"
  },
  {
   "nom": "ナマステ",
   "lat": 35.4783504,
   "lng": 139.56516,
   "type": "indian",
   "halalConfidence": "likely",
   "mapsUrl": "https://maps.google.com/?q=35.4783504,139.56516",
   "source": "osm"
  },
  {
   "nom": "本格インド料理&バー アグラ",
   "lat": 35.5134491,
   "lng": 139.6319955,
   "type": "indian",
   "halalConfidence": "likely",
   "mapsUrl": "https://maps.google.com/?q=35.5134491,139.6319955",
   "source": "osm"
  },
  {
   "nom": "インドネパール料理　サフロン",
   "lat": 35.3799243,
   "lng": 139.5954976,
   "type": "indian",
   "halalConfidence": "likely",
   "mapsUrl": "https://maps.google.com/?q=35.3799243,139.5954976",
   "source": "osm"
  },
  {
   "nom": "デリーダイニングバー",
   "lat": 35.420708,
   "lng": 139.5480749,
   "type": "indian",
   "halalConfidence": "likely",
   "mapsUrl": "https://maps.google.com/?q=35.420708,139.5480749",
   "source": "osm"
  },
  {
   "nom": "タージマハル",
   "lat": 35.5070483,
   "lng": 139.6925568,
   "type": "indian",
   "halalConfidence": "likely",
   "mapsUrl": "https://maps.google.com/?q=35.5070483,139.6925568",
   "source": "osm"
  },
  {
   "nom": "チャイカフェ",
   "lat": 35.4754557,
   "lng": 139.5488173,
   "type": "indian",
   "halalConfidence": "likely",
   "mapsUrl": "https://maps.google.com/?q=35.4754557,139.5488173",
   "source": "osm"
  },
  {
   "nom": "chai",
   "lat": 35.4164221,
   "lng": 139.5460653,
   "type": "indian",
   "halalConfidence": "likely",
   "mapsUrl": "https://maps.google.com/?q=35.4164221,139.5460653",
   "source": "osm"
  },
  {
   "nom": "アヌモール",
   "lat": 35.4909977,
   "lng": 139.5518817,
   "type": "indian",
   "halalConfidence": "likely",
   "mapsUrl": "https://maps.google.com/?q=35.4909977,139.5518817",
   "source": "osm"
  },
  {
   "nom": "ミトチャ",
   "lat": 35.4575673,
   "lng": 139.534109,
   "type": "indian",
   "halalConfidence": "likely",
   "mapsUrl": "https://maps.google.com/?q=35.4575673,139.534109",
   "source": "osm"
  },
  {
   "nom": "クリスナキッチン",
   "lat": 35.4104288,
   "lng": 139.5399302,
   "type": "indian",
   "halalConfidence": "likely",
   "mapsUrl": "https://maps.google.com/?q=35.4104288,139.5399302",
   "source": "osm"
  }
 ],
 "hotels": [
  {
   "nom": "まゆだま",
   "categorie": "Auberge",
   "priceRange": "€€",
   "mapsUrl": "https://maps.google.com/?q=35.4421346,139.6364468",
   "lat": 35.4421346,
   "lng": 139.6364468,
   "halalFriendly": false,
   "bookingUrl": "https://maps.google.com/?q=35.4421346,139.6364468",
   "source": "osm"
  },
  {
   "nom": "Hotel Yokohama Garden",
   "categorie": "Hôtel",
   "priceRange": "€€",
   "mapsUrl": "https://maps.google.com/?q=35.4420937,139.6409191",
   "lat": 35.4420937,
   "lng": 139.6409191,
   "halalFriendly": false,
   "bookingUrl": "https://www.yokohamagarden.jp/",
   "source": "osm"
  },
  {
   "nom": "東横イン",
   "categorie": "Hôtel",
   "priceRange": "€€",
   "mapsUrl": "https://maps.google.com/?q=35.4461881,139.6400228",
   "lat": 35.4461881,
   "lng": 139.6400228,
   "halalFriendly": false,
   "bookingUrl": "https://maps.google.com/?q=35.4461881,139.6400228",
   "source": "osm"
  },
  {
   "nom": "アパホテル横浜関内",
   "categorie": "Hôtel",
   "priceRange": "€€",
   "mapsUrl": "https://maps.google.com/?q=35.4465352,139.6367338",
   "lat": 35.4465352,
   "lng": 139.6367338,
   "halalFriendly": false,
   "bookingUrl": "https://maps.google.com/?q=35.4465352,139.6367338",
   "source": "osm"
  },
  {
   "nom": "東横イン",
   "categorie": "Hôtel",
   "priceRange": "€€",
   "mapsUrl": "https://maps.google.com/?q=35.443113,139.641658",
   "lat": 35.443113,
   "lng": 139.641658,
   "halalFriendly": false,
   "bookingUrl": "toyoko-inn.com",
   "source": "osm"
  },
  {
   "nom": "Yokohama Central Hostel",
   "categorie": "Auberge",
   "priceRange": "€€",
   "mapsUrl": "https://maps.google.com/?q=35.4427836,139.6416569",
   "lat": 35.4427836,
   "lng": 139.6416569,
   "halalFriendly": false,
   "bookingUrl": "https://ychostel.com/",
   "source": "osm"
  },
  {
   "nom": "コンフォートホテル",
   "categorie": "Hôtel",
   "priceRange": "€€",
   "mapsUrl": "https://maps.google.com/?q=35.4467277,139.6370034",
   "lat": 35.4467277,
   "lng": 139.6370034,
   "halalFriendly": false,
   "bookingUrl": "https://maps.google.com/?q=35.4467277,139.6370034",
   "source": "osm"
  },
  {
   "nom": "ダイワロイネットホテル 横浜公園",
   "categorie": "Hôtel",
   "priceRange": "€€",
   "mapsUrl": "https://maps.google.com/?q=35.4434269,139.6420879",
   "lat": 35.4434269,
   "lng": 139.6420879,
   "halalFriendly": false,
   "bookingUrl": "https://maps.google.com/?q=35.4434269,139.6420879",
   "source": "osm"
  },
  {
   "nom": "ビジネスイン関内",
   "categorie": "Auberge",
   "priceRange": "€€",
   "mapsUrl": "https://maps.google.com/?q=35.4442079,139.6333738",
   "lat": 35.4442079,
   "lng": 139.6333738,
   "halalFriendly": false,
   "bookingUrl": "https://maps.google.com/?q=35.4442079,139.6333738",
   "source": "osm"
  },
  {
   "nom": "Super Hotel",
   "categorie": "Hôtel",
   "priceRange": "€€",
   "mapsUrl": "https://maps.google.com/?q=35.4441472,139.642706",
   "lat": 35.4441472,
   "lng": 139.642706,
   "halalFriendly": false,
   "bookingUrl": "https://maps.google.com/?q=35.4441472,139.642706",
   "source": "osm"
  },
  {
   "nom": "ホテルマイステイズ横浜関内",
   "categorie": "Hôtel",
   "priceRange": "€€",
   "mapsUrl": "https://maps.google.com/?q=35.446646,139.6347626",
   "lat": 35.446646,
   "lng": 139.6347626,
   "halalFriendly": false,
   "bookingUrl": "https://maps.google.com/?q=35.446646,139.6347626",
   "source": "osm"
  },
  {
   "nom": "α-1",
   "categorie": "Hôtel",
   "priceRange": "€€",
   "mapsUrl": "https://maps.google.com/?q=35.4437416,139.6329939",
   "lat": 35.4437416,
   "lng": 139.6329939,
   "halalFriendly": false,
   "bookingUrl": "https://maps.google.com/?q=35.4437416,139.6329939",
   "source": "osm"
  },
  {
   "nom": "ホテルラルーン",
   "categorie": "Hôtel",
   "priceRange": "€€",
   "mapsUrl": "https://maps.google.com/?q=35.4403966,139.6413192",
   "lat": 35.4403966,
   "lng": 139.6413192,
   "halalFriendly": false,
   "bookingUrl": "https://maps.google.com/?q=35.4403966,139.6413192",
   "source": "osm"
  },
  {
   "nom": "Richmond Hotel",
   "categorie": "Hôtel",
   "priceRange": "€€",
   "mapsUrl": "https://maps.google.com/?q=35.4474071,139.6353308",
   "lat": 35.4474071,
   "lng": 139.6353308,
   "halalFriendly": false,
   "bookingUrl": "https://maps.google.com/?q=35.4474071,139.6353308",
   "source": "osm"
  },
  {
   "nom": "ホテルアイエス",
   "categorie": "Hôtel",
   "priceRange": "€€",
   "mapsUrl": "https://maps.google.com/?q=35.4403065,139.6415788",
   "lat": 35.4403065,
   "lng": 139.6415788,
   "halalFriendly": false,
   "bookingUrl": "https://maps.google.com/?q=35.4403065,139.6415788",
   "source": "osm"
  },
  {
   "nom": "WASHINGTON HOTEL",
   "categorie": "Hôtel",
   "priceRange": "€€",
   "mapsUrl": "https://maps.google.com/?q=35.4415766,139.6328166",
   "lat": 35.4415766,
   "lng": 139.6328166,
   "halalFriendly": false,
   "bookingUrl": "https://maps.google.com/?q=35.4415766,139.6328166",
   "source": "osm"
  },
  {
   "nom": "ホテル ルートイン 横浜馬車道",
   "categorie": "Hôtel",
   "priceRange": "€€",
   "mapsUrl": "https://maps.google.com/?q=35.448723,139.636875",
   "lat": 35.448723,
   "lng": 139.636875,
   "halalFriendly": false,
   "bookingUrl": "https://maps.google.com/?q=35.448723,139.636875",
   "source": "osm"
  },
  {
   "nom": "ヒロマスホステル横浜中華街",
   "categorie": "Auberge",
   "priceRange": "€€",
   "mapsUrl": "https://maps.google.com/?q=35.4442045,139.6445328",
   "lat": 35.4442045,
   "lng": 139.6445328,
   "halalFriendly": false,
   "bookingUrl": "https://maps.google.com/?q=35.4442045,139.6445328",
   "source": "osm"
  },
  {
   "nom": "シタディーンハーバーフロント横浜",
   "categorie": "Hôtel",
   "priceRange": "€€",
   "mapsUrl": "https://maps.google.com/?q=35.4465863,139.6435563",
   "lat": 35.4465863,
   "lng": 139.6435563,
   "halalFriendly": false,
   "bookingUrl": "https://www.discoverasr.com/en/citadines/japan/citadines-harbour-front-yokohama",
   "source": "osm"
  },
  {
   "nom": "平和プラザホテル",
   "categorie": "Hôtel",
   "priceRange": "€€",
   "mapsUrl": "https://maps.google.com/?q=35.4487806,139.6358153",
   "lat": 35.4487806,
   "lng": 139.6358153,
   "halalFriendly": false,
   "bookingUrl": "https://maps.google.com/?q=35.4487806,139.6358153",
   "source": "osm"
  },
  {
   "nom": "JAL CITY 横浜 関内",
   "categorie": "Hôtel",
   "priceRange": "€€",
   "mapsUrl": "https://maps.google.com/?q=35.4452192,139.6443583",
   "lat": 35.4452192,
   "lng": 139.6443583,
   "halalFriendly": false,
   "bookingUrl": "https://maps.google.com/?q=35.4452192,139.6443583",
   "source": "osm"
  },
  {
   "nom": "Kapsel Hotel Palace",
   "categorie": "Auberge",
   "priceRange": "€€",
   "mapsUrl": "https://maps.google.com/?q=35.443844,139.6310766",
   "lat": 35.443844,
   "lng": 139.6310766,
   "halalFriendly": false,
   "bookingUrl": "https://maps.google.com/?q=35.443844,139.6310766",
   "source": "osm"
  },
  {
   "nom": "Continental",
   "categorie": "Hôtel",
   "priceRange": "€€",
   "mapsUrl": "https://maps.google.com/?q=35.4464359,139.6443421",
   "lat": 35.4464359,
   "lng": 139.6443421,
   "halalFriendly": false,
   "bookingUrl": "https://maps.google.com/?q=35.4464359,139.6443421",
   "source": "osm"
  },
  {
   "nom": "ファーイーストビレッジホテル",
   "categorie": "Hôtel",
   "priceRange": "€€",
   "mapsUrl": "https://maps.google.com/?q=35.4478492,139.6328919",
   "lat": 35.4478492,
   "lng": 139.6328919,
   "halalFriendly": false,
   "bookingUrl": "https://maps.google.com/?q=35.4478492,139.6328919",
   "source": "osm"
  },
  {
   "nom": "グリフィン横浜・山下公園",
   "categorie": "Appartement",
   "priceRange": "€€",
   "mapsUrl": "https://maps.google.com/?q=35.44611,139.6446294",
   "lat": 35.44611,
   "lng": 139.6446294,
   "halalFriendly": false,
   "bookingUrl": "https://maps.google.com/?q=35.44611,139.6446294",
   "source": "osm"
  },
  {
   "nom": "相鉄フレッサイン",
   "categorie": "Hôtel",
   "priceRange": "€€",
   "mapsUrl": "https://maps.google.com/?q=35.4496031,139.636229",
   "lat": 35.4496031,
   "lng": 139.636229,
   "halalFriendly": false,
   "bookingUrl": "https://maps.google.com/?q=35.4496031,139.636229",
   "source": "osm"
  },
  {
   "nom": "ホテル エディット 横濱",
   "categorie": "Hôtel",
   "priceRange": "€€",
   "mapsUrl": "https://maps.google.com/?q=35.4485679,139.6334799",
   "lat": 35.4485679,
   "lng": 139.6334799,
   "halalFriendly": false,
   "bookingUrl": "https://maps.google.com/?q=35.4485679,139.6334799",
   "source": "osm"
  },
  {
   "nom": "global cabin横浜中華街",
   "categorie": "Auberge",
   "priceRange": "€€",
   "mapsUrl": "https://maps.google.com/?q=35.4420307,139.6453255",
   "lat": 35.4420307,
   "lng": 139.6453255,
   "halalFriendly": false,
   "bookingUrl": "https://dormy-hotels.com/dormyinn/hotels/gc_yokohama/",
   "source": "osm"
  },
  {
   "nom": "東横インYokohama Sakuragicho",
   "categorie": "Hôtel",
   "priceRange": "€€",
   "mapsUrl": "https://maps.google.com/?q=35.4496024,139.6354475",
   "lat": 35.4496024,
   "lng": 139.6354475,
   "halalFriendly": false,
   "bookingUrl": "https://maps.google.com/?q=35.4496024,139.6354475",
   "source": "osm"
  },
  {
   "nom": "Hyatt Regency",
   "categorie": "Hôtel",
   "priceRange": "€€",
   "mapsUrl": "https://maps.google.com/?q=35.4458306,139.6452542",
   "lat": 35.4458306,
   "lng": 139.6452542,
   "halalFriendly": false,
   "bookingUrl": "https://maps.google.com/?q=35.4458306,139.6452542",
   "source": "osm"
  },
  {
   "nom": "Hotel Central Yokohama",
   "categorie": "Hôtel",
   "priceRange": "€€",
   "mapsUrl": "https://maps.google.com/?q=35.4445144,139.6302923",
   "lat": 35.4445144,
   "lng": 139.6302923,
   "halalFriendly": false,
   "bookingUrl": "https://www.tripadvisor.com/Hotel_Review-g298173-d20829694-Reviews-Hotel_Central_Yokohama-Yokohama_Kanagawa_Prefecture_Kanto.html",
   "source": "osm"
  },
  {
   "nom": "Hotel Resol Sakuragi-Cho",
   "categorie": "Hôtel",
   "priceRange": "€€",
   "mapsUrl": "https://maps.google.com/?q=35.4495806,139.6341967",
   "lat": 35.4495806,
   "lng": 139.6341967,
   "halalFriendly": false,
   "bookingUrl": "https://maps.google.com/?q=35.4495806,139.6341967",
   "source": "osm"
  },
  {
   "nom": "ホテル グランドサン横浜",
   "categorie": "Hôtel",
   "priceRange": "€€",
   "mapsUrl": "https://maps.google.com/?q=35.4431328,139.6297075",
   "lat": 35.4431328,
   "lng": 139.6297075,
   "halalFriendly": false,
   "bookingUrl": "https://maps.google.com/?q=35.4431328,139.6297075",
   "source": "osm"
  },
  {
   "nom": "ヒルサイドハウス",
   "categorie": "Appartement",
   "priceRange": "€€",
   "mapsUrl": "https://maps.google.com/?q=35.4373728,139.6418486",
   "lat": 35.4373728,
   "lng": 139.6418486,
   "halalFriendly": false,
   "bookingUrl": "https://maps.google.com/?q=35.4373728,139.6418486",
   "source": "osm"
  },
  {
   "nom": "ROSE HOTEL YOKOHAMA",
   "categorie": "Hôtel",
   "priceRange": "€€",
   "mapsUrl": "https://maps.google.com/?q=35.44401,139.6467415",
   "lat": 35.44401,
   "lng": 139.6467415,
   "halalFriendly": false,
   "bookingUrl": "https://maps.google.com/?q=35.44401,139.6467415",
   "source": "osm"
  },
  {
   "nom": "セシリア山手",
   "categorie": "Appartement",
   "priceRange": "€€",
   "mapsUrl": "https://maps.google.com/?q=35.4371064,139.6419686",
   "lat": 35.4371064,
   "lng": 139.6419686,
   "halalFriendly": false,
   "bookingUrl": "https://maps.google.com/?q=35.4371064,139.6419686",
   "source": "osm"
  },
  {
   "nom": "オークウッドスイーツ横浜",
   "categorie": "Hôtel",
   "priceRange": "€€",
   "mapsUrl": "https://maps.google.com/?q=35.4510921,139.6359195",
   "lat": 35.4510921,
   "lng": 139.6359195,
   "halalFriendly": false,
   "bookingUrl": "https://maps.google.com/?q=35.4510921,139.6359195",
   "source": "osm"
  },
  {
   "nom": "グランバレ石川町",
   "categorie": "Appartement",
   "priceRange": "€€",
   "mapsUrl": "https://maps.google.com/?q=35.4376449,139.6436641",
   "lat": 35.4376449,
   "lng": 139.6436641,
   "halalFriendly": false,
   "bookingUrl": "https://maps.google.com/?q=35.4376449,139.6436641",
   "source": "osm"
  },
  {
   "nom": "エクステ山下公園",
   "categorie": "Appartement",
   "priceRange": "€€",
   "mapsUrl": "https://maps.google.com/?q=35.4448534,139.6473289",
   "lat": 35.4448534,
   "lng": 139.6473289,
   "halalFriendly": false,
   "bookingUrl": "https://maps.google.com/?q=35.4448534,139.6473289",
   "source": "osm"
  },
  {
   "nom": "ブリーズベイホテル",
   "categorie": "Hôtel",
   "priceRange": "€€",
   "mapsUrl": "https://maps.google.com/?q=35.4488315,139.6309022",
   "lat": 35.4488315,
   "lng": 139.6309022,
   "halalFriendly": false,
   "bookingUrl": "https://maps.google.com/?q=35.4488315,139.6309022",
   "source": "osm"
  },
  {
   "nom": "コンフォート・ネスト石川町",
   "categorie": "Appartement",
   "priceRange": "€€",
   "mapsUrl": "https://maps.google.com/?q=35.4375576,139.6439133",
   "lat": 35.4375576,
   "lng": 139.6439133,
   "halalFriendly": false,
   "bookingUrl": "https://maps.google.com/?q=35.4375576,139.6439133",
   "source": "osm"
  },
  {
   "nom": "プロシード山下公園 ザ・タワー",
   "categorie": "Appartement",
   "priceRange": "€€",
   "mapsUrl": "https://maps.google.com/?q=35.4453433,139.6475802",
   "lat": 35.4453433,
   "lng": 139.6475802,
   "halalFriendly": false,
   "bookingUrl": "https://maps.google.com/?q=35.4453433,139.6475802",
   "source": "osm"
  },
  {
   "nom": "山手ガーデンハウス",
   "categorie": "Appartement",
   "priceRange": "€€",
   "mapsUrl": "https://maps.google.com/?q=35.4364739,139.6422212",
   "lat": 35.4364739,
   "lng": 139.6422212,
   "halalFriendly": false,
   "bookingUrl": "https://maps.google.com/?q=35.4364739,139.6422212",
   "source": "osm"
  },
  {
   "nom": "スカイコート横浜石川町",
   "categorie": "Appartement",
   "priceRange": "€€",
   "mapsUrl": "https://maps.google.com/?q=35.4356703,139.6380093",
   "lat": 35.4356703,
   "lng": 139.6380093,
   "halalFriendly": false,
   "bookingUrl": "https://maps.google.com/?q=35.4356703,139.6380093",
   "source": "osm"
  },
  {
   "nom": "アパホテル＆リゾート〈横浜ベイタワー〉",
   "categorie": "Hôtel",
   "priceRange": "€€",
   "mapsUrl": "https://maps.google.com/?q=35.4517477,139.6381652",
   "lat": 35.4517477,
   "lng": 139.6381652,
   "halalFriendly": false,
   "bookingUrl": "https://maps.google.com/?q=35.4517477,139.6381652",
   "source": "osm"
  },
  {
   "nom": "ヒルサイドパレス",
   "categorie": "Appartement",
   "priceRange": "€€",
   "mapsUrl": "https://maps.google.com/?q=35.4365982,139.6427689",
   "lat": 35.4365982,
   "lng": 139.6427689,
   "halalFriendly": false,
   "bookingUrl": "https://maps.google.com/?q=35.4365982,139.6427689",
   "source": "osm"
  },
  {
   "nom": "横浜桜木町ワシントンホテル",
   "categorie": "Hôtel",
   "priceRange": "€€",
   "mapsUrl": "https://maps.google.com/?q=35.4505868,139.6325976",
   "lat": 35.4505868,
   "lng": 139.6325976,
   "halalFriendly": false,
   "bookingUrl": "https://maps.google.com/?q=35.4505868,139.6325976",
   "source": "osm"
  },
  {
   "nom": "ベイヒルズ山手",
   "categorie": "Appartement",
   "priceRange": "€€",
   "mapsUrl": "https://maps.google.com/?q=35.4355265,139.6379612",
   "lat": 35.4355265,
   "lng": 139.6379612,
   "halalFriendly": false,
   "bookingUrl": "https://maps.google.com/?q=35.4355265,139.6379612",
   "source": "osm"
  },
  {
   "nom": "JR東日本ホテルメッツ",
   "categorie": "Hôtel",
   "priceRange": "€€",
   "mapsUrl": "https://maps.google.com/?q=35.450017,139.6316238",
   "lat": 35.450017,
   "lng": 139.6316238,
   "halalFriendly": false,
   "bookingUrl": "https://www.hotelmets.jp/sakuragicho/",
   "source": "osm"
  },
  {
   "nom": "東急ドエル・アルス横濱元町",
   "categorie": "Appartement",
   "priceRange": "€€",
   "mapsUrl": "https://maps.google.com/?q=35.4379487,139.6452404",
   "lat": 35.4379487,
   "lng": 139.6452404,
   "halalFriendly": false,
   "bookingUrl": "https://maps.google.com/?q=35.4379487,139.6452404",
   "source": "osm"
  },
  {
   "nom": "メリーパレス元町",
   "categorie": "Appartement",
   "priceRange": "€€",
   "mapsUrl": "https://maps.google.com/?q=35.4375789,139.6448284",
   "lat": 35.4375789,
   "lng": 139.6448284,
   "halalFriendly": false,
   "bookingUrl": "https://maps.google.com/?q=35.4375789,139.6448284",
   "source": "osm"
  },
  {
   "nom": "元町リバージュ310",
   "categorie": "Appartement",
   "priceRange": "€€",
   "mapsUrl": "https://maps.google.com/?q=35.4376029,139.6449141",
   "lat": 35.4376029,
   "lng": 139.6449141,
   "halalFriendly": false,
   "bookingUrl": "https://maps.google.com/?q=35.4376029,139.6449141",
   "source": "osm"
  },
  {
   "nom": "ランドシティ横濱山手",
   "categorie": "Appartement",
   "priceRange": "€€",
   "mapsUrl": "https://maps.google.com/?q=35.435169,139.638081",
   "lat": 35.435169,
   "lng": 139.638081,
   "halalFriendly": false,
   "bookingUrl": "https://maps.google.com/?q=35.435169,139.638081",
   "source": "osm"
  },
  {
   "nom": "トーカンマンション山手石川町",
   "categorie": "Appartement",
   "priceRange": "€€",
   "mapsUrl": "https://maps.google.com/?q=35.436053,139.6426876",
   "lat": 35.436053,
   "lng": 139.6426876,
   "halalFriendly": false,
   "bookingUrl": "https://maps.google.com/?q=35.436053,139.6426876",
   "source": "osm"
  },
  {
   "nom": "プライマリーナ山下公園 グレーシアタワー",
   "categorie": "Appartement",
   "priceRange": "€€",
   "mapsUrl": "https://maps.google.com/?q=35.4442774,139.6484763",
   "lat": 35.4442774,
   "lng": 139.6484763,
   "halalFriendly": false,
   "bookingUrl": "https://maps.google.com/?q=35.4442774,139.6484763",
   "source": "osm"
  },
  {
   "nom": "b'CASA元町",
   "categorie": "Appartement",
   "priceRange": "€€",
   "mapsUrl": "https://maps.google.com/?q=35.438801,139.6466461",
   "lat": 35.438801,
   "lng": 139.6466461,
   "halalFriendly": false,
   "bookingUrl": "https://maps.google.com/?q=35.438801,139.6466461",
   "source": "osm"
  },
  {
   "nom": "山下公園ハイツ",
   "categorie": "Appartement",
   "priceRange": "€€",
   "mapsUrl": "https://maps.google.com/?q=35.4449149,139.6484547",
   "lat": 35.4449149,
   "lng": 139.6484547,
   "halalFriendly": false,
   "bookingUrl": "https://maps.google.com/?q=35.4449149,139.6484547",
   "source": "osm"
  },
  {
   "nom": "群馬銀行山手寮",
   "categorie": "Appartement",
   "priceRange": "€€",
   "mapsUrl": "https://maps.google.com/?q=35.4362142,139.6433168",
   "lat": 35.4362142,
   "lng": 139.6433168,
   "halalFriendly": false,
   "bookingUrl": "https://maps.google.com/?q=35.4362142,139.6433168",
   "source": "osm"
  },
  {
   "nom": "ベイステージ元町",
   "categorie": "Appartement",
   "priceRange": "€€",
   "mapsUrl": "https://maps.google.com/?q=35.4375862,139.6456416",
   "lat": 35.4375862,
   "lng": 139.6456416,
   "halalFriendly": false,
   "bookingUrl": "https://maps.google.com/?q=35.4375862,139.6456416",
   "source": "osm"
  },
  {
   "nom": "Yokohama Weekly Mansion",
   "categorie": "Hôtel",
   "priceRange": "€€",
   "mapsUrl": "https://maps.google.com/?q=35.4353926,139.6339729",
   "lat": 35.4353926,
   "lng": 139.6339729,
   "halalFriendly": false,
   "bookingUrl": "https://maps.google.com/?q=35.4353926,139.6339729",
   "source": "osm"
  },
  {
   "nom": "シティヒル山手24",
   "categorie": "Appartement",
   "priceRange": "€€",
   "mapsUrl": "https://maps.google.com/?q=35.4364085,139.6446041",
   "lat": 35.4364085,
   "lng": 139.6446041,
   "halalFriendly": false,
   "bookingUrl": "https://maps.google.com/?q=35.4364085,139.6446041",
   "source": "osm"
  },
  {
   "nom": "アーデル山下公園",
   "categorie": "Appartement",
   "priceRange": "€€",
   "mapsUrl": "https://maps.google.com/?q=35.4443368,139.6491002",
   "lat": 35.4443368,
   "lng": 139.6491002,
   "halalFriendly": false,
   "bookingUrl": "https://maps.google.com/?q=35.4443368,139.6491002",
   "source": "osm"
  },
  {
   "nom": "山手町マンション",
   "categorie": "Appartement",
   "priceRange": "€€",
   "mapsUrl": "https://maps.google.com/?q=35.4354762,139.6426933",
   "lat": 35.4354762,
   "lng": 139.6426933,
   "halalFriendly": false,
   "bookingUrl": "https://maps.google.com/?q=35.4354762,139.6426933",
   "source": "osm"
  },
  {
   "nom": "マイセレス元町",
   "categorie": "Appartement",
   "priceRange": "€€",
   "mapsUrl": "https://maps.google.com/?q=35.4373701,139.6460964",
   "lat": 35.4373701,
   "lng": 139.6460964,
   "halalFriendly": false,
   "bookingUrl": "https://maps.google.com/?q=35.4373701,139.6460964",
   "source": "osm"
  },
  {
   "nom": "Solana",
   "categorie": "Appartement",
   "priceRange": "€€",
   "mapsUrl": "https://maps.google.com/?q=35.4362444,139.6446575",
   "lat": 35.4362444,
   "lng": 139.6446575,
   "halalFriendly": false,
   "bookingUrl": "https://maps.google.com/?q=35.4362444,139.6446575",
   "source": "osm"
  },
  {
   "nom": "日神デュオステージ 横濱マリンスクエア",
   "categorie": "Appartement",
   "priceRange": "€€",
   "mapsUrl": "https://maps.google.com/?q=35.4444194,139.6493316",
   "lat": 35.4444194,
   "lng": 139.6493316,
   "halalFriendly": false,
   "bookingUrl": "https://maps.google.com/?q=35.4444194,139.6493316",
   "source": "osm"
  },
  {
   "nom": "旅荘　千波",
   "categorie": "Hôtel",
   "priceRange": "€€",
   "mapsUrl": "https://maps.google.com/?q=35.4421902,139.6267723",
   "lat": 35.4421902,
   "lng": 139.6267723,
   "halalFriendly": false,
   "bookingUrl": "https://maps.google.com/?q=35.4421902,139.6267723",
   "source": "osm"
  },
  {
   "nom": "シティハウス",
   "categorie": "Appartement",
   "priceRange": "€€",
   "mapsUrl": "https://maps.google.com/?q=35.4462268,139.627049",
   "lat": 35.4462268,
   "lng": 139.627049,
   "halalFriendly": false,
   "bookingUrl": "https://maps.google.com/?q=35.4462268,139.627049",
   "source": "osm"
  },
  {
   "nom": "ホテルニューグランド新館",
   "categorie": "Hôtel",
   "priceRange": "€€",
   "mapsUrl": "https://maps.google.com/?q=35.4449834,139.6492829",
   "lat": 35.4449834,
   "lng": 139.6492829,
   "halalFriendly": false,
   "bookingUrl": "https://maps.google.com/?q=35.4449834,139.6492829",
   "source": "osm"
  },
  {
   "nom": "エクレール横浜一番館",
   "categorie": "Appartement",
   "priceRange": "€€",
   "mapsUrl": "https://maps.google.com/?q=35.4466397,139.6271783",
   "lat": 35.4466397,
   "lng": 139.6271783,
   "halalFriendly": false,
   "bookingUrl": "https://maps.google.com/?q=35.4466397,139.6271783",
   "source": "osm"
  },
  {
   "nom": "スターレッド・プラザマンション",
   "categorie": "Appartement",
   "priceRange": "€€",
   "mapsUrl": "https://maps.google.com/?q=35.4356126,139.6436392",
   "lat": 35.4356126,
   "lng": 139.6436392,
   "halalFriendly": false,
   "bookingUrl": "https://maps.google.com/?q=35.4356126,139.6436392",
   "source": "osm"
  },
  {
   "nom": "NAVIOS YOKOHAMA",
   "categorie": "Hôtel",
   "priceRange": "€€",
   "mapsUrl": "https://maps.google.com/?q=35.4530054,139.6390869",
   "lat": 35.4530054,
   "lng": 139.6390869,
   "halalFriendly": false,
   "bookingUrl": "https://maps.google.com/?q=35.4530054,139.6390869",
   "source": "osm"
  },
  {
   "nom": "エスカル横浜",
   "categorie": "Hôtel",
   "priceRange": "€€",
   "mapsUrl": "https://maps.google.com/?q=35.4428567,139.6494761",
   "lat": 35.4428567,
   "lng": 139.6494761,
   "halalFriendly": false,
   "bookingUrl": "https://maps.google.com/?q=35.4428567,139.6494761",
   "source": "osm"
  },
  {
   "nom": "ホテルニューグランド",
   "categorie": "Hôtel",
   "priceRange": "€€",
   "mapsUrl": "https://maps.google.com/?q=35.4448006,139.6495658",
   "lat": 35.4448006,
   "lng": 139.6495658,
   "halalFriendly": false,
   "bookingUrl": "https://maps.google.com/?q=35.4448006,139.6495658",
   "source": "osm"
  },
  {
   "nom": "ニューシティレジデンス 野毛山",
   "categorie": "Appartement",
   "priceRange": "€€",
   "mapsUrl": "https://maps.google.com/?q=35.4460734,139.6267089",
   "lat": 35.4460734,
   "lng": 139.6267089,
   "halalFriendly": false,
   "bookingUrl": "https://maps.google.com/?q=35.4460734,139.6267089",
   "source": "osm"
  },
  {
   "nom": "SD野毛山 ポートヒルガーデン",
   "categorie": "Appartement",
   "priceRange": "€€",
   "mapsUrl": "https://maps.google.com/?q=35.4471839,139.6270017",
   "lat": 35.4471839,
   "lng": 139.6270017,
   "halalFriendly": false,
   "bookingUrl": "https://maps.google.com/?q=35.4471839,139.6270017",
   "source": "osm"
  },
  {
   "nom": "ライオンズマンション野毛山公園",
   "categorie": "Appartement",
   "priceRange": "€€",
   "mapsUrl": "https://maps.google.com/?q=35.4478831,139.6273354",
   "lat": 35.4478831,
   "lng": 139.6273354,
   "halalFriendly": false,
   "bookingUrl": "https://maps.google.com/?q=35.4478831,139.6273354",
   "source": "osm"
  },
  {
   "nom": "ロイヤルフラット 野毛山壱番館",
   "categorie": "Appartement",
   "priceRange": "€€",
   "mapsUrl": "https://maps.google.com/?q=35.447441,139.6270877",
   "lat": 35.447441,
   "lng": 139.6270877,
   "halalFriendly": false,
   "bookingUrl": "https://maps.google.com/?q=35.447441,139.6270877",
   "source": "osm"
  },
  {
   "nom": "ラ・レジダンス・ド・ピエール",
   "categorie": "Appartement",
   "priceRange": "€€",
   "mapsUrl": "https://maps.google.com/?q=35.4364064,139.6458241",
   "lat": 35.4364064,
   "lng": 139.6458241,
   "halalFriendly": false,
   "bookingUrl": "https://maps.google.com/?q=35.4364064,139.6458241",
   "source": "osm"
  },
  {
   "nom": "ルバンシス山手",
   "categorie": "Appartement",
   "priceRange": "€€",
   "mapsUrl": "https://maps.google.com/?q=35.4362201,139.6456064",
   "lat": 35.4362201,
   "lng": 139.6456064,
   "halalFriendly": false,
   "bookingUrl": "https://maps.google.com/?q=35.4362201,139.6456064",
   "source": "osm"
  },
  {
   "nom": "グランドアネックス",
   "categorie": "Hôtel",
   "priceRange": "€€",
   "mapsUrl": "https://maps.google.com/?q=35.4443535,139.6500278",
   "lat": 35.4443535,
   "lng": 139.6500278,
   "halalFriendly": false,
   "bookingUrl": "https://maps.google.com/?q=35.4443535,139.6500278",
   "source": "osm"
  },
  {
   "nom": "ロイヤルフラット野毛山弐番館",
   "categorie": "Appartement",
   "priceRange": "€€",
   "mapsUrl": "https://maps.google.com/?q=35.4475001,139.6268446",
   "lat": 35.4475001,
   "lng": 139.6268446,
   "halalFriendly": false,
   "bookingUrl": "https://maps.google.com/?q=35.4475001,139.6268446",
   "source": "osm"
  },
  {
   "nom": "山城屋旅館",
   "categorie": "Hôtel",
   "priceRange": "€€",
   "mapsUrl": "https://maps.google.com/?q=35.442526,139.625843",
   "lat": 35.442526,
   "lng": 139.625843,
   "halalFriendly": false,
   "bookingUrl": "https://maps.google.com/?q=35.442526,139.625843",
   "source": "osm"
  },
  {
   "nom": "スターホテル横浜",
   "categorie": "Hôtel",
   "priceRange": "€€",
   "mapsUrl": "https://maps.google.com/?q=35.4445547,139.6502214",
   "lat": 35.4445547,
   "lng": 139.6502214,
   "halalFriendly": false,
   "bookingUrl": "https://maps.google.com/?q=35.4445547,139.6502214",
   "source": "osm"
  },
  {
   "nom": "FLAT・YAMATE",
   "categorie": "Appartement",
   "priceRange": "€€",
   "mapsUrl": "https://maps.google.com/?q=35.4357166,139.6454796",
   "lat": 35.4357166,
   "lng": 139.6454796,
   "halalFriendly": false,
   "bookingUrl": "https://maps.google.com/?q=35.4357166,139.6454796",
   "source": "osm"
  },
  {
   "nom": "Guesthouse Futareno",
   "categorie": "Auberge",
   "priceRange": "€€",
   "mapsUrl": "https://maps.google.com/?q=35.4485581,139.627178",
   "lat": 35.4485581,
   "lng": 139.627178,
   "halalFriendly": false,
   "bookingUrl": "https://maps.google.com/?q=35.4485581,139.627178",
   "source": "osm"
  },
  {
   "nom": "スチュアートプラザ",
   "categorie": "Appartement",
   "priceRange": "€€",
   "mapsUrl": "https://maps.google.com/?q=35.4372129,139.6475571",
   "lat": 35.4372129,
   "lng": 139.6475571,
   "halalFriendly": false,
   "bookingUrl": "https://maps.google.com/?q=35.4372129,139.6475571",
   "source": "osm"
  },
  {
   "nom": "New Otani Inn",
   "categorie": "Hôtel",
   "priceRange": "€€",
   "mapsUrl": "https://maps.google.com/?q=35.4522345,139.6309983",
   "lat": 35.4522345,
   "lng": 139.6309983,
   "halalFriendly": false,
   "bookingUrl": "https://maps.google.com/?q=35.4522345,139.6309983",
   "source": "osm"
  },
  {
   "nom": "東急ドエルアルス 横浜野毛坂",
   "categorie": "Appartement",
   "priceRange": "€€",
   "mapsUrl": "https://maps.google.com/?q=35.4458777,139.6255837",
   "lat": 35.4458777,
   "lng": 139.6255837,
   "halalFriendly": false,
   "bookingUrl": "https://maps.google.com/?q=35.4458777,139.6255837",
   "source": "osm"
  },
  {
   "nom": "第一ニュー野毛山マンション",
   "categorie": "Appartement",
   "priceRange": "€€",
   "mapsUrl": "https://maps.google.com/?q=35.4461822,139.6256551",
   "lat": 35.4461822,
   "lng": 139.6256551,
   "halalFriendly": false,
   "bookingUrl": "https://maps.google.com/?q=35.4461822,139.6256551",
   "source": "osm"
  },
  {
   "nom": "山手町コーポラス",
   "categorie": "Appartement",
   "priceRange": "€€",
   "mapsUrl": "https://maps.google.com/?q=35.4358624,139.6464946",
   "lat": 35.4358624,
   "lng": 139.6464946,
   "halalFriendly": false,
   "bookingUrl": "https://maps.google.com/?q=35.4358624,139.6464946",
   "source": "osm"
  },
  {
   "nom": "パークハイム横濱山手",
   "categorie": "Appartement",
   "priceRange": "€€",
   "mapsUrl": "https://maps.google.com/?q=35.433219,139.637401",
   "lat": 35.433219,
   "lng": 139.637401,
   "halalFriendly": false,
   "bookingUrl": "https://maps.google.com/?q=35.433219,139.637401",
   "source": "osm"
  },
  {
   "nom": "ランドシティ野毛坂ヒルステージ",
   "categorie": "Appartement",
   "priceRange": "€€",
   "mapsUrl": "https://maps.google.com/?q=35.4454141,139.6252647",
   "lat": 35.4454141,
   "lng": 139.6252647,
   "halalFriendly": false,
   "bookingUrl": "https://maps.google.com/?q=35.4454141,139.6252647",
   "source": "osm"
  },
  {
   "nom": "アトラス野毛山壱番館",
   "categorie": "Appartement",
   "priceRange": "€€",
   "mapsUrl": "https://maps.google.com/?q=35.448313,139.6263997",
   "lat": 35.448313,
   "lng": 139.6263997,
   "halalFriendly": false,
   "bookingUrl": "https://maps.google.com/?q=35.448313,139.6263997",
   "source": "osm"
  },
  {
   "nom": "第二ニュー野毛山マンション",
   "categorie": "Appartement",
   "priceRange": "€€",
   "mapsUrl": "https://maps.google.com/?q=35.4464971,139.6255291",
   "lat": 35.4464971,
   "lng": 139.6255291,
   "halalFriendly": false,
   "bookingUrl": "https://maps.google.com/?q=35.4464971,139.6255291",
   "source": "osm"
  },
  {
   "nom": "ライオンズマンション山手石川町",
   "categorie": "Appartement",
   "priceRange": "€€",
   "mapsUrl": "https://maps.google.com/?q=35.4332719,139.6355913",
   "lat": 35.4332719,
   "lng": 139.6355913,
   "halalFriendly": false,
   "bookingUrl": "https://maps.google.com/?q=35.4332719,139.6355913",
   "source": "osm"
  },
  {
   "nom": "ロッジ山手",
   "categorie": "Appartement",
   "priceRange": "€€",
   "mapsUrl": "https://maps.google.com/?q=35.4359057,139.6468558",
   "lat": 35.4359057,
   "lng": 139.6468558,
   "halalFriendly": false,
   "bookingUrl": "https://maps.google.com/?q=35.4359057,139.6468558",
   "source": "osm"
  },
  {
   "nom": "ビラ代官坂",
   "categorie": "Appartement",
   "priceRange": "€€",
   "mapsUrl": "https://maps.google.com/?q=35.4390963,139.649797",
   "lat": 35.4390963,
   "lng": 139.649797,
   "halalFriendly": false,
   "bookingUrl": "https://maps.google.com/?q=35.4390963,139.649797",
   "source": "osm"
  },
  {
   "nom": "野毛山パークマンション",
   "categorie": "Appartement",
   "priceRange": "€€",
   "mapsUrl": "https://maps.google.com/?q=35.4463448,139.6252497",
   "lat": 35.4463448,
   "lng": 139.6252497,
   "halalFriendly": false,
   "bookingUrl": "https://maps.google.com/?q=35.4463448,139.6252497",
   "source": "osm"
  },
  {
   "nom": "リアージュヤマテエイト",
   "categorie": "Appartement",
   "priceRange": "€€",
   "mapsUrl": "https://maps.google.com/?q=35.4392698,139.6501404",
   "lat": 35.4392698,
   "lng": 139.6501404,
   "halalFriendly": false,
   "bookingUrl": "https://maps.google.com/?q=35.4392698,139.6501404",
   "source": "osm"
  },
  {
   "nom": "野毛山マンション",
   "categorie": "Appartement",
   "priceRange": "€€",
   "mapsUrl": "https://maps.google.com/?q=35.4482819,139.6258172",
   "lat": 35.4482819,
   "lng": 139.6258172,
   "halalFriendly": false,
   "bookingUrl": "https://maps.google.com/?q=35.4482819,139.6258172",
   "source": "osm"
  },
  {
   "nom": "山手町ハイム",
   "categorie": "Appartement",
   "priceRange": "€€",
   "mapsUrl": "https://maps.google.com/?q=35.4353655,139.6468954",
   "lat": 35.4353655,
   "lng": 139.6468954,
   "halalFriendly": false,
   "bookingUrl": "https://maps.google.com/?q=35.4353655,139.6468954",
   "source": "osm"
  },
  {
   "nom": "カステッロデルソーレフルヤ",
   "categorie": "Appartement",
   "priceRange": "€€",
   "mapsUrl": "https://maps.google.com/?q=35.4450575,139.6242545",
   "lat": 35.4450575,
   "lng": 139.6242545,
   "halalFriendly": false,
   "bookingUrl": "https://maps.google.com/?q=35.4450575,139.6242545",
   "source": "osm"
  },
  {
   "nom": "エンゼルハイム 野毛山公園A・B",
   "categorie": "Appartement",
   "priceRange": "€€",
   "mapsUrl": "https://maps.google.com/?q=35.4485845,139.6252823",
   "lat": 35.4485845,
   "lng": 139.6252823,
   "halalFriendly": false,
   "bookingUrl": "https://maps.google.com/?q=35.4485845,139.6252823",
   "source": "osm"
  },
  {
   "nom": "山手パークハイツ",
   "categorie": "Appartement",
   "priceRange": "€€",
   "mapsUrl": "https://maps.google.com/?q=35.4347635,139.646913",
   "lat": 35.4347635,
   "lng": 139.646913,
   "halalFriendly": false,
   "bookingUrl": "https://maps.google.com/?q=35.4347635,139.646913",
   "source": "osm"
  },
  {
   "nom": "安本マンション",
   "categorie": "Appartement",
   "priceRange": "€€",
   "mapsUrl": "https://maps.google.com/?q=35.4324628,139.6414706",
   "lat": 35.4324628,
   "lng": 139.6414706,
   "halalFriendly": false,
   "bookingUrl": "https://maps.google.com/?q=35.4324628,139.6414706",
   "source": "osm"
  },
  {
   "nom": "サンセール山手",
   "categorie": "Appartement",
   "priceRange": "€€",
   "mapsUrl": "https://maps.google.com/?q=35.4324125,139.6413377",
   "lat": 35.4324125,
   "lng": 139.6413377,
   "halalFriendly": false,
   "bookingUrl": "https://maps.google.com/?q=35.4324125,139.6413377",
   "source": "osm"
  },
  {
   "nom": "ファインウェル",
   "categorie": "Appartement",
   "priceRange": "€€",
   "mapsUrl": "https://maps.google.com/?q=35.4322296,139.6409455",
   "lat": 35.4322296,
   "lng": 139.6409455,
   "halalFriendly": false,
   "bookingUrl": "https://maps.google.com/?q=35.4322296,139.6409455",
   "source": "osm"
  },
  {
   "nom": "アーバンヒルズ",
   "categorie": "Appartement",
   "priceRange": "€€",
   "mapsUrl": "https://maps.google.com/?q=35.4323539,139.6418098",
   "lat": 35.4323539,
   "lng": 139.6418098,
   "halalFriendly": false,
   "bookingUrl": "https://maps.google.com/?q=35.4323539,139.6418098",
   "source": "osm"
  },
  {
   "nom": "メゾンドールMK",
   "categorie": "Appartement",
   "priceRange": "€€",
   "mapsUrl": "https://maps.google.com/?q=35.4322723,139.6417335",
   "lat": 35.4322723,
   "lng": 139.6417335,
   "halalFriendly": false,
   "bookingUrl": "https://maps.google.com/?q=35.4322723,139.6417335",
   "source": "osm"
  },
  {
   "nom": "プレタメゾンボナール",
   "categorie": "Appartement",
   "priceRange": "€€",
   "mapsUrl": "https://maps.google.com/?q=35.4325193,139.6428928",
   "lat": 35.4325193,
   "lng": 139.6428928,
   "halalFriendly": false,
   "bookingUrl": "https://maps.google.com/?q=35.4325193,139.6428928",
   "source": "osm"
  },
  {
   "nom": "ブラフ100マンション",
   "categorie": "Appartement",
   "priceRange": "€€",
   "mapsUrl": "https://maps.google.com/?q=35.4409176,139.6522055",
   "lat": 35.4409176,
   "lng": 139.6522055,
   "halalFriendly": false,
   "bookingUrl": "https://maps.google.com/?q=35.4409176,139.6522055",
   "source": "osm"
  },
  {
   "nom": "横浜ロイヤルパークホテル",
   "categorie": "Hôtel",
   "priceRange": "€€",
   "mapsUrl": "https://maps.google.com/?q=35.4545075,139.6317116",
   "lat": 35.4545075,
   "lng": 139.6317116,
   "halalFriendly": false,
   "bookingUrl": "https://maps.google.com/?q=35.4545075,139.6317116",
   "source": "osm"
  },
  {
   "nom": "ハイツ新井",
   "categorie": "Appartement",
   "priceRange": "€€",
   "mapsUrl": "https://maps.google.com/?q=35.4320517,139.641529",
   "lat": 35.4320517,
   "lng": 139.641529,
   "halalFriendly": false,
   "bookingUrl": "https://maps.google.com/?q=35.4320517,139.641529",
   "source": "osm"
  },
  {
   "nom": "パティオ山手",
   "categorie": "Appartement",
   "priceRange": "€€",
   "mapsUrl": "https://maps.google.com/?q=35.4318187,139.6405685",
   "lat": 35.4318187,
   "lng": 139.6405685,
   "halalFriendly": false,
   "bookingUrl": "https://maps.google.com/?q=35.4318187,139.6405685",
   "source": "osm"
  },
  {
   "nom": "ポートビューハイツ",
   "categorie": "Appartement",
   "priceRange": "€€",
   "mapsUrl": "https://maps.google.com/?q=35.4406728,139.6523901",
   "lat": 35.4406728,
   "lng": 139.6523901,
   "halalFriendly": false,
   "bookingUrl": "https://maps.google.com/?q=35.4406728,139.6523901",
   "source": "osm"
  },
  {
   "nom": "サンセット山手",
   "categorie": "Appartement",
   "priceRange": "€€",
   "mapsUrl": "https://maps.google.com/?q=35.4404518,139.6526084",
   "lat": 35.4404518,
   "lng": 139.6526084,
   "halalFriendly": false,
   "bookingUrl": "https://maps.google.com/?q=35.4404518,139.6526084",
   "source": "osm"
  },
  {
   "nom": "クリオ山手弐番館",
   "categorie": "Appartement",
   "priceRange": "€€",
   "mapsUrl": "https://maps.google.com/?q=35.4313171,139.638472",
   "lat": 35.4313171,
   "lng": 139.638472,
   "halalFriendly": false,
   "bookingUrl": "https://maps.google.com/?q=35.4313171,139.638472",
   "source": "osm"
  },
  {
   "nom": "第一生命鷺山寮",
   "categorie": "Appartement",
   "priceRange": "€€",
   "mapsUrl": "https://maps.google.com/?q=35.4330425,139.6457555",
   "lat": 35.4330425,
   "lng": 139.6457555,
   "halalFriendly": false,
   "bookingUrl": "https://maps.google.com/?q=35.4330425,139.6457555",
   "source": "osm"
  }
 ],
 "mosqueesPrincipales": [
  {
   "nom": "Ja'me Masjid Yokohama",
   "lat": 35.5442281,
   "lng": 139.6012703,
   "coordonnees": {
    "lat": 35.5442281,
    "lng": 139.6012703
   },
   "mapsUrl": "https://maps.google.com/?q=35.5442281,139.6012703",
   "source": "osm"
  }
 ],
 "activites": [
  {
   "id": "a4495339493",
   "nom": "港町魚市場跡",
   "categorie": "memorial",
   "description": "",
   "prix": "",
   "duree": "",
   "mapsUrl": "https://maps.google.com/?q=35.4431659,139.6379262",
   "lat": 35.4431659,
   "lng": 139.6379262,
   "source": "osm"
  },
  {
   "id": "a3125336894",
   "nom": "神奈川県電気発祥の地",
   "categorie": "memorial",
   "description": "",
   "prix": "",
   "duree": "",
   "mapsUrl": "https://maps.google.com/?q=35.4451721,139.6383534",
   "lat": 35.4451721,
   "lng": 139.6383534,
   "source": "osm"
  },
  {
   "id": "a3125336893",
   "nom": "横浜ベイスターズ優勝記念モニュメント「煌」",
   "categorie": "memorial",
   "description": "",
   "prix": "",
   "duree": "",
   "mapsUrl": "https://maps.google.com/?q=35.4453061,139.6384573",
   "lat": 35.4453061,
   "lng": 139.6384573,
   "source": "osm"
  },
  {
   "id": "a2735715496",
   "nom": "La meditation",
   "categorie": "artwork",
   "description": "",
   "prix": "",
   "duree": "",
   "mapsUrl": "https://maps.google.com/?q=35.443137,139.6359358",
   "lat": 35.443137,
   "lng": 139.6359358,
   "source": "osm"
  },
  {
   "id": "a5603040065",
   "nom": "駐車",
   "categorie": "attraction",
   "description": "",
   "prix": "",
   "duree": "",
   "mapsUrl": "https://maps.google.com/?q=35.445894,139.638623",
   "lat": 35.445894,
   "lng": 139.638623,
   "source": "osm"
  },
  {
   "id": "a3589359820",
   "nom": "リチャード・ヘンリー・ブラントン像",
   "categorie": "memorial",
   "description": "",
   "prix": "",
   "duree": "",
   "mapsUrl": "https://maps.google.com/?q=35.4447229,139.6409555",
   "lat": 35.4447229,
   "lng": 139.6409555,
   "source": "osm"
  },
  {
   "id": "a4116231327",
   "nom": "水琴窟",
   "categorie": "attraction",
   "description": "",
   "prix": "",
   "duree": "",
   "mapsUrl": "https://maps.google.com/?q=35.4442539,139.6413327",
   "lat": 35.4442539,
   "lng": 139.6413327,
   "source": "osm"
  },
  {
   "id": "a1420825011",
   "nom": "横浜市技能文化会館・技能文化展示室匠プラザ",
   "categorie": "museum",
   "description": "",
   "prix": "",
   "duree": "",
   "mapsUrl": "https://maps.google.com/?q=35.44186,139.635052",
   "lat": 35.44186,
   "lng": 139.635052,
   "source": "osm"
  },
  {
   "id": "a2319180416",
   "nom": "国際親善総合病院 メダリオン",
   "categorie": "memorial",
   "description": "",
   "prix": "",
   "duree": "",
   "mapsUrl": "https://maps.google.com/?q=35.4470187,139.6377162",
   "lat": 35.4470187,
   "lng": 139.6377162,
   "source": "osm"
  },
  {
   "id": "a3123770087",
   "nom": "PEACE II",
   "categorie": "artwork",
   "description": "",
   "prix": "",
   "duree": "",
   "mapsUrl": "https://maps.google.com/?q=35.446955,139.6365329",
   "lat": 35.446955,
   "lng": 139.6365329,
   "source": "osm"
  },
  {
   "id": "a3245709791",
   "nom": "PEACE I",
   "categorie": "artwork",
   "description": "",
   "prix": "",
   "duree": "",
   "mapsUrl": "https://maps.google.com/?q=35.4473331,139.6358596",
   "lat": 35.4473331,
   "lng": 139.6358596,
   "source": "osm"
  },
  {
   "id": "a13793434447",
   "nom": "Galerie Paris",
   "categorie": "gallery",
   "description": "",
   "prix": "",
   "duree": "",
   "mapsUrl": "https://maps.google.com/?q=35.4459212,139.6422903",
   "lat": 35.4459212,
   "lng": 139.6422903,
   "source": "osm"
  },
  {
   "id": "a2735711564",
   "nom": "Three part object",
   "categorie": "artwork",
   "description": "",
   "prix": "",
   "duree": "",
   "mapsUrl": "https://maps.google.com/?q=35.441534,139.633513",
   "lat": 35.441534,
   "lng": 139.633513,
   "source": "osm"
  },
  {
   "id": "a2319207087",
   "nom": "横浜商工会議所発祥の地",
   "categorie": "memorial",
   "description": "",
   "prix": "",
   "duree": "",
   "mapsUrl": "https://maps.google.com/?q=35.447125,139.6411852",
   "lat": 35.447125,
   "lng": 139.6411852,
   "source": "osm"
  },
  {
   "id": "a1733094523",
   "nom": "新聞少年の像",
   "categorie": "monument",
   "description": "",
   "prix": "",
   "duree": "",
   "mapsUrl": "https://maps.google.com/?q=35.4460763,139.6424493",
   "lat": 35.4460763,
   "lng": 139.6424493,
   "source": "osm"
  },
  {
   "id": "a2319207085",
   "nom": "岡倉天心生誕之地",
   "categorie": "memorial",
   "description": "",
   "prix": "",
   "duree": "",
   "mapsUrl": "https://maps.google.com/?q=35.4472031,139.6412578",
   "lat": 35.4472031,
   "lng": 139.6412578,
   "source": "osm"
  },
  {
   "id": "a2319207086",
   "nom": "横濱町會所跡",
   "categorie": "memorial",
   "description": "",
   "prix": "",
   "duree": "",
   "mapsUrl": "https://maps.google.com/?q=35.4472622,139.641294",
   "lat": 35.4472622,
   "lng": 139.641294,
   "source": "osm"
  },
  {
   "id": "a1420822762",
   "nom": "日本新聞博物館（ニュースパーク）",
   "categorie": "museum",
   "description": "",
   "prix": "",
   "duree": "",
   "mapsUrl": "https://maps.google.com/?q=35.4463516,139.6427009",
   "lat": 35.4463516,
   "lng": 139.6427009,
   "source": "osm"
  },
  {
   "id": "a3125467484",
   "nom": "旧居留地消防隊地下貯留水槽遺構",
   "categorie": "ruins",
   "description": "",
   "prix": "",
   "duree": "",
   "mapsUrl": "https://maps.google.com/?q=35.445705,139.6431955",
   "lat": 35.445705,
   "lng": 139.6431955,
   "source": "osm"
  },
  {
   "id": "a3125467481",
   "nom": "消防救急発祥之地",
   "categorie": "memorial",
   "description": "",
   "prix": "",
   "duree": "",
   "mapsUrl": "https://maps.google.com/?q=35.4457133,139.6432274",
   "lat": 35.4457133,
   "lng": 139.6432274,
   "source": "osm"
  },
  {
   "id": "a2735710650",
   "nom": "笹と少年",
   "categorie": "artwork",
   "description": "",
   "prix": "",
   "duree": "",
   "mapsUrl": "https://maps.google.com/?q=35.44116,139.633115",
   "lat": 35.44116,
   "lng": 139.633115,
   "source": "osm"
  },
  {
   "id": "a3162356393",
   "nom": "近代横浜の土木遺構",
   "categorie": "ruins",
   "description": "",
   "prix": "",
   "duree": "",
   "mapsUrl": "https://maps.google.com/?q=35.4460431,139.6432501",
   "lat": 35.4460431,
   "lng": 139.6432501,
   "source": "osm"
  },
  {
   "id": "a3245709799",
   "nom": "日本写真の開祖 写真し師・下岡蓮杖顕彰碑",
   "categorie": "memorial",
   "description": "",
   "prix": "",
   "duree": "",
   "mapsUrl": "https://maps.google.com/?q=35.4484915,139.6364375",
   "lat": 35.4484915,
   "lng": 139.6364375,
   "source": "osm"
  },
  {
   "id": "a1420823425",
   "nom": "横浜ユーラシア文化館",
   "categorie": "museum",
   "description": "",
   "prix": "",
   "duree": "",
   "mapsUrl": "https://maps.google.com/?q=35.4462299,139.6432801",
   "lat": 35.4462299,
   "lng": 139.6432801,
   "source": "osm"
  },
  {
   "id": "a919776945",
   "nom": "開通合名会社の煉瓦遺構",
   "categorie": "archaeological site",
   "description": "",
   "prix": "",
   "duree": "",
   "mapsUrl": "https://maps.google.com/?q=35.4477519,139.6416658",
   "lat": 35.4477519,
   "lng": 139.6416658,
   "source": "osm"
  },
  {
   "id": "a1420825726",
   "nom": "横浜都市発展記念館",
   "categorie": "museum",
   "description": "",
   "prix": "",
   "duree": "",
   "mapsUrl": "https://maps.google.com/?q=35.4461073,139.6434318",
   "lat": 35.4461073,
   "lng": 139.6434318,
   "source": "osm"
  },
  {
   "id": "a4495545789",
   "nom": "神奈川運上所跡",
   "categorie": "monument",
   "description": "",
   "prix": "",
   "duree": "",
   "mapsUrl": "https://maps.google.com/?q=35.4470993,139.6425918",
   "lat": 35.4470993,
   "lng": 139.6425918,
   "source": "osm"
  },
  {
   "id": "a2190817948",
   "nom": "馬の飲み水",
   "categorie": "memorial",
   "description": "",
   "prix": "",
   "duree": "",
   "mapsUrl": "https://maps.google.com/?q=35.4490349,139.6368348",
   "lat": 35.4490349,
   "lng": 139.6368348,
   "source": "osm"
  },
  {
   "id": "a4773995014",
   "nom": "Yokohama Omoshiro Aquarium",
   "categorie": "aquarium",
   "description": "",
   "prix": "",
   "duree": "",
   "mapsUrl": "https://maps.google.com/?q=35.4428405,139.6446474",
   "lat": 35.4428405,
   "lng": 139.6446474,
   "source": "osm"
  },
  {
   "id": "a3125467483",
   "nom": "電話交換創始之地",
   "categorie": "memorial",
   "description": "",
   "prix": "",
   "duree": "",
   "mapsUrl": "https://maps.google.com/?q=35.4464818,139.6438971",
   "lat": 35.4464818,
   "lng": 139.6438971,
   "source": "osm"
  },
  {
   "id": "a88383441",
   "nom": "神奈川県立歴史博物館",
   "categorie": "museum",
   "description": "",
   "prix": "",
   "duree": "",
   "mapsUrl": "https://maps.google.com/?q=35.4491293,139.636229",
   "lat": 35.4491293,
   "lng": 139.636229,
   "source": "osm"
  },
  {
   "id": "a3245631411",
   "nom": "KING, QUEEN & JACK TOWERS YOKOHAMA VIEW POINT",
   "categorie": "viewpoint",
   "description": "",
   "prix": "",
   "duree": "",
   "mapsUrl": "https://maps.google.com/?q=35.4473366,139.6433148",
   "lat": 35.4473366,
   "lng": 139.6433148,
   "source": "osm"
  },
  {
   "id": "a10257994736",
   "nom": "日本における新聞誕生の地",
   "categorie": "information",
   "description": "",
   "prix": "",
   "duree": "",
   "mapsUrl": "https://maps.google.com/?q=35.4421308,139.6448353",
   "lat": 35.4421308,
   "lng": 139.6448353,
   "source": "osm"
  },
  {
   "id": "a2735703754",
   "nom": "La belle servante",
   "categorie": "artwork",
   "description": "",
   "prix": "",
   "duree": "",
   "mapsUrl": "https://maps.google.com/?q=35.440615,139.631985",
   "lat": 35.440615,
   "lng": 139.631985,
   "source": "osm"
  },
  {
   "id": "a2319204646",
   "nom": "県庁本庁舎(King)屋上展望台",
   "categorie": "viewpoint",
   "description": "",
   "prix": "",
   "duree": "",
   "mapsUrl": "https://maps.google.com/?q=35.447921,139.6429266",
   "lat": 35.447921,
   "lng": 139.6429266,
   "source": "osm"
  },
  {
   "id": "a3593636763",
   "nom": "横浜の下水道の始まり",
   "categorie": "memorial",
   "description": "",
   "prix": "",
   "duree": "",
   "mapsUrl": "https://maps.google.com/?q=35.4411556,139.6444578",
   "lat": 35.4411556,
   "lng": 139.6444578,
   "source": "osm"
  },
  {
   "id": "a445258887",
   "nom": "横浜中華街",
   "categorie": "attraction",
   "description": "",
   "prix": "",
   "duree": "",
   "mapsUrl": "https://maps.google.com/?q=35.4428847,139.6451998",
   "lat": 35.4428847,
   "lng": 139.6451998,
   "source": "osm"
  },
  {
   "id": "a915458374",
   "nom": "横浜開港資料館",
   "categorie": "museum",
   "description": "",
   "prix": "",
   "duree": "",
   "mapsUrl": "https://maps.google.com/?q=35.4474991,139.6438036",
   "lat": 35.4474991,
   "lng": 139.6438036,
   "source": "osm"
  },
  {
   "id": "a10978717541",
   "nom": "ARK",
   "categorie": "gallery",
   "description": "",
   "prix": "",
   "duree": "",
   "mapsUrl": "https://maps.google.com/?q=35.438493,139.6418661",
   "lat": 35.438493,
   "lng": 139.6418661,
   "source": "osm"
  },
  {
   "id": "a4439954080",
   "nom": "暖かい手で",
   "categorie": "artwork",
   "description": "",
   "prix": "",
   "duree": "",
   "mapsUrl": "https://maps.google.com/?q=35.4454286,139.6454648",
   "lat": 35.4454286,
   "lng": 139.6454648,
   "source": "osm"
  },
  {
   "id": "a3125367986",
   "nom": "明治10年代に築造されたレンガ造りマンホールと下水管",
   "categorie": "ruins",
   "description": "",
   "prix": "",
   "duree": "",
   "mapsUrl": "https://maps.google.com/?q=35.4474298,139.6442848",
   "lat": 35.4474298,
   "lng": 139.6442848,
   "source": "osm"
  },
  {
   "id": "a10257994740",
   "nom": "西洋理髪発祥の地",
   "categorie": "information",
   "description": "",
   "prix": "",
   "duree": "",
   "mapsUrl": "https://maps.google.com/?q=35.443371,139.6458733",
   "lat": 35.443371,
   "lng": 139.6458733,
   "source": "osm"
  },
  {
   "id": "a3125367988",
   "nom": "日米和親条約締結の地",
   "categorie": "memorial",
   "description": "",
   "prix": "",
   "duree": "",
   "mapsUrl": "https://maps.google.com/?q=35.4474971,139.6443829",
   "lat": 35.4474971,
   "lng": 139.6443829,
   "source": "osm"
  },
  {
   "id": "a351147016",
   "nom": "旧横浜居留地48番館",
   "categorie": "archaeological site",
   "description": "",
   "prix": "",
   "duree": "",
   "mapsUrl": "https://maps.google.com/?q=35.4458952,139.6457186",
   "lat": 35.4458952,
   "lng": 139.6457186,
   "source": "osm"
  },
  {
   "id": "a1420822813",
   "nom": "日本郵船歴史博物館",
   "categorie": "museum",
   "description": "",
   "prix": "",
   "duree": "",
   "mapsUrl": "https://maps.google.com/?q=35.450362,139.639421",
   "lat": 35.450362,
   "lng": 139.639421,
   "source": "osm"
  },
  {
   "id": "a411635694",
   "nom": "転車台",
   "categorie": "ruins",
   "description": "",
   "prix": "",
   "duree": "",
   "mapsUrl": "https://maps.google.com/?q=35.4486035,139.6437656",
   "lat": 35.4486035,
   "lng": 139.6437656,
   "source": "osm"
  },
  {
   "id": "a12688858567",
   "nom": "横濱ハイカラきもの館",
   "categorie": "museum",
   "description": "",
   "prix": "",
   "duree": "",
   "mapsUrl": "https://maps.google.com/?q=35.4473076,139.6450634",
   "lat": 35.4473076,
   "lng": 139.6450634,
   "source": "osm"
  },
  {
   "id": "a1420813339",
   "nom": "シルク博物館",
   "categorie": "museum",
   "description": "",
   "prix": "",
   "duree": "",
   "mapsUrl": "https://maps.google.com/?q=35.447237,139.64523",
   "lat": 35.447237,
   "lng": 139.64523,
   "source": "osm"
  },
  {
   "id": "a5231869716",
   "nom": "絹と女",
   "categorie": "artwork",
   "description": "",
   "prix": "",
   "duree": "",
   "mapsUrl": "https://maps.google.com/?q=35.4476902,139.6450777",
   "lat": 35.4476902,
   "lng": 139.6450777,
   "source": "osm"
  },
  {
   "id": "a5231869717",
   "nom": "英一番館跡",
   "categorie": "memorial",
   "description": "",
   "prix": "",
   "duree": "",
   "mapsUrl": "https://maps.google.com/?q=35.4477081,139.6450682",
   "lat": 35.4477081,
   "lng": 139.6450682,
   "source": "osm"
  },
  {
   "id": "a6566766458",
   "nom": "Launch Pad Gallery",
   "categorie": "gallery",
   "description": "",
   "prix": "",
   "duree": "",
   "mapsUrl": "https://maps.google.com/?q=35.4365266,139.6380904",
   "lat": 35.4365266,
   "lng": 139.6380904,
   "source": "osm"
  },
  {
   "id": "a4924035837",
   "nom": "象の鼻テラス",
   "categorie": "viewpoint",
   "description": "",
   "prix": "",
   "duree": "",
   "mapsUrl": "https://maps.google.com/?q=35.4496801,139.6431929",
   "lat": 35.4496801,
   "lng": 139.6431929,
   "source": "osm"
  },
  {
   "id": "a3245788083",
   "nom": "横浜県民ホールギャラリー",
   "categorie": "gallery",
   "description": "",
   "prix": "",
   "duree": "",
   "mapsUrl": "https://maps.google.com/?q=35.4461677,139.6466476",
   "lat": 35.4461677,
   "lng": 139.6466476,
   "source": "osm"
  },
  {
   "id": "a10257994741",
   "nom": "\"日本で最初のフットボール（ラグビー）発祥地　横浜\"記念碑",
   "categorie": "information",
   "description": "",
   "prix": "",
   "duree": "",
   "mapsUrl": "https://maps.google.com/?q=35.4423751,139.6471045",
   "lat": 35.4423751,
   "lng": 139.6471045,
   "source": "osm"
  },
  {
   "id": "a11062734995",
   "nom": "横浜開港150周年記念碑（たねまるの墓）",
   "categorie": "memorial",
   "description": "",
   "prix": "",
   "duree": "",
   "mapsUrl": "https://maps.google.com/?q=35.4503852,139.6426821",
   "lat": 35.4503852,
   "lng": 139.6426821,
   "source": "osm"
  },
  {
   "id": "a10257994739",
   "nom": "継往開來",
   "categorie": "memorial",
   "description": "",
   "prix": "",
   "duree": "",
   "mapsUrl": "https://maps.google.com/?q=35.4436953,139.6474501",
   "lat": 35.4436953,
   "lng": 139.6474501,
   "source": "osm"
  },
  {
   "id": "a8461561171",
   "nom": "旧横濱鉄道歴史展示",
   "categorie": "museum",
   "description": "",
   "prix": "",
   "duree": "",
   "mapsUrl": "https://maps.google.com/?q=35.4498806,139.6316412",
   "lat": 35.4498806,
   "lng": 139.6316412,
   "source": "osm"
  },
  {
   "id": "a6292461085",
   "nom": "GAME SEGA",
   "categorie": "attraction",
   "description": "",
   "prix": "",
   "duree": "",
   "mapsUrl": "https://maps.google.com/?q=35.4439309,139.6480148",
   "lat": 35.4439309,
   "lng": 139.6480148,
   "source": "osm"
  },
  {
   "id": "a602391194",
   "nom": "山手イタリア山",
   "categorie": "memorial",
   "description": "",
   "prix": "",
   "duree": "",
   "mapsUrl": "https://maps.google.com/?q=35.4368116,139.6435364",
   "lat": 35.4368116,
   "lng": 139.6435364,
   "source": "osm"
  },
  {
   "id": "a404722400",
   "nom": "外交官の家",
   "categorie": "attraction",
   "description": "",
   "prix": "",
   "duree": "",
   "mapsUrl": "https://maps.google.com/?q=35.4366283,139.6432595",
   "lat": 35.4366283,
   "lng": 139.6432595,
   "source": "osm"
  },
  {
   "id": "a89951072",
   "nom": "横浜大世界",
   "categorie": "theme park",
   "description": "",
   "prix": "",
   "duree": "",
   "mapsUrl": "https://maps.google.com/?q=35.4425872,139.6480884",
   "lat": 35.4425872,
   "lng": 139.6480884,
   "source": "osm"
  },
  {
   "id": "a13855676583",
   "nom": "洲干島遺跡",
   "categorie": "memorial",
   "description": "",
   "prix": "",
   "duree": "",
   "mapsUrl": "https://maps.google.com/?q=35.4512518,139.6337718",
   "lat": 35.4512518,
   "lng": 139.6337718,
   "source": "osm"
  },
  {
   "id": "a13855676582",
   "nom": "航路標識管理所 倉庫基礎",
   "categorie": "memorial",
   "description": "",
   "prix": "",
   "duree": "",
   "mapsUrl": "https://maps.google.com/?q=35.4512324,139.6336764",
   "lat": 35.4512324,
   "lng": 139.6336764,
   "source": "osm"
  },
  {
   "id": "a451336111",
   "nom": "ブラフ18番館",
   "categorie": "attraction",
   "description": "",
   "prix": "",
   "duree": "",
   "mapsUrl": "https://maps.google.com/?q=35.436783,139.6439217",
   "lat": 35.436783,
   "lng": 139.6439217,
   "source": "osm"
  },
  {
   "id": "a4041305208",
   "nom": "横浜天主堂跡",
   "categorie": "memorial",
   "description": "",
   "prix": "",
   "duree": "",
   "mapsUrl": "https://maps.google.com/?q=35.4436959,139.6483938",
   "lat": 35.4436959,
   "lng": 139.6483938,
   "source": "osm"
  },
  {
   "id": "a3864630033",
   "nom": "美空ひばり像",
   "categorie": "memorial",
   "description": "",
   "prix": "",
   "duree": "",
   "mapsUrl": "https://maps.google.com/?q=35.4467118,139.6281468",
   "lat": 35.4467118,
   "lng": 139.6281468,
   "source": "osm"
  },
  {
   "id": "a4692129817",
   "nom": "ギャラリー桜木町",
   "categorie": "gallery",
   "description": "",
   "prix": "",
   "duree": "",
   "mapsUrl": "https://maps.google.com/?q=35.4491327,139.6298095",
   "lat": 35.4491327,
   "lng": 139.6298095,
   "source": "osm"
  },
  {
   "id": "a11062734994",
   "nom": "西洋理髪発祥の地碑",
   "categorie": "memorial",
   "description": "",
   "prix": "",
   "duree": "",
   "mapsUrl": "https://maps.google.com/?q=35.4466601,139.6480344",
   "lat": 35.4466601,
   "lng": 139.6480344,
   "source": "osm"
  },
  {
   "id": "a4702078791",
   "nom": "赤い靴はいてた女の子",
   "categorie": "artwork",
   "description": "",
   "prix": "",
   "duree": "",
   "mapsUrl": "https://maps.google.com/?q=35.4471064,139.6481339",
   "lat": 35.4471064,
   "lng": 139.6481339,
   "source": "osm"
  },
  {
   "id": "a13871707599",
   "nom": "中島敦「山月記」文学碑",
   "categorie": "memorial",
   "description": "",
   "prix": "",
   "duree": "",
   "mapsUrl": "https://maps.google.com/?q=35.4390915,139.6479353",
   "lat": 35.4390915,
   "lng": 139.6479353,
   "source": "osm"
  },
  {
   "id": "a2993794272",
   "nom": "MZ arts",
   "categorie": "gallery",
   "description": "",
   "prix": "",
   "duree": "",
   "mapsUrl": "https://maps.google.com/?q=35.4427086,139.6263438",
   "lat": 35.4427086,
   "lng": 139.6263438,
   "source": "osm"
  },
  {
   "id": "a10216454044",
   "nom": "横浜赤レンガ倉庫",
   "categorie": "attraction",
   "description": "",
   "prix": "",
   "duree": "",
   "mapsUrl": "https://maps.google.com/?q=35.4524046,139.6429182",
   "lat": 35.4524046,
   "lng": 139.6429182,
   "source": "osm"
  },
  {
   "id": "a13871707598",
   "nom": "ファニーの像",
   "categorie": "artwork",
   "description": "",
   "prix": "",
   "duree": "",
   "mapsUrl": "https://maps.google.com/?q=35.4403263,139.6490226",
   "lat": 35.4403263,
   "lng": 139.6490226,
   "source": "osm"
  },
  {
   "id": "a5541431521",
   "nom": "Kishamichi Promenade",
   "categorie": "attraction",
   "description": "",
   "prix": "",
   "duree": "",
   "mapsUrl": "https://maps.google.com/?q=35.4529248,139.6347003",
   "lat": 35.4529248,
   "lng": 139.6347003,
   "source": "osm"
  },
  {
   "id": "a4949974788",
   "nom": "水の守護神像",
   "categorie": "artwork",
   "description": "",
   "prix": "",
   "duree": "",
   "mapsUrl": "https://maps.google.com/?q=35.4457882,139.6497701",
   "lat": 35.4457882,
   "lng": 139.6497701,
   "source": "osm"
  },
  {
   "id": "a12691136267",
   "nom": "アニタッチみなとみらい",
   "categorie": "zoo",
   "description": "",
   "prix": "",
   "duree": "",
   "mapsUrl": "https://maps.google.com/?q=35.4535582,139.6399348",
   "lat": 35.4535582,
   "lng": 139.6399348,
   "source": "osm"
  },
  {
   "id": "a1420823424",
   "nom": "横浜みなと博物館",
   "categorie": "museum",
   "description": "",
   "prix": "",
   "duree": "",
   "mapsUrl": "https://maps.google.com/?q=35.452709,139.632629",
   "lat": 35.452709,
   "lng": 139.632629,
   "source": "osm"
  },
  {
   "id": "a11062734968",
   "nom": "かもめの水兵さんの歌碑",
   "categorie": "memorial",
   "description": "",
   "prix": "",
   "duree": "",
   "mapsUrl": "https://maps.google.com/?q=35.4458918,139.6501432",
   "lat": 35.4458918,
   "lng": 139.6501432,
   "source": "osm"
  },
  {
   "id": "a4895092862",
   "nom": "OSANBASHI VIEWPOINT",
   "categorie": "viewpoint",
   "description": "",
   "prix": "",
   "duree": "",
   "mapsUrl": "https://maps.google.com/?q=35.4509851,139.6466961",
   "lat": 35.4509851,
   "lng": 139.6466961,
   "source": "osm"
  },
  {
   "id": "a3963800658",
   "nom": "すし塚",
   "categorie": "memorial",
   "description": "",
   "prix": "",
   "duree": "",
   "mapsUrl": "https://maps.google.com/?q=35.4368617,139.6286513",
   "lat": 35.4368617,
   "lng": 139.6286513,
   "source": "osm"
  },
  {
   "id": "a2320339225",
   "nom": "知恵の箱",
   "categorie": "artwork",
   "description": "",
   "prix": "",
   "duree": "",
   "mapsUrl": "https://maps.google.com/?q=35.447951,139.626385",
   "lat": 35.447951,
   "lng": 139.626385,
   "source": "osm"
  },
  {
   "id": "a11062734969",
   "nom": "日米友好ガールスカウトの像",
   "categorie": "artwork",
   "description": "",
   "prix": "",
   "duree": "",
   "mapsUrl": "https://maps.google.com/?q=35.4456547,139.6506041",
   "lat": 35.4456547,
   "lng": 139.6506041,
   "source": "osm"
  },
  {
   "id": "a11062734970",
   "nom": "リカルテ将軍記念碑",
   "categorie": "memorial",
   "description": "",
   "prix": "",
   "duree": "",
   "mapsUrl": "https://maps.google.com/?q=35.4449734,139.6507405",
   "lat": 35.4449734,
   "lng": 139.6507405,
   "source": "osm"
  },
  {
   "id": "a295451528",
   "nom": "黄金町芸術センター ギャラリー",
   "categorie": "gallery",
   "description": "",
   "prix": "",
   "duree": "",
   "mapsUrl": "https://maps.google.com/?q=35.4414711,139.6253765",
   "lat": 35.4414711,
   "lng": 139.6253765,
   "source": "osm"
  },
  {
   "id": "a868385230",
   "nom": "旧税関事務所遺構",
   "categorie": "ruins",
   "description": "",
   "prix": "",
   "duree": "",
   "mapsUrl": "https://maps.google.com/?q=35.453418,139.6431707",
   "lat": 35.453418,
   "lng": 139.6431707,
   "source": "osm"
  },
  {
   "id": "a6465877585",
   "nom": "氷川丸",
   "categorie": "monument",
   "description": "",
   "prix": "",
   "duree": "",
   "mapsUrl": "https://maps.google.com/?q=35.4457752,139.6507614",
   "lat": 35.4457752,
   "lng": 139.6507614,
   "source": "osm"
  },
  {
   "id": "a94893943",
   "nom": "横浜市民ギャラリー",
   "categorie": "gallery",
   "description": "",
   "prix": "",
   "duree": "",
   "mapsUrl": "https://maps.google.com/?q=35.4494572,139.6269908",
   "lat": 35.4494572,
   "lng": 139.6269908,
   "source": "osm"
  },
  {
   "id": "a8568823735",
   "nom": "tvk 記念碑",
   "categorie": "memorial",
   "description": "",
   "prix": "",
   "duree": "",
   "mapsUrl": "https://maps.google.com/?q=35.4424371,139.6510334",
   "lat": 35.4424371,
   "lng": 139.6510334,
   "source": "osm"
  },
  {
   "id": "a11062734963",
   "nom": "UWS アクアリウム アンダーウォータースペース",
   "categorie": "aquarium",
   "description": "",
   "prix": "",
   "duree": "",
   "mapsUrl": "https://maps.google.com/?q=35.454453,139.6377935",
   "lat": 35.454453,
   "lng": 139.6377935,
   "source": "osm"
  },
  {
   "id": "a2320305222",
   "nom": "中村汀女碑",
   "categorie": "memorial",
   "description": "",
   "prix": "",
   "duree": "",
   "mapsUrl": "https://maps.google.com/?q=35.4474685,139.6254207",
   "lat": 35.4474685,
   "lng": 139.6254207,
   "source": "osm"
  },
  {
   "id": "a7927454502",
   "nom": "社号標",
   "categorie": "monument",
   "description": "",
   "prix": "",
   "duree": "",
   "mapsUrl": "https://maps.google.com/?q=35.4498673,139.6268725",
   "lat": 35.4498673,
   "lng": 139.6268725,
   "source": "osm"
  },
  {
   "id": "a138101264",
   "nom": "日本丸",
   "categorie": "attraction",
   "description": "",
   "prix": "",
   "duree": "",
   "mapsUrl": "https://maps.google.com/?q=35.4537081,139.6323077",
   "lat": 35.4537081,
   "lng": 139.6323077,
   "source": "osm"
  },
  {
   "id": "a1420826275",
   "nom": "海外移住資料館",
   "categorie": "museum",
   "description": "",
   "prix": "",
   "duree": "",
   "mapsUrl": "https://maps.google.com/?q=35.4545787,139.6405733",
   "lat": 35.4545787,
   "lng": 139.6405733,
   "source": "osm"
  },
  {
   "id": "a2320305237",
   "nom": "ラジオ塔",
   "categorie": "memorial",
   "description": "",
   "prix": "",
   "duree": "",
   "mapsUrl": "https://maps.google.com/?q=35.4475254,139.6251941",
   "lat": 35.4475254,
   "lng": 139.6251941,
   "source": "osm"
  },
  {
   "id": "a7927454388",
   "nom": "表忠碑",
   "categorie": "monument",
   "description": "",
   "prix": "",
   "duree": "",
   "mapsUrl": "https://maps.google.com/?q=35.449881,139.6265792",
   "lat": 35.449881,
   "lng": 139.6265792,
   "source": "osm"
  },
  {
   "id": "a2735695534",
   "nom": "平和記念碑",
   "categorie": "memorial",
   "description": "",
   "prix": "",
   "duree": "",
   "mapsUrl": "https://maps.google.com/?q=35.4380355,139.6261833",
   "lat": 35.4380355,
   "lng": 139.6261833,
   "source": "osm"
  },
  {
   "id": "a130991780",
   "nom": "氷川丸",
   "categorie": "attraction",
   "description": "",
   "prix": "",
   "duree": "",
   "mapsUrl": "https://maps.google.com/?q=35.4466672,139.6512412",
   "lat": 35.4466672,
   "lng": 139.6512412,
   "source": "osm"
  },
  {
   "id": "a7928105670",
   "nom": "伊勢山碑",
   "categorie": "memorial",
   "description": "",
   "prix": "",
   "duree": "",
   "mapsUrl": "https://maps.google.com/?q=35.4500261,139.6266678",
   "lat": 35.4500261,
   "lng": 139.6266678,
   "source": "osm"
  },
  {
   "id": "a3914319570",
   "nom": "蒋公頌徳碑",
   "categorie": "memorial",
   "description": "",
   "prix": "",
   "duree": "",
   "mapsUrl": "https://maps.google.com/?q=35.450046,139.6266386",
   "lat": 35.450046,
   "lng": 139.6266386,
   "source": "osm"
  }
 ],
 "villeNonMusulmane": true,
 "osmEnriched": true,
 "osmEnrichedAt": "2026-06-30",
 "description_en": "Yokohama may not be a Muslim-majority destination, but it welcomes Muslim travelers with real halal options. You'll find 3 halal restaurants and several mosques nearby, plus real-time prayer times and the Qibla direction — everything to explore Yokohama, Japan, with peace of mind.",
 "metaDescription_en": "Halal guide to Yokohama: 40 halal restaurants listed, prayer times and tips for Muslim travelers. Halal Trust Score 3.2/5.",
 "nom_en": "Yokohama",
 "boucheries": [],
 "dataPurgedAt": "2026-07-15",
 "googleBakedAt": "2026-07-15"
}